# LAS format log file from PETREL
# Project units are specified as depth units
#==================================================================
~Version information
VERS.   2.0:
WRAP.   NO:
#==================================================================
~Well
STRT .m      349.62512207 :
STOP .m      2379.4997559 :
STEP .m     0.00000000 :
NULL .        -999.250000 :
COMP.           : COMPANY
WELL.  31/3-1   : WELL
FLD.            : FIELD
LOC.            : LOCATION
SRVC.           : SERVICE COMPANY
DATE.  2018-09-11 14:48:35   : Log Export Date {yyyy-MM-dd HH:mm:ss}
PROV.           : PROVINCE
UWI.   31/3-1   : UNIQUE WELL ID
API.            : API NUMBER
#==================================================================
~Curve
DEPT .m                   : DEPTH
Lithology_geolink ._      : Lithology_geolink
CALI .in                  : CALI
BS .in                    : BS
DRHO .g/cm3               : DRHO
NPHI .m3/m3               : NPHI
RHOB .g/cm3               : RHOB
GR .gAPI                  : GR
DTC .us/ft                : DTC
DTE .us/ft                : DTE
RDEP .ohm.m               : RDEP
SP .mV                    : SP
RSHA .ohm.m               : RSHA
RMIC .ohm.m               : RMIC
RMED .ohm.m               : RMED
~Parameter
#==================================================================
~Ascii
# ...
 1840.9998779 16.000000000 8.7150001526 8.5000000000 0.0240000002 0.2321899980 2.3712480068 47.652000427 95.791007996 90.587158203 0.7410781384 171.46899414 1.2549999952  -999.250000 1.2549999952
 1841.1248779 16.000000000 8.6850004196 8.5000000000 0.0199999996 0.2333600074 2.3280069828 47.178001404 98.172630310 92.925537109 0.6820576191 171.23100281 1.1759999990  -999.250000 1.1759999990
 1841.2498779 2.0000000000 8.6639995575 8.5000000000 0.0130000003 0.2354800105 2.2902956009 46.922080994 100.18291473 95.055351257 0.6400409937 171.28700256 1.1480029821  -999.250000 1.1480029821
 1841.3748779 2.0000000000 8.6520004272 8.5000000000 0.0049999999 0.2383800000 2.2613310814 47.005420685 102.10057831 96.935035706 0.6060000062 171.83399963 1.1510146856  -999.250000 1.1510146856
 1841.4998779 2.0000000000 8.6490001678 8.5000000000 -0.003000000 0.2410199940 2.2421715260 47.435428619 103.89019775 98.659698486 0.5799999833 173.07099915 1.1660029888  -999.250000 1.1660029888
 1841.6247559 2.0000000000 8.6499996185 8.5000000000 -0.006996094 0.2415195107 2.2318832874 47.870998383 105.59123993 100.33663940 0.5620175600 174.37100220 1.1690000296  -999.250000 1.1690000296
 1841.7497559 2.0000000000 8.6520004272 8.5000000000 -0.006001951 0.2401726395 2.2278130054 48.111000061 107.31907654 102.05248260 0.5520194769 174.58399963 1.1540000439  -999.250000 1.1540000439
 1841.8747559 2.0000000000 8.6549997330 8.5000000000 -0.002000000 0.2373899966 2.2265012264 48.282001495 108.98117065 103.69203186 0.5519999862 172.69299316 1.1250000000  -999.250000 1.1250000000
 1841.9998779 2.0000000000 8.6560001373 8.5000000000 0.0010000000 0.2351300120 2.2255349159 48.623001099 110.14836884 104.96205139 0.5599921942 168.85200500 1.0920000076  -999.250000 1.0920000076
 1842.1248779 2.0000000000 8.6560001373 8.5000000000 0.0049999999 0.2347100079 2.2257161140 49.235000610 110.93254852 105.74005890 0.5769833922 164.33900452 1.0700000525  -999.250000 1.0700000525
 1842.2498779 2.0000000000 8.6569995880 8.5000000000 0.0070000002 0.2369100004 2.2275786400 50.187999725 111.23300934 105.99571228 0.6019755602 160.76100159 1.0679999590  -999.250000 1.0679999590
 1842.3748779 2.0000000000 8.6590003967 8.5000000000 0.0080000004 0.2402400076 2.2315030098 51.668281555 110.97429657 105.74082947 0.6349677444 158.82400513 1.0930000544  -999.250000 1.0930000544
 1842.4998779 2.0000000000 8.6619997025 8.5000000000 0.0080000004 0.2420999855 2.2378211021 54.006332397 110.24174500 104.98062897 0.6809550524 158.55700684 1.1490830183  -999.250000 1.1490830183
 1842.6248779 2.0000000000 8.6680002213 8.5000000000 0.0080000004 0.2405299991 2.2481968403 57.421302795 108.86631775 103.66161346 0.7379999757 159.05599976 1.2341094017  -999.250000 1.2341094017
 1842.7498779 2.0000000000 8.6759996414 8.5000000000 0.0080000004 0.2363599986 2.2613503933 61.829437256 107.19607544 102.02535248 0.8140000105 159.94599915 1.3461288214  -999.250000 1.3461288214
 1842.8747559 2.0000000000 8.6920003891 8.5000000000 0.0060019530 0.2321840823 2.2758851051 66.369003296 105.43727875 100.22756958 0.9099062681 160.98899841 1.4780000448  -999.250000 1.4780000448
 1842.9997559 2.0000000000 8.7170000076 8.5000000000 0.0010097561 0.2295599878 2.2904307842 69.957000732 103.68660736 98.416313171 1.0277698040 162.14799500 1.6239999533  -999.250000 1.6239999533
 1843.1248779 2.0000000000 8.7519998550 8.5000000000 -0.006000000 0.2279199958 2.3037328720 72.023002625 101.99198151 96.734848022 1.1628681421 163.35600281 1.7719999552  -999.250000 1.7719999552
 1843.2498779 2.0000000000 8.7959995270 8.5000000000 -0.013000000 0.2262800038 2.3146369457 72.972000122 100.65848541 95.377738953 1.3128534555 164.52299500 1.9090000391  -999.250000 1.9090000391
 1843.3748779 2.0000000000 8.8430004120 8.5000000000 -0.016000001 0.2247599959 2.3244717121 73.320999146 99.663429260 94.442405701 1.4678486586 165.55900574 2.0269999504  -999.250000 2.0269999504
 1843.4998779 2.0000000000 8.8870000839 8.5000000000 -0.013000000 0.2240099907 2.3343102932 73.737998962 98.974662781 93.847618103 1.6248466969 166.40499878 2.1240000725  -999.250000 2.1240000725
 1843.6248779 6.0000000000 8.9209995270 8.5000000000 -0.007000000 0.2241399884 2.3441264629 74.418388367 98.648292542 93.526863098 1.7768515348 167.09700012 2.2020604610  -999.250000 2.2020604610
 1843.7498779 6.0000000000 8.9429998398 8.5000000000 -0.001000000 0.2256800085 2.3536105156 75.839210510 98.622497559 93.398849487 1.9069999456 167.73100281 2.2640554905  -999.250000 2.2640554905
 1843.8748779 6.0000000000 8.9549999237 8.5000000000 0.0040000002 0.2291699946 2.3623828888 78.102035522 98.622497559 93.373352051 2.0009999275 168.57000732 2.3210480213  -999.250000 2.3210480213
 1843.9997559 6.0000000000 8.9600000381 8.5000000000 0.0089951167 0.2355337888 2.3706629276 81.208999634 98.622497559 93.399566650 2.0369648933 169.93600464 2.3699998856  -999.250000 2.3699998856
 1844.1247559 6.0000000000 8.9600000381 8.5000000000 0.0129921958 0.2465784252 2.3785030842 84.708999634 98.800354004 93.558731079 2.0190351009 171.90199280 2.4059998989  -999.250000 2.4059998989
 1844.2497559 6.0000000000 8.9610004425 8.5000000000 0.0140000004 0.2603799999 2.3853867054 88.174003601 99.192779541 94.003524780 1.9561229944 173.97900391 2.4179999828  -999.250000 2.4179999828
 1844.3748779 6.0000000000 8.9619998932 8.5000000000 0.0149999997 0.2742200196 2.3914575577 91.261001587 100.02557373 94.864196777 1.8630908728 174.74899292 2.3829998970  -999.250000 2.3829998970
 1844.4998779 6.0000000000 8.9639997482 8.5000000000 0.0230000000 0.2836399972 2.3973107338 93.846000671 101.50705719 96.218025208 1.7640967369 172.44900513 2.2980000973  -999.250000 2.2980000973
 1844.6248779 6.0000000000 8.9680004120 8.5000000000 0.0390000008 0.2863500118 2.4039514065 95.541000366 103.33354187 98.059745789 1.6740878820 166.68600464 2.1610000134  -999.250000 2.1610000134
 1844.7498779 6.0000000000 8.9879999161 8.5000000000 0.0599999987 0.2816900015 2.4074134827 95.169815063 105.10114288 99.884735107 1.6010712385 158.29699707 1.9910000563  -999.250000 1.9910000563
 1844.8748779 6.0000000000 9.0410003662 8.5000000000 0.0759999976 0.2773500085 2.4036362171 92.931541443 106.52726746 101.31275177 1.5420000553 150.17599487 1.8349014521  -999.250000 1.8349014521
 1844.9998779 6.0000000000 9.1619997025 8.5000000000 0.0810000002 0.2763499916 2.3905751705 89.390121460 107.48102570 102.27645111 1.4939999580 144.66099548 1.7339677811  -999.250000 1.7339677811
 1845.1248779 6.0000000000 9.3400001526 8.5000000000 0.0810000002 0.2794599831 2.3684871197 86.444664001 108.09196472 102.90911865 1.4529999495 142.01600647 1.7010195255  -999.250000 1.7010195255
 1845.2497559 6.0000000000 9.5450000763 8.5000000000 0.0879863426 0.2840210795 2.3403789997 85.074996948 108.78943634 103.53889465 1.4130780697 141.46099854 1.7209999561  -999.250000 1.7209999561
 1845.3747559 6.0000000000 9.7040004730 8.5000000000 0.1089999974 0.2873899937 2.3149430752 85.901000977 110.03612518 104.78796387 1.3700840473 141.64799500 1.7799999714  -999.250000 1.7799999714
 1845.4998779 6.0000000000 9.7629995346 8.5000000000 0.1309999973 0.2884500027 2.2972362041 87.627998352 111.58008575 106.32498932 1.3220468760 141.62100220 1.8489999771  -999.250000 1.8489999771
 1845.6248779 6.0000000000 9.6759996414 8.5000000000 0.1420000046 0.2879299819 2.2879068851 88.977996826 112.86425781 107.58543396 1.2670537233 141.20199585 1.9149999619  -999.250000 1.9149999619
 1845.7498779 5.0000000000 9.4759998322 8.5000000000 0.1319999993 0.2851999998 2.2874958515 88.572998047 113.34914398 108.11428833 1.2050606012 140.35099792 1.9650000334  -999.250000 1.9650000334
 1845.8748779 5.0000000000 9.2299995422 8.5000000000 0.1089999974 0.2800000012 2.2961916924 86.004318237 112.70050049 107.59349823 1.1470565796 138.93600464 1.9739999771  -999.250000 1.9739999771
 1845.9998779 5.0000000000 8.9969997406 8.5000000000 0.0860000029 0.2726199925 2.3143248558 81.208061218 111.13488770 105.86951447 1.1040419340 136.64300537 1.9048603773  -999.250000 1.9048603773
