# LAS format log file from PETREL
# Project units are specified as depth units
#==================================================================
~Version information
VERS.   2.0:
WRAP.   NO:
#==================================================================
~Well
STRT .m      793.37487793 :
STOP .m      2575.0000000 :
STEP .m     0.00000000 :
NULL .        -999.250000 :
COMP.           : COMPANY
WELL.  31/3-3   : WELL
FLD.            : FIELD
LOC.            : LOCATION
SRVC.           : SERVICE COMPANY
DATE.  2018-09-11 14:48:36   : Log Export Date {yyyy-MM-dd HH:mm:ss}
PROV.           : PROVINCE
UWI.   31/3-3   : UNIQUE WELL ID
API.            : API NUMBER
#==================================================================
~Curve
DEPT .m                   : DEPTH
Lithology_geolink ._      : Lithology_geolink
CALI .in                  : CALI
BS .in                    : BS
DRHO .g/cm3               : DRHO
NPHI .m3/m3               : NPHI
RHOB .g/cm3               : RHOB
GR .gAPI                  : GR
DTC .us/ft                : DTC
DTE .us/ft                : DTE
RDEP .ohm.m               : RDEP
SP .mV                    : SP
RSHA .ohm.m               : RSHA
RMED .ohm.m               : RMED
~Parameter
#==================================================================
~Ascii
# ...
 914.37487793 6.0000000000 18.326999664  -999.250000 0.0250000004 0.2200499922 2.0580000877 88.074195862 145.50556946 139.87965393 1.0059825182 39.589805603 1.1670079231 1.1670079231
 914.49987793 6.0000000000 18.326999664  -999.250000 0.0280000009 0.2286099941 2.0539999008 89.354125977 145.41017151 139.85244751 1.0159853697 40.006389618 1.1590117216 1.1590117216
 914.62493896 6.0000000000 18.329999924  -999.250000 0.0299999993 0.2306699902 2.0510001183 90.044326782 146.09576416 140.49331665 1.0279883146 40.611408234 1.1520067453 1.1520067453
 914.74987793 6.0000000000 18.333999634  -999.250000 0.0309999995 0.2258400023 2.0510001183 89.964118958 147.02836609 141.45973206 1.0399824381 41.258052826 1.1500029564 1.1500029564
 914.87487793 6.0000000000 18.336999893  -999.250000 0.0340000018 0.2158600092 2.0520000458 89.576751709 148.00723267 142.46656799 1.0499804020 41.774990082 1.1539921761 1.1539921761
 914.99987793 6.0000000000 18.337999344  -999.250000 0.0340000018 0.2046999931 2.0529999733 89.716728210 148.86712646 143.30706787 1.0579843521 42.054454803 1.1579921246 1.1579921246
 915.12493896 6.0000000000 18.336999893  -999.250000 0.0309999995 0.1968400031 2.0520000458 90.599136353 149.46139526 143.84104919 1.0629950762 42.054000854 1.1619960070 1.1619960070
 915.24987793 6.0000000000 18.336000443  -999.250000 0.0260000005 0.1939300001 2.0480000973 91.765289307 149.65699768 144.02296448 1.0649970770 41.802368164 1.1649955511 1.1649955511
 915.37487793 6.0000000000 18.336999893  -999.250000 0.0199999996 0.1949699968 2.0439999104 92.512542725 149.56890869 143.91584778 1.0630038977 41.368846893 1.1649999619 1.1649999619
 915.49987793 6.0000000000 18.339000702  -999.250000 0.0189999994 0.1973599941 2.0420000553 92.626777649 149.39784241 143.79249573 1.0590078831 40.880954742 1.1600097418 1.1600097418
 915.62487793 6.0000000000 18.340999603  -999.250000 0.0209999997 0.1990099847 2.0429999828 92.092048645 149.38319397 143.80323792 1.0530116558 40.439861298 1.1500195265 1.1500195265
 915.74993896 6.0000000000 18.341999054  -999.250000 0.0250000004 0.1999399960 2.0429999828 91.072990417 149.63612366 144.04544067 1.0440088511 40.149280548 1.1360137463 1.1360137463
 915.87487793 6.0000000000 18.340999603  -999.250000 0.0250000004 0.2017900050 2.0429999828 89.943656921 150.13800049 144.55690002 1.0320174694 40.145008087 1.1220204830 1.1220204830
 915.99987793 6.0000000000 18.340000153  -999.250000 0.0219999999 0.2064200044 2.0429999828 89.139572144 150.77471924 145.31924438 1.0160312653 40.384529114 1.1110213995 1.1110213995
 916.12487793 6.0000000000 18.337999344  -999.250000 0.0189999994 0.2114699930 2.0429999828 88.945373535 151.79490662 146.22125244 0.9940429926 40.714355469 1.1030156612 1.1030156612
 916.24987793 6.0000000000 18.336999893  -999.250000 0.0189999994 0.2131199986 2.0439999104 89.626998901 152.80801392 147.19866943 0.9670395851 40.875762939 1.0940132141 1.0940132141
 916.37493896 6.0000000000 18.336000443  -999.250000 0.0189999994 0.2105599940 2.0480000973 91.058601379 153.78736877 148.18345642 0.9420244098 40.524341583 1.0800137520 1.0800137520
 916.49987793 6.0000000000 18.336000443  -999.250000 0.0199999996 0.2076800019 2.0529999733 92.249252319 154.68220520 149.05895996 0.9200322628 39.706199646 1.0640234947 1.0640234947
 916.62487793 6.0000000000 18.339000702  -999.250000 0.0209999997 0.2078000009 2.0569999218 92.524467468 155.26945496 149.64318848 0.9030331969 38.672019958 1.0490293503 1.0490293503
 916.74987793 6.0000000000 18.341999054  -999.250000 0.0230000000 0.2094499916 2.0569999218 91.856315613 155.17562866 149.54989624 0.8900253773 37.792716980 1.0380214453 1.0380214453
 916.87493896 6.0000000000 18.344999313  -999.250000 0.0240000002 0.2085700035 2.0510001183 90.653175354 154.47052002 148.87925720 0.8810088038 37.459323883 1.0340039730 1.0340039730
 916.99987793 6.0000000000 18.346000671  -999.250000 0.0219999999 0.2016399950 2.0420000553 89.253051758 153.48115540 147.89533997 0.8770058155 37.587810516 1.0320029259 1.0320029259
 917.12487793 6.0000000000 18.346000671  -999.250000 0.0170000009 0.1929400116 2.0329999924 87.689285278 152.51928711 146.95643616 0.8789970875 37.912521362 1.0310014486 1.0310014486
 917.24987793 6.0000000000 18.346000671  -999.250000 0.0140000004 0.1883499920 2.0280001163 86.166976929 151.92204285 146.45252991 0.8849882483 38.136562347 1.0300018787 1.0300018787
 917.37487793 6.0000000000 18.346000671  -999.250000 0.0140000004 0.1897899956 2.0269999504 85.112060547 152.36354065 146.79594421 0.8949804306 38.075122833 1.0339921713 1.0339921713
 917.49993896 6.0000000000 18.346000671  -999.250000 0.0179999992 0.1960600019 2.0309998989 85.004104614 153.46397400 147.89462280 0.9029921889 37.849220276 1.0399941206 1.0399941206
 917.62487793 6.0000000000 18.343000412  -999.250000 0.0230000000 0.2018399984 2.0360000134 86.056457520 154.80561829 149.24194336 0.9089912176 37.596370697 1.0469897985 1.0469897985
 917.74987793 6.0000000000 18.337999344  -999.250000 0.0260000005 0.2035700083 2.0420000553 87.840515137 156.09020996 150.52038574 0.9109960794 37.429325104 1.0499941111 1.0499941111
 917.87487793 6.0000000000 18.332000732  -999.250000 0.0289999992 0.2003100067 2.0480000973 89.589584351 157.08489990 151.50056458 0.9100019932 37.411033630 1.0480039120 1.0480039120
 917.99987793 6.0000000000 18.326000214  -999.250000 0.0329999998 0.1940500140 2.0529999733 90.845550537 157.66813660 152.08013916 0.9060078263 37.493839264 1.0430097580 1.0430097580
 918.12493896 6.0000000000 18.322999954  -999.250000 0.0359999985 0.1892099977 2.0539999008 91.521347046 158.06002808 152.43911743 0.9010049105 37.634860992 1.0340088606 1.0340088606
 918.24987793 6.0000000000 18.322000504  -999.250000 0.0379999988 0.1875200123 2.0520000458 91.524002075 158.37294006 152.80941772 0.8940102458 37.770801544 1.0220174789 1.0220174789
 918.37487793 6.0000000000 18.322000504  -999.250000 0.0370000005 0.1888299882 2.0490000248 90.847320557 157.06867981 153.19973755 0.8830214739 37.808925629 1.0080273151 1.0080273151
 918.49987793 6.0000000000 18.322999954  -999.250000 0.0340000018 0.1935999990 2.0450000763 90.193275452 155.51170349 153.54776001 0.8670312166 37.728157043 0.9960234165 0.9960234165
 918.62493896 6.0000000000 18.323999405  -999.250000 0.0299999993 0.2009600103 2.0380001068 90.169021606 155.54684448 153.77725220 0.8470195532 37.554172516 0.9910048842 0.9910048842
 918.74987793 6.0000000000 18.329999924  -999.250000 0.0250000004 0.2087700069 2.0280001163 91.011764526 155.78909302 153.86848450 0.8250322342 37.334320068 0.9909999967 0.9909999967
 918.87487793 6.0000000000 18.347999573  -999.250000 0.0189999994 0.2162799984 2.0150001049 92.423934937 155.94517517 154.04931641 0.8080249429 37.086360931 0.9919984937 0.9919984937
 918.99987793 6.0000000000 18.388999939  -999.250000 0.0130000003 0.2217700034 2.0009999275 93.340217590 156.40368652 154.56805420 0.7990176082 36.822513580 0.9870097637 0.9870097637
 919.12487793 6.0000000000 18.445999146  -999.250000 0.0070000002 0.2238599956 1.9910000563 93.279121399 157.32461548 155.49935913 0.7980019450 36.563507080 0.9740253687 0.9740253687
 919.24993896 6.0000000000 18.506000519  -999.250000 0.0030000000 0.2236499935 1.9889999628 92.449806213 158.59782410 156.72282410 0.8059921861 36.367191315 0.9560175538 0.9560175538
 919.37487793 6.0000000000 18.552999496  -999.250000 -0.001000000 0.2236499935 1.9960000515 91.649177551 159.82711792 157.91033936 0.8179824352 36.347030640 0.9450160861 0.9450160861
 919.49987793 6.0000000000 18.576999664  -999.250000 -0.005000000 0.2253099978 2.0099999905 91.589111328 160.21868896 158.31878662 0.8299765587 36.480735779 0.9459980130 0.9459980130
 919.62487793 6.0000000000 18.584999084  -999.250000 -0.008000000 0.2270999849 2.0260000229 92.170860291 159.59857178 157.76591492 0.8399804235 36.653659821 0.9609706998 0.9609706998
 919.74987793 5.0000000000 18.586000443  -999.250000 -0.008000000 0.2262700051 2.0390000343 92.695976257 158.28820801 156.43669128 0.8449902534 36.718875885 0.9849531651 0.9849531651
