# LAS format log file from PETREL
# Project units are specified as depth units
#==================================================================
~Version information
VERS.   2.0:
WRAP.   NO:
#==================================================================
~Well
STRT .m      433.43811035 :
STOP .m      2093.8361816 :
STEP .m     0.00000000 :
NULL .        -999.250000 :
COMP.           : COMPANY
WELL.  31/3-2   : WELL
FLD.            : FIELD
LOC.            : LOCATION
SRVC.           : SERVICE COMPANY
DATE.  2018-09-11 14:48:35   : Log Export Date {yyyy-MM-dd HH:mm:ss}
PROV.           : PROVINCE
UWI.   31/3-2   : UNIQUE WELL ID
API.            : API NUMBER
#==================================================================
~Curve
DEPT .m                   : DEPTH
Lithology_geolink ._      : Lithology_geolink
CALI .in                  : CALI
BS .in                    : BS
DRHO .g/cm3               : DRHO
NPHI .m3/m3               : NPHI
RHOB .g/cm3               : RHOB
PEF .b/e                  : PEF
GR .gAPI                  : GR
DTC .us/ft                : DTC
DTE .us/ft                : DTE
RDEP .ohm.m               : RDEP
SP .mV                    : SP
RSHA .ohm.m               : RSHA
RMIC .ohm.m               : RMIC
RMED .ohm.m               : RMED
~Parameter
#==================================================================
~Ascii
# ...
 980.24932861  -999.250000 17.958000183  -999.250000 0.0070008012 0.5534496307 1.9520035982  -999.250000 93.175056458 160.90998840 158.13264465 0.8480800986 159.93894958 0.9209799767  -999.250000 0.9120032191
 980.40173340  -999.250000 18.104000092  -999.250000 0.0159963965 0.5525979400 1.9579975605  -999.250000 88.246726990 157.83537292 155.03904724 0.8880580664 159.87358093 0.8820469975  -999.250000 0.8850216269
 980.55413818  -999.250000 18.055000305  -999.250000 0.0150004001 0.5224680901 1.9729940891  -999.250000 80.535682678 145.29092407 142.55052185 0.9169559479 158.69369507 0.8611090183  -999.250000 0.8610192537
 980.70654297  -999.250000 17.993000031  -999.250000 0.0100020021 0.5176646113 2.0969502926  -999.250000 76.946311951 128.08116150 125.35366058 0.8949599266 158.44049072 0.8679829836  -999.250000 0.8879783750
 980.85894775  -999.250000 17.819000244  -999.250000 -0.008992391 0.4793259203 2.2889230251  -999.250000 76.373878479 120.58464813 117.81220245 0.8750039935 159.68769836 1.0190000534  -999.250000 1.0278878212
 981.01135254  -999.250000 17.687999725  -999.250000 -0.001003204 0.4617874622 2.4119505882  -999.250000 75.443344116 122.39852905 119.57145691 0.8769519329 159.43989563 1.2170000076  -999.250000 1.1628918648
 981.16375732  -999.250000 17.840999603  -999.250000 0.0029983982 0.4586713612 2.2340712547  -999.250000 76.566749573 132.67460632 129.82568359 0.8530240059 160.18663025 1.1250000000  -999.250000 1.1180360317
 981.31610107  -999.250000 17.951000214  -999.250000 0.0299783740 0.5228092074 2.0551433563  -999.250000 81.349319458 146.98779297 144.26405334 0.8650512695 159.87599182 0.9528970122  -999.250000 0.9581922293
 981.46850586  -999.250000 17.952999115  -999.250000 0.0260032043 0.6206720471 1.9550801516  -999.250000 80.503997803 156.24642944 153.52871704 0.8969871998 158.62780762 0.8592240214  -999.250000 0.8800936937
 981.62091064  -999.250000 17.988000870  -999.250000 0.0200048052 0.6256505847 1.9440088272  -999.250000 82.998207092 158.71420288 155.91525269 0.8889119029 158.37519836 0.8859999776  -999.250000 0.8829964399
 981.77331543  -999.250000 18.000000000  -999.250000 0.0190003999 0.6021182537 1.9589940310  -999.250000 80.763946533 159.48170471 156.63201904 0.8450020552 158.62699890 0.8999440074  -999.250000 0.8999795318
 981.92572021  -999.250000 17.909999847  -999.250000 0.0150016015 0.5228338838 1.9649976492  -999.250000 86.927215576 160.60531616 157.89656067 0.8459879756 162.37080383 0.9149760008  -999.250000 0.9139831662
 982.07812500  -999.250000 17.908000946  -999.250000 0.0130008012 0.5075450540 1.9650000334  -999.250000 85.942443848 161.45623779 158.72566223 0.8399959803 164.61161804 0.9040570259  -999.250000 0.9060096145
 982.23052979  -999.250000 18.077999115  -999.250000 0.0120004006 0.4702381194 1.9640003443  -999.250000 85.248489380 161.91532898 159.18629456 0.8380520344 162.87699890 0.9079890251  -999.250000 0.9109960198
 982.38293457  -999.250000 18.041999817  -999.250000 0.0169979986 0.4905214608 1.9669988155  -999.250000 80.874450684 161.79493713 159.04064941 0.8640460968 159.12240601 0.9250000119  -999.250000 0.9259879589
 982.53533936  -999.250000 17.931999207  -999.250000 0.0140012018 0.4942794144 1.9580035210  -999.250000 80.189720154 161.09819031 158.24769592 0.8869920373 155.88919067 0.9449200034  -999.250000 0.9429864287
 982.68774414  -999.250000 17.908000946  -999.250000 0.0159991998 0.5676907897 1.9530019760  -999.250000 79.131156921 160.82110596 158.08113098 0.8830140233 156.87437439 0.9469980001  -999.250000 0.9459975958
 982.84014893  -999.250000 17.792999268  -999.250000 0.0140008014 0.5446021557 1.9470024109  -999.250000 83.419021606 161.42201233 158.68049622 0.8900300264 157.18623352 0.9261090159  -999.250000 0.9280143976
 982.99255371  -999.250000 17.715000153  -999.250000 0.0209971964 0.5749813914 1.9549968243  -999.250000 85.935310364 161.45385742 158.66223145 0.9050220251 157.37620544 0.9140290022  -999.250000 0.9170088172
 983.14495850  -999.250000 17.736000061  -999.250000 0.0249983985 0.5393292904 1.9669952393  -999.250000 88.687255859 160.48370361 157.66404724 0.9160060287 158.37469482 0.9169999957  -999.250000 0.9239944220
 983.29736328  -999.250000 17.761999130  -999.250000 0.0309975967 0.5633592010 1.9799947739  -999.250000 88.064598083 159.56306458 156.72480774 0.9190000296 158.12730408 0.9618380070  -999.250000 0.9609704018
 983.44970703  -999.250000 17.750000000  -999.250000 0.0260040052 0.5248814821 1.9829976559  -999.250000 88.563041687 158.39056396 155.67861938 0.9190176725 158.93751526 0.9779809713  -999.250000 0.9769807458
 983.60211182  -999.250000 17.752000809  -999.250000 0.0230024029 0.5285453796 1.9820008278  -999.250000 91.109466553 158.36895752 155.64953613 0.9299899936 159.37330627 0.9889389873  -999.250000 0.9849904180
 983.75451660  -999.250000 17.760000229  -999.250000 0.0309935920 0.5170375109 1.9819999933  -999.250000 89.188293457 159.60090637 156.87782288 0.9249839783 159.62368774 0.9790279865  -999.250000 0.9760107994
 983.90692139  -999.250000 17.770000458  -999.250000 0.0399963930 0.5107237697 1.9889971018  -999.250000 83.308853149 160.69029236 157.92417908 0.9169879556 159.37409973 0.9559999704  -999.250000 0.9580216408
 984.05932617  -999.250000 17.806999207  -999.250000 0.0370012037 0.4700350463 1.9850015640  -999.250000 79.393783569 161.31932068 158.47242737 0.9109799862 158.62919617 0.9480320215  -999.250000 0.9480120540
 984.21173096  -999.250000 17.882999420  -999.250000 0.0320020057 0.4576479197 1.9730048180  -999.250000 82.875732422 161.47274780 158.76846313 0.9009580016 159.37559509 0.9240289927  -999.250000 0.9280239940
 984.36413574  -999.250000 17.877000809  -999.250000 0.0349987969 0.4774152339 1.9700012207  -999.250000 88.784118652 161.74539185 159.03045654 0.8799759746 160.37049866 0.9240000248  -999.250000 0.9220048189
 984.51654053  -999.250000 17.846000671  -999.250000 0.0369991995 0.4904579818 1.9680008888  -999.250000 92.675888062 162.08741760 159.32917786 0.8679975867 160.68820190 0.9130309820  -999.250000 0.9160048366
 984.66894531  -999.250000 17.791999817  -999.250000 0.0379995964 0.4853612185 1.9680000544  -999.250000 91.746032715 162.11387634 159.34075928 0.8669927716 161.43710327 0.9190000296  -999.250000 0.9189976454
 984.82135010  -999.250000 17.773000717  -999.250000 0.0250052065 0.4634775519 1.9580039978  -999.250000 88.449707031 161.40310669 158.59121704 0.8640048504 160.87619019 0.9289600253  -999.250000 0.9279927611
 984.97375488  -999.250000 17.840000153  -999.250000 0.0230008010 0.4574200511 1.9679960012  -999.250000 87.371139526 160.70561218 158.00598145 0.8660264015 160.37440491 0.9319959879  -999.250000 0.9299983978
 985.12615967  -999.250000 17.843999863  -999.250000 0.0200012010 0.4824148715 1.9799952507  -999.250000 83.337020874 160.41647339 157.69451904 0.8769735098 159.37879944 0.9240419865  -999.250000 0.9270023704
 985.27856445  -999.250000 17.903999329  -999.250000 0.0110036042 0.5009327531 1.9780008793  -999.250000 86.673629761 160.19456482 157.47979736 0.8659831882 158.62739563 0.9289879799  -999.250000 0.9289984107
 985.43090820  -999.250000 17.927999496  -999.250000 0.0020072088 0.5043944120 1.9700064659  -999.250000 81.374649048 159.85459900 157.09851074 0.8600168228 158.87409973 0.9359999895  -999.250000 0.9359915853
 985.58331299  -999.250000 17.875000000  -999.250000 -0.000997597 0.5153837204 1.9640047550  -999.250000 80.939353943 159.85459900 157.04821777 0.8670336008 158.12860107 0.9429720044  -999.250000 0.9379976392
 985.73571777  -999.250000 17.864999771  -999.250000 -0.002998398 0.4996610880 1.9620015621  -999.250000 80.128837585 159.75190735 156.99893188 0.8809591532 158.62429810 0.9150450230  -999.250000 0.9200216532
 985.88812256  -999.250000 17.822000504  -999.250000 0.0009983975 0.4774147272 1.9669979811  -999.250000 83.670707703 159.36009216 156.63298035 0.8640024066 158.87399292 0.9110217690  -999.250000 0.9120095968
 986.04052734  -999.250000 17.787000656  -999.250000 0.0019995996 0.4393247664 1.9620020390  -999.250000 85.804054260 159.15710449 156.39427185 0.8649976254 158.87409973 0.9130040407  -999.250000 0.9149964452
