# LAS format log file from PETREL
# Project units are specified as depth units
#==================================================================
~Version information
VERS.   2.0:
WRAP.   NO:
#==================================================================
~Well
STRT .m      349.62512207 :
STOP .m      2379.4997559 :
STEP .m     0.00000000 :
NULL .        -999.250000 :
COMP.           : COMPANY
WELL.  31/3-1   : WELL
FLD.            : FIELD
LOC.            : LOCATION
SRVC.           : SERVICE COMPANY
DATE.  2018-09-11 14:48:35   : Log Export Date {yyyy-MM-dd HH:mm:ss}
PROV.           : PROVINCE
UWI.   31/3-1   : UNIQUE WELL ID
API.            : API NUMBER
#==================================================================
~Curve
DEPT .m                   : DEPTH
Lithology_geolink ._      : Lithology_geolink
CALI .in                  : CALI
BS .in                    : BS
DRHO .g/cm3               : DRHO
NPHI .m3/m3               : NPHI
RHOB .g/cm3               : RHOB
GR .gAPI                  : GR
DTC .us/ft                : DTC
DTE .us/ft                : DTE
RDEP .ohm.m               : RDEP
SP .mV                    : SP
RSHA .ohm.m               : RSHA
RMIC .ohm.m               : RMIC
RMED .ohm.m               : RMED
~Parameter
#==================================================================
~Ascii
# ...
 503.37509155  -999.250000 13.571999550  -999.250000  -999.250000  -999.250000 1.9559843540 82.242790222 180.42210388 174.53102112 1.3660175800 16.440000534 1.4289816618  -999.250000 1.4289816618
 503.50009155  -999.250000 13.635000229  -999.250000  -999.250000  -999.250000 1.9594290257 84.825050354 179.31698608 173.33888245 1.3780273199 16.409999847 1.4139792919  -999.250000 1.4139792919
 503.62506104  -999.250000 13.739999771  -999.250000  -999.250000  -999.250000 1.9620236158 84.860832214 178.38952637 172.45991516 1.3940249681 16.412000656 1.3969892263  -999.250000 1.3969892263
 503.75009155  -999.250000 13.847000122  -999.250000  -999.250000  -999.250000 1.9635866880 82.697586060 177.81718445 171.91290283 1.4110307693 16.395999908 1.3860037327  -999.250000 1.3860037327
 503.87512207  -999.250000 13.911999702  -999.250000  -999.250000  -999.250000 1.9643743038 79.001281738 177.55062866 171.63825989 1.4290312529 16.316999435 1.3890291452  -999.250000 1.3890291452
 504.00009155  -999.250000 13.932999611  -999.250000  -999.250000  -999.250000 1.9646155834 76.073661804 177.49311829 171.57312012 1.4450205564 16.176000595 1.4060305357  -999.250000 1.4060305357
 504.12509155  -999.250000 13.925999641  -999.250000  -999.250000  -999.250000 1.9642055035 75.165977478 177.59086609 171.71075439 1.4590170383 16.013999939 1.4310380220  -999.250000 1.4310380220
 504.25009155  -999.250000 13.925999641  -999.250000  -999.250000  -999.250000 1.9618533850 76.909072876 178.43154907 172.51400757 1.4690132141 15.901999474 1.4570207596  -999.250000 1.4570207596
 504.37509155  -999.250000 13.944999695  -999.250000  -999.250000  -999.250000 1.9573980570 79.687492371 179.96517944 174.05252075 1.4780102968 15.867000580 1.4740060568  -999.250000 1.4740060568
 504.50012207  -999.250000 13.975000381  -999.250000  -999.250000  -999.250000 1.9510073662 82.071098328 182.18299866 176.29222107 1.4840078354 15.930000305 1.4789927006  -999.250000 1.4789927006
 504.62509155  -999.250000 13.995000839  -999.250000  -999.250000  -999.250000 1.9433286190 82.631263733 184.90921021 179.02952576 1.4880000353 16.051000595 1.4739878178  -999.250000 1.4739878178
 504.75012207  -999.250000 14.000000000  -999.250000  -999.250000  -999.250000 1.9354121685 81.441787720 187.80494690 181.90716553 1.4879825115 16.222000122 1.4639811516  -999.250000 1.4639811516
 504.87509155  -999.250000 14.005999565  -999.250000  -999.250000  -999.250000 1.9291802645 79.286460876 190.13368225 184.21163940 1.4789750576 16.416999817 1.4529864788  -999.250000 1.4529864788
 505.00009155  -999.250000 14.031999588  -999.250000  -999.250000  -999.250000 1.9264540672 77.551490784 191.11608887 185.21594238 1.4619606733 16.445999146 1.4419795275  -999.250000 1.4419795275
 505.12509155  -999.250000 14.078000069  -999.250000  -999.250000  -999.250000 1.9272423983 76.670578003 190.81452942 184.92744446 1.4389604330 16.080999374 1.4279816151  -999.250000 1.4279816151
 505.25009155  -999.250000 14.120999336  -999.250000  -999.250000  -999.250000 1.9310973883 76.386573792 189.38467407 183.49739075 1.4119554758 15.246999741 1.4129792452  -999.250000 1.4129792452
 505.37512207  -999.250000 14.142000198  -999.250000  -999.250000  -999.250000 1.9372037649 76.094833374 187.15106201 181.23942566 1.3859511614 14.192000389 1.3959795237  -999.250000 1.3959795237
 505.50009155  -999.250000 14.140999794  -999.250000  -999.250000  -999.250000 1.9444878101 75.496864319 184.59403992 178.60583496 1.3609677553 13.449999809 1.3819864988  -999.250000 1.3819864988
 505.62509155  -999.250000 14.131999969  -999.250000  -999.250000  -999.250000 1.9508032799 74.722045898 182.24708557 176.35105896 1.3389692307 13.375000000 1.3709912300  -999.250000 1.3709912300
 505.75009155  -999.250000 14.109000206  -999.250000  -999.250000  -999.250000 1.9552291632 74.164970398 180.67701721 174.79823303 1.3209809065 14.026000023 1.3649951220  -999.250000 1.3649951220
 505.87509155  -999.250000 14.048999786  -999.250000  -999.250000  -999.250000 1.9578443766 74.145668030 179.78640747 173.88421631 1.3079862595 14.760000229 1.3609999418  -999.250000 1.3609999418
 506.00009155  -999.250000 13.946999550  -999.250000  -999.250000  -999.250000 1.9591338634 74.601615906 179.36007690 173.43997192 1.2999926805 14.993000031 1.3610036373  -999.250000 1.3610036373
 506.12509155  -999.250000 13.824001312  -999.250000  -999.250000  -999.250000 1.9597899914 75.021789551 179.13638306 173.23045349 1.2949965000 14.512999535 1.3640048504  -999.250000 1.3640048504
 506.25012207  -999.250000 13.712000847  -999.250000  -999.250000  -999.250000 1.9604463577 74.874900818 178.92129517 172.99171448 1.2929980755 13.675000191 1.3680058718  -999.250000 1.3680058718
 506.37509155  -999.250000 13.635000229  -999.250000  -999.250000  -999.250000 1.9619305134 73.800735474 178.41001892 172.48408508 1.2919986248 12.890999794 1.3720036745  -999.250000 1.3720036745
 506.50009155  -999.250000 13.595000267  -999.250000  -999.250000  -999.250000 1.9638900757 72.254493713 177.71514893 171.81735229 1.2910016775 12.460000038 1.3750014305  -999.250000 1.3750014305
 506.62509155  -999.250000 13.593000412  -999.250000  -999.250000  -999.250000 1.9659047127 70.784645081 177.02735901 171.13365173 1.2920014858 12.281000137 1.3759976625  -999.250000 1.3759976625
 506.75009155  -999.250000 13.640001297  -999.250000  -999.250000  -999.250000 1.9675778151 69.859954834 176.47688293 170.56564331 1.2930051088 12.218000412 1.3739969730  -999.250000 1.3739969730
 506.87509155  -999.250000 13.737999916  -999.250000  -999.250000  -999.250000 1.9686068296 69.148178101 176.09979248 170.21179199 1.2960058451 12.164999962 1.3719987869  -999.250000 1.3719987869
 507.00009155  -999.250000 13.864999771  -999.250000  -999.250000  -999.250000 1.9687707424 68.585571289 176.05090332 170.15823364 1.3000085354 12.109000206 1.3710000515  -999.250000 1.3710000515
 507.12512207  -999.250000 13.967000008  -999.250000  -999.250000  -999.250000 1.9679906368 68.976257324 176.32363892 170.41859436 1.3050116301 12.041000366 1.3709986210  -999.250000 1.3709986210
 507.25009155  -999.250000 14.012999535  -999.250000  -999.250000  -999.250000 1.9659684896 70.645301819 177.00189209 171.10009766 1.3110102415 11.965000153 1.3699976206  -999.250000 1.3699976206
 507.37509155  -999.250000 13.991998672  -999.250000  -999.250000  -999.250000 1.9625068903 73.582580566 178.18666077 172.27807617 1.3180153370 11.902999878 1.3679970503  -999.250000 1.3679970503
 507.50009155  -999.250000 13.934000015  -999.250000  -999.250000  -999.250000 1.9576836824 76.260246277 179.87281799 173.93873596 1.3270132542 11.873999596 1.3659988642  -999.250000 1.3659988642
 507.62509155  -999.250000 13.873999596  -999.250000  -999.250000  -999.250000 1.9521064758 77.788948059 181.77975464 175.89987183 1.3360136747 11.866000175 1.3650088310  -999.250000 1.3650088310
 507.75009155  -999.250000 13.852000237  -999.250000  -999.250000  -999.250000 1.9478460550 77.752708435 183.31723022 177.40916443 1.3440119028 11.829999924 1.3710147142  -999.250000 1.3710147142
 507.87509155  -999.250000 13.869000435  -999.250000  -999.250000  -999.250000 1.9456280470 77.585754395 184.08755493 178.18521118 1.3510118723 11.725999832 1.3830183744  -999.250000 1.3830183744
 508.00012207  -999.250000 13.916998863  -999.250000  -999.250000  -999.250000 1.9456902742 78.104980469 184.06542969 178.15962219 1.3580098152 11.534999847 1.3980175257  -999.250000 1.3980175257
 508.12509155  -999.250000 13.956999779  -999.250000  -999.250000  -999.250000 1.9478378296 79.117820740 183.32469177 177.40408325 1.3630088568 11.357000351 1.4100048542  -999.250000 1.4100048542
 508.25009155  -999.250000 13.963000298  -999.250000  -999.250000  -999.250000 1.9515196085 79.678413391 182.01258850 176.10478210 1.3690067530 11.352999687 1.4139941931  -999.250000 1.4139941931
 508.37509155  -999.250000 13.913999557  -999.250000  -999.250000  -999.250000 1.9561946392 79.333343506 180.39904785 174.48056030 1.3730014563 11.682999611 1.4099913836  -999.250000 1.4099913836
