# LAS format log file from PETREL
# Project units are specified as depth units
#==================================================================
~Version information
VERS.   2.0:
WRAP.   NO:
#==================================================================
~Well
STRT .m      793.37487793 :
STOP .m      2575.0000000 :
STEP .m     0.00000000 :
NULL .        -999.250000 :
COMP.           : COMPANY
WELL.  31/3-3   : WELL
FLD.            : FIELD
LOC.            : LOCATION
SRVC.           : SERVICE COMPANY
DATE.  2018-09-11 14:48:36   : Log Export Date {yyyy-MM-dd HH:mm:ss}
PROV.           : PROVINCE
UWI.   31/3-3   : UNIQUE WELL ID
API.            : API NUMBER
#==================================================================
~Curve
DEPT .m                   : DEPTH
Lithology_geolink ._      : Lithology_geolink
CALI .in                  : CALI
BS .in                    : BS
DRHO .g/cm3               : DRHO
NPHI .m3/m3               : NPHI
RHOB .g/cm3               : RHOB
GR .gAPI                  : GR
DTC .us/ft                : DTC
DTE .us/ft                : DTE
RDEP .ohm.m               : RDEP
SP .mV                    : SP
RSHA .ohm.m               : RSHA
RMED .ohm.m               : RMED
~Parameter
#==================================================================
~Ascii
# ...
 2096.8750000 5.0000000000 12.312999725 12.250000954 0.0509999990 0.2448199987 2.3359999657 48.616001129 86.747779846 87.401336670 1.1460000277 34.610000610 2.9130001068 2.9130001068
 2097.0000000 5.0000000000 12.317000389 12.250000954 0.0379999988 0.2467699945 2.3359999657 49.347999573 86.373191833 87.120422363 1.1569999456 34.326000214 2.9470000267 2.9470000267
 2097.1250000 5.0000000000 12.325000763 12.250000954 0.0270000007 0.2449799925 2.3389999866 50.040000916 86.094924927 86.862869263 1.1540000439 34.057998657 2.9539999962 2.9539999962
 2097.2500000 5.0000000000 12.333999634 12.250000954 0.0179999992 0.2399699986 2.3429999352 50.701999664 86.012298584 86.717147827 1.1369999647 33.784000397 2.9240000248 2.9240000248
 2097.3750000 5.0000000000 12.343000412 12.250000954 0.0130000003 0.2341200113 2.3450000286 51.173000336 85.974258423 86.689086914 1.1119999886 33.437000275 2.8190000057 2.8190000057
 2097.5000000 5.0000000000 12.348999023 12.250000954 0.0099999998 0.2315800041 2.3399999142 51.226001740 86.096534729 86.801055908 1.0829999447 32.999000549 2.6400001049 2.6400001049
 2097.6250000 5.0000000000 12.350000381 12.250000954 0.0089999996 0.2338699847 2.3280000687 50.587001801 86.382148743 87.098541260 1.0529999733 32.493999481 2.4159998894 2.4159998894
 2097.7500000 5.0000000000 12.347999573 12.250000954 0.0080000004 0.2398499995 2.3120000362 49.021999359 86.872543335 87.614860535 1.0219999552 31.971998215 2.1989998817 2.1989998817
 2097.8750000 5.0000000000 12.347000122 12.250000954 0.0070000002 0.2464600056 2.2960000038 46.615001678 87.770843506 88.356521606 0.9879999757 31.513002396 2.0450000763 2.0450000763
 2098.0000000 2.0000000000 12.345999718 12.250000954 0.0080000004 0.2505400181 2.2850000858 44.193000793 88.519660950 89.229980469 0.9509999752 31.160999298 1.9600000381 1.9600000381
 2098.1250000 2.0000000000 12.347000122 12.250000954 0.0109999999 0.2528899908 2.2809998989 42.318000793 89.233474731 90.066986084 0.9179999828 30.922000885 1.9359999895 1.9359999895
 2098.2500000 2.0000000000 12.347999573 12.250000954 0.0160000008 0.2543199956 2.2809998989 41.206001282 89.991043091 90.812171936 0.8899999857 30.792999268 1.9479999542 1.9479999542
 2098.3750000 2.0000000000 12.343999863 12.250000954 0.0230000000 0.2558499873 2.2860000134 40.794998169 90.719261169 91.446052551 0.8679999709 30.792999268 1.9639999866 1.9639999866
 2098.5000000 2.0000000000 12.331998825 12.250000954 0.0299999993 0.2578400075 2.2920000553 40.620998383 91.275253296 91.978111267 0.8479999900 30.958999634 1.9650000334 1.9650000334
 2098.6250000 2.0000000000 12.314000130 12.250000954 0.0340000018 0.2599000037 2.2960000038 40.518001556 91.741638184 92.425949097 0.8289999962 31.355001450 1.9550000429 1.9550000429
 2098.7500000 2.0000000000 12.293999672 12.250000954 0.0340000018 0.2615300119 2.2980000973 40.609001160 92.096015930 92.793991089 0.8080000281 31.981002808 1.9470000267 1.9470000267
 2098.8750000 2.0000000000 12.277001381 12.250000954 0.0289999992 0.2623699903 2.2960000038 41.133998871 92.325050354 93.080116272 0.7860000134 32.722000122 1.9459999800 1.9459999800
 2099.0000000 2.0000000000 12.269000053 12.250000954 0.0209999997 0.2620800138 2.2890000343 41.868999481 92.507682800 93.278930664 0.7649999857 33.358001709 1.9220000505 1.9220000505
 2099.1250000 2.0000000000 12.263998985 12.250000954 0.0149999997 0.2623099983 2.2809998989 42.438999176 92.659797668 93.390922546 0.7450000048 33.763999939 1.8370000124 1.8370000124
 2099.2500000 2.0000000000 12.260001183 12.250000954 0.0149999997 0.2649399936 2.2760000229 42.491001129 92.659797668 93.423461914 0.7260000110 33.936000824 1.6900000572 1.6900000572
 2099.3750000 2.0000000000 12.255999565 12.250000954 0.0230000000 0.2712100148 2.2799999714 41.763999939 92.659797668 93.364402771 0.7080000043 33.937000275 1.5349999666 1.5349999666
 2099.5000000 2.0000000000 12.253001213 12.250000954 0.0309999995 0.2785400152 2.2929999828 40.532001495 92.429870605 93.233360291 0.6899999976 33.867000580 1.4299999475 1.4299999475
 2099.6250000 2.0000000000 12.255999565 12.250000954 0.0350000001 0.2812699974 2.3110001087 39.062999725 92.246788025 93.043251038 0.6719999909 33.730998993 1.3930000067 1.3930000067
 2099.7500000 2.0000000000 12.262999535 12.250000954 0.0340000018 0.2775000036 2.3229999542 37.536998749 92.123115540 92.828926086 0.6549999714 33.511001587 1.4170000553 1.4170000553
 2099.8750000 2.0000000000 12.272999763 12.250000954 0.0270000007 0.2698699832 2.3199999332 36.085998535 91.966552734 92.644203186 0.6430000067 33.212001801 1.4720000029 1.4720000029
 2100.0000000 2.0000000000 12.279999733 12.250000954 0.0189999994 0.2641400099 2.2969999313 34.881000519 91.920516968 92.585136414 0.6349999905 32.957000732 1.4980000257 1.4980000257
 2100.1250000 2.0000000000 12.283999443 12.250000954 0.0109999999 0.2631199956 2.2650001049 34.111999512 91.937095642 92.728088379 0.6349999905 32.891998291 1.4639999866 1.4639999866
 2100.2500000 2.0000000000 12.286000252 12.250000954 0.0060000001 0.2653499842 2.2369999886 33.901000977 92.297088623 93.037887573 0.6420000196 33.096000671 1.3980000019 1.3980000019
 2100.3750000 2.0000000000 12.286000252 12.250000954 0.0010000000 0.2683899999 2.2200000286 34.372001648 92.787811279 93.467895508 0.6589999795 33.534000397 1.3689999580 1.3689999580
 2100.5000000 2.0000000000 12.286000252 12.250000954 0.0010000000 0.2702000141 2.2200000286 35.439998627 93.228355408 93.952812195 0.6850000024 34.032001495 1.4190000296 1.4190000296
 2100.6250000 2.0000000000 12.286000252 12.250000954 0.0040000002 0.2711899877 2.2320001125 36.952999115 93.593856812 94.413917542 0.7200000286 34.506999969 1.5659999847 1.5659999847
 2100.7500000 2.0000000000 12.288000107 12.250000954 0.0099999998 0.2724300027 2.2509999275 38.574001312 93.937828064 94.708747864 0.7649999857 34.955001831 1.8109999895 1.8109999895
 2100.8750000 5.0000000000 12.290999413 12.250000954 0.0149999997 0.2740100026 2.2739999294 40.019001007 93.982116699 94.747779846 0.8230000138 35.450000763 2.1140000820 2.1140000820
 2101.0000000 5.0000000000 12.295000076 12.250000954 0.0179999992 0.2758100033 2.2969999313 41.298000336 93.682052612 94.479125977 0.8920000196 36.015998840 2.3780000210 2.3780000210
 2101.1250000 5.0000000000 12.295000076 12.250000954 0.0199999996 0.2770700157 2.3180000782 42.583000183 93.119804382 93.900840759 0.9670000076 36.575000763 2.5629999638 2.5629999638
 2101.2500000 5.0000000000 12.291999817 12.250000954 0.0219999999 0.2770400047 2.3389999866 44.214000702 92.389862061 93.070236206 1.0379999876 37.014999390 2.7000000477 2.7000000477
 2101.3750000 5.0000000000 12.288000107 12.250000954 0.0240000002 0.2751500010 2.3580000401 46.590999603 91.412879944 92.133972168 1.0980000496 37.244998932 2.8180000782 2.8180000782
 2101.5000000 5.0000000000 12.282999992 12.250000954 0.0270000007 0.2707400024 2.3710000515 49.398998260 90.617210388 91.376014709 1.1460000277 37.280998230 2.9049999714 2.9049999714
 2101.6250000 5.0000000000 12.281000137 12.250000954 0.0289999992 0.2654999793 2.3740000725 52.085998535 90.184135437 90.950645447 1.1809999943 37.116001129 2.9370000362 2.9370000362
 2101.7500000 5.0000000000 12.281000137 12.250000954 0.0309999995 0.2602599859 2.3659999371 54.104999542 90.143661499 90.906356812 1.1990000010 36.740001678 2.8989999294 2.8989999294
 2101.8750000 5.0000000000 12.282999992 12.250000954 0.0329999998 0.2541099787 2.3499999046 54.768001556 90.396850586 91.181724548 1.1959999800 36.147998810 2.8020000458 2.8020000458
 2102.0000000 5.0000000000 12.284999847 12.250000954 0.0359999985 0.2467100024 2.3340001106 54.120998383 90.743438721 91.603240967 1.1770000458 35.460998535 2.7009999752 2.7009999752
 2102.1250000 5.0000000000 12.288999557 12.250000954 0.0390000008 0.2388800085 2.3220000267 52.632999420 91.058433533 91.759300232 1.1460000277 34.806999207 2.6280000210 2.6280000210
 2102.2500000 5.0000000000 12.293000221 12.250000954 0.0410000011 0.2320700139 2.3159999847 51.000000000 90.635192871 91.375259399 1.1039999723 34.312000275 2.5940001011 2.5940001011
