# LAS format log file from PETREL
# Project units are specified as depth units
#==================================================================
~Version information
VERS.   2.0:
WRAP.   NO:
#==================================================================
~Well
STRT .m      349.62512207 :
STOP .m      2379.4997559 :
STEP .m     0.00000000 :
NULL .        -999.250000 :
COMP.           : COMPANY
WELL.  31/3-1   : WELL
FLD.            : FIELD
LOC.            : LOCATION
SRVC.           : SERVICE COMPANY
DATE.  2018-09-11 14:48:35   : Log Export Date {yyyy-MM-dd HH:mm:ss}
PROV.           : PROVINCE
UWI.   31/3-1   : UNIQUE WELL ID
API.            : API NUMBER
#==================================================================
~Curve
DEPT .m                   : DEPTH
Lithology_geolink ._      : Lithology_geolink
CALI .in                  : CALI
BS .in                    : BS
DRHO .g/cm3               : DRHO
NPHI .m3/m3               : NPHI
RHOB .g/cm3               : RHOB
GR .gAPI                  : GR
DTC .us/ft                : DTC
DTE .us/ft                : DTE
RDEP .ohm.m               : RDEP
SP .mV                    : SP
RSHA .ohm.m               : RSHA
RMIC .ohm.m               : RMIC
RMED .ohm.m               : RMED
~Parameter
#==================================================================
~Ascii
# ...
 370.12512207  -999.250000 -4.994999886  -999.250000  -999.250000  -999.250000 1.8999999762 19.335937500 183.09838867 177.16589355 0.0430000015 -255.6239929  -999.250000  -999.250000  -999.250000
 370.25009155  -999.250000 -4.993000031  -999.250000  -999.250000  -999.250000 1.8999999762 19.298069000 183.07041931 177.16589355 0.0430000015 -255.0219879  -999.250000  -999.250000  -999.250000
 370.37512207  -999.250000 -4.992000103  -999.250000  -999.250000  -999.250000 1.8999999762 18.663328171 183.05346680 177.16589355 0.0430000015 -254.2960052  -999.250000  -999.250000  -999.250000
 370.50012207  -999.250000 -4.992000103  -999.250000  -999.250000  -999.250000 1.8999999762 18.271253586 183.07679749 177.16589355 0.0430000015 -253.2680054  -999.250000  -999.250000  -999.250000
 370.62512207  -999.250000 -4.993000031  -999.250000  -999.250000  -999.250000 1.8999999762 18.420022964 183.07679749 177.16589355 0.0430000015 -252.0850067  -999.250000  -999.250000  -999.250000
 370.75012207  -999.250000 -4.995999813  -999.250000  -999.250000  -999.250000 1.8999999762 18.943988800 183.07679749 177.16589355 0.0430019535 -251.1230164  -999.250000  -999.250000  -999.250000
 370.87512207  -999.250000 -4.998000145  -999.250000  -999.250000  -999.250000 1.8999999762 19.522420883 183.09158325 177.16589355 0.0439999998 -250.5489960  -999.250000  -999.250000  -999.250000
 371.00012207  -999.250000 -4.998000145  -999.250000  -999.250000  -999.250000 1.8999999762 20.356393814 183.08903503 177.16589355 0.0439999998 -250.2940063  -999.250000  -999.250000  -999.250000
 371.12509155  -999.250000 -4.997000217  -999.250000  -999.250000  -999.250000 1.8999999762 22.345157623 183.07482910 177.16589355 0.0439999998 -249.9160004  -999.250000  -999.250000  -999.250000
 371.25012207  -999.250000 -4.995999813  -999.250000  -999.250000  -999.250000 1.8999999762 27.241146088 183.07063293 177.16589355 0.0439999998 -249.2039948  -999.250000  -999.250000  -999.250000
 371.37512207  -999.250000 -4.994999886  -999.250000  -999.250000  -999.250000 1.8999999762 36.692920685 183.07629395 177.16589355 0.0439999998 -248.4219971  -999.250000  -999.250000  -999.250000
 371.50012207  -999.250000 -4.994999886  -999.250000  -999.250000  -999.250000 1.8999999762 48.344345093 183.09388733 177.16589355 0.0439999998 -248.1219940  -999.250000  -999.250000  -999.250000
 371.62512207  -999.250000 -4.995999813  -999.250000  -999.250000  -999.250000 1.8999999762 57.215469360 183.07368469 177.16589355 0.0439999998 -248.5310059  -999.250000  -999.250000  -999.250000
 371.75012207  -999.250000 -4.995999813  -999.250000  -999.250000  -999.250000 1.8999999762 60.407680511 183.07156372 177.16589355 0.0439999998 -249.3549957  -999.250000  -999.250000  -999.250000
 371.87512207  -999.250000 -4.994999886  -999.250000  -999.250000  -999.250000 1.8999999762 58.463920593 183.09495544 177.16589355 0.0439999998 -250.1789856  -999.250000  -999.250000  -999.250000
 372.00009155  -999.250000 -4.993000031  -999.250000  -999.250000  -999.250000 1.8999999762 54.906566620 183.07760620 177.16589355 0.0439999998 -250.5529785  -999.250000  -999.250000  -999.250000
 372.12512207  -999.250000 -4.989999771  -999.250000  -999.250000  -999.250000 1.8999999762 51.878688812 183.10206604 177.16589355 0.0439999998 -250.3419800  -999.250000  -999.250000  -999.250000
 372.25012207  -999.250000 -4.987999916  -999.250000  -999.250000  -999.250000 1.8999999762 48.767574310 183.06219482 177.16589355 0.0439999998 -249.3529968  -999.250000  -999.250000  -999.250000
 372.37512207  -999.250000 -4.987999916  -999.250000  -999.250000  -999.250000 1.8999999762 43.245765686 183.05799866 177.16589355 0.0439999998 -247.7899933  -999.250000  -999.250000  -999.250000
 372.50012207  -999.250000 -4.988999844  -999.250000  -999.250000  -999.250000 1.8999999762 34.934020996 183.07679749 177.16589355 0.0439999998 -246.1069946  -999.250000  -999.250000  -999.250000
 372.62512207  -999.250000 -4.991000175  -999.250000  -999.250000  -999.250000 1.8999999762 26.758121490 183.07679749 177.16589355 0.0439999998 -245.1660004  -999.250000  -999.250000  -999.250000
 372.75012207  -999.250000 -4.993000031  -999.250000  -999.250000  -999.250000 1.8999999762 20.984025955 183.07679749 177.16589355 0.0439999998 -245.3419952  -999.250000  -999.250000  -999.250000
 372.87509155  -999.250000 -4.993999958  -999.250000  -999.250000  -999.250000 1.8999999762 18.661350250 183.07679749 177.16589355 0.0439999998 -246.5070038  -999.250000  -999.250000  -999.250000
 373.00012207  -999.250000 -4.994999886  -999.250000  -999.250000  -999.250000 1.8999999762 18.218505859 183.09028625 177.16589355 0.0439982899 -247.9969940  -999.250000  -999.250000  -999.250000
 373.12512207  -999.250000 -4.995999813  -999.250000  -999.250000  -999.250000 1.8999999762 18.515289307 183.10252380 177.16589355 0.0430000015 -249.1950073  -999.250000  -999.250000  -999.250000
 373.25012207  -999.250000 -4.997000217  -999.250000  -999.250000  -999.250000 1.8999999762 19.269460678 183.09135437 177.16589355 0.0430000015 -249.6219940  -999.250000  -999.250000  -999.250000
 373.37512207  -999.250000 -4.998000145  -999.250000  -999.250000  -999.250000 1.8999999762 20.016981125 183.04190063 177.16589355 0.0430000015 -249.6210022  -999.250000  -999.250000  -999.250000
 373.50012207  -999.250000 -4.997000217  -999.250000  -999.250000  -999.250000 1.8999999762 20.590173721 183.07200623 177.16589355 0.0430000015 -249.4120026  -999.250000  -999.250000  -999.250000
 373.62512207  -999.250000 -4.995999813  -999.250000  -999.250000  -999.250000 1.8999999762 20.691524506 183.10205078 177.16589355 0.0430000015 -249.2299957  -999.250000  -999.250000  -999.250000
 373.75009155  -999.250000 -4.994999886  -999.250000  -999.250000  -999.250000 1.8999999762 20.413694382 183.07600403 177.16589355 0.0430000015 -249.1269989  -999.250000  -999.250000  -999.250000
 373.87512207  -999.250000 -4.993000031  -999.250000  -999.250000  -999.250000 1.8999999762 20.206811905 183.05221558 177.16589355 0.0430000015 -248.9969940  -999.250000  -999.250000  -999.250000
 374.00012207  -999.250000 -4.991000175  -999.250000  -999.250000  -999.250000 1.8999999762 20.683265686 183.08128357 177.16589355 0.0430000015 -248.4759979  -999.250000  -999.250000  -999.250000
 374.12512207  -999.250000 -4.988999844  -999.250000  -999.250000  -999.250000 1.8999999762 22.010755539 183.10574341 177.16589355 0.0430000015 -247.3379974  -999.250000  -999.250000  -999.250000
 374.25012207  -999.250000 -4.988999844  -999.250000  -999.250000  -999.250000 1.8999999762 23.932670593 183.10115051 177.16589355 0.0430000015 -245.5619965  -999.250000  -999.250000  -999.250000
 374.37509155  -999.250000 -4.988999844  -999.250000  -999.250000  -999.250000 1.8999999762 25.492973328 183.08570862 177.16589355 0.0430000015 -243.9360046  -999.250000  -999.250000  -999.250000
 374.50012207  -999.250000 -4.991000175  -999.250000  -999.250000  -999.250000 1.8999999762 26.155467987 183.07679749 177.16589355 0.0430000015 -243.3020020  -999.250000  -999.250000  -999.250000
 374.62509155  -999.250000 -4.993000031  -999.250000  -999.250000  -999.250000 1.8999999762 25.843923569 183.07679749 177.16589355 0.0430000015 -243.8630066  -999.250000  -999.250000  -999.250000
 374.75012207  -999.250000 -4.993999958  -999.250000  -999.250000  -999.250000 1.8999999762 25.108903885 183.07415771 177.16589355 0.0430000015 -245.2630005  -999.250000  -999.250000  -999.250000
 374.87512207  -999.250000 -4.993999958  -999.250000  -999.250000  -999.250000 1.8999999762 24.467813492 183.04405212 177.16589355 0.0430000015 -246.7539978  -999.250000  -999.250000  -999.250000
 375.00012207  -999.250000 -4.993999958  -999.250000  -999.250000  -999.250000 1.8999999762 24.360710144 183.06623840 177.16589355 0.0430000015 -247.7189941  -999.250000  -999.250000  -999.250000
 375.12512207  -999.250000 -4.993000031  -999.250000  -999.250000  -999.250000 1.8999999762 25.238851547 183.07312012 177.16589355 0.0430000015 -247.9689941  -999.250000  -999.250000  -999.250000
