# LAS format log file from PETREL
# Project units are specified as depth units
#==================================================================
~Version information
VERS.   2.0:
WRAP.   NO:
#==================================================================
~Well
STRT .m      349.62512207 :
STOP .m      2379.4997559 :
STEP .m     0.00000000 :
NULL .        -999.250000 :
COMP.           : COMPANY
WELL.  31/3-1   : WELL
FLD.            : FIELD
LOC.            : LOCATION
SRVC.           : SERVICE COMPANY
DATE.  2018-09-11 14:48:35   : Log Export Date {yyyy-MM-dd HH:mm:ss}
PROV.           : PROVINCE
UWI.   31/3-1   : UNIQUE WELL ID
API.            : API NUMBER
#==================================================================
~Curve
DEPT .m                   : DEPTH
Lithology_geolink ._      : Lithology_geolink
CALI .in                  : CALI
BS .in                    : BS
DRHO .g/cm3               : DRHO
NPHI .m3/m3               : NPHI
RHOB .g/cm3               : RHOB
GR .gAPI                  : GR
DTC .us/ft                : DTC
DTE .us/ft                : DTE
RDEP .ohm.m               : RDEP
SP .mV                    : SP
RSHA .ohm.m               : RSHA
RMIC .ohm.m               : RMIC
RMED .ohm.m               : RMED
~Parameter
#==================================================================
~Ascii
# ...
 2240.7497559 5.0000000000 9.3769998550 8.5000000000 0.0879999995 0.2344700098 2.3505158424 73.695999146 92.420120239 89.735282898 2.0370898247 46.717998505 2.1159999371  -999.250000 2.1159999371
 2240.8747559 5.0000000000 9.5819997787 8.5000000000 0.0920000002 0.2306600064 2.3679926395 73.007003784 93.007278442 90.144309998 1.9970780611 47.064998627 2.0629999638  -999.250000 2.0629999638
 2240.9997559 5.0000000000 9.7259998322 8.5000000000 0.1080000028 0.2259400040 2.3886134624 72.123001099 92.945373535 90.307640076 1.9650624990 47.381999969 2.0269999504  -999.250000 2.0269999504
 2241.1247559 5.0000000000 9.7629995346 8.5000000000 0.1260000020 0.2202700078 2.4056992531 71.171997070 92.890899658 90.074684143 1.9420449734 47.638000488 2.0199999809  -999.250000 2.0199999809
 2241.2497559 5.0000000000 9.6890001297 8.5000000000 0.1410000026 0.2138800025 2.4195044041 70.222999573 92.403717041 89.470314026 1.9260312319 47.896999359 2.0329999924  -999.250000 2.0329999924
 2241.3747559 5.0000000000 9.5459995270 8.5000000000 0.1519999951 0.2068499923 2.4318563938 69.591003418 91.317420959 88.575759888 1.9190137386 48.236000061 2.0639998913  -999.250000 2.0639998913
 2241.4997559 5.0000000000 9.3979997635 8.5000000000 0.1589999944 0.1998299956 2.4451143742 69.405998230 89.855087280 87.512405396 1.9199980497 48.660999298 2.1040000916  -999.250000 2.1040000916
 2241.6247559 5.0000000000 9.2910003662 8.5000000000 0.1580000073 0.1935300082 2.4594733715 69.402999878 89.268005371 86.424987793 1.9309785366 49.101001740 2.1540000439  -999.250000 2.1540000439
 2241.7497559 5.0000000000 9.2290000916 8.5000000000 0.1410000026 0.1890099943 2.4698307514 68.807998657 88.231369019 85.446701050 1.9539550543 49.402000427 2.2179999352  -999.250000 2.2179999352
 2241.8747559 5.0000000000 9.1840000153 8.5000000000 0.1150000021 0.1854899973 2.4754528999 67.191001892 87.292602539 84.584121704 1.9869354963 49.514999390 2.2909998894  -999.250000 2.2909998894
 2241.9997559 5.0000000000 9.1370000839 8.5000000000 0.0860000029 0.1821800023 2.4767394066 64.226997375 86.553817749 83.827728271 2.0229296684 49.398998260 2.3629999161  -999.250000 2.3629999161
 2242.1247559 5.0000000000 9.0790004730 8.5000000000 0.0590000004 0.1782900095 2.4740812778 60.734001160 85.922019958 83.163719177 2.0589296818 49.157001495 2.4179999828  -999.250000 2.4179999828
 2242.2497559 5.0000000000 9.0170001984 8.5000000000 0.0350000001 0.1739399880 2.4673852921 57.738998413 85.144981384 82.580993652 2.0899393559 48.874000549 2.4500000477  -999.250000 2.4500000477
 2242.3747559 3.0000000000 8.9680004120 8.5000000000 0.0109999999 0.1696799994 2.4556522369 56.157001495 84.949295044 82.140464783 2.1149511337 48.630001068 2.4579999447  -999.250000 2.4579999447
 2242.4997559 3.0000000000 8.9379997253 8.5000000000 -0.009000000 0.1665800065 2.4430911541 55.574001312 84.357406616 81.805923462 2.1329648495 48.458000183 2.4560000896  -999.250000 2.4560000896
 2242.6247559 3.0000000000 8.9340000153 8.5000000000 -0.023000000 0.1647999883 2.4322652817 55.449001312 84.121139526 81.554450989 2.1479706764 48.358001709 2.4509999752  -999.250000 2.4509999752
 2242.7497559 3.0000000000 8.9479999542 8.5000000000 -0.025000000 0.1636599898 2.4242095947 55.090000153 84.124008179 81.368972778 2.1599767208 48.285999298 2.4449999332  -999.250000 2.4449999332
 2242.8747559 3.0000000000 8.9720001221 8.5000000000 -0.018999999 0.1621400118 2.4184937477 54.318000793 83.928314209 81.241676331 2.1739726067 48.205001831 2.4349999428  -999.250000 2.4349999428
 2242.9997559 3.0000000000 9.0030002594 8.5000000000 -0.012000000 0.1601700038 2.4124219418 53.333999634 83.732612610 81.199340820 2.1939609051 48.077999115 2.4149999619  -999.250000 2.4149999619
 2243.1247559 3.0000000000 9.0410003662 8.5000000000 -0.010000000 0.1580400020 2.4062092304 52.472999573 84.150405884 81.257858276 2.2209472656 47.888999939 2.3880000114  -999.250000 2.3880000114
 2243.2497559 3.0000000000 9.0839996338 8.5000000000 -0.012000000 0.1562500000 2.4032189846 51.891998291 83.966003418 81.295600891 2.2579276562 47.634998322 2.3659999371  -999.250000 2.3659999371
 2243.3747559 3.0000000000 9.1219997406 8.5000000000 -0.018999999 0.1556099951 2.4052817822 51.694999695 83.715797424 81.168876648 2.3019142151 47.377998352 2.3650000095  -999.250000 2.3650000095
 2243.4997559 3.0000000000 9.1429996490 8.5000000000 -0.027000001 0.1575099975 2.4127812386 51.708999634 83.465446472 80.735130310 2.3469119072 47.181999207 2.4059998989  -999.250000 2.4059998989
 2243.6247559 3.0000000000 9.1459999084 8.5000000000 -0.033000000 0.1634199917 2.4244780540 51.573001862 82.483024597 79.878425598 2.3839278221 47.060001373 2.5099999905  -999.250000 2.5099999905
 2243.7497559 3.0000000000 9.1560001373 8.5000000000 -0.029999999 0.1746299863 2.4373600483 51.217998505 81.397735596 78.593414307 2.4109473228 46.926998138 2.6789999008  -999.250000 2.6789999008
 2243.8747559 3.0000000000 9.2080001831 8.5000000000 -0.009000000 0.1897699982 2.4488844872 51.076999664 80.168586731 77.540428162 2.4289648533 46.687000275 2.8789999485  -999.250000 2.8789999485
 2243.9997559 5.0000000000 9.3310003281 8.5000000000 0.0370000005 0.2062499970 2.4593825340 52.116001129 79.778152466 77.181282043 2.4419746399 46.250000000 3.0099999905  -999.250000 3.0099999905
 2244.1247559 5.0000000000 9.5000000000 8.5000000000 0.0949999988 0.2202899903 2.4689576626 55.067001343 80.492919922 77.765892029 2.4569706917 45.700000763 2.9749999046  -999.250000 2.9749999046
 2244.2497559 5.0000000000 9.6680002213 8.5000000000 0.1469999999 0.2283499837 2.4775037766 59.908000946 82.152557373 79.343963623 2.4739668369 45.195999146 2.7709999084  -999.250000 2.7709999084
 2244.3747559 5.0000000000 9.7860002518 8.5000000000 0.1819999963 0.2283599973 2.4843962193 65.065002441 84.305168152 81.736419678 2.4899687767 44.853000641 2.5339999199  -999.250000 2.5339999199
 2244.4997559 5.0000000000 9.8430004120 8.5000000000 0.1990000010 0.2211700082 2.4908926487 68.861999512 86.347190857 83.833137512 2.5019767284 44.693000793 2.3659999371  -999.250000 2.3659999371
 2244.6247559 5.0000000000 9.8599996567 8.5000000000 0.2020000070 0.2094900012 2.4987316132 70.139999390 87.421081543 84.690292358 2.5020000935 44.661998749 2.3090000153  -999.250000 2.3090000153
 2244.7497559 5.0000000000 9.8629999161 8.5000000000 0.1969999969 0.1973000020 2.5076775551 69.205001831 86.886344910 84.007865906 2.4910213947 44.687000275 2.3399999142  -999.250000 2.3399999142
 2244.8747559 5.0000000000 9.8579988480 8.5000000000 0.1840000004 0.1889299899 2.5174510479 66.442001343 84.626281738 81.898292542 2.4640526772 44.742000580 2.4519999027  -999.250000 2.4519999027
 2244.9997559 5.0000000000 9.8430004120 8.5000000000 0.1679999977 0.1877899915 2.5281186104 63.479000092 81.210678101 78.883186340 2.4240782261 44.798999786 2.6050000191  -999.250000 2.6050000191
 2245.1247559 5.0000000000 9.8310003281 8.5000000000 0.1560000032 0.1946599931 2.5423727036 61.331001282 79.348464966 76.284278870 2.3750956059 44.820999146 2.7690000534  -999.250000 2.7690000534
 2245.2497559 5.0000000000 9.8430004120 8.5000000000 0.1529999971 0.2107200027 2.5587232113 61.025001526 77.989341736 75.390678406 2.3181114197 44.706001282 2.8770000935  -999.250000 2.8770000935
 2245.3747559 5.0000000000 9.8809995651 8.5000000000 0.1519999951 0.2326299995 2.5687437057 62.029998779 78.493110657 76.066925049 2.2551231384 44.484001160 2.8800001144  -999.250000 2.8800001144
 2245.4997559 5.0000000000 9.9360008240 8.5000000000 0.1459999979 0.2570999861 2.5657000542 63.931999207 80.615234375 78.023033142 2.1841387749 44.217998505 2.7349998951  -999.250000 2.7349998951
 2245.6247559 5.0000000000 9.9739999771 8.5000000000 0.1319999993 0.2721000016 2.5462231636 65.677001953 83.550697327 80.827713013 2.1091463566 44.032001495 2.5050001144  -999.250000 2.5050001144
 2245.7497559 5.0000000000 9.9699993134 8.5000000000 0.1159999967 0.2735300064 2.5127460957 66.767997742 86.486167908 83.969131470 2.0341463089 43.979000092 2.2699999809  -999.250000 2.2699999809
