# LAS format log file from PETREL
# Project units are specified as depth units
#==================================================================
~Version information
VERS.   2.0:
WRAP.   NO:
#==================================================================
~Well
STRT .m      433.43811035 :
STOP .m      2093.8361816 :
STEP .m     0.00000000 :
NULL .        -999.250000 :
COMP.           : COMPANY
WELL.  31/3-2   : WELL
FLD.            : FIELD
LOC.            : LOCATION
SRVC.           : SERVICE COMPANY
DATE.  2018-09-11 14:48:35   : Log Export Date {yyyy-MM-dd HH:mm:ss}
PROV.           : PROVINCE
UWI.   31/3-2   : UNIQUE WELL ID
API.            : API NUMBER
#==================================================================
~Curve
DEPT .m                   : DEPTH
Lithology_geolink ._      : Lithology_geolink
CALI .in                  : CALI
BS .in                    : BS
DRHO .g/cm3               : DRHO
NPHI .m3/m3               : NPHI
RHOB .g/cm3               : RHOB
PEF .b/e                  : PEF
GR .gAPI                  : GR
DTC .us/ft                : DTC
DTE .us/ft                : DTE
RDEP .ohm.m               : RDEP
SP .mV                    : SP
RSHA .ohm.m               : RSHA
RMIC .ohm.m               : RMIC
RMED .ohm.m               : RMED
~Parameter
#==================================================================
~Ascii
# ...
 1087.2341309  -999.250000 17.996000290  -999.250000 0.0299983975 0.5062159896 2.0669975281  -999.250000 87.479660034 141.37025452 138.59509277 1.0330071449 166.58825684 1.0570000410  -999.250000 1.0530008078
 1087.3864746  -999.250000 17.801000595  -999.250000 0.0220064092 0.4887500107 2.0610048771  -999.250000 88.309997559 141.02722168 138.25633240 1.0360176563 166.12600708 1.0490000248  -999.250000 1.0529999733
 1087.5389404  -999.250000 17.667999268  -999.250000 0.0130000003 0.4838518202 2.0910000801  -999.250000 84.809257507 140.53393555 137.72673035 1.0469735861 166.12300110 1.0640000105  -999.250000 1.0659896135
 1087.6912842  -999.250000 17.646999359  -999.250000 -0.001987990 0.4486800134 2.1119830608  -999.250000 81.388999939 140.52896118 137.76080322 1.0359888077 164.87919617 1.0989999771  -999.250000 1.0959519148
 1087.8437500  -999.250000 17.625000000  -999.250000 0.0010000000 0.4573797286 2.1310000420  -999.250000 81.001350403 141.06452942 138.31242371 1.0290360451 164.37400818 1.0950000286  -999.250000 1.0969991684
 1087.9960938  -999.250000 17.670000076  -999.250000 0.0039975983 0.4570399821 2.1220071316  -999.250000 81.435997009 141.35105896 138.62727356 1.0440256596 163.13040161 1.1050000191  -999.250000 1.0870079994
 1088.1485596  -999.250000 17.756000519  -999.250000 0.0080000004 0.4472499490 2.1159999371  -999.250000 83.371261597 141.71228027 138.95747375 1.0599038601 162.12770081 1.0240000486  -999.250000 1.0450335741
 1088.3009033  -999.250000 17.809999466  -999.250000 0.0000064051 0.4097299874 2.0900206566  -999.250000 84.938003540 142.62896729 139.79716492 1.0200015306 162.56169128 1.0779999495  -999.250000 1.0749759674
 1088.4533691  -999.250000 17.761999130  -999.250000 -0.004000000 0.4086180329 2.0699999332  -999.250000 85.993705750 143.01969910 140.23016357 1.0209640265 162.37640381 1.0060000420  -999.250000 1.0140489340
 1088.6057129  -999.250000 17.687999725  -999.250000 -0.004999199 0.4311245382 2.0550119877  -999.250000 83.128051758 142.33314514 139.57449341 1.0060129166 162.62579346 0.9930210114  -999.250000 0.9800272584
 1088.7581787  -999.250000 17.636999130  -999.250000 -0.005000000 0.4367525280 2.0650000572  -999.250000 80.698738098 142.04972839 139.31542969 1.0139664412 163.12300110 0.9123880267  -999.250000 0.9450280070
 1088.9105225  -999.250000 17.635000229  -999.250000 -0.006998399 0.4149777293 2.0789887905  -999.250000 79.130249023 142.42630005 139.63854980 0.9999839664 163.12620544 0.9997879863  -999.250000 0.9919623137
 1089.0628662  -999.250000 17.688999176  -999.250000 -0.007000000 0.4120999873 2.0809984207  -999.250000 80.688003540 142.54322815 139.68707275 0.9900160432 163.87400818 1.0169999599  -999.250000 1.0179584026
 1089.2153320  -999.250000 17.808000565  -999.250000 -0.004002402 0.4253368080 2.0740056038  -999.250000 87.412124634 142.83557129 140.10974121 1.0000191927 162.63119507 1.0599999428  -999.250000 1.0419808626
 1089.3676758  -999.250000 17.917999268  -999.250000 -0.004999198 0.4588100016 2.0720016956  -999.250000 88.811996460 143.24148560 140.52256775 1.0080353022 163.37420654 0.9940000176  -999.250000 1.0170400143
 1089.5201416  -999.250000 17.829000473  -999.250000 -0.002000000 0.4467720091 2.0829999447  -999.250000 91.486061096 143.02095032 140.32835388 1.0300215483 162.38069153 1.0420000553  -999.250000 1.0329871178
 1089.6724854  -999.250000 17.736000061  -999.250000 -0.001000801 0.4493100047 2.0869967937  -999.250000 92.807998657 143.17033386 140.42555237 1.0389151573 162.18859863 1.0349999666  -999.250000 1.0369935036
 1089.8249512  -999.250000 17.738000870  -999.250000 0.0000000000 0.4361853004 2.1050000191  -999.250000 94.376098633 143.17457581 140.34361267 0.9861369133 161.93919373 1.0750000477  -999.250000 1.0719720125
 1089.9772949  -999.250000 17.722999573  -999.250000 -0.005995196 0.4302999973 2.1010031700  -999.250000 95.745002747 142.23529053 139.49632263 1.0429903269 162.68780518 1.0920000076  -999.250000 1.0879871845
 1090.1297607  -999.250000 17.698999405  -999.250000 -0.001000000 0.4250744581 2.1110000610  -999.250000 90.496414185 140.82505798 138.10578918 1.0368846655 164.43879700 1.0880000591  -999.250000 1.0840032101
 1090.2821045  -999.250000 17.799999237  -999.250000 -0.001000000 0.4555799961 2.1050047874  -999.250000 86.025001526 141.30201721 138.54330444 0.9890304804 164.93420410 1.0659999847  -999.250000 1.0700112581
 1090.4345703  -999.250000 18.333999634  -999.250000 0.0089999996 0.4710864425 2.1019999981  -999.250000 81.570388794 143.17317200 140.41526794 1.0081057549 164.44099426 1.0729999542  -999.250000 1.0729975700
 1090.5869141  -999.250000 18.611000061  -999.250000 0.0099991988 0.5041119456 2.0770199299  -999.250000 78.316383362 143.01614380 140.13520813 1.0519503355 165.68879700 1.0779999495  -999.250000 1.0769968033
 1090.7393799  -999.250000 18.250000000  -999.250000 0.0109999999 0.5315341353 2.0539999008  -999.250000 83.792221069 144.04319763 141.28076172 1.0209711790 166.18725586 1.0740000010  -999.250000 1.0700056553
 1090.8917236  -999.250000 17.945999146  -999.250000 0.0070032026 0.5491527319 2.0390119553  -999.250000 86.561836243 144.51901245 141.77561951 1.0090576410 166.96835327 1.0499999523  -999.250000 1.0460191965
 1091.0440674  -999.250000 17.797000885  -999.250000 0.0089983968 0.5276100039 2.0360023975  -999.250000 91.351997375 143.68446350 140.91635132 1.0449503660 167.18739319 1.0039999485  -999.250000 1.0040671825
 1091.1965332  -999.250000 17.802999496  -999.250000 0.0229887906 0.4752166867 2.0489895344  -999.250000 86.510742188 143.90625000 141.14823914 1.0139632225 167.68734741 0.9611030221  -999.250000 0.9690280557
 1091.3488770  -999.250000 17.909999847  -999.250000 0.0379879810 0.4586199820 2.1009583473  -999.250000 84.938003540 143.47692871 140.63029480 0.9910432696 167.90541077 0.9980000257  -999.250000 0.9959567785
 1091.5013428  -999.250000 17.982999802  -999.250000 0.0309999995 0.4635266960 2.1429998875  -999.250000 80.147628784 142.18577576 139.43676758 1.0179855824 167.15939331 1.0269999504  -999.250000 1.0299726725
 1091.6536865  -999.250000 18.033000946  -999.250000 0.0230064057 0.4843399823 2.1789710522  -999.250000 84.680999756 141.11087036 138.36872864 1.0120111704 167.40580750 1.0700000525  -999.250000 1.0669407845
 1091.8061523  -999.250000 18.114999771  -999.250000 0.0130000003 0.4786548316 2.1540000439  -999.250000 84.006935120 141.94851685 139.20959473 1.0190720558 167.15504456 1.0909999609  -999.250000 1.0909807682
 1091.9584961  -999.250000 18.409000397  -999.250000 0.0279879905 0.5096600056 2.1270217896  -999.250000 88.921997070 144.46957397 141.72129822 1.0490144491 165.93949890 1.1039999723  -999.250000 1.1019911766
 1092.1109619  -999.250000 18.868000031  -999.250000 0.0340000018 0.5269876122 2.0859999657  -999.250000 86.126853943 146.59999084 143.74250793 1.0579422712 164.37339783 1.1019999981  -999.250000 1.0940064192
 1092.2633057  -999.250000 19.100999832  -999.250000 0.0379967950 0.5489699841 2.0680143833  -999.250000 88.444801331 147.73768616 144.95297241 1.0339952707 163.37860107 1.0620000362  -999.250000 1.0610264540
 1092.4157715  -999.250000 19.384000778  -999.250000 0.0189999994 0.5394493341 2.0499999523  -999.250000 90.684120178 146.84974670 144.10935974 1.0309543610 164.37390137 1.0149999857  -999.250000 1.0160360336
 1092.5681152  -999.250000 19.232000351  -999.250000 0.0080088070 0.5261099935 2.0470023155  -999.250000 88.264335632 145.38455200 142.66346741 1.0119502544 163.69389343 0.9772120118  -999.250000 0.9820272326
 1092.7205811  -999.250000 18.360000610  -999.250000 0.0030000000 0.5325554609 2.0429999828  -999.250000 88.678787231 145.02958679 142.28295898 0.9810360074 164.87199402 0.9989470243  -999.250000 0.9859967828
 1092.8729248  -999.250000 18.033000946  -999.250000 -0.000996797 0.5268709064 2.0260136127  -999.250000 83.564743042 144.60487366 141.75680542 0.9960288405 164.87420654 0.9499999881  -999.250000 0.9740095735
 1093.0253906  -999.250000 18.107000351  -999.250000 0.0000000000 0.5279636979 2.0130000114  -999.250000 86.985015869 143.87066650 141.13172913 1.0141513348 164.37699890 1.0210000277  -999.250000 1.0159664154
