# LAS format log file from PETREL
# Project units are specified as depth units
#==================================================================
~Version information
VERS.   2.0:
WRAP.   NO:
#==================================================================
~Well
STRT .m      793.37487793 :
STOP .m      2575.0000000 :
STEP .m     0.00000000 :
NULL .        -999.250000 :
COMP.           : COMPANY
WELL.  31/3-3   : WELL
FLD.            : FIELD
LOC.            : LOCATION
SRVC.           : SERVICE COMPANY
DATE.  2018-09-11 14:48:36   : Log Export Date {yyyy-MM-dd HH:mm:ss}
PROV.           : PROVINCE
UWI.   31/3-3   : UNIQUE WELL ID
API.            : API NUMBER
#==================================================================
~Curve
DEPT .m                   : DEPTH
Lithology_geolink ._      : Lithology_geolink
CALI .in                  : CALI
BS .in                    : BS
DRHO .g/cm3               : DRHO
NPHI .m3/m3               : NPHI
RHOB .g/cm3               : RHOB
GR .gAPI                  : GR
DTC .us/ft                : DTC
DTE .us/ft                : DTE
RDEP .ohm.m               : RDEP
SP .mV                    : SP
RSHA .ohm.m               : RSHA
RMED .ohm.m               : RMED
~Parameter
#==================================================================
~Ascii
# ...
 1739.3748779 5.0000000000 20.608001709 12.250000954 0.0619999990 0.4309099913 2.0409998894 58.975551605 123.64793396 118.10061646 1.4679834843 58.282054901 1.6900010109 1.6900010109
 1739.4998779 5.0000000000 20.579000473 12.250000954 0.0439999998 0.4218299985 2.0799999237 58.534431458 123.36603546 117.81655121 1.4899785519 58.254028320 1.6969932318 1.6969932318
 1739.6248779 5.0000000000 20.423000336 12.250000954 0.0329999998 0.4093600214 2.1250000000 58.528011322 123.41565704 117.89159393 1.5109590292 58.255996704 1.7169610262 1.7169610262
 1739.7498779 5.0000000000 20.144998550 12.250000954 0.0280000009 0.4003300071 2.1670000553 59.032012939 123.78333282 118.16065216 1.5259706974 58.321868896 1.7549257278 1.7549257278
 1739.8750000 5.0000000000 19.799999237 12.250000954 0.0320000015 0.3980000019 2.1970000267 60.090965271 123.76683807 118.26898193 1.5299960375 58.501823425 1.8059501648 1.8059501648
 1740.0000000 5.0000000000 19.489000320 12.250000954 0.0500000007 0.4036899805 2.2000000477 61.534587860 123.86502838 118.29862213 1.5260039568 58.756752014 1.8539531231 1.8539531231
 1740.1250000 6.0000000000 19.311000824 12.250000954 0.0790000036 0.4164499938 2.1730000973 63.269001007 123.82903290 118.31114960 1.5180000067 59.013000488 1.8860000372 1.8860000372
 1740.2500000 6.0000000000 19.305999756 12.250000954 0.1070000008 0.4375000000 2.1170001030 65.172996521 123.77203369 118.32053375 1.5119999647 59.182998657 1.8940000534 1.8940000534
 1740.3748779 6.0000000000 19.458999634 12.250000954 0.1239999980 0.4625000060 2.0409998894 66.883331299 123.82395935 118.32994080 1.5110009909 59.212970734 1.8670263290 1.8670263290
 1740.4998779 6.0000000000 19.718000412 12.250000954 0.1199999973 0.4793500006 1.9630000591 67.743164063 124.00332642 118.33930206 1.5159951448 59.175037384 1.8180477619 1.8180477619
 1740.6248779 6.0000000000 19.996999741 12.250000954 0.1019999981 0.4801599979 1.9069999456 67.167564392 123.82445526 118.34871674 1.5229932070 59.126049042 1.7560606003 1.7560606003
 1740.7498779 6.0000000000 20.226001740 12.250000954 0.0780000016 0.4679399729 1.8919999599 65.152938843 123.92467499 118.35815430 1.5299862623 59.094062805 1.7011072636 1.7011072636
 1740.8748779 6.0000000000 20.305999756 12.250000954 0.0630000010 0.4519699812 1.9249999523 62.532119751 123.95786285 118.36754608 1.5280039310 59.092002869 1.6760488749 1.6760488749
 1741.0000000 6.0000000000 20.155000687 12.250000954 0.0759999976 0.4409400225 1.9750000238 60.611873627 123.89859009 118.37693024 1.5170106888 59.141948700 1.6849911213 1.6849911213
 1741.1250000 6.0000000000 19.836999893 12.250000954 0.1030000001 0.4345299900 2.0130000114 60.139461517 123.87215424 118.35831451 1.4960205555 59.263881683 1.7229629755 1.7229629755
 1741.2500000 6.0000000000 19.458999634 12.250000954 0.1199999973 0.4283700287 2.0090000629 61.118999481 123.77426910 118.13982391 1.4739999771 59.444999695 1.7699999809 1.7699999809
 1741.3750000 6.0000000000 19.156000137 12.250000954 0.1169999987 0.4217699766 1.9670000076 62.823001862 122.80741882 117.31318665 1.4570000172 59.650001526 1.7990000248 1.7990000248
 1741.5000000 6.0000000000 19.052000046 12.250000954 0.0970000029 0.4236999750 1.9060000181 64.240997314 121.65744019 116.10034943 1.4509999752 59.838001251 1.7999999523 1.7999999523
 1741.6248779 6.0000000000 19.163999557 12.250000954 0.0649999976 0.4399800003 1.8550000191 64.948303223 120.48363495 114.91590881 1.4529980421 60.012828827 1.7780214548 1.7780214548
 1741.7498779 6.0000000000 19.458999634 12.250000954 0.0340000018 0.4667400122 1.8209999800 64.821121216 119.72640228 114.27309418 1.4589941502 60.228790283 1.7430342436 1.7430342436
 1741.8748779 6.0000000000 19.863000870 12.250000954 0.0160000008 0.4941899776 1.8020000458 63.917881012 120.23130798 114.71297455 1.4629961252 60.580657959 1.7090332508 1.7090332508
 1741.9998779 6.0000000000 20.278999329 12.250000954 0.0160000008 0.5182700157 1.7849999666 62.589595795 122.00997162 116.39203644 1.4590077400 61.046092987 1.6800565720 1.6800565720
 1742.1250000 6.0000000000 20.611999512 12.250000954 0.0219999999 0.5331799984 1.7630000114 61.027526855 123.92155457 118.36062622 1.4480106831 61.547512054 1.6560235023 1.6560235023
 1742.2500000 5.0000000000 20.819997787 12.250000954 0.0260000005 0.5338199735 1.7439999580 59.344642639 125.82286835 120.25417328 1.4300174713 61.996562958 1.6370185614 1.6370185614
 1742.3750000 5.0000000000 20.916999817 12.250000954 0.0240000002 0.5267699957 1.7389999628 57.590999603 127.43325806 121.85173798 1.4079999924 62.346000671 1.6260000467 1.6260000467
 1742.5000000 5.0000000000 20.947000504 12.250000954 0.0230000000 0.5185100436 1.7580000162 55.985000610 128.50964355 123.01083374 1.3849999905 62.647998810 1.6219999790 1.6219999790
 1742.6250000 5.0000000000 20.952999115 12.250000954 0.0309999995 0.5128999949 1.7910000086 54.771999359 129.10969543 123.59350586 1.3630000353 62.976001740 1.6250000000 1.6250000000
 1742.7498779 5.0000000000 20.937999725 12.250000954 0.0480000004 0.5099099874 1.8240000010 54.119636536 129.12719727 123.49087524 1.3450175524 63.345634460 1.6299951077 1.6299951077
 1742.8748779 5.0000000000 20.898000717 12.250000954 0.0670000017 0.5069299936 1.8439999819 53.923191071 128.58206177 123.01106262 1.3340107203 63.690670013 1.6270029545 1.6270029545
 1742.9998779 5.0000000000 20.832002640 12.250000954 0.0799999982 0.5013800263 1.8489999771 53.639278412 127.99822998 122.43579102 1.3290048838 63.993701935 1.6160107851 1.6160107851
 1743.1248779 5.0000000000 20.745000839 12.250000954 0.0879999995 0.4874800146 1.8500000238 53.019214630 127.62725067 122.00186157 1.3299981356 64.310379028 1.5990331173 1.5990331173
 1743.2498779 5.0000000000 20.632999420 12.250000954 0.0909999982 0.4636700153 1.8569999933 52.152694702 127.36250305 121.84595490 1.3379844427 64.701240540 1.5820332766 1.5820332766
 1743.3750000 5.0000000000 20.496000290 12.250000954 0.0939999968 0.4364799857 1.8739999533 51.461673737 127.36250305 121.74649048 1.3499883413 65.128578186 1.5680136681 1.5680136681
 1743.5000000 5.0000000000 20.336000443 12.250000954 0.0920000002 0.4208599925 1.8999999762 51.314144135 126.61545563 121.08402252 1.3649853468 65.395744324 1.5600078106 1.5600078106
 1743.6250000 5.0000000000 20.145999908 12.250000954 0.0799999982 0.4230400026 1.9359999895 51.669998169 125.13649750 119.62812042 1.3819999695 65.291999817 1.5650000572 1.5650000572
 1743.7500000 5.0000000000 19.893999100 12.250000954 0.0599999987 0.4400400221 1.9819999933 52.205001831 123.04626465 117.48363495 1.3980000019 64.716003418 1.5909999609 1.5909999609
 1743.8750000 5.0000000000 19.528999329 12.250000954 0.0410000011 0.4619200230 2.0420000553 52.651000977 120.62337494 115.00941467 1.4140000343 63.751995087 1.6419999599 1.6419999599
 1743.9998779 5.0000000000 19.052999496 12.250000954 0.0430000015 0.4740799963 2.1019999981 53.194469452 118.39514160 112.85668945 1.4289853573 62.747982025 1.7009423971 1.7009423971
 1744.1248779 5.0000000000 18.603000641 12.250000954 0.0640000030 0.4715900123 2.1410000324 54.316905975 117.15541840 111.60381317 1.4429862499 61.920806885 1.7509511709 1.7509511709
 1744.2498779 5.0000000000 18.347000122 12.250000954 0.0909999982 0.4593299925 2.1429998875 56.335056305 116.49722290 111.01213074 1.4569727182 61.375064850 1.7749531269 1.7749531269
 1744.3748779 5.0000000000 18.395000458 12.250000954 0.1140000001 0.4454700053 2.1140000820 59.076644897 116.41320801 110.97722626 1.4709726572 61.094547272 1.7630234957 1.7630234957
 1744.5000000 5.0000000000 18.676000595 12.250000954 0.1230000034 0.4354099929 2.0750000477 61.598541260 116.96315765 111.49028015 1.4849863052 60.894195557 1.7340283394 1.7340283394
 1744.6250000 5.0000000000 18.874000549 12.250000954 0.1150000021 0.4294100106 2.0499999523 63.196441650 118.20996857 112.61760712 1.4969882965 60.660228729 1.7020312548 1.7020312548
 1744.7500000 5.0000000000 18.711999893 12.250000954 0.0909999982 0.4263000190 2.0460000038 63.768001556 120.05030060 114.51766205 1.5010000467 60.342998505 1.6799999475 1.6799999475
