# LAS format log file from PETREL
# Project units are specified as depth units
#==================================================================
~Version information
VERS.   2.0:
WRAP.   NO:
#==================================================================
~Well
STRT .m      1287.9324951 :
STOP .m      2115.3120117 :
STEP .m     0.00000000 :
NULL .        -999.250000 :
COMP.           : COMPANY
WELL.  31/3-4   : WELL
FLD.            : FIELD
LOC.            : LOCATION
SRVC.           : SERVICE COMPANY
DATE.  2018-09-11 14:48:36   : Log Export Date {yyyy-MM-dd HH:mm:ss}
PROV.           : PROVINCE
UWI.   31/3-4   : UNIQUE WELL ID
API.            : API NUMBER
#==================================================================
~Curve
DEPT .m                   : DEPTH
Lithology_geolink ._      : Lithology_geolink
CALI .in                  : CALI
BS .in                    : BS
ROP .m/h                  : ROP
DRHO .g/cm3               : DRHO
NPHI .m3/m3               : NPHI
RHOB .g/cm3               : RHOB
PEF .b/e                  : PEF
GR .gAPI                  : GR
DTC .us/ft                : DTC
DTS .us/ft                : DTS
RDEP .ohm.m               : RDEP
RSHA .ohm.m               : RSHA
RMIC .ohm.m               : RMIC
RMED .ohm.m               : RMED
~Parameter
#==================================================================
~Ascii
# ...
 2054.6567383 6.0000000000 8.5263004303 8.5000000000 63.130584717 0.0577999987 0.3632000089 2.4388000965 3.7962999344 127.30432892 89.179306030  -999.250000 5.0457000732 5.0612998009  -999.250000 4.6676001549
 2054.8090820 6.0000000000 8.4989004135 8.5000000000 67.963584900 0.0584000014 0.3228000104 2.4519999027 3.7737998962 126.44640350 87.806304932  -999.250000 5.3843002319 4.2740001678  -999.250000 4.2410998344
 2054.9614258 6.0000000000 8.5011997223 8.5000000000 71.301834106 0.0487999991 0.3262000084 2.4581999779 3.6386001110 123.87419891 87.710807800  -999.250000 4.3933000565 4.2431998253  -999.250000 4.2238001823
 2055.1140137 6.0000000000 8.4815998077 8.5000000000 75.822174072 0.0441999994 0.3436999917 2.4684998989 3.5104000568 120.63481903 86.358650208  -999.250000 4.3846001625 4.3446002007  -999.250000 5.1648001671
 2055.2663574 6.0000000000 8.4267997742 8.5000000000 75.042984009 0.0377999991 0.3459999859 2.4623999596 3.5097000599 119.77524567 87.820999146  -999.250000 4.3077998161 4.6560997963  -999.250000 4.6522998810
 2055.4187012 6.0000000000 8.4728002548 8.5000000000 73.511154175 0.0553000011 0.3116999865 2.4742999077 3.5485999584 121.17569733 87.135803223  -999.250000 4.9340000153 5.1311001778  -999.250000 4.6570000648
 2055.5710449 6.0000000000 8.4653997421 8.5000000000 72.205711365 0.0518000014 0.3580000103 2.4623999596 3.5046000481 121.23709869 87.533798218  -999.250000 4.8689999580 4.9801001549  -999.250000 4.8414998055
 2055.7236328 6.0000000000 8.4632997513 8.5000000000 74.713912964 0.0524999984 0.3591000140 2.4609999657 3.4414000511 126.01085663 88.657417297  -999.250000 4.8266000748 5.1612000465  -999.250000 4.0700998306
 2055.8759766 6.0000000000 8.4623003006 8.5000000000 72.057739258 0.0502999984 0.3084999919 2.4530000687 3.5355000496 125.79810333 87.737777710  -999.250000 4.2595000267 5.5764999390  -999.250000 4.8217000961
 2056.0283203 6.0000000000 8.4653997421 8.5000000000 70.163383484 0.0560000017 0.3161999881 2.4684000015 3.7306001186 125.78983307 88.347915649  -999.250000 3.8633000851 4.0496001244  -999.250000 5.0729999542
 2056.1806641 6.0000000000 8.4958000183 8.5000000000 78.356628418 0.0573999994 0.3057000041 2.4798998833 3.8993999958 120.63030243 88.485603333  -999.250000 4.4251999855 4.5286002159  -999.250000 4.4972000122
 2056.3332520 6.0000000000 8.4746999741 8.5000000000 75.389106750 0.0590999983 0.3488000035 2.4946999550 3.9470000267 118.05567932 87.160217285  -999.250000 4.0717954636 5.4128999710  -999.250000 4.6919999123
 2056.4855957 6.0000000000 8.4865999222 8.5000000000 82.080711365 0.0671000034 0.3323999941 2.4979000092 3.8770000935 120.60542297 88.232612610  -999.250000 5.3762955666 5.0534000397  -999.250000 4.8797001839
 2056.6379395 6.0000000000 8.4918003082 8.5000000000 82.518371582 0.0734999999 0.3384999931 2.4895999432 3.8166000843 123.73728943 88.737609863  -999.250000 4.6887640953 4.9899001122  -999.250000 4.7582001686
 2056.7902832 6.0000000000 8.5018997192 8.5000000000 84.931098938 0.0535000004 0.3382999897 2.4628000259 3.5810000896 127.09999847 89.182411194  -999.250000 4.9781999588 5.4862999916  -999.250000 4.6929001808
 2056.9426270 6.0000000000 8.5221996307 8.5000000000 81.945213318 0.0417999998 0.3404000103 2.4568998814 3.5292999744 126.99530029 89.234291077  -999.250000 4.3717999458 5.1791000366  -999.250000 4.4558000565
 2057.0952148 6.0000000000 8.5033998489 8.5000000000 93.492782593 0.0401999988 0.2888000011 2.4584000111 3.4542999268 127.42797089 90.045539856  -999.250000 4.5363469124 4.6048002243  -999.250000 4.5956001282
 2057.2475586 6.0000000000 8.5107002258 8.5000000000 92.758201599 0.0593000017 0.3177999854 2.4719998837 3.6357998848 129.40397644 88.637527466  -999.250000 4.3791017532 4.3808999062  -999.250000 4.4998002052
 2057.3999023 6.0000000000 8.5201997757 8.5000000000 96.085960388 0.0728999972 0.3222000003 2.4774999619 3.7467000484 129.57150269 87.656097412  -999.250000 4.6297998428 4.7498002052  -999.250000 4.6764998436
 2057.5522461 6.0000000000 8.5148000717 8.5000000000 101.23490906 0.0768000036 0.3167999983 2.4800999165 3.9583001137 130.42590332 82.041900635  -999.250000 4.7308001518 4.7494001389  -999.250000 4.5546998978
 2057.7048340 6.0000000000 8.5125999451 8.5000000000 84.011810303 0.0763999969 0.3100000024 2.4807000160 4.0081000328 127.35375977 77.478469849  -999.250000 3.9348924160 6.5156002045  -999.250000 4.3801999092
 2057.8571777 6.0000000000 8.4958000183 8.5000000000 76.794952393 0.0649000034 0.3519999981 2.4742999077 4.0910000801 125.69744873 78.270217896  -999.250000 15.189424515 16.315900803  -999.250000 5.5422000885
 2058.0095215 6.0000000000 8.4835996628 8.5000000000 73.838584900 0.0500999987 0.2879000008 2.4839999676 4.2030000687 119.42849731 79.348098755  -999.250000 4.5968999863 4.5514998436  -999.250000 4.8738999367
 2058.1618652 6.0000000000 8.4572000504 8.5000000000 65.650588989 0.0207000002 0.2928999960 2.4781000614 4.4773001671 114.69020081 81.758689880  -999.250000 4.5419001579 4.1071000099  -999.250000 3.8714001179
 2058.3144531 6.0000000000 8.4429998398 8.5000000000 55.536418915 0.0163000003 0.2752999961 2.4814000130 4.3063998222 114.31223297 84.920349121  -999.250000 3.8556551933 4.4697999954  -999.250000 3.6026999950
 2058.4667969 6.0000000000 8.5050001144 8.5000000000 54.817588806 0.0186000001 0.2605000138 2.4521000385 3.8963000774 118.94478607 84.204681396  -999.250000 3.4535987377 3.5543999672  -999.250000 3.4230999947
 2058.6191406 6.0000000000 8.5384998322 8.5000000000 54.120079041 0.0465999991 0.2716000080 2.4474000931 3.6059999466 122.05607605 86.367317200  -999.250000 3.3286786079 3.1217999458  -999.250000 3.4526998997
 2058.7714844 6.0000000000 8.5527000427 8.5000000000 53.011157990 0.0520000011 0.3063000143 2.4356000423 3.6098001003 124.91089630 86.940498352  -999.250000 3.5648999214 3.1442000866  -999.250000 3.5341000557
 2058.9240723 6.0000000000 8.5309000015 8.5000000000 54.604656219 0.0588999987 0.2469999939 2.4505000114 3.8089001179 126.75036621 87.595405579  -999.250000 3.3231799603 3.2520999908  -999.250000 3.7023999691
 2059.0764160 6.0000000000 8.5039997101 8.5000000000 51.235237122 0.0619000010 0.2714999914 2.4690999985 3.9730000496 127.09664154 87.600883484  -999.250000 3.4978113174 3.4711999893  -999.250000 4.0373001099
 2059.2287598 6.0000000000 8.5066995621 8.5000000000 55.656497955 0.0815000013 0.3084999919 2.4842998981 4.1503000259 125.06753540 87.216812134  -999.250000 3.6932809353 4.2161002159  -999.250000 4.5184998512
 2059.3811035 6.0000000000 8.5207004547 8.5000000000 57.650268555 0.0857999995 0.3224999905 2.4751000404 4.3253998756 124.21489716 86.726196289  -999.250000 4.6173000336 4.5679998398  -999.250000 4.6195998192
 2059.5334473 6.0000000000 8.5404996872 8.5000000000 54.710300446 0.0896999985 0.3070999980 2.4686999321 4.2880001068 126.97219849 86.727600098  -999.250000 4.7986001968 4.9099001884  -999.250000 4.5970997810
 2059.6860352 6.0000000000 8.5283002853 8.5000000000 58.097774506 0.0659999996 0.3095000088 2.4598999023 4.0408000946 129.87902832 87.596000671  -999.250000 5.5943336487 5.4984998703  -999.250000 4.6419000626
 2059.8383789 6.0000000000 8.4802999496 8.5000000000 65.045936584 0.0621000007 0.3208999932 2.4674999714 3.9286000729 130.26477051 86.668014526 168.98307800 5.1793398857 5.4261999130  -999.250000 4.6456999779
 2059.9907227 6.0000000000 8.4673995972 8.5000000000 66.062332153 0.0614000000 0.3596999943 2.4730000496 3.9302999973 130.68409729 88.864997864 171.95989990 5.2044000626 5.2863998413  -999.250000 4.7368001938
 2060.1430664 6.0000000000 8.4593000412 8.5000000000 67.099082947 0.0718000010 0.2818000019 2.4823999405 4.0973000526 130.89529419 89.977500916 172.94790649 4.9532999992 5.2964000702  -999.250000 4.9246997833
 2060.2956543 6.0000000000 8.4593000412 8.5000000000 69.989173889 0.0807999969 0.3652000129 2.5011999607 4.0666999817 126.67840576 90.840270996 172.13903809 4.9571647644 5.1511998177  -999.250000 4.5625000000
 2060.4479980 6.0000000000 8.4952001572 8.5000000000 71.835632324 0.0807999969 0.3422999978 2.5058000088 4.1332998276 125.87058258 92.259948730 170.08528137 5.1227602959 4.9981999397  -999.250000 5.0748000145
