# LAS format log file from PETREL
# Project units are specified as depth units
#==================================================================
~Version information
VERS.   2.0:
WRAP.   NO:
#==================================================================
~Well
STRT .m      1287.9324951 :
STOP .m      2115.3120117 :
STEP .m     0.00000000 :
NULL .        -999.250000 :
COMP.           : COMPANY
WELL.  31/3-4   : WELL
FLD.            : FIELD
LOC.            : LOCATION
SRVC.           : SERVICE COMPANY
DATE.  2018-09-11 14:48:36   : Log Export Date {yyyy-MM-dd HH:mm:ss}
PROV.           : PROVINCE
UWI.   31/3-4   : UNIQUE WELL ID
API.            : API NUMBER
#==================================================================
~Curve
DEPT .m                   : DEPTH
Lithology_geolink ._      : Lithology_geolink
CALI .in                  : CALI
BS .in                    : BS
ROP .m/h                  : ROP
DRHO .g/cm3               : DRHO
NPHI .m3/m3               : NPHI
RHOB .g/cm3               : RHOB
PEF .b/e                  : PEF
GR .gAPI                  : GR
DTC .us/ft                : DTC
DTS .us/ft                : DTS
RDEP .ohm.m               : RDEP
RSHA .ohm.m               : RSHA
RMIC .ohm.m               : RMIC
RMED .ohm.m               : RMED
~Parameter
#==================================================================
~Ascii
# ...
 1561.3380127 13.000000000 8.4399003983 8.5000000000 70.296257019 -0.011200000 0.3345000148 2.3036000729 3.3982999325 79.286788940 117.88139343 272.29827881 1.6202434301 1.7879999876 1.7553000450 1.6828000546
 1561.4903564 13.000000000 8.4251003265 8.5000000000 71.677825928 -0.010800000 0.3477999866 2.3087000847 3.3922998905 80.649444580 117.74424744 276.88906860 1.5496520996 1.7108000517 1.7937999964 1.6009000540
 1561.6428223 13.000000000 8.4399003983 8.5000000000 69.393699646 -0.011300000 0.3465999961 2.3152999878 3.3591001034 80.196937561 117.92716980 279.99349976 1.6148636341 1.7603000402 1.7806999683 1.6622999907
 1561.7951660 13.000000000 8.4399003983 8.5000000000 72.655181885 -0.012800000 0.3450999856 2.3150999546 3.3359000683 78.494743347 118.38235474 281.36761475 1.8189216852 1.9527000189 1.7489000559 1.8708000183
 1561.9476318 13.000000000 8.4546003342 8.5000000000 73.301513672 -0.016799999 0.3138000071 2.3057000637 3.3571000099 76.675842285 119.19889832 285.64169312 1.8460003138 1.9723999500 1.7626999617 1.8941999674
 1562.0999756 13.000000000 8.4251003265 8.5000000000 78.119094849 -0.017600000 0.3154000044 2.3073999882 3.3754999638 81.962959290 119.69374847 291.51037598 1.8465023041 1.9695999622 1.8138999939 1.8931000233
 1562.2524414 13.000000000 8.4177999496 8.5000000000 76.945869446 -0.014100000 0.3253000081 2.3066000938 3.4186999798 84.162017822 119.39277649 294.47814941 1.8492882252 1.9711999893 1.8192000389 1.8948999643
 1562.4047852 13.000000000 8.4324998856 8.5000000000 67.998031616 -0.012500000 0.3226000071 2.3059999943 3.4567999840 85.978477478 119.55828094 294.00347900 1.8418004513 1.9757000208 1.8713999987 1.8947000504
 1562.5572510 13.000000000 8.4104003906 8.5000000000 69.670936584 -0.012400000 0.3249000013 2.3080999851 3.4811999798 86.188606262 120.28665924 293.10595703 1.7174489498 1.8545000553 1.9069999456 1.7655999660
 1562.7095947 13.000000000 8.4215002060 8.5000000000 63.967521667 -0.013700000 0.3045000136 2.3138999939 3.4872999191 83.634254456 120.94703674 291.83892822 1.5609493256 1.6940000057 1.9878000021 1.5967999697
 1562.8620605 13.000000000 8.4251003265 8.5000000000 60.892066956 -0.013500000 0.2957000136 2.3162999153 3.4783000946 84.823707581 121.11541748 296.11648560 1.6225017309 1.7755000591 1.9773999453 1.6677000523
 1563.0144043 13.000000000 8.4324998856 8.5000000000 61.691596985 -0.017000001 0.3244999945 2.3067998886 3.4653000832 82.959487915 121.25447083 297.84344482 1.6236077547 1.7841000557 1.8938000202 1.6727999449
 1563.1667480 13.000000000 8.4324998856 8.5000000000 63.153541565 -0.018300001 0.3540999889 2.3066999912 3.3959999084 84.692710876 121.33951569 298.16885376 1.6332975626 1.7890000343 1.7950999737 1.6785999537
 1563.3192139 13.000000000 8.4546003342 8.5000000000 57.630580902 -0.017000001 0.3641000092 2.3150999546 3.3189001083 86.950035095 121.85068512 300.62292480 1.6303011179 1.7879999876 1.7463999987 1.6765999794
 1563.4715576 13.000000000 8.4324998856 8.5000000000 58.082672119 -0.012400000 0.3677000105 2.3248000145 3.2816998959 89.612403870 122.70504761 305.76223755 1.6317255497 1.7914999723 1.6778000593 1.6786999702
 1563.6240234 13.000000000 8.4546003342 8.5000000000 57.142719269 -0.012200000 0.3887999952 2.3217999935 3.3015000820 89.481430054 123.38938904 314.56234741 1.6634062529 1.8235000372 1.6004999876 1.7115999460
 1563.7763672 13.000000000 8.4399003983 8.5000000000 56.308074951 -0.010700000 0.3526000082 2.3208999634 3.3227000237 84.409729004 124.38417816 318.10049438 1.5463911295 1.7151999474 1.5327999592 1.6047999859
 1563.9288330 13.000000000 8.4546003342 8.5000000000 59.222766876 -0.010600000 0.3652999997 2.3148000240 3.3322999477 79.199432373 126.23198700 304.82769775 1.4104877710 1.5606000423 1.5673999786 1.4699000120
 1564.0811768 13.000000000 8.4618997574 8.5000000000 59.998023987 -0.010100000 0.3648999929 2.3043999672 3.3343999386 78.119705200 125.71408081 292.50021362 1.3952324390 1.5375000238 1.6571999788 1.4532999992
 1564.2336426 13.000000000 8.4618997574 8.5000000000 63.619415283 -0.012100000 0.3797000051 2.2888998985 3.3132998943 82.370803833 124.08527374 280.02536011 1.4357291460 1.5855000019 1.7161999941 1.4996000528
 1564.3859863 13.000000000 8.4546003342 8.5000000000 65.450790405 -0.012200000 0.3689999878 2.2829000950 3.2797000408 86.239562988 122.50941467 271.57519531 1.5162488222 1.6690000296 1.6358000040 1.5798000097
 1564.5384521 13.000000000 8.4471998215 8.5000000000 65.119094849 -0.013500000 0.3970000148 2.2804999352 3.2502000332 90.808296204 121.78027344 267.67694092 1.5772972107 1.7358000278 1.5225000381 1.6463999748
 1564.6907959 13.000000000 8.4177999496 8.5000000000 62.717845917 -0.015799999 0.4296999872 2.2753000259 3.2370998859 92.557678223 122.25997925 265.28668213 1.6377967596 1.8072999716 1.5192999840 1.7192000151
 1564.8432617 13.000000000 8.4471998215 8.5000000000 63.066276550 -0.018400000 0.4334999919 2.2708001137 3.2323000431 95.895545959 123.23274994 267.86233521 1.5089416504 1.6646000147 1.5599999428 1.5832999945
 1564.9956055 13.000000000 8.4471998215 8.5000000000 69.310699463 -0.021000000 0.4194999933 2.2681999207 3.2544000149 95.605812073 123.32563782 270.86056519 1.4724408388 1.6248999834 1.6792000532 1.5461000204
 1565.1479492 13.000000000 8.4399003983 8.5000000000 65.525917053 -0.021400001 0.4020000100 2.2667996883 3.3141999245 92.496070862 122.88108063 270.70602417 1.2739418745 1.4395999908 1.7001999617 1.3338999748
 1565.3004150 13.000000000 8.4324998856 8.5000000000 70.736221313 -0.019200001 0.3815999925 2.2692999840 3.3247001171 87.594467163 121.96557617 269.73770142 1.2014921904 1.3510999680 1.7159999609 1.2510999441
 1565.4527588 13.000000000 8.4177999496 8.5000000000 67.799545288 -0.015100000 0.3517999947 2.2718999386 3.2822000980 87.549629211 120.81705475 268.09710693 1.3164918423 1.4730000496 1.7734999657 1.3703999519
 1565.6052246 13.000000000 8.4215002060 8.5000000000 66.623359680 -0.011400000 0.3190999925 2.2780001163 3.1765000820 84.707672119 120.13784790 261.24090576 1.4310244322 1.5968999863 1.8158999681 1.4912999868
 1565.7575684 13.000000000 8.4399003983 8.5000000000 68.737861633 -0.011900000 0.3136000037 2.2730000019 3.1459000111 84.166625977 120.08319092 259.25878906 1.4615031481 1.6148999929 1.8128000498 1.5144000053
 1565.9100342 13.000000000 8.4471998215 8.5000000000 66.577102661 -0.013000000 0.3228999972 2.2681000233 3.1349000931 78.588447571 119.95655823 260.49362183 1.4654204845 1.6161999702 1.7575999498 1.5159000158
 1566.0623779 13.000000000 8.4251003265 8.5000000000 69.893699646 -0.013400000 0.3361999989 2.2658998966 3.1403999329 79.766815186 119.40764618 259.53326416 1.4910646677 1.6445000172 1.7240999937 1.5498000383
 1566.2148438 13.000000000 8.4324998856 8.5000000000 76.180114746 -0.013300000 0.3357999921 2.2720999718 3.1387999058 76.293876648 118.96907043 262.22674561 1.5718191862 1.7064000368 1.7231999636 1.6346000433
 1566.3671875 13.000000000 8.4251003265 8.5000000000 69.497375488 -0.014000000 0.3650999963 2.2716999054 3.1600999832 75.342407227 119.45148468 267.50048828 1.7084865570 1.8118000031 1.6464999914 1.7642999887
 1566.5196533 13.000000000 8.4251003265 8.5000000000 68.580375671 -0.014100000 0.3853000104 2.2708001137 3.1730000973 75.359802246 120.42862701 268.37716675 1.6915969849 1.7798999548 1.6447999477 1.7279000282
 1566.6719971 13.000000000 8.4324998856 8.5000000000 75.586608887 -0.012900000 0.3612999916 2.2750000954 3.1552999020 79.602630615 121.00279999 266.74075317 1.6274235249 1.7409000397 1.6425000429 1.6678999662
 1566.8244629 13.000000000 8.4324998856 8.5000000000 70.331367493 -0.010000000 0.3310999870 2.2867000103 3.1143999100 77.761993408 121.12751770 266.55877686 1.6567115784 1.7851999998 1.7855000496 1.6971999407
 1566.9768066 13.000000000 8.4251003265 8.5000000000 75.441925049 -0.008600000 0.3066999912 2.2908999920 3.0822000504 74.263061523 120.70401764 268.03540039 1.6638960838 1.7773000002 1.8408000469 1.6911000013
 1567.1291504 13.000000000 8.4251003265 8.5000000000 69.902885437 -0.008500000 0.3251999915 2.2862000465 3.0727000237 70.354263306 119.85783386 270.41101074 1.6590011120 1.7759000063 1.8387999535 1.6878000498
