# LAS format log file from PETREL
# Project units are specified as depth units
#==================================================================
~Version information
VERS.   2.0:
WRAP.   NO:
#==================================================================
~Well
STRT .m      793.37487793 :
STOP .m      2575.0000000 :
STEP .m     0.00000000 :
NULL .        -999.250000 :
COMP.           : COMPANY
WELL.  31/3-3   : WELL
FLD.            : FIELD
LOC.            : LOCATION
SRVC.           : SERVICE COMPANY
DATE.  2018-09-11 14:48:36   : Log Export Date {yyyy-MM-dd HH:mm:ss}
PROV.           : PROVINCE
UWI.   31/3-3   : UNIQUE WELL ID
API.            : API NUMBER
#==================================================================
~Curve
DEPT .m                   : DEPTH
Lithology_geolink ._      : Lithology_geolink
CALI .in                  : CALI
BS .in                    : BS
DRHO .g/cm3               : DRHO
NPHI .m3/m3               : NPHI
RHOB .g/cm3               : RHOB
GR .gAPI                  : GR
DTC .us/ft                : DTC
DTE .us/ft                : DTE
RDEP .ohm.m               : RDEP
SP .mV                    : SP
RSHA .ohm.m               : RSHA
RMED .ohm.m               : RMED
~Parameter
#==================================================================
~Ascii
# ...
 1975.8750000 2.0000000000 12.217000008 12.250000954 0.0219999999 0.1730400026 2.3759999275 51.016998291 84.882972717 85.584480286 1.9129999876 36.129001617 3.4419999123 3.4419999123
 1976.0000000 2.0000000000 12.223000526 12.250000954 0.0140000004 0.1684000045 2.4040000439 48.154998779 82.421150208 83.139129639 1.8839999437 35.131999969 3.9059998989 3.9059998989
 1976.1248779 2.0000000000 12.225000381 12.250000954 0.0130000003 0.1723500043 2.4409999847 45.529567719 79.363304138 79.986122131 1.8120703697 34.661460876 4.3585577011 4.3585577011
 1976.2498779 2.0000000000 12.223999977 12.250000954 0.0209999997 0.1827000082 2.4700000286 43.338138580 75.742874146 76.369300842 1.7160936594 34.702957153 4.4958658218 4.4958658218
 1976.3748779 16.000000000 12.220999718 12.250000954 0.0299999993 0.1970500052 2.4739999771 41.862880707 72.738601685 73.300872803 1.6132010221 35.215995789 4.0778179169 4.0778179169
 1976.5000000 16.000000000 12.218999863 12.250000954 0.0340000018 0.2148000002 2.4430000782 41.132709503 71.026100159 71.613815308 1.5140967369 35.963272095 3.4446182251 3.4446182251
 1976.6250000 16.000000000 12.218000412 12.250000954 0.0350000001 0.2342700064 2.3949999809 41.187946320 71.134483337 71.768684387 1.4170948267 36.767215729 2.8805508614 2.8805508614
 1976.7500000 16.000000000 12.218999863 12.250000954 0.0370000005 0.2530199885 2.3499999046 41.953998566 73.191658020 73.827247620 1.3240000010 37.472999573 2.4990000725 2.4990000725
 1976.8750000 2.0000000000 12.220000267 12.250000954 0.0390000008 0.2714000046 2.3190000057 43.370998383 76.819938660 77.412597656 1.2369999886 37.985000610 2.3280000687 2.3280000687
 1977.0000000 2.0000000000 12.222000122 12.250000954 0.0370000005 0.2840600014 2.3080000877 45.272998810 80.834846497 81.571723938 1.1599999666 38.349998474 2.2950000763 2.2950000763
 1977.1250000 2.0000000000 12.226000786 12.250000954 0.0329999998 0.2911700010 2.3080000877 47.762001038 84.569221497 85.228836060 1.1009999514 38.566001892 2.3519999981 2.3519999981
 1977.2498779 2.0000000000 12.234999657 12.250000954 0.0280000009 0.2948699892 2.3099999428 51.048786163 87.384605408 88.053932190 1.0620380640 38.574993134 2.4459083080 2.4459083080
 1977.3748779 2.0000000000 12.246000290 12.250000954 0.0209999997 0.2976499796 2.3099999428 55.218925476 89.212715149 89.960861206 1.0430185795 38.310260773 2.5139334202 2.5139334202
 1977.4998779 5.0000000000 12.258000374 12.250000954 0.0140000004 0.3002099991 2.3059999943 59.439758301 90.275215149 91.048316956 1.0360137224 37.925750732 2.5319650173 2.5319650173
 1977.6248779 5.0000000000 12.266999245 12.250000954 0.0089999996 0.3014900088 2.3020000458 62.735565186 90.785156250 91.610893250 1.0360000134 37.628578186 2.5090448856 2.5090448856
 1977.7500000 5.0000000000 12.270001411 12.250000954 0.0060000001 0.3005100191 2.2999999523 64.366409302 91.130966187 91.909294128 1.0399960279 37.562065125 2.4670410156 2.4670410156
 1977.8750000 5.0000000000 12.270999908 12.250000954 0.0070000002 0.2968400121 2.2980000973 64.205001831 91.340164185 92.080314636 1.0449999571 37.743999481 2.4240000248 2.4240000248
 1978.0000000 5.0000000000 12.270001411 12.250000954 0.0120000001 0.2899799943 2.2999999523 63.388000488 91.410415649 92.153656006 1.0499999523 38.013999939 2.3949999809 2.3949999809
 1978.1250000 6.0000000000 12.270001411 12.250000954 0.0179999992 0.2811700106 2.3029999733 62.652000427 91.373847961 92.144538879 1.0529999733 38.268001556 2.3870000839 2.3870000839
 1978.2500000 6.0000000000 12.270999908 12.250000954 0.0209999997 0.2728199959 2.3050000668 62.312000275 91.289680481 92.060348511 1.0540000200 38.472999573 2.4019999504 2.4019999504
 1978.3750000 6.0000000000 12.272000313 12.250000954 0.0219999999 0.2676300108 2.3059999943 62.219001770 91.034210205 91.887847900 1.0549999475 38.666000366 2.4379999638 2.4379999638
 1978.4998779 6.0000000000 12.272999763 12.250000954 0.0199999996 0.2683700025 2.3069999218 62.022190094 90.909332275 91.643333435 1.0549999475 38.867801666 2.4769618511 2.4769618511
 1978.6248779 6.0000000000 12.276000023 12.250000954 0.0170000009 0.2740399837 2.3069999218 61.667694092 90.669235229 91.353157043 1.0579941273 39.033676147 2.5059435368 2.5059435368
 1978.7498779 6.0000000000 12.277999878 12.250000954 0.0130000003 0.2823100090 2.3059999943 61.286743164 90.344291687 91.059745789 1.0629901886 39.076915741 2.5149824619 2.5149824619
 1978.8750000 6.0000000000 12.281999588 12.250000954 0.0089999996 0.2896200120 2.3029999733 61.231052399 90.070098877 90.819396973 1.0739892721 38.932140350 2.4930214882 2.4930214882
 1979.0000000 6.0000000000 12.284999847 12.250000954 0.0070000002 0.2920299768 2.2990000248 61.673999786 89.992866516 90.713470459 1.0880000591 38.717998505 2.4530000687 2.4530000687
 1979.1250000 6.0000000000 12.286999702 12.250000954 0.0070000002 0.2888699770 2.2960000038 62.589000702 90.118965149 90.808822632 1.1080000401 38.599998474 2.4079999924 2.4079999924
 1979.2500000 6.0000000000 12.286000252 12.250000954 0.0089999996 0.2810800076 2.2929999828 63.587001801 90.342247009 91.024627686 1.1319999695 38.743999481 2.3780000210 2.3780000210
 1979.3750000 6.0000000000 12.281999588 12.250000954 0.0120000001 0.2720099986 2.2929999828 63.895999908 90.555931091 91.259239197 1.1599999666 39.263000488 2.3889999390 2.3889999390
 1979.5000000 6.0000000000 12.277999878 12.250000954 0.0130000003 0.2668400109 2.2969999313 63.451000214 90.627861023 91.395797729 1.1909999847 39.997001648 2.4419999123 2.4419999123
 1979.6248779 6.0000000000 12.274999619 12.250000954 0.0089999996 0.2674799860 2.3059999943 62.586841583 90.447807312 91.320610046 1.2229688168 40.799213409 2.5329110622 2.5329110622
 1979.7498779 6.0000000000 12.273999214 12.250000954 0.0060000001 0.2729700208 2.3180000782 61.667896271 90.192634583 90.926101685 1.2549687624 41.565254211 2.6398956776 2.6398956776
 1979.8748779 6.0000000000 12.273999214 12.250000954 0.0040000002 0.2809499800 2.3289999962 60.992321014 89.620407104 90.320419312 1.2869374752 42.224712372 2.7258322239 2.7258322239
 1980.0000000 6.0000000000 12.273999214 12.250000954 0.0070000002 0.2895799875 2.3340001106 60.645339966 89.006584167 89.696441650 1.3199678659 42.761478424 2.7659609318 2.7659609318
 1980.1250000 6.0000000000 12.272999763 12.250000954 0.0099999998 0.2986100018 2.3310000896 60.792854309 88.538711548 89.231086731 1.3509696722 43.148620605 2.7630028725 2.7630028725
 1980.2500000 6.0000000000 12.272999763 12.250000954 0.0109999999 0.3085800111 2.3239998817 61.506999969 88.376403809 89.074501038 1.3799999952 43.375000000 2.7339999676 2.7339999676
 1980.3750000 6.0000000000 12.277001381 12.250000954 0.0089999996 0.3182699978 2.3159999847 62.671001434 88.669990540 89.332260132 1.4040000439 43.443000793 2.7100000381 2.7100000381
 1980.5000000 6.0000000000 12.288999557 12.250000954 0.0070000002 0.3227899969 2.3150000572 63.825000763 89.289466858 90.013343811 1.4240000248 43.419998169 2.7060000896 2.7060000896
 1980.6250000 6.0000000000 12.305000305 12.250000954 0.0089999996 0.3211899996 2.3210000992 64.683998108 90.108497620 90.813438416 1.4420000315 43.354999542 2.7279999256 2.7279999256
 1980.7498779 6.0000000000 12.322999954 12.250000954 0.0160000008 0.3161900043 2.3340001106 65.373329163 90.882438660 91.557037354 1.4579843283 43.300052643 2.7709579468 2.7709579468
 1980.8748779 6.0000000000 12.335000992 12.250000954 0.0230000000 0.3120900095 2.3480000496 66.362030029 91.429931641 92.109741211 1.4759824276 43.362937927 2.8319404125 2.8319404125
 1980.9998779 6.0000000000 12.340000153 12.250000954 0.0260000005 0.3122099936 2.3570001125 67.765258789 91.653938293 92.389114380 1.4949629307 43.596542358 2.8968732357 2.8968732357
 1981.1248779 6.0000000000 12.340000153 12.250000954 0.0240000002 0.3148699999 2.3599998951 69.369865417 91.593635559 92.396263123 1.5159590244 43.985240936 2.9598770142 2.9598770142
 1981.2500000 6.0000000000 12.338000298 12.250000954 0.0170000009 0.3169199824 2.3559999466 70.680717468 91.500228882 92.225418091 1.5389776230 44.443553925 3.0149464607 3.0149464607
