# LAS format log file from PETREL
# Project units are specified as depth units
#==================================================================
~Version information
VERS.   2.0:
WRAP.   NO:
#==================================================================
~Well
STRT .m      349.62512207 :
STOP .m      2379.4997559 :
STEP .m     0.00000000 :
NULL .        -999.250000 :
COMP.           : COMPANY
WELL.  31/3-1   : WELL
FLD.            : FIELD
LOC.            : LOCATION
SRVC.           : SERVICE COMPANY
DATE.  2018-09-11 14:48:35   : Log Export Date {yyyy-MM-dd HH:mm:ss}
PROV.           : PROVINCE
UWI.   31/3-1   : UNIQUE WELL ID
API.            : API NUMBER
#==================================================================
~Curve
DEPT .m                   : DEPTH
Lithology_geolink ._      : Lithology_geolink
CALI .in                  : CALI
BS .in                    : BS
DRHO .g/cm3               : DRHO
NPHI .m3/m3               : NPHI
RHOB .g/cm3               : RHOB
GR .gAPI                  : GR
DTC .us/ft                : DTC
DTE .us/ft                : DTE
RDEP .ohm.m               : RDEP
SP .mV                    : SP
RSHA .ohm.m               : RSHA
RMIC .ohm.m               : RMIC
RMED .ohm.m               : RMED
~Parameter
#==================================================================
~Ascii
# ...
 1707.7498779 5.0000000000 12.534000397 12.250000954 -0.003000000 0.2650099993 2.2867431641 75.680160522 104.71180725 99.560653687 0.9390000105 129.76499939 0.9909892678 1.0279999971 0.9909892678
 1707.8748779 5.0000000000 12.531999588 12.250000954 -0.014000000 0.2675400078 2.2794127464 75.842323303 105.01676178 99.790481567 0.9330000281 129.86000061 0.9799941778 0.9858070016 0.9799941778
 1707.9998779 5.0000000000 12.531999588 12.250000954 -0.030999999 0.2725799978 2.2642161846 76.170578003 105.35530090 100.09916687 0.9300000072 129.96200562 0.9739990234 0.9767310023 0.9739990234
 1708.1250000 5.0000000000 12.531999588 12.250000954 -0.046000000 0.2745499909 2.2452702522 76.761062622 105.63777161 100.40853882 0.9290000200 130.06399536 0.9730097651 0.9842320085 0.9730097651
 1708.2497559 5.0000000000 12.531000137 12.250000954 -0.049992189 0.2695098817 2.2292745113 77.302001953 105.94552612 100.65912628 0.9299980402 130.17999268 0.9779999852 1.0019999743 0.9779999852
 1708.3748779 5.0000000000 12.531000137 12.250000954 -0.042007811 0.2579013109 2.2277963161 77.765998840 106.11315918 100.83850098 0.9339960814 130.31900024 0.9840000272 1.0260000229 0.9840000272
 1708.4998779 5.0000000000 12.531000137 12.250000954 -0.022000000 0.2453199923 2.2430281639 77.766998291 106.07504272 100.80243683 0.9379960895 130.45399475 0.9919999838 1.0470000505 0.9919999838
 1708.6248779 5.0000000000 12.531000137 12.250000954 -0.001000000 0.2374899983 2.2647593021 77.815002441 105.84220123 100.65750885 0.9419960380 130.51699829 1.0000000000 1.0670000315 1.0000000000
 1708.7498779 5.0000000000 12.529998779 12.250000954 0.0089999996 0.2364899963 2.2847669125 78.283996582 105.62863922 100.47769165 0.9459960461 130.51499939 1.0060000420 1.0950000286 1.0060000420
 1708.8748779 5.0000000000 12.529998779 12.250000954 0.0040000002 0.2419700027 2.2963967323 78.924415588 105.54730988 100.31595612 0.9499999881 130.51199341 1.0080000162 1.1310000420 1.0080000162
 1708.9998779 5.0000000000 12.529998779 12.250000954 -0.009000000 0.2530800104 2.2959048748 79.345268250 105.42113495 100.19002533 0.9539999962 130.50999451 1.0080000162 1.1610000134 1.0080000162
 1709.1248779 5.0000000000 12.529998779 12.250000954 -0.022000000 0.2678500116 2.2847688198 78.590805054 105.32304382 100.11478424 0.9580000043 130.44299316 1.0080000162 1.1679999828 1.0080000162
 1709.2498779 5.0000000000 12.529000282 12.250000954 -0.027000001 0.2793799937 2.2756850719 76.337692261 105.39810181 100.17942047 0.9620000124 130.38299561 1.0080000162 1.1519999504 1.0080000162
 1709.3750000 5.0000000000 12.529000282 12.250000954 -0.020000000 0.2829599977 2.2730791569 73.977302551 105.54708099 100.35524750 0.9559999704 130.61500549 1.0079922676 1.1230000257 1.0079922676
 1709.4998779 5.0000000000 12.529000282 12.250000954 -0.009010741 0.2773554921 2.2774758339 72.085998535 105.73291016 100.55795288 0.9460097551 130.97999573 1.0039999485 1.0889999866 1.0039999485
 1709.6248779 1.0000000000 12.529998779 12.250000954 -0.002006836 0.2678099871 2.2859110832 70.990997314 105.93918610 100.69444275 0.9280175567 131.30099487 0.9980000257 1.0520000458 0.9980000257
 1709.7498779 1.0000000000 12.543999672 12.250000954 -0.006000000 0.2584799826 2.2904241085 70.435997009 106.00885010 100.76993561 0.9090185165 131.59100342 0.9919999838 1.0049999952 0.9919999838
 1709.8748779 1.0000000000 12.562000275 12.250000954 -0.018999999 0.2516199946 2.2831995487 70.179000854 105.86650848 100.61443329 0.8920166492 131.80099487 0.9840000272 0.9520249963 0.9840000272
 1709.9998779 1.0000000000 12.579999924 12.250000954 -0.035000000 0.2460400015 2.2683849335 69.524795532 105.46288300 100.18082428 0.8810107112 131.88800049 0.9720000029 0.9041500092 0.9720000029
 1710.1248779 1.0000000000 12.597998619 12.250000954 -0.046000000 0.2399900109 2.2502498627 68.286880493 104.65985107 99.416877747 0.8870000243 131.81199646 0.9559814334 0.8747580051 0.9559814334
 1710.2498779 1.0000000000 12.616999626 12.250000954 -0.050000001 0.2318300009 2.2329003811 66.114997864 103.40950775 98.248497009 0.9020000100 131.65699768 0.9369823933 0.8690249920 0.9369823933
 1710.3748779 1.0000000000 12.640000343 12.250000954 -0.048000000 0.2208799869 2.2195322514 63.047893524 101.79476166 96.562553406 0.9419999719 131.52799988 0.9189873338 0.9006559849 0.9189873338
 1710.5000000 1.0000000000 12.668999672 12.250000954 -0.041000001 0.2066300064 2.2156751156 59.868114471 99.087577820 93.872116089 1.0149999857 131.47900391 0.9060390592 0.9975129962 0.9060390592
 1710.6247559 1.0000000000 12.699000359 12.250000954 -0.028025391 0.1885354072 2.2266690731 57.881000519 95.788124084 90.579627991 1.1177988052 131.53700256 0.9259999990 1.2039999962 0.9259999990
 1710.7498779 1.0000000000 12.729000092 12.250000954 -0.006021484 0.1673606634 2.2575883865 56.852001190 91.860877991 86.631439209 1.1929267645 131.68499756 0.9750000238 1.6380000114 0.9750000238
 1710.8748779 1.0000000000 12.758999825 12.250000954 0.0219999999 0.1462099999 2.3095808029 56.639999390 87.217086792 82.016319275 1.2519423962 131.89100647 1.1139999628 2.5869998932 1.1139999628
 1710.9998779 1.0000000000 12.788998604 12.250000954 0.0480000004 0.1299999952 2.3797113895 56.453998566 81.844421387 76.752166748 1.2999531031 132.16200256 1.3930000067 4.0310001373 1.3930000067
 1711.1248779 16.000000000 12.819001198 12.250000954 0.0670000017 0.1208899990 2.4587268829 55.798999786 76.169181824 70.931442261 1.3239765167 132.56399536 1.7150000334 4.1770000458 1.7150000334
 1711.2498779 16.000000000 12.842000008 12.250000954 0.0710000023 0.1209300011 2.5188643932 54.829833984 71.357101440 66.069229126 1.3040000200 132.94799805 1.9119999409 2.9449999332 1.9119999409
 1711.3748779 16.000000000 12.845000267 12.250000954 0.0540000014 0.1301099956 2.5435590744 53.634029388 68.878623962 63.622123718 1.2630000114 133.34599304 1.8777226210 1.8040000200 1.8777226210
 1711.4998779 16.000000000 12.828000069 12.250000954 0.0140000004 0.1464300007 2.5238130093 52.641082764 69.063705444 63.836376190 1.1770000458 133.83900452 1.5936249495 1.2350000143 1.5936249495
 1711.6248779 16.000000000 12.803999901 12.250000954 -0.048999999 0.1681299955 2.4599845409 52.728813171 71.508224487 66.288421631 1.0369999409 134.41299438 1.2097754478 0.9531570077 1.2097754478
 1711.7497559 16.000000000 12.779999733 12.250000954 -0.103892684 0.1891089976 2.3630638123 53.561000824 75.265724182 70.088371277 0.9072536826 135.14100647 0.9800000191 0.8205940127 0.9800000191
 1711.8748779 1.0000000000 12.755999565 12.250000954 -0.131972656 0.2054240853 2.2688524723 54.937000275 81.083686829 75.859558105 0.8200849295 135.73599243 0.8679999709 0.7509809732 0.8679999709
 1711.9998779 1.0000000000 12.732000351 12.250000954 -0.124007814 0.2140299976 2.2087280750 55.768001556 86.827430725 81.572319031 0.7510673404 136.01300049 0.7839999795 0.7044900060 0.7839999795
 1712.1248779 1.0000000000 12.711999893 12.250000954 -0.104000002 0.2176499963 2.1757683754 56.069999695 91.712768555 86.448066711 0.6950547099 136.24000549 0.7319999933 0.6677460074 0.7319999933
 1712.2498779 1.0000000000 12.694000244 12.250000954 -0.088000000 0.2189999968 2.1594066620 56.331001282 95.607864380 90.350395203 0.6390547156 136.38000488 0.7129999995 0.6394940019 0.7129999995
 1712.3748779 1.0000000000 12.676000595 12.250000954 -0.082000002 0.2215099931 2.1490576267 56.976913452 98.614868164 93.374656677 0.5840536952 136.11399841 0.7080000043 0.6251029968 0.7080000043
 1712.4998779 1.0000000000 12.657999992 12.250000954 -0.075999998 0.2257900089 2.1398751736 57.911186218 100.69960022 95.486122131 0.5469999909 135.80499268 0.7050039172 0.6248239875 0.7050039172
 1712.6248779 1.0000000000 12.640000343 12.250000954 -0.061000001 0.2309000045 2.1415007114 59.126323700 102.07656860 96.944999695 0.5400000215 135.45399475 0.7090107203 0.6297540069 0.7090107203
 1712.7498779 1.0000000000 12.626999855 12.250000954 -0.043000001 0.2355599999 2.1525664330 60.482158661 103.31597900 98.122215271 0.5529999733 135.09800720 0.7200068831 0.6349629760 0.7200068831
