# LAS format log file from PETREL
# Project units are specified as depth units
#==================================================================
~Version information
VERS.   2.0:
WRAP.   NO:
#==================================================================
~Well
STRT .m      349.62512207 :
STOP .m      2379.4997559 :
STEP .m     0.00000000 :
NULL .        -999.250000 :
COMP.           : COMPANY
WELL.  31/3-1   : WELL
FLD.            : FIELD
LOC.            : LOCATION
SRVC.           : SERVICE COMPANY
DATE.  2018-09-11 14:48:35   : Log Export Date {yyyy-MM-dd HH:mm:ss}
PROV.           : PROVINCE
UWI.   31/3-1   : UNIQUE WELL ID
API.            : API NUMBER
#==================================================================
~Curve
DEPT .m                   : DEPTH
Lithology_geolink ._      : Lithology_geolink
CALI .in                  : CALI
BS .in                    : BS
DRHO .g/cm3               : DRHO
NPHI .m3/m3               : NPHI
RHOB .g/cm3               : RHOB
GR .gAPI                  : GR
DTC .us/ft                : DTC
DTE .us/ft                : DTE
RDEP .ohm.m               : RDEP
SP .mV                    : SP
RSHA .ohm.m               : RSHA
RMIC .ohm.m               : RMIC
RMED .ohm.m               : RMED
~Parameter
#==================================================================
~Ascii
# ...
 636.62506104  -999.250000 13.373999596  -999.250000  -999.250000  -999.250000 1.9741766453 72.286834717 174.25360107 168.34042358 1.3249912262 22.714000702 1.5019941330  -999.250000 1.5019941330
 636.75006104  -999.250000 13.359000206  -999.250000  -999.250000  -999.250000 1.9739537239 73.535079956 174.30014038 168.41479492 1.3189927340 22.673999786 1.4979927540  -999.250000 1.4979927540
 636.87506104  -999.250000 13.344000816  -999.250000  -999.250000  -999.250000 1.9738050699 74.957824707 174.33863831 168.45385742 1.3139960766 22.642999649 1.4929951429  -999.250000 1.4929951429
 637.00006104  -999.250000 13.331999779  -999.250000  -999.250000  -999.250000 1.9738870859 75.798957825 174.34698486 168.42127991 1.3099926710 22.625999451 1.4879951477  -999.250000 1.4879951477
 637.12512207  -999.250000 13.329999924  -999.250000  -999.250000  -999.250000 1.9741770029 75.769149780 174.26574707 168.33906555 1.3049901724 22.621000290 1.4829956293  -999.250000 1.4829956293
 637.25006104  -999.250000 13.340000153  -999.250000  -999.250000  -999.250000 1.9744536877 75.334312439 174.16281128 168.24250793 1.2999926805 22.625999451 1.4799985886  -999.250000 1.4799985886
 637.37506104  -999.250000 13.362999916  -999.250000  -999.250000  -999.250000 1.9746664762 74.866668701 174.06340027 168.16093445 1.2949950695 22.645999908 1.4790018797  -999.250000 1.4790018797
 637.50006104  -999.250000 13.390999794  -999.250000  -999.250000  -999.250000 1.9747847319 74.534713745 173.99960327 168.12277222 1.2899969816 22.694999695 1.4810029268  -999.250000 1.4810029268
 637.62506104  -999.250000 13.423999786  -999.250000  -999.250000  -999.250000 1.9747027159 74.337066650 174.04856873 168.15802002 1.2869985104 22.788999557 1.4840048552  -999.250000 1.4840048552
 637.75012207  -999.250000 13.482000351  -999.250000  -999.250000  -999.250000 1.9743031263 75.068778992 174.18409729 168.30516052 1.2860039473 22.947999954 1.4890078306  -999.250000 1.4890078306
 637.87506104  -999.250000 13.568999290  -999.250000  -999.250000  -999.250000 1.9737092257 77.002914429 174.37149048 168.49414063 1.2880029678 23.132999420 1.4930030107  -999.250000 1.4930030107
 638.00006104  -999.250000 13.671999931  -999.250000  -999.250000  -999.250000 1.9731397629 79.674751282 174.59237671 168.67489624 1.2900018692 23.291000366 1.4949960709  -999.250000 1.4949960709
 638.12506104  -999.250000 13.746999741  -999.250000  -999.250000  -999.250000 1.9727492332 81.471603394 174.75793457 168.80776978 1.2920030355 23.361000061 1.4909932613  -999.250000 1.4909932613
 638.25012207  -999.250000 13.758000374  -999.250000  -999.250000  -999.250000 1.9726073742 81.877914429 174.76570129 168.86775208 1.2950018644 23.354999542 1.4839926958  -999.250000 1.4839926958
 638.37506104  -999.250000 13.682000160  -999.250000  -999.250000  -999.250000 1.9726893902 80.811836243 174.76570129 168.84628296 1.2960000038 23.451000214 1.4789999723  -999.250000 1.4789999723
 638.50006104  -999.250000 13.574000359  -999.250000  -999.250000  -999.250000 1.9727715254 79.332069397 174.72311401 168.81454468 1.2959985733 23.857999802 1.4790072441  -999.250000 1.4790072441
 638.62506104  -999.250000 13.468999863  -999.250000  -999.250000  -999.250000 1.9728000164 78.696678162 174.70611572 168.80609131 1.2949999571 24.618999481 1.4840048552  -999.250000 1.4840048552
 638.75006104  -999.250000 13.397000313  -999.250000  -999.250000  -999.250000 1.9727289677 79.392425537 174.72727966 168.82301331 1.2949999571 25.541000366 1.4890029430  -999.250000 1.4890029430
 638.87512207  -999.250000 13.345000267  -999.250000  -999.250000  -999.250000 1.9725823402 80.365730286 174.77618408 168.85653687 1.2949999571 26.357000351 1.4919999838  -999.250000 1.4919999838
 639.00006104  -999.250000 13.298999786  -999.250000  -999.250000  -999.250000 1.9725004435 80.226127625 174.82504272 168.89260864 1.2950013876 26.856000900 1.4919970036  -999.250000 1.4919970036
 639.12506104  -999.250000 13.258998871  -999.250000  -999.250000  -999.250000 1.9724184275 78.265815735 174.81681824 168.93310547 1.2960009575 27.099000931 1.4899970293  -999.250000 1.4899970293
 639.25006104  -999.250000 13.235000610  -999.250000  -999.250000  -999.250000 1.9722092152 75.009246826 174.89738464 169.00045776 1.2970019579 27.166000366 1.4869980812  -999.250000 1.4869980812
 639.37506104  -999.250000 13.243000031  -999.250000  -999.250000  -999.250000 1.9718718529 71.768051147 174.99899292 169.10325623 1.2990014553 27.170999527 1.4850000143  -999.250000 1.4850000143
 639.50012207  -999.250000 13.274999619  -999.250000  -999.250000  -999.250000 1.9714614153 69.753753662 175.11044312 169.23275757 1.3000038862 27.153999329 1.4850039482  -999.250000 1.4850039482
 639.62506104  -999.250000 13.319000244  -999.250000  -999.250000  -999.250000 1.9710708857 69.630195618 175.24468994 169.36628723 1.3020044565 27.173000336 1.4870043993  -999.250000 1.4870043993
 639.75006104  -999.250000 13.361001015  -999.250000  -999.250000  -999.250000 1.9708249569 70.447822571 175.35122681 169.46427917 1.3050029278 27.250000000 1.4900019169  -999.250000 1.4900019169
 639.87506104  -999.250000 13.392000198  -999.250000  -999.250000  -999.250000 1.9707262516 71.294326782 175.40594482 169.49226379 1.3080039024 27.326000214 1.4920018911  -999.250000 1.4920018911
 640.00012207  -999.250000 13.413999557  -999.250000  -999.250000  -999.250000 1.9708116055 71.518486023 175.38238525 169.45774841 1.3120098114 27.232999802 1.4939999580  -999.250000 1.4939999580
 640.12506104  -999.250000 13.434000015  -999.250000  -999.250000  -999.250000 1.9710888863 71.256813049 175.28778076 169.36694336 1.3170088530 26.884000778 1.4939999580  -999.250000 1.4939999580
 640.25006104  -999.250000 13.459999084  -999.250000  -999.250000  -999.250000 1.9715187550 71.129264832 175.14562988 169.23229980 1.3230102062 26.173000336 1.4940029383  -999.250000 1.4940029383
 640.37506104  -999.250000 13.489000320  -999.250000  -999.250000  -999.250000 1.9720071554 71.312217712 174.99085999 169.07336426 1.3300068378 25.298999786 1.4960030317  -999.250000 1.4960030317
 640.50006104  -999.250000 13.515999794  -999.250000  -999.250000  -999.250000 1.9723352194 71.536659241 174.86134338 168.94384766 1.3370088339 24.469999313 1.4990038872  -999.250000 1.4990038872
 640.62512207  -999.250000 13.538001060  -999.250000  -999.250000  -999.250000 1.9725316763 71.301773071 174.82888794 168.88819885 1.3430098295 23.945999146 1.5030088425  -999.250000 1.5030088425
 640.75006104  -999.250000 13.548001289  -999.250000  -999.250000  -999.250000 1.9725042582 70.673286438 174.82530212 168.90083313 1.3480073214 23.790000916 1.5090116262  -999.250000 1.5090116262
 640.87506104  -999.250000 13.538999557  -999.250000  -999.250000  -999.250000 1.9723103046 70.184715271 174.85780334 168.96362305 1.3530073166 23.938999176 1.5170087814  -999.250000 1.5170087814
 641.00006104  -999.250000 13.519000053  -999.250000  -999.250000  -999.250000 1.9720524549 70.675552368 174.94950867 169.05474854 1.3580058813 24.173000336 1.5230009556  -999.250000 1.5230009556
 641.12506104  -999.250000 13.503000259  -999.250000  -999.250000  -999.250000 1.9717242718 72.261344910 175.05590820 169.16473389 1.3640072346 24.309999466 1.5239951611  -999.250000 1.5239951611
 641.25012207  -999.250000 13.513999939  -999.250000  -999.250000  -999.250000 1.9711681604 74.542762756 175.24499512 169.34823608 1.3690097332 24.208999634 1.5189863443  -999.250000 1.5189863443
 641.37506104  -999.250000 13.546999931  -999.250000  -999.250000  -999.250000 1.9704202414 76.468048096 175.50971985 169.59396362 1.3740057945 24.006000519 1.5119955540  -999.250000 1.5119955540
 641.50006104  -999.250000 13.586999893  -999.250000  -999.250000  -999.250000 1.9696398973 77.862716675 175.77503967 169.85829163 1.3780000210 23.792999268 1.5090038776  -999.250000 1.5090038776
 641.62506104  -999.250000 13.605999947  -999.250000  -999.250000  -999.250000 1.9690119028 78.593856812 175.97605896 170.07890320 1.3779981136 23.622999191 1.5130078793  -999.250000 1.5130078793
