# LAS format log file from PETREL
# Project units are specified as depth units
#==================================================================
~Version information
VERS.   2.0:
WRAP.   NO:
#==================================================================
~Well
STRT .m      1287.9324951 :
STOP .m      2115.3120117 :
STEP .m     0.00000000 :
NULL .        -999.250000 :
COMP.           : COMPANY
WELL.  31/3-4   : WELL
FLD.            : FIELD
LOC.            : LOCATION
SRVC.           : SERVICE COMPANY
DATE.  2018-09-11 14:48:36   : Log Export Date {yyyy-MM-dd HH:mm:ss}
PROV.           : PROVINCE
UWI.   31/3-4   : UNIQUE WELL ID
API.            : API NUMBER
#==================================================================
~Curve
DEPT .m                   : DEPTH
Lithology_geolink ._      : Lithology_geolink
CALI .in                  : CALI
BS .in                    : BS
ROP .m/h                  : ROP
DRHO .g/cm3               : DRHO
NPHI .m3/m3               : NPHI
RHOB .g/cm3               : RHOB
PEF .b/e                  : PEF
GR .gAPI                  : GR
DTC .us/ft                : DTC
DTS .us/ft                : DTS
RDEP .ohm.m               : RDEP
RSHA .ohm.m               : RSHA
RMIC .ohm.m               : RMIC
RMED .ohm.m               : RMED
~Parameter
#==================================================================
~Ascii
# ...
 1888.2360840 6.0000000000 8.3074998856 8.5000000000 99.037330627 -0.009296074 0.2290000021 2.3578984737 5.6225399971 113.72496033 69.111541748 141.54959106 0.8088718057 0.6931496859 0.6929937601 0.7185000181
 1888.3884277 6.0000000000 8.3002004623 8.5000000000 99.353530884 -0.004395673 0.2179999948 2.3560082912 5.2981152534 114.17608643 71.466079712 147.14880371 0.7736508250 0.6303534508 0.6851880550 0.7297999859
 1888.5408936 6.0000000000 8.3149003983 8.5000000000 104.50680542 0.0010016013 0.2336000055 2.3664963245 5.1924977303 116.51742554 79.259132385 154.40251160 0.7122859359 0.5722881556 0.6702796817 0.6840999722
 1888.6932373 6.0000000000 8.3221998215 8.5000000000 113.87297058 0.0019991186 0.2863999903 2.3641943932 5.1909112930 110.16048431 87.256103516 169.56370544 0.7034934163 0.5648929477 0.6576004624 0.6761000156
 1888.8457031 6.0000000000 8.2927999496 8.5000000000 126.11721039 0.0008993595 0.3122999966 2.3570950031 5.2052593231 97.400772095 92.368576050 177.81245422 0.6952733994 0.5560697317 0.6583279967 0.6685000062
 1888.9980469 6.0000000000 8.2854003906 8.5000000000 158.50949097 0.0005002404 0.2797000110 2.3539979458 5.2422227859 83.663177490 94.392555237 182.32937622 0.6786968708 0.5371947885 0.7380546927 0.6529999971
 1889.1505127 3.0000000000 8.2927999496 8.5000000000 192.81817627 0.0007940753 0.2572000027 2.3513667583 5.2708659172 76.528625488 93.931533813 184.29043579 0.6747889519 0.5306894779 0.6814049482 0.6495000124
 1889.3028564 3.0000000000 8.2707004547 8.5000000000 183.38429260 -0.002909295 0.2651000023 2.3306615353 5.2498383522 75.858123779 94.406387329 186.67704773 0.6678916812 0.5240957737 0.5597181916 0.6435999870
 1889.4552002 3.0000000000 8.2487001419 8.5000000000 211.77662659 -0.014510408 0.2653999925 2.2827537060 5.2973175049 75.393852234 96.021095276 188.95845032 0.6574829817 0.5187928677 0.4576592743 0.6438000202
 1889.6076660 3.0000000000 8.1899003983 8.5000000000 249.92950439 -0.027505849 0.2721000016 2.2250654697 5.3195114136 76.950172424 97.384231567 190.65364075 0.6361852884 0.5099286437 0.4067784548 0.6244000196
 1889.7600098 3.0000000000 8.2707004547 8.5000000000 254.50964355 -0.034797840 0.2808000147 2.1818890572 5.2088942528 73.797653198 96.653701782 191.56985474 0.6177963018 0.5457033515 0.3798804581 0.5794000030
 1889.9124756 3.0000000000 8.2781000137 8.5000000000 273.89398193 -0.032092869 0.2858999968 2.1684055328 4.9522604942 74.983604431 94.722717285 192.00740051 0.6132000089 0.5499004722 0.3554895222 0.5705999732
 1890.0648193 3.0000000000 8.2634000778 8.5000000000 275.85720825 -0.023194635 0.2818000019 2.1752042770 4.6534395218 71.499801636 93.899665833 190.75775146 0.6132006645 0.5504992008 0.3424062729 0.5713000298
 1890.2172852 3.0000000000 8.2671003342 8.5000000000 269.61904907 -0.016497355 0.2763999999 2.1804976463 4.5778141022 71.625938416 93.751739502 188.82659912 0.6139994860 0.5494981408 0.3502124846 0.5716000199
 1890.3696289 3.0000000000 8.2559995651 8.5000000000 259.32061768 -0.013200080 0.2594999969 2.1773977280 4.5956330299 74.925186157 93.472251892 187.84550476 0.6132992506 0.5471996069 0.3658104241 0.5713999867
 1890.5220947 3.0000000000 8.2634000778 8.5000000000 257.74029541 -0.013309767 0.2621999979 2.1742899418 4.6367044449 80.393104553 93.189010620 186.85401917 0.6122951508 0.5467054248 0.3787927926 0.5709000230
 1890.6744385 3.0000000000 8.2559995651 8.5000000000 227.58876038 -0.019403208 0.2691000104 2.1680972576 4.7020192146 80.140762329 91.524192810 179.86825562 0.6092911959 0.5500925183 0.3742826283 0.5647000074
 1890.8269043 3.0000000000 8.2781000137 8.5000000000 253.99285889 -0.023384307 0.2714999914 2.1644926071 4.8510193825 73.860778809 87.082092285 168.78720093 0.5996524096 0.5416530967 0.3527031243 0.5370000005
 1890.9792480 3.0000000000 8.2412996292 8.5000000000 257.49533081 -0.013572676 0.2597999871 2.2223587036 4.9879980087 74.532623291 81.094245911 156.74516296 1.4674015045 1.1537784338 0.4173983932 1.1929999590
 1891.1317139 3.0000000000 8.2046003342 8.5000000000 224.64776611 0.0205091275 0.1041999981 2.4207074642 5.2348036766 77.562461853 77.071067810 146.21485901 32.008392334 23.440809250 0.9250405431 25.829599380
 1891.2840576 3.0000000000 8.2781000137 8.5000000000 225.11331177 0.0261894241 0.0502000004 2.5501306057 5.2993335724 80.965484619 74.559745789 137.81849670 24.209550858 18.831951141 7.6931538582 20.063499451
 1891.4364014 16.000000000 8.2634000778 8.5000000000 190.85575867 0.0129880710 0.0305000003 2.5880913734 5.3406729698 78.456985474 72.217826843 122.70812225 24.024528503 18.521709442 18.985546112 19.892499924
 1891.5888672 16.000000000 8.2707004547 8.5000000000 156.57633972 -0.001901282 0.0353999995 2.5773935318 5.3065981865 76.943321228 69.550743103 106.15591431 23.936750412 18.534313202 21.656917572 19.871700287
 1891.7412109 16.000000000 8.2634000778 8.5000000000 95.494834900 -0.003498639 0.0399000011 2.5692987442 5.3044123650 73.232719421 67.018898010 108.18797302 23.875190735 18.425346375 12.449602127 19.828599930
 1891.8936768 3.0000000000 8.2559995651 8.5000000000 86.584915161 -0.001802404 0.0406999998 2.5677580833 5.3197422028 71.132713318 65.331977844 110.53268433 22.859771729 17.604763031 11.446697235 19.026100159
 1892.0460205 3.0000000000 8.2634000778 8.5000000000 76.277565002 -0.004808967 0.0410000011 2.5152947903 5.3729128838 70.282241821 64.245796204 115.87978363 16.578315735 12.313551903 3.5848135948 14.036600113
 1892.1984863 3.0000000000 8.2781000137 8.5000000000 66.043891907 -0.016006652 0.0562000014 2.3841259480 5.6384229660 72.329658508 66.692550659 126.48529816 2.9939200878 2.2686297894 0.8560469747 2.5776000023
 1892.3508301 3.0000000000 8.2412996292 8.5000000000 60.634590149 -0.024308646 0.1024999991 2.2916076183 5.6669101715 69.910835266 73.993415833 146.56311035 0.6496087313 0.5601252913 0.5403531194 0.5985999703
 1892.5032959 3.0000000000 8.2229003906 8.5000000000 60.308238983 -0.035100404 0.1951999962 2.1764836311 5.5551023483 68.326461792 82.055717468 153.45457458 0.6604861021 0.5916513205 0.3570905626 0.6830000281
 1892.6556396 3.0000000000 8.2265996933 8.5000000000 59.700817108 -0.035595834 0.2878000140 2.1561093330 5.3080911636 67.039535522 88.965995789 164.04574585 0.6431890130 0.5309031010 0.3452975750 0.6962000132
 1892.8081055 3.0000000000 8.2854003906 8.5000000000 60.551074982 -0.030395357 0.4296999872 2.1678087711 4.9224815369 74.571891785 94.639488220 194.29602051 0.6294404268 0.5347351432 0.3422980905 0.6766999960
 1892.9604492 3.0000000000 8.3002004623 8.5000000000 57.831783295 -0.027499840 0.2872000039 2.1733002663 4.7862749100 78.496307373 97.332374573 193.81045532 0.5923028588 0.4942973554 0.3410918415 0.5993000269
 1893.1129150 3.0000000000 8.2890996933 8.5000000000 64.926193237 -0.027300479 0.2522000074 2.1735031605 4.7546977997 78.385406494 97.380989075 199.75238037 0.5959038138 0.4910004735 0.3308921754 0.5881999731
 1893.2652588 3.0000000000 8.2854003906 8.5000000000 84.778129578 -0.027599119 0.2495999932 2.1755130291 4.7531614304 77.651741028 97.422134399 200.54861450 0.5982999802 0.4912992716 0.3259980679 0.5895000100
 1893.4177246 3.0000000000 8.2854003906 8.5000000000 88.781234741 -0.026484948 0.2460000068 2.1920976639 4.8303694725 89.827888489 98.069496155 198.81541443 0.5983206630 0.4904110432 0.3237311244 0.5885999799
 1893.5700684 6.0000000000 8.2781000137 8.5000000000 96.814865112 -0.017091747 0.2560000122 2.2531626225 4.9986844063 107.84718323 97.816894531 198.69731140 0.6112777591 0.4973519146 0.4056439996 0.5957000256
 1893.7224121 6.0000000000 8.2781000137 8.5000000000 115.11411285 -0.006794876 0.2707000077 2.3315474987 5.3536496162 120.30665588 96.819869995 199.44406128 0.7090513110 0.5626028180 0.5855209827 0.6751999855
 1893.8748779 6.0000000000 8.2340002060 8.5000000000 117.47556305 -0.000401683 0.2707000077 2.3907089233 5.7904410362 123.61450958 96.298530579 197.27119446 1.6470330954 1.1903914213 0.9861294031 1.4987000227
 1894.0272217 6.0000000000 8.1752004623 8.5000000000 98.856460571 -0.002502802 0.2883000076 2.4015903473 6.2159934044 117.26738739 96.147354126 196.50527954 2.0621793270 1.5537853241 1.0227961540 1.8233000040
