# LAS format log file from PETREL
# Project units are specified as depth units
#==================================================================
~Version information
VERS.   2.0:
WRAP.   NO:
#==================================================================
~Well
STRT .m      349.62512207 :
STOP .m      2379.4997559 :
STEP .m     0.00000000 :
NULL .        -999.250000 :
COMP.           : COMPANY
WELL.  31/3-1   : WELL
FLD.            : FIELD
LOC.            : LOCATION
SRVC.           : SERVICE COMPANY
DATE.  2018-09-11 14:48:35   : Log Export Date {yyyy-MM-dd HH:mm:ss}
PROV.           : PROVINCE
UWI.   31/3-1   : UNIQUE WELL ID
API.            : API NUMBER
#==================================================================
~Curve
DEPT .m                   : DEPTH
Lithology_geolink ._      : Lithology_geolink
CALI .in                  : CALI
BS .in                    : BS
DRHO .g/cm3               : DRHO
NPHI .m3/m3               : NPHI
RHOB .g/cm3               : RHOB
GR .gAPI                  : GR
DTC .us/ft                : DTC
DTE .us/ft                : DTE
RDEP .ohm.m               : RDEP
SP .mV                    : SP
RSHA .ohm.m               : RSHA
RMIC .ohm.m               : RMIC
RMED .ohm.m               : RMED
~Parameter
#==================================================================
~Ascii
# ...
 1036.3750000 5.0000000000 18.076999664  -999.250000 -0.023000000  -999.250000 2.0530855656 74.171203613 139.80413818 133.90405273 1.0649893284 74.163002014 1.0579882860  -999.250000 1.0579882860
 1036.5000000 5.0000000000 18.072999954  -999.250000 -0.024998048  -999.250000 2.0495364666 75.405860901 140.16218567 134.23376465 1.0539873838 74.408996582 1.0459843874  -999.250000 1.0459843874
 1036.6250000 5.0000000000 18.069000244  -999.250000 -0.019005859  -999.250000 2.0502417088 76.290603638 140.66528320 134.73672485 1.0409853458 74.679000854 1.0299892426  -999.250000 1.0299892426
 1036.7500000 5.0000000000 18.066999435  -999.250000 -0.002016602  -999.250000 2.0644364357 76.904563904 141.24702454 135.43605042 1.0260000229 74.918998718 1.0189981461  -999.250000 1.0189981461
 1036.8750000 5.0000000000 18.065999985  -999.250000 0.0170000009  -999.250000 2.0894055367 77.486618042 141.92324829 136.00010681 1.0119873285 75.098999023 1.0170078278  -999.250000 1.0170078278
 1037.0000000 5.0000000000 18.065999985  -999.250000 0.0270000007  -999.250000 2.1119017601 78.119613647 142.08750916 136.18605042 0.9989922047 75.177001953 1.0250136852  -999.250000 1.0250136852
 1037.1250000 5.0000000000 18.065999985  -999.250000 0.0230039023  -999.250000 2.1247572899 78.741516113 141.81562805 135.92420959 0.9909990430 75.138000488 1.0390107632  -999.250000 1.0390107632
 1037.2500000 5.0000000000 18.066999435  -999.250000 0.0120107420  -999.250000 2.1252174377 79.269378662 141.21945190 135.27676392 0.9900000095 74.978996277 1.0500029325  -999.250000 1.0500029325
 1037.3750000 5.0000000000 18.069999695  -999.250000 0.0030000000  -999.250000 2.1159484386 79.662536621 140.23963928 134.44322205 0.9960097671 74.714996338 1.0529969931  -999.250000 1.0529969931
 1037.5000000 5.0000000000 18.072000504  -999.250000 0.0010000000  -999.250000 2.1071760654 80.211364746 139.85447693 133.91629028 1.0060088634 74.425003052 1.0499931574  -999.250000 1.0499931574
 1037.6250000 5.0000000000 18.072000504  -999.250000 0.0069941464  -999.250000 2.1049773693 81.608482361 139.69050598 133.77624512 1.0150039196 74.197998047 1.0429931879  -999.250000 1.0429931879
 1037.7500000 5.0000000000 18.068000793  -999.250000 0.0159912109  -999.250000 2.1089398861 84.145072937 139.75988770 133.86878967 1.0190000534 74.147003174 1.0359941721  -999.250000 1.0359941721
 1037.8750000 5.0000000000 18.062999725  -999.250000 0.0239921883  -999.250000 2.1175508499 87.289390564 139.88923645 133.99563599 1.0190000534 74.242996216 1.0299990177  -999.250000 1.0299990177
 1038.0000000 6.0000000000 18.059000015  -999.250000 0.0280000009  -999.250000 2.1282892227 89.732124329 139.84626770 133.95352173 1.0129921436 74.441001892 1.0290049314  -999.250000 1.0290049314
 1038.1250000 6.0000000000 18.055999756  -999.250000 0.0240000002  -999.250000 2.1367406845 90.879920959 139.55276489 133.56591797 1.0049911737 74.626998901 1.0340068340  -999.250000 1.0340068340
 1038.2500000 6.0000000000 18.055999756  -999.250000 0.0100136586  -999.250000 2.1325750351 90.803604126 138.90953064 132.92623901 0.9959921837 74.736000061 1.0410019159  -999.250000 1.0410019159
 1038.3750000 6.0000000000 18.059999466  -999.250000 -0.008981445  -999.250000 2.1173605919 90.399688721 138.28977966 132.36161804 0.9879941344 74.748001099 1.0429921150  -999.250000 1.0429921150
 1038.5000000 6.0000000000 18.066999435  -999.250000 -0.023985352  -999.250000 2.0974483490 90.077255249 138.02552795 132.11647034 0.9819999933 74.697998047 1.0349862576  -999.250000 1.0349862576
 1038.6250000 6.0000000000 18.076000214  -999.250000 -0.024000000  -999.250000 2.0803565979 89.310195923 138.27470398 132.36528015 0.9759902358 74.606002808 1.0209883451  -999.250000 1.0209883451
 1038.7500000 6.0000000000 18.086000443  -999.250000 -0.016000001  -999.250000 2.0729734898 87.464019775 138.97897339 133.18605042 0.9659873247 74.487998962 1.0089931488  -999.250000 1.0089931488
 1038.8750000 5.0000000000 18.093000412  -999.250000 -0.009006829  -999.250000 2.0751869678 84.411590576 140.45086670 134.55184937 0.9529853463 74.374000549 1.0019969940  -999.250000 1.0019969940
 1039.0000000 5.0000000000 18.097000122  -999.250000 -0.014994141  -999.250000 2.0715951920 80.921142578 141.83540344 135.95983887 0.9380000234 74.325996399 0.9989951253  -999.250000 0.9989951253
 1039.1250000 5.0000000000 18.099000931  -999.250000 -0.032000002  -999.250000 2.0579953194 77.994590759 143.08813477 137.16841125 0.9249902368 74.372001648 0.9939892888  -999.250000 0.9939892888
 1039.2500000 5.0000000000 18.099000931  -999.250000 -0.052999999  -999.250000 2.0368769169 76.551383972 144.04241943 138.08448792 0.9149931669 74.536003113 0.9829863310  -999.250000 0.9829863310
 1039.3750000 5.0000000000 18.097000122  -999.250000 -0.063989274  -999.250000 2.0149552822 76.946960449 144.62702942 138.72247314 0.9079941511 74.754997253 0.9689872861  -999.250000 0.9689872861
 1039.5000000 5.0000000000 18.094999313  -999.250000 -0.062001951  -999.250000 2.0031492710 78.953178406 145.21601868 139.20872498 0.9019931555 74.953002930 0.9559950829  -999.250000 0.9559950829
 1039.6250000 5.0000000000 18.094999313  -999.250000 -0.050011721  -999.250000 2.0104684830 82.212135315 145.70938110 139.80409241 0.8949999809 75.047996521 0.9510019422  -999.250000 0.9510019422
 1039.7500000 5.0000000000 18.097999573  -999.250000 -0.035999998  -999.250000 2.0267291069 85.421310425 146.40914917 140.50440979 0.8869912624 75.011001587 0.9530058503  -999.250000 0.9530058503
 1039.8750000 5.0000000000 18.101999283  -999.250000 -0.022000000  -999.250000 2.0457582474 87.784072876 147.14289856 141.22152710 0.8779922128 74.839996338 0.9590039253  -999.250000 0.9590039253
 1040.0000000 5.0000000000 18.104999542  -999.250000 -0.012009757  -999.250000 2.0629637241 88.885452271 147.74468994 141.85612488 0.8699941635 74.565002441 0.9629980326  -999.250000 0.9629980326
 1040.1250000 5.0000000000 18.107000351  -999.250000 -0.005006836  -999.250000 2.0758132935 89.344329834 148.12953186 142.31671143 0.8639951348 74.259002686 0.9609922171  -999.250000 0.9609922171
 1040.2500000 5.0000000000 18.104999542  -999.250000 -0.000004883  -999.250000 2.0844285488 89.681503296 148.42376709 142.50657654 0.8590000272 73.980003357 0.9529912472  -999.250000 0.9529912472
 1040.3750000 5.0000000000 18.104000092  -999.250000 0.0030000000  -999.250000 2.0932509899 90.197357178 148.47039795 142.56474304 0.8539931178 73.771003723 0.9439941645  -999.250000 0.9439941645
 1040.5000000 5.0000000000 18.103000641  -999.250000 0.0060000001  -999.250000 2.1029241085 90.567642212 148.47045898 142.54986572 0.8469902277 73.694999695 0.9380009770  -999.250000 0.9380009770
 1040.6250000 5.0000000000 18.104000092  -999.250000 0.0060000001  -999.250000 2.1114430428 90.197776794 148.35241699 142.45687866 0.8369902372 73.803001404 0.9390058517  -999.250000 0.9390058517
 1040.7500000 5.0000000000 18.107000351  -999.250000 0.0000058594  -999.250000 2.1154065132 88.945144653 148.07679749 142.25651550 0.8270000219 74.082000732 0.9450029135  -999.250000 0.9450029135
 1040.8750000 5.0000000000 18.113000870  -999.250000 -0.011988281  -999.250000 2.1099956036 87.050125122 147.88185120 141.90142822 0.8179931641 74.477996826 0.9479951262  -999.250000 0.9479951262
 1041.0000000 5.0000000000 18.121999741  -999.250000 -0.025000000  -999.250000 2.0929546356 85.125579834 147.30838013 141.47023010 0.8109951019 74.864997864 0.9429853559  -999.250000 0.9429853559
 1041.1250000 5.0000000000 18.132999420  -999.250000 -0.032992195  -999.250000 2.0756101608 83.673225403 147.08657837 141.20693970 0.8059951067 75.156997681 0.9279823899  -999.250000 0.9279823899
 1041.2500000 5.0000000000 18.149000168  -999.250000 -0.032000978  -999.250000 2.0646841526 82.878692627 147.14291382 141.26040649 0.8009931445 75.267997742 0.9099863768  -999.250000 0.9099863768
 1041.3750000 5.0000000000 18.169000626  -999.250000 -0.022009766  -999.250000 2.0632369518 82.563011169 147.51776123 141.67156982 0.7940000296 75.273002625 0.8959941864  -999.250000 0.8959941864
