# LAS format log file from PETREL
# Project units are specified as depth units
#==================================================================
~Version information
VERS.   2.0:
WRAP.   NO:
#==================================================================
~Well
STRT .m      793.37487793 :
STOP .m      2575.0000000 :
STEP .m     0.00000000 :
NULL .        -999.250000 :
COMP.           : COMPANY
WELL.  31/3-3   : WELL
FLD.            : FIELD
LOC.            : LOCATION
SRVC.           : SERVICE COMPANY
DATE.  2018-09-11 14:48:36   : Log Export Date {yyyy-MM-dd HH:mm:ss}
PROV.           : PROVINCE
UWI.   31/3-3   : UNIQUE WELL ID
API.            : API NUMBER
#==================================================================
~Curve
DEPT .m                   : DEPTH
Lithology_geolink ._      : Lithology_geolink
CALI .in                  : CALI
BS .in                    : BS
DRHO .g/cm3               : DRHO
NPHI .m3/m3               : NPHI
RHOB .g/cm3               : RHOB
GR .gAPI                  : GR
DTC .us/ft                : DTC
DTE .us/ft                : DTE
RDEP .ohm.m               : RDEP
SP .mV                    : SP
RSHA .ohm.m               : RSHA
RMED .ohm.m               : RMED
~Parameter
#==================================================================
~Ascii
# ...
 2569.8752441  -999.250000 12.381999969  -999.250000 3.0360000134 0.3031100035 4.5399999619 40.742000580  -999.250000  -999.250000 2.3440001011 145.44700623 2.8540000916 2.8540000916
 2569.9997559  -999.250000 12.378999710  -999.250000 3.8340001106 0.2886700034 4.8429999352 40.742000580  -999.250000  -999.250000 2.3750000000 146.61500549 2.9300000668 2.9300000668
 2570.1247559  -999.250000 12.376999855  -999.250000 4.2649998665 0.2689100206 4.8319997787 40.742000580  -999.250000  -999.250000 2.4170000553 147.71299744 2.9230000973 2.9230000973
 2570.2500000  -999.250000 12.375999451  -999.250000 4.3649997711 0.2490800023 4.6550002098 40.742000580  -999.250000  -999.250000 2.4609999657 148.59300232 2.8489999771 2.8489999771
 2570.3750000  -999.250000 12.376999855  -999.250000 4.1329998970 0.2341900021 4.3119997978 40.742000580  -999.250000  -999.250000 2.4990000725 149.06399536 2.7530000210 2.7530000210
 2570.5000000  -999.250000 12.376999855  -999.250000 3.4639999866 0.2249300033 3.6889998913 40.742000580  -999.250000  -999.250000 2.5260000229 149.15600586 2.6779999733 2.6779999733
 2570.6250000  -999.250000 12.378000259  -999.250000 2.2860000134 0.2201499939 2.8139998913 40.742000580  -999.250000  -999.250000 2.5439999104 148.95500183 2.6349999905 2.6349999905
 2570.7500000  -999.250000 12.378999710  -999.250000 0.4880000055 0.2186599970 2.0190000534 40.742000580  -999.250000  -999.250000 2.5550000668 148.61799622 2.6229999065 2.6229999065
 2570.8750000  -999.250000 12.378999710  -999.250000 -0.515999973 0.2185100019 1.8559999466 40.742000580  -999.250000  -999.250000 2.5629999638 148.33900452 2.6400001049 2.6400001049
 2571.0000000  -999.250000 12.378999710  -999.250000 0.1959999949 0.2184199840 2.3529999256 40.742000580  -999.250000  -999.250000 2.5699999332 148.24099731 2.6749999523 2.6749999523
 2571.1250000  -999.250000 12.378999710  -999.250000 0.1959999949 0.2184799910 2.6240000725 40.742000580  -999.250000  -999.250000 2.5750000477 148.36300659 2.7249999046 2.7249999046
 2571.2500000  -999.250000 12.378999710  -999.250000 0.1959999949 0.2191399932 2.6900000572 40.742000580  -999.250000  -999.250000 2.5780000687 148.66600037 2.7850000858 2.7850000858
 2571.3750000  -999.250000 12.378999710  -999.250000 0.1959999949 0.2204100043 2.6900000572 40.742000580  -999.250000  -999.250000 2.5789999962 149.05200195 2.8519999981 2.8519999981
 2571.5000000  -999.250000 12.378999710  -999.250000 0.1959999949 0.2220800072 2.6900000572 40.742000580  -999.250000  -999.250000 2.5799999237 149.38000488 2.9219999313 2.9219999313
 2571.6250000  -999.250000 12.378999710  -999.250000 0.1959999949 0.2241099924 2.6900000572 40.742000580  -999.250000  -999.250000 2.5820000172 149.55700684 2.9930000305 2.9930000305
 2571.7500000  -999.250000 12.378999710  -999.250000 0.1959999949 0.2264299989 2.6900000572 40.742000580  -999.250000  -999.250000 2.5850000381 149.55299377 3.0580000877 3.0580000877
 2571.8750000  -999.250000 12.378999710  -999.250000 0.1959999949 0.2287700027 2.6900000572 40.742000580  -999.250000  -999.250000 2.5889999866 149.40699768 3.0899999142 3.0899999142
 2572.0000000  -999.250000 12.378999710  -999.250000 0.1959999949 0.1661300063 2.6900000572 40.742000580  -999.250000  -999.250000 2.5910000801 149.17199707 3.0680000782 3.0680000782
 2572.1252441  -999.250000 12.378999710  -999.250000 0.1959999949 -0.033570003 2.6900000572 40.742000580  -999.250000  -999.250000 2.5899999142 148.64599609 2.9820001125 2.9820001125
 2572.2502441  -999.250000 12.378999710  -999.250000 0.1959999949 -0.039330002 2.6900000572 40.742000580  -999.250000  -999.250000 2.5869998932 147.45899963 2.8519999981 2.8519999981
 2572.3747559  -999.250000 12.378999710  -999.250000 0.1959999949 -0.035420001 2.6900000572 40.742000580  -999.250000  -999.250000 2.5850000381 145.26199341 2.7269999981 2.7269999981
 2572.5000000  -999.250000 12.378999710  -999.250000 0.1959999949 -0.026140001 2.6900000572 40.742000580  -999.250000  -999.250000 2.5840001106 142.52499390 2.6480000019 2.6480000019
 2572.6250000  -999.250000 12.378999710  -999.250000 0.1959999949 0.0020600001 2.6900000572 40.742000580  -999.250000  -999.250000 2.5829999447 139.92700195 2.6289999485 2.6289999485
 2572.7500000  -999.250000 12.378999710  -999.250000 0.1959999949 0.0856800005 2.6900000572 40.742000580  -999.250000  -999.250000 2.5799999237 138.14900208 2.6670000553 2.6670000553
 2572.8750000  -999.250000 12.378999710  -999.250000 0.1959999949 0.3044300079 2.6900000572 40.742000580  -999.250000  -999.250000 2.5759999752 137.65100098 2.7530000210 2.7530000210
 2573.0000000  -999.250000 12.378999710  -999.250000 0.1959999949 0.8752899766 2.6900000572 40.742000580  -999.250000  -999.250000 2.5739998817 137.96299744 2.8589999676 2.8589999676
 2573.1250000  -999.250000 12.378999710  -999.250000 0.1959999949 0.8752899766 2.6900000572 40.742000580  -999.250000  -999.250000 2.5750000477 138.58200073 2.9690001011 2.9690001011
 2573.2500000  -999.250000 12.378999710  -999.250000 0.1959999949 0.8752899766 2.6760001183 40.742000580  -999.250000  -999.250000 2.5780000687 139.11999512 3.0639998913 3.0639998913
 2573.3750000  -999.250000 12.378999710  -999.250000 0.1959999949 0.2749699950 2.6329998970 40.742000580  -999.250000  -999.250000 2.5799999237 139.33900452 3.1280000210 3.1280000210
 2573.5000000  -999.250000 12.378999710  -999.250000 0.0000000000 0.2749699950 2.5469999313 40.742000580  -999.250000  -999.250000 2.5789999962 139.27299500 3.1610000134 3.1610000134
 2573.6250000  -999.250000 12.378999710  -999.250000 0.0000000000 0.2749699950 2.5090000629 40.742000580  -999.250000  -999.250000 2.5759999752 139.02499390 3.1740000248 3.1740000248
 2573.7500000  -999.250000 12.378999710  -999.250000 0.0000000000 0.2749699950 2.5000000000 40.742000580  -999.250000  -999.250000 2.5720000267 138.72200012 3.1770000458 3.1770000458
 2573.8750000  -999.250000 12.378999710  -999.250000 0.0000000000 0.2749699950 2.5000000000 40.742000580  -999.250000  -999.250000 2.5699999332 138.48100281 3.1779999733 3.1779999733
 2574.0000000  -999.250000 12.378999710  -999.250000 0.0000000000 0.2749699950 2.5000000000 40.742000580  -999.250000  -999.250000 2.5690000057 138.36799622 3.1789999008 3.1789999008
 2574.1250000  -999.250000 12.378999710  -999.250000 0.0000000000 0.2749699950 2.5000000000 40.742000580  -999.250000  -999.250000 2.5699999332 138.53599548 3.1789999008 3.1789999008
 2574.2500000  -999.250000 12.378999710  -999.250000 0.0000000000 0.2749699950 2.5000000000 40.742000580  -999.250000  -999.250000 2.5710000992 139.20700073 3.1800000668 3.1800000668
 2574.3750000  -999.250000 12.378999710  -999.250000 0.0000000000 0.2749699950 2.5000000000 40.742000580  -999.250000  -999.250000 2.5720000267 140.56300354 3.1809999943 3.1809999943
 2574.5002441  -999.250000 12.378999710  -999.250000 0.0000000000 0.2749699950 2.5000000000 40.742000580  -999.250000  -999.250000 2.5739998817 142.26100159 3.1819999218 3.1819999218
 2574.6247559  -999.250000 12.378999710  -999.250000 0.0000000000 0.2749699950 2.5000000000 40.742000580  -999.250000  -999.250000 2.5759999752 143.88999939 3.1840000153 3.1840000153
 2574.7497559  -999.250000 12.378999710  -999.250000 0.0000000000 0.2749699950 2.5000000000 40.742000580  -999.250000  -999.250000 2.5780000687 145.07899475 3.1849999428 3.1849999428
 2574.8750000  -999.250000 12.378999710  -999.250000 0.0000000000 0.2749699950 2.5000000000 40.742000580  -999.250000  -999.250000 2.5789999962 145.61799622 3.1860001087 3.1860001087
 2575.0000000  -999.250000 12.378999710  -999.250000 0.0000000000 0.2749699950 2.5000000000 40.742000580  -999.250000  -999.250000 2.5789999962 145.77900696 3.1860001087 3.1860001087
