# LAS format log file from PETREL
# Project units are specified as depth units
#==================================================================
~Version information
VERS.   2.0:
WRAP.   NO:
#==================================================================
~Well
STRT .m      1287.9324951 :
STOP .m      2115.3120117 :
STEP .m     0.00000000 :
NULL .        -999.250000 :
COMP.           : COMPANY
WELL.  31/3-4   : WELL
FLD.            : FIELD
LOC.            : LOCATION
SRVC.           : SERVICE COMPANY
DATE.  2018-09-11 14:48:36   : Log Export Date {yyyy-MM-dd HH:mm:ss}
PROV.           : PROVINCE
UWI.   31/3-4   : UNIQUE WELL ID
API.            : API NUMBER
#==================================================================
~Curve
DEPT .m                   : DEPTH
Lithology_geolink ._      : Lithology_geolink
CALI .in                  : CALI
BS .in                    : BS
ROP .m/h                  : ROP
DRHO .g/cm3               : DRHO
NPHI .m3/m3               : NPHI
RHOB .g/cm3               : RHOB
PEF .b/e                  : PEF
GR .gAPI                  : GR
DTC .us/ft                : DTC
DTS .us/ft                : DTS
RDEP .ohm.m               : RDEP
RSHA .ohm.m               : RSHA
RMIC .ohm.m               : RMIC
RMED .ohm.m               : RMED
~Parameter
#==================================================================
~Ascii
# ...
 1727.7587891 2.0000000000 8.2046003342 8.5000000000 143.36346436 -0.023601443 0.3043000102 2.1683900356 5.2118754387 75.868492126 94.507698059 187.27725220 0.5587079525 0.5020065904 0.3076983988 0.5293999910
 1727.9112549 2.0000000000 8.2046003342 8.5000000000 145.75115967 -0.025399199 0.2967999876 2.1558973789 5.3060069084 76.354866028 94.517204285 187.96781921 0.5686016083 0.5102999806 0.3057068288 0.5410000086
 1728.0635986 2.0000000000 8.2412996292 8.5000000000 152.50776672 -0.024399919 0.2892999947 2.1527037621 5.3140568733 77.060829163 94.524215698 188.26608276 0.5706005096 0.5102997422 0.3142049909 0.5436999798
 1728.2160645 2.0000000000 8.2487001419 8.5000000000 156.88174438 -0.024299039 0.2894000113 2.1574101448 5.2605400085 82.216995239 94.543434143 188.47628784 0.5713165998 0.5100049376 0.3204040825 0.5447999835
 1728.3684082 2.0000000000 8.2707004547 8.5000000000 157.10122681 -0.023098478 0.2504000068 2.1702101231 5.1858682632 87.199394226 94.592155457 188.59523010 0.5920102000 0.5161951184 0.3255004883 0.5658000112
 1728.5208740 2.0000000000 8.2854003906 8.5000000000 146.27326965 -0.021199198 0.2497999966 2.1826169491 5.1460862160 85.812774658 94.907119751 188.39849854 0.6047192216 0.5100936294 0.3260916770 0.5792000294
 1728.6732178 2.0000000000 8.2927999496 8.5000000000 149.53169250 -0.020698879 0.2524000108 2.1932101250 5.1375937462 81.122344971 95.352043152 188.09573364 0.6167117953 0.5061017871 0.3208912611 0.5871999860
 1728.8256836 2.0000000000 8.3185997009 8.5000000000 155.08105469 -0.019296318 0.2549999952 2.2057182789 5.1299719810 82.429603577 95.408638000 188.01889038 0.6313456893 0.5082458854 0.3099915087 0.5934000015
 1728.9780273 2.0000000000 8.3443002701 8.5000000000 155.06814575 -0.016998639 0.2802999914 2.2171046734 5.1124968529 83.182571411 94.194198608 187.94966125 0.5974776149 0.4744770825 0.3046997488 0.5494999886
 1729.1304932 2.0000000000 8.3332996368 8.5000000000 126.25855255 -0.015297118 0.2777000070 2.2230083942 5.1082987785 86.890251160 92.441802979 188.40071106 0.5694584250 0.4458538890 0.3043960035 0.5152000189
 1729.2828369 2.0000000000 8.3002004623 8.5000000000 96.191474915 -0.013500561 0.2809999883 2.2282044888 5.1074051857 90.602867126 92.196075439 189.11045837 0.5435677171 0.4171421528 0.3019024730 0.4862000048
 1729.4351807 2.0000000000 8.2670001984 8.5000000000 81.701026917 -0.014201041 0.2842999995 2.2337996960 5.1138319969 91.690147400 92.789581299 190.05348206 0.6280127764 0.4697074592 0.3050021827 0.5630999804
 1729.5876465 2.0000000000 8.2487001419 8.5000000000 67.679496765 -0.015501122 0.2748000026 2.2333970070 5.1540589333 90.123481750 92.893692017 191.51118469 0.6439009905 0.4790004790 0.3077006638 0.5780000091
 1729.7399902 2.0000000000 8.2486000061 8.5000000000 67.316047668 -0.016899839 0.2804999948 2.2294015884 5.2280154228 89.225814819 92.387306213 191.49023438 0.6451998353 0.4796003997 0.3085040748 0.5792999864
 1729.8924561 2.0000000000 8.2340002060 8.5000000000 68.262268066 -0.016698478 0.2806999981 2.2314026356 5.2469005585 86.873428345 91.772346497 190.15469360 0.6450015903 0.4801026583 0.3136037588 0.5795000196
 1730.0447998 2.0000000000 8.2192001343 8.5000000000 72.507553101 -0.014799039 0.2808000147 2.2347025871 5.2474837303 86.036254883 90.826438904 188.02037048 0.6470081806 0.4834071994 0.3183030486 0.5827999711
 1730.1972656 2.0000000000 8.2193002701 8.5000000000 67.187866211 -0.013598477 0.2770999968 2.2380042076 5.2274575233 84.357841492 89.992752075 185.96859741 0.6572027802 0.4924060106 0.3221000135 0.5896000266
 1730.3496094 2.0000000000 8.2340002060 8.5000000000 59.678016663 -0.011699119 0.2667999864 2.2434997559 5.1745901108 83.911399841 90.807991028 183.58561707 0.6607034802 0.4999073148 0.3220992982 0.5917999744
 1730.5020752 2.0000000000 8.2193002701 8.5000000000 61.969196320 -0.010599679 0.2723000050 2.2431950569 5.1624279022 82.150344849 94.172355652 183.32968140 0.6651294231 0.5091242790 0.3211993873 0.5910000205
 1730.6544189 2.0000000000 8.2193002701 8.5000000000 63.019336700 -0.010401041 0.2779000103 2.2399938107 5.1801557541 76.378311157 95.828376770 183.19094849 0.7456836104 0.5865291953 0.3207954466 0.6570000052
 1730.8068848 2.0000000000 8.2118997574 8.5000000000 67.100311279 -0.011704163 0.2870999873 2.2321815491 5.2498445511 76.519714355 96.671096802 179.76625061 0.6004911661 0.4981919825 0.3151157200 0.5432999730
 1730.9592285 2.0000000000 8.2265996933 8.5000000000 78.707397461 -0.014301843 0.2599000037 2.2206919193 5.3398404121 78.465927124 96.541694641 178.29583740 0.5950000882 0.4932012856 0.3249129057 0.5371000171
 1731.1116943 2.0000000000 8.2634000778 8.5000000000 77.539085388 -0.016600961 0.2439000010 2.2105948925 5.3906049728 82.624519348 95.527595520 177.20632935 0.5951015949 0.4948003292 0.3410486579 0.5376999974
 1731.2640381 2.0000000000 8.3074998856 8.5000000000 75.722755432 -0.017201122 0.2483000010 2.2074997425 5.3935918808 86.377670288 94.899604797 179.10409546 0.5960989594 0.4949983954 0.3714086413 0.5381000042
 1731.4163818 2.0000000000 8.3149003983 8.5000000000 71.203582764 -0.018600240 0.2346999943 2.2072994709 5.3833975792 84.215362549 94.644943237 182.23066711 0.5947934985 0.4929870963 0.3822016716 0.5363000035
 1731.5688477 2.0000000000 8.3074998856 8.5000000000 76.324989319 -0.018899839 0.2741000056 2.2067036629 5.3802819252 80.171417236 94.441299438 189.18286133 0.5867049098 0.4768809378 0.3843023181 0.5332999825
 1731.7211914 2.0000000000 8.3002004623 8.5000000000 68.798576355 -0.018700080 0.2924999893 2.2113096714 5.3578481674 76.821594238 94.314880371 196.24649048 0.5928052068 0.4530991018 0.3872116208 0.5418999791
 1731.8736572 2.0000000000 8.2890996933 8.5000000000 77.425041199 -0.018800881 0.2869000137 2.2236018181 5.2928352356 78.323776245 94.540451050 198.48367310 0.5992990732 0.4519979954 0.4017068744 0.5447999835
 1732.0260010 2.0000000000 8.2854003906 8.5000000000 80.107536316 -0.019902242 0.2705999911 2.2258782387 5.2121434212 84.410102844 95.338691711 199.70809937 0.5980987549 0.4494999945 0.4102589190 0.5432999730
 1732.1784668 2.0000000000 8.2781000137 8.5000000000 92.297828674 -0.022698959 0.2870000005 2.1988713741 5.1415748596 91.154609680 96.077583313 200.35313416 0.5964985490 0.4495009482 0.3589762747 0.5424000025
 1732.3308105 2.0000000000 8.2265996933 8.5000000000 95.882835388 -0.021398639 0.2863999903 2.1632943153 5.1099791527 92.666221619 96.666259766 200.23631287 0.5946985483 0.4507006705 0.3294163346 0.5419999957
 1732.4832764 2.0000000000 8.3074998856 8.5000000000 94.573715210 -0.019705925 0.2870999873 2.1561110020 5.0839552879 90.576835632 96.879035950 200.90249634 0.5928882957 0.4514822364 0.3498084843 0.5414000154
 1732.6356201 2.0000000000 8.3296003342 8.5000000000 80.793457031 -0.023407692 0.2899000049 2.1629042625 5.1183800697 91.728919983 96.474739075 201.64039612 0.5856032372 0.4404010475 0.3550998569 0.5317000151
 1732.7880859 2.0000000000 8.3368997574 8.5000000000 72.396125793 -0.033001281 0.2937999964 2.1681983471 5.2185649872 99.117439270 95.770347595 201.89030457 0.5895753503 0.4416832030 0.3548715115 0.5339999795
 1732.9404297 2.0000000000 8.3368997574 8.5000000000 74.323516846 -0.033794709 0.2790000141 2.1670999527 5.3213019371 101.19903564 95.294349670 200.63735962 0.5741839409 0.4311842918 0.3370796442 0.5202999711
 1733.0928955 2.0000000000 8.3221998215 8.5000000000 78.840545654 -0.027191194 0.2739999890 2.1669802666 5.3232569695 96.124969482 95.610725403 195.83752441 0.5541852713 0.4115886390 0.3116844594 0.4970000088
 1733.2452393 2.0000000000 8.2854003906 8.5000000000 70.245826721 -0.021698959 0.2930999994 2.1546020508 5.2340168953 93.047866821 96.626495361 194.60449219 0.5449997783 0.4044986367 0.3019926846 0.4873999953
 1733.3975830 2.0000000000 8.2707004547 8.5000000000 69.130455017 -0.020399440 0.3018999994 2.1572060585 5.1306385994 90.646797180 97.370262146 194.97134399 0.5446977019 0.4027990401 0.2928909361 0.4867999852
 1733.5500488 2.0000000000 8.2890996933 8.5000000000 67.741989136 -0.019701041 0.3027000129 2.1647057533 5.1790328026 97.521018982 96.955360413 195.14979553 0.5417907238 0.4015931785 0.2816226780 0.4841000140
