# LAS format log file from PETREL
# Project units are specified as depth units
#==================================================================
~Version information
VERS.   2.0:
WRAP.   NO:
#==================================================================
~Well
STRT .m      349.62512207 :
STOP .m      2379.4997559 :
STEP .m     0.00000000 :
NULL .        -999.250000 :
COMP.           : COMPANY
WELL.  31/3-1   : WELL
FLD.            : FIELD
LOC.            : LOCATION
SRVC.           : SERVICE COMPANY
DATE.  2018-09-11 14:48:35   : Log Export Date {yyyy-MM-dd HH:mm:ss}
PROV.           : PROVINCE
UWI.   31/3-1   : UNIQUE WELL ID
API.            : API NUMBER
#==================================================================
~Curve
DEPT .m                   : DEPTH
Lithology_geolink ._      : Lithology_geolink
CALI .in                  : CALI
BS .in                    : BS
DRHO .g/cm3               : DRHO
NPHI .m3/m3               : NPHI
RHOB .g/cm3               : RHOB
GR .gAPI                  : GR
DTC .us/ft                : DTC
DTE .us/ft                : DTE
RDEP .ohm.m               : RDEP
SP .mV                    : SP
RSHA .ohm.m               : RSHA
RMIC .ohm.m               : RMIC
RMED .ohm.m               : RMED
~Parameter
#==================================================================
~Ascii
# ...
 1302.8750000 12.000000000 13.607999802 12.250000954 0.1759999990 0.1902199984 2.4189159870 44.619838715 122.52620697 105.09754181 2.2780001163 85.079002380 2.3251085281 2.3681757450 2.3251085281
 1303.0000000 12.000000000 13.505999565 12.250000954 0.1059999987 0.1813099980 2.4258849621 42.406570435 121.23812866 103.82217407 2.3859999180 85.049003601 2.4361183643 2.5482373238 2.4361183643
 1303.1250000 12.000000000 13.430000305 12.250000954 0.0500000007 0.1866700053 2.4332447052 40.942405701 119.79923248 102.50356293 2.5109999180 84.999000549 2.5570967197 2.7912547588 2.5570967197
 1303.2500000 12.000000000 13.401000023 12.250000954 0.0230000000 0.1850799918 2.4401516914 40.331779480 118.60603333 101.27148438 2.6119990349 84.948997498 2.6560418606 3.0521495342 2.6560418606
 1303.3748779 12.000000000 13.380999565 12.250000954 0.0140087893 0.1797352284 2.4457197189 40.104000092 117.67904663 100.28881073 2.6110000610 84.902000427 2.6989998817 3.2049999237 2.6989998817
 1303.4998779 12.000000000 13.376000404 12.250000954 0.0100039057 0.1782414615 2.4468870163 40.403999329 117.18140411 99.770248413 2.5559999943 84.885002136 2.6310000420 3.1940000057 2.6310000420
 1303.6248779 12.000000000 13.404000282 12.250000954 0.0020156098 0.1824617386 2.4397077560 40.942821503 117.40148926 99.952117920 2.4700000286 84.883003235 2.5150001049 3.0360000134 2.5150001049
 1303.7498779 12.000000000 13.437999725 12.250000954 -0.009976562 0.1912200004 2.4318306446 41.783973694 118.30216980 101.01485443 2.3610000610 84.879997253 2.4059267044 2.8650000095 2.4059267044
 1303.8750000 12.000000000 13.472000122 12.250000954 -0.018999999 0.2037400007 2.4233279228 42.782463074 119.74746704 102.35055542 2.2760000229 84.874000549 2.3308966160 2.7530000210 2.3308966160
 1304.0000000 12.000000000 13.505000114 12.250000954 -0.020000000 0.2166900039 2.4168691635 44.044502258 121.18275452 103.72759247 2.2179999352 84.802001953 2.2778868675 2.6758148670 2.2778868675
 1304.1250000 12.000000000 13.532999992 12.250000954 -0.014000000 0.2265200019 2.4129006863 45.326004028 122.47275543 105.04782867 2.1600000858 84.722999573 2.2199375629 2.5808653831 2.2199375629
 1304.2500000 12.000000000 13.558999062 12.250000954 -0.009000000 0.2301899940 2.4099214077 46.353240967 123.63090515 106.27831268 2.1050000191 84.697998047 2.1559364796 2.4428770542 2.1559364796
 1304.3750000 12.000000000 13.585999489 12.250000954 -0.010000000 0.2288400084 2.4036035538 46.600627899 124.72300720 107.45032501 2.0519590378 84.759002686 2.0909464359 2.3169598579 2.0909464359
 1304.4998779 12.000000000 13.630001068 12.250000954 -0.015994141 0.2238348871 2.3905491829 46.219001770 125.78350067 108.42066193 2.0099999905 84.823997498 2.0360000134 2.2760000229 2.0360000134
 1304.6248779 12.000000000 13.787000656 12.250000954 -0.016999025 0.2181455493 2.3807604313 45.437000275 126.19696808 108.76115417 1.9960000515 84.788002014 2.0569999218 2.3570001125 2.0569999218
 1304.7498779 12.000000000 13.866999626 12.250000954 -0.008008789 0.2125554383 2.3810782433 44.546001434 125.93547058 108.47792816 2.0009999275 84.684997559 2.1219999790 2.5290000439 2.1219999790
 1304.8748779 12.000000000 13.855999947 12.250000954 0.0099648777 0.2065600008 2.3939065933 44.127803802 125.07498169 107.67869568 2.0639998913 84.774002075 2.2339999676 2.6979999542 2.2339999676
 1305.0000000 12.000000000 13.837999344 12.250000954 0.0260000005 0.2004199922 2.4167375565 43.929241180 123.79912567 106.53316498 2.0989999771 84.894996643 2.3140468597 2.7699999809 2.3140468597
 1305.1250000 12.000000000 13.769999504 12.250000954 0.0329999998 0.1961400062 2.4380707741 44.052570343 122.64220428 105.21147919 2.1059999466 85.041999817 2.3380177021 2.7269103527 2.3380177021
 1305.2500000 12.000000000 13.689999580 12.250000954 0.0240000002 0.1971400082 2.4418725967 44.345359802 121.54128265 104.08047485 2.1099998951 85.185997009 2.3470330238 2.6810157299 2.3470330238
 1305.3750000 12.000000000 13.612000465 12.250000954 0.0070000002 0.2016299963 2.4317555428 44.714626312 120.72677612 103.26857758 2.0780000687 85.239997864 2.3810391426 2.6970577240 2.3810391426
 1305.5000000 12.000000000 13.532999992 12.250000954 -0.010000000 0.2056399882 2.4153125286 45.355209351 120.25651550 102.85852814 2.0230000019 85.236999512 2.4209659100 2.7559940815 2.4209659100
 1305.6250000 13.000000000 13.458999634 12.250000954 -0.017000001 0.2051199973 2.4010121822 46.592708588 120.25939941 102.94409943 1.9729453325 85.234001160 2.3858759403 2.7498564720 2.3858759403
 1305.7498779 13.000000000 13.420999527 12.250000954 -0.016000977 0.2017632872 2.3959298134 48.340000153 121.05960846 103.66626740 1.9170000553 85.231002808 2.2590000629 2.6029999256 2.2590000629
 1305.8748779 13.000000000 13.395999908 12.250000954 -0.016000001 0.2009907514 2.3974485397 49.881999969 122.99018860 105.60127258 1.8220000267 85.227996826 2.0969998837 2.3380000591 2.0969998837
 1305.9998779 13.000000000 13.371999741 12.250000954 -0.021988293 0.2067687064 2.3925895691 51.128757477 125.70046234 108.33757782 1.7309999466 85.228996277 1.9479999542 2.0780000687 1.9479999542
 1306.1248779 13.000000000 13.347998619 12.250000954 -0.030999999 0.2189700007 2.3792586327 51.905399323 128.90623474 111.50666046 1.6410000324 85.375000000 1.8119229078 1.9060000181 1.8119229078
 1306.2500000 13.000000000 13.324000359 12.250000954 -0.034000002 0.2337299883 2.3603758812 52.315093994 132.20367432 114.77629089 1.5700000525 85.619003296 1.7329648733 1.8190000057 1.7329648733
 1306.3750000 13.000000000 13.303999901 12.250000954 -0.025000000 0.2473800033 2.3423693180 52.875831604 135.09373474 117.74652100 1.5219999552 85.862998962 1.7149960995 1.7879804373 1.7149960995
 1306.5000000 13.000000000 13.300999641 12.250000954 -0.007000000 0.2566200197 2.3344922066 53.729145050 136.84577942 119.44350433 1.4930000305 86.010002136 1.7109824419 1.7679716349 1.7109824419
 1306.6250000 13.000000000 13.303999901 12.250000954 0.0099999998 0.2607399821 2.3356170654 54.898338318 137.46170044 120.10684967 1.4830000401 86.008003235 1.6929911375 1.7389755249 1.6929911375
 1306.7500000 13.000000000 13.305999756 12.250000954 0.0170000009 0.2621299922 2.3376941681 55.243103027 137.62332153 120.23266602 1.4940283298 85.938003540 1.6840029955 1.7140009403 1.6840029955
 1306.8748779 13.000000000 13.309000015 12.250000954 0.0170000009 0.2609111965 2.3380835056 54.326999664 137.35409546 119.93347931 1.5230000019 85.684997559 1.6870000362 1.7150000334 1.6870000362
 1306.9998779 12.000000000 13.310999870 12.250000954 0.0140029304 0.2551755905 2.3368210793 52.256000519 136.62283325 119.21560669 1.5570000410 85.418998718 1.7109999657 1.7560000420 1.7109999657
 1307.1248779 12.000000000 13.314000130 12.250000954 0.0149980485 0.2454889268 2.3366689682 49.767967224 135.44450378 118.00431061 1.5870000124 85.208999634 1.7539999485 1.8380000591 1.7539999485
 1307.2498779 12.000000000 13.315999985 12.250000954 0.0189921875 0.2351499945 2.3445398808 46.663364410 133.67582703 116.35705566 1.6139999628 85.008003235 1.8270000219 1.9400000572 1.8270000219
 1307.3750000 12.000000000 13.315999985 12.250000954 0.0250000004 0.2275799960 2.3596024513 44.988273621 131.92062378 114.53660583 1.6759999990 84.827003479 1.9051367044 2.0439999104 1.9051367044
 1307.5000000 12.000000000 13.312000275 12.250000954 0.0280000009 0.2234600037 2.3784739971 44.105781555 130.04400635 112.61997223 1.7280000448 84.944999695 1.9751034975 2.1421561241 1.9751034975
 1307.6250000 12.000000000 13.307999611 12.250000954 0.0270000007 0.2226099968 2.3981246948 43.994091034 128.19287109 110.77355194 1.7740000486 85.091003418 2.0280275345 2.2220437527 2.0280275345
 1307.7500000 12.000000000 13.303999901 12.250000954 0.0250000004 0.2231800109 2.4159159660 44.086940765 126.61107635 109.19897461 1.8099999428 85.179000854 2.0560166836 2.2670047283 2.0560166836
 1307.8750000 12.000000000 13.300999641 12.250000954 0.0240000002 0.2234099954 2.4297716618 44.025619507 125.42333984 108.09512329 1.8359999657 85.168998718 2.0729823112 2.2719717026 2.0729823112
