# LAS format log file from PETREL
# Project units are specified as depth units
#==================================================================
~Version information
VERS.   2.0:
WRAP.   NO:
#==================================================================
~Well
STRT .m      433.43811035 :
STOP .m      2093.8361816 :
STEP .m     0.00000000 :
NULL .        -999.250000 :
COMP.           : COMPANY
WELL.  31/3-2   : WELL
FLD.            : FIELD
LOC.            : LOCATION
SRVC.           : SERVICE COMPANY
DATE.  2018-09-11 14:48:35   : Log Export Date {yyyy-MM-dd HH:mm:ss}
PROV.           : PROVINCE
UWI.   31/3-2   : UNIQUE WELL ID
API.            : API NUMBER
#==================================================================
~Curve
DEPT .m                   : DEPTH
Lithology_geolink ._      : Lithology_geolink
CALI .in                  : CALI
BS .in                    : BS
DRHO .g/cm3               : DRHO
NPHI .m3/m3               : NPHI
RHOB .g/cm3               : RHOB
PEF .b/e                  : PEF
GR .gAPI                  : GR
DTC .us/ft                : DTC
DTE .us/ft                : DTE
RDEP .ohm.m               : RDEP
SP .mV                    : SP
RSHA .ohm.m               : RSHA
RMIC .ohm.m               : RMIC
RMED .ohm.m               : RMED
~Parameter
#==================================================================
~Ascii
# ...
 1200.1624756 6.0000000000 17.670000076  -999.250000 0.0119975964 0.4669817388 2.0670094490  -999.250000 88.500000000 146.69898987 152.11927795 0.7049919963 163.18775940 0.7640839815  -999.250000 0.7640432119
 1200.3149414 7.0000000000 17.625000000  -999.250000 0.0230000000 0.4816465080 2.0599999428  -999.250000 94.752441406 146.13648987 151.51918030 0.6999880075 162.87469482 0.7289999723  -999.250000 0.7310264707
 1200.4672852 7.0000000000 17.577999115  -999.250000 0.0239991993 0.4772882462 2.0629975796  -999.250000 97.800003052 144.95960999 150.33030701 0.6949887872 162.68820190 0.7190399766  -999.250000 0.7310000062
 1200.6197510 7.0000000000 17.579999924  -999.250000 0.0149999997 0.4875246584 2.0739998817  -999.250000 99.615783691 143.59661865 148.92788696 0.6879976392 162.18859863 0.7809000015  -999.250000 0.7749646902
 1200.7720947 7.0000000000 17.600000381  -999.250000 0.0030096078 0.4683889449 2.0819935799  -999.250000 91.856002808 142.81590271 148.15921021 0.6869967580 161.94018555 0.8118270040  -999.250000 0.8059751391
 1200.9245605 6.0000000000 17.652999878  -999.250000 -0.004000000 0.4546126723 2.0780000687  -999.250000 90.812698364 143.12487793 148.43348694 0.6850264072 162.68521118 0.8030220270  -999.250000 0.8020032048
 1201.0769043 6.0000000000 17.677999496  -999.250000 -0.004999199 0.4562951028 2.0750024319  -999.250000 89.188003540 143.49710083 148.84039307 0.6960288286 162.18721008 0.7720000148  -999.250000 0.7760208845
 1201.2293701 6.0000000000 17.636999130  -999.250000 0.0000000000 0.4626586139 2.0829999447  -999.250000 83.767532349 143.58399963 148.90286255 0.7140288353 161.68750000 0.7720000148  -999.250000 0.7720032334
 1201.3817139 6.0000000000 17.613000870  -999.250000 0.0000000000 0.4617808461 2.0949904919  -999.250000 78.196838379 143.47843933 148.75170898 0.7260064483 160.12879944 0.7720000148  -999.250000 0.7759968042
 1201.5341797 6.0000000000 17.649999619  -999.250000 0.0010000000 0.4378987253 2.1019999981  -999.250000 78.005294800 143.05218506 148.36633301 0.7299928069 160.62739563 0.7928990126  -999.250000 0.7909880280
 1201.6865234 6.0000000000 17.658000946  -999.250000 -0.000998399 0.4433156550 2.1049976349  -999.250000 83.362762451 142.55860901 147.79696655 0.7269951701 163.36920166 0.7999830246  -999.250000 0.8009920120
 1201.8388672 6.0000000000 17.666000366  -999.250000 -0.001000000 0.4378952384 2.1030015945  -999.250000 84.311996460 142.45805359 147.72007751 0.7239951491 164.12519836 0.8220000267  -999.250000 0.8189711571
 1201.9913330 6.0000000000 17.646999359  -999.250000 0.0009983988 0.4569673538 2.1039993763  -999.250000 80.824630737 142.80137634 148.15818787 0.7209976315 164.37278748 0.8269799948  -999.250000 0.8229967952
 1202.1436768 6.0000000000 17.568000793  -999.250000 0.0019991989 0.4786229432 2.1010024548  -999.250000 79.125000000 143.46308899 148.80209351 0.7199807763 163.62519836 0.8140000105  -999.250000 0.8090224266
 1202.2961426 6.0000000000 17.569999695  -999.250000 0.0030000000 0.4947630465 2.0950000286  -999.250000 77.320243835 144.12911987 149.40324402 0.7079808116 163.87519836 0.7742230296  -999.250000 0.7750272155
 1202.4484863 6.0000000000 17.597000122  -999.250000 0.0000024019 0.4985031486 2.0850081444  -999.250000 75.132003784 144.43321228 149.81362915 0.6999823451 164.62339783 0.7500770092  -999.250000 0.7550320029
 1202.6009521 5.0000000000 17.621000290  -999.250000 -0.001000000 0.4524435401 2.0699999332  -999.250000 73.875053406 144.87614441 150.24072266 0.6889640093 164.87660217 0.7710000277  -999.250000 0.7659911513
 1202.7532959 5.0000000000 17.656000137  -999.250000 -0.000000801 0.4069516659 2.0620064735  -999.250000 73.938003540 145.23460388 150.70051575 0.6739823818 165.87145996 0.7660200000  -999.250000 0.7699967623
 1202.9057617 5.0000000000 17.636999130  -999.250000 0.0040000002 0.4215306938 2.0599999428  -999.250000 73.437355042 145.49092102 150.90408325 0.6629831791 166.15565491 0.7789999843  -999.250000 0.7739967704
 1203.0581055 5.0000000000 17.572999954  -999.250000 0.0030008007 0.4469204545 2.0609993935  -999.250000 72.629997253 145.55807495 150.99990845 0.6560176611 165.93739319 0.7531449795  -999.250000 0.7540160418
 1203.2105713 5.0000000000 17.569999695  -999.250000 -0.001000000 0.4599211216 2.0520000458  -999.250000 69.881095886 145.28456116 150.68394470 0.6670552492 164.93679810 0.7599830031  -999.250000 0.7579967976
 1203.3629150 5.0000000000 17.628999710  -999.250000 -0.003997598 0.4481478930 2.0370118618  -999.250000 68.752296448 141.57942200 146.71910095 0.6900625229 162.93800354 0.7549999952  -999.250000 0.7520048022
 1203.5153809 5.0000000000 17.656999588  -999.250000 -0.003000000 0.4456460774 2.0499999523  -999.250000 71.616355896 129.70899963 134.53015137 0.7291464806 162.93760681 0.7350800037  -999.250000 0.7490023971
 1203.6677246 5.0000000000 17.621000290  -999.250000 -0.001001601 0.4992861152 2.1259391308  -999.250000 74.555656433 110.29021454 114.40494537 0.7900432944 162.68789673 0.7929069996  -999.250000 0.7979606986
 1203.8200684 16.000000000 17.601999283  -999.250000 -0.001000000 0.4694488049 2.2880001068  -999.250000 72.883003235 93.949142456 97.415107727 0.8170176148 162.62579346 0.9253630042  -999.250000 0.9367774129
 1203.9725342 16.000000000 17.739000320  -999.250000 0.0000000000 0.3805031776 2.4519999027  -999.250000 67.076934814 93.521240234 97.012878418 0.8280544877 163.62181091 1.1920000315  -999.250000 1.1478309631
 1204.1248779 16.000000000 18.152999878  -999.250000 -0.002000000 0.2722439468 2.4230000973  -999.250000 68.250000000 106.09704590 110.07406616 0.8620881438 162.87585449 1.2200000286  -999.250000 1.1549887657
 1204.2773438 16.000000000 18.514999390  -999.250000 -0.001000000 0.2647604346 2.2750000954  -999.250000 70.059249878 121.53250122 126.06070709 0.9170744419 163.93310547 0.9261770248  -999.250000 0.9411714673
 1204.4296875 5.0000000000 18.204000473  -999.250000 0.0040000002 0.3651388288 2.1570000648  -999.250000 75.365997314 133.65171814 138.56610107 0.9479471445 163.37640381 0.7363039851  -999.250000 0.7373266220
 1204.5821533 5.0000000000 17.740999222  -999.250000 0.0020000001 0.4635311663 2.1029999256  -999.250000 75.998748779 140.24478149 145.36862183 0.9149063230 163.87783813 0.7320190072  -999.250000 0.7409967780
 1204.7344971 5.0000000000 17.676000595  -999.250000 -0.003000000 0.4774143100 2.0850000381  -999.250000 78.180999756 142.13471985 147.39555359 0.8759310842 166.90237427 0.7947980165  -999.250000 0.7899607420
 1204.8869629 5.0000000000 17.627000809  -999.250000 -0.008000000 0.4453233480 2.0759999752  -999.250000 76.935813904 142.66580200 147.99157715 0.8329231143 170.88337708 0.8320000172  -999.250000 0.8249719739
 1205.0393066 5.0000000000 17.597999573  -999.250000 -0.006000000 0.3996139169 2.0759999752  -999.250000 74.198997498 143.44619751 148.72334290 0.8009599447 176.10289001 0.8310040236  -999.250000 0.8319944143
 1205.1917725 5.0000000000 17.632999420  -999.250000 -0.002000000 0.4045366645 2.0750000477  -999.250000 75.247413635 143.70312500 149.10304260 0.7759543657 175.39758301 0.8360000253  -999.250000 0.8389943838
 1205.3441162 5.0000000000 17.627000809  -999.250000 0.0000000000 0.4087013006 2.0720000267  -999.250000 72.017997742 143.76855469 149.14329529 0.7568814158 170.14398193 0.8896989822  -999.250000 0.8799671531
 1205.4965820 5.0000000000 17.611000061  -999.250000 -0.001000000 0.4227750897 2.0610001087  -999.250000 72.808197021 144.07553101 149.37808228 0.6828030944 163.88836670 0.8899999857  -999.250000 0.8730056286
 1205.6489258 5.0000000000 17.627000809  -999.250000 -0.003000000 0.4135002494 2.0499999523  -999.250000 70.562194824 144.51824951 149.87666321 0.6008718014 162.87779236 0.8080000281  -999.250000 0.7880681157
 1205.8013916 5.0000000000 17.653999329  -999.250000 -0.005000000 0.4387583733 2.0409998894  -999.250000 70.806900024 144.56933594 149.97160339 0.5207886696 164.61901855 0.5946829915  -999.250000 0.5971529484
 1205.9537354 5.0000000000 17.653999329  -999.250000 -0.004000000 0.4377476573 2.0390000343  -999.250000 65.697288513 143.88978577 149.30255127 0.4328878224 164.62539673 0.4931620061  -999.250000 0.5040745139
