# LAS format log file from PETREL
# Project units are specified as depth units
#==================================================================
~Version information
VERS.   2.0:
WRAP.   NO:
#==================================================================
~Well
STRT .m      433.43811035 :
STOP .m      2093.8361816 :
STEP .m     0.00000000 :
NULL .        -999.250000 :
COMP.           : COMPANY
WELL.  31/3-2   : WELL
FLD.            : FIELD
LOC.            : LOCATION
SRVC.           : SERVICE COMPANY
DATE.  2018-09-11 14:48:35   : Log Export Date {yyyy-MM-dd HH:mm:ss}
PROV.           : PROVINCE
UWI.   31/3-2   : UNIQUE WELL ID
API.            : API NUMBER
#==================================================================
~Curve
DEPT .m                   : DEPTH
Lithology_geolink ._      : Lithology_geolink
CALI .in                  : CALI
BS .in                    : BS
DRHO .g/cm3               : DRHO
NPHI .m3/m3               : NPHI
RHOB .g/cm3               : RHOB
PEF .b/e                  : PEF
GR .gAPI                  : GR
DTC .us/ft                : DTC
DTE .us/ft                : DTE
RDEP .ohm.m               : RDEP
SP .mV                    : SP
RSHA .ohm.m               : RSHA
RMIC .ohm.m               : RMIC
RMED .ohm.m               : RMED
~Parameter
#==================================================================
~Ascii
# ...
 2085.7587891  -999.250000 12.093999863 12.250000954 -0.004000000 0.4214103222 2.5350000858  -999.250000  -999.250000  -999.250000  -999.250000 3.0099968910 191.04521179 3.8870000839  -999.250000 3.8500223160
 2085.9113770  -999.250000 12.071000099 12.250000954 -0.004004808 0.4340831339 2.5369839668  -999.250000  -999.250000  -999.250000  -999.250000 3.0080127716 191.79270935 3.3440001011  -999.250000 3.3914690018
 2086.0637207  -999.250000 12.024000168 12.250000954 -0.006985600 0.4350887835 2.5270030499  -999.250000  -999.250000  -999.250000  -999.250000 3.0119969845 192.01119995 3.2439999580  -999.250000 3.2504487038
 2086.2160645  -999.250000 12.000000000 12.250000954 0.0020000001 0.4530074596 2.5290000439  -999.250000  -999.250000  -999.250000  -999.250000 3.0099806786 191.76390076 3.2639999390  -999.250000 3.2619616985
 2086.3684082  -999.250000 12.007999420 12.250000954 0.0100080129 0.4389436543 2.5410094261  -999.250000  -999.250000  -999.250000  -999.250000 2.9979999065 191.73144531 3.2730000019  -999.250000 3.2709710598
 2086.5209961  -999.250000 12.039000511 12.250000954 0.0150063997 0.4287067056 2.5469934940  -999.250000  -999.250000  -999.250000  -999.250000 2.9980063438 192.01159668 3.2730000019  -999.250000 3.2739951611
 2086.6733398  -999.250000 12.071999550 12.250000954 0.0169967953 0.4120919704 2.5449872017  -999.250000  -999.250000  -999.250000  -999.250000 3.0000159740 192.50930786 3.2769999504  -999.250000 3.2769904137
 2086.8256836  -999.250000 12.059000969 12.250000954 0.0150096146 0.4008753300 2.5369904041  -999.250000  -999.250000  -999.250000  -999.250000 3.0100030899 192.29499817 3.2790000439  -999.250000 3.2789936066
 2086.9780273  -999.250000 11.987998962 12.250000954 0.0209983978 0.3979607821 2.5309727192  -999.250000  -999.250000  -999.250000  -999.250000 3.0120129585 192.60360718 3.2790000439  -999.250000 3.2790000439
 2087.1306152  -999.250000 11.864000320 12.250000954 0.0200479999 0.3984415829 2.5139870644  -999.250000  -999.250000  -999.250000  -999.250000 3.0200030804 192.35600281 3.2769999504  -999.250000 3.2760047913
 2087.2829590  -999.250000 11.720999718 12.250000954 0.0350128189 0.3989307880 2.5099871159  -999.250000  -999.250000  -999.250000  -999.250000 3.0209951401 192.35281372 3.2709999084  -999.250000 3.2720129490
 2087.4353027  -999.250000 11.640999794 12.250000954 0.0430272445 0.3994100094 2.5020129681  -999.250000  -999.250000  -999.250000  -999.250000 3.0179903507 191.36007690 3.2730000019  -999.250000 3.2729969025
 2087.5876465  -999.250000 11.625000000 12.250000954 0.0600144230 0.3994100094 2.5100128651  -999.250000  -999.250000  -999.250000  -999.250000 3.0120143890 191.07678223 3.2790000439  -999.250000 3.2769870758
 2087.7399902  -999.250000 11.625000000 12.250000954 0.0690063983 0.3994100094 2.5179998875  -999.250000  -999.250000  -999.250000  -999.250000 3.0209918022 191.63441467 3.2730000019  -999.250000 3.2740094662
 2087.8925781  -999.250000 11.625000000 12.250000954 0.0729983971 0.3994100094 2.5180029869  -999.250000  -999.250000  -999.250000  -999.250000 3.0160000324 191.88940430 3.2709999084  -999.250000 3.2720065117
 2088.0449219  -999.250000 11.625000000 12.250000954 0.0720048025 0.3994100094 2.5199999809  -999.250000  -999.250000  -999.250000  -999.250000 3.0160000324 192.63301086 3.2730000019  -999.250000 3.2729969025
 2088.1972656  -999.250000 11.625000000 12.250000954 0.0750112236 0.3994100094 2.5200142860  -999.250000  -999.250000  -999.250000  -999.250000 3.0160000324 191.39218140 3.2709999084  -999.250000 3.2720031738
 2088.3496094  -999.250000 11.625000000 12.250000954 0.0820080116 0.3994100094 2.5290095806  -999.250000  -999.250000  -999.250000  -999.250000 3.0160031319 191.13778687 3.2769999504  -999.250000 3.2749905586
 2088.5021973  -999.250000 11.625000000 12.250000954 0.0869743973 0.3994100094 2.5349617004  -999.250000  -999.250000  -999.250000  -999.250000 3.0179998875 191.63740540 3.2730000019  -999.250000 3.2730031013
 2088.6545410  -999.250000 11.625000000 12.250000954 0.0789919943 0.3994100094 2.5229918957  -999.250000  -999.250000  -999.250000  -999.250000 3.0180141926 192.38580322 3.2709999084  -999.250000 3.2710063457
 2088.8068848  -999.250000 11.625000000 12.250000954 0.0739903823 0.3994100094 2.5179839134  -999.250000  -999.250000  -999.250000  -999.250000 3.0269904137 192.63619995 3.2709999084  -999.250000 3.2709999084
 2088.9592285  -999.250000 11.625000000 12.250000954 0.0680096224 0.3994100094 2.5080158710  -999.250000  -999.250000  -999.250000  -999.250000 3.0209999084 192.38674927 3.2769999504  -999.250000 3.2749872208
 2089.1118164  -999.250000 11.625000000 12.250000954 0.0739968047 0.3994100094 2.5180063248  -999.250000  -999.250000  -999.250000  -999.250000 3.0209903717 191.60601807 3.2699999809  -999.250000 3.2720048428
 2089.2641602  -999.250000 11.625000000 12.250000954 0.0730080083 0.3994100094 2.5200111866  -999.250000  -999.250000  -999.250000  -999.250000 3.0180079937 191.61437988 3.2709999084  -999.250000 3.2710030079
 2089.4165039  -999.250000 11.625000000 12.250000954 0.0780016035 0.3994100094 2.5270030499  -999.250000  -999.250000  -999.250000  -999.250000 3.0229759216 192.35641479 3.2709999084  -999.250000 3.2719969749
 2089.5688477  -999.250000 11.625000000 12.250000954 0.0790144280 0.3994100094 2.5290129185  -999.250000  -999.250000  -999.250000  -999.250000 3.0080029964 193.10758972 3.2790000439  -999.250000 3.2779808044
 2089.7214355  -999.250000 11.625000000 12.250000954 0.0880191997 0.3994100094 2.5370192528  -999.250000  -999.250000  -999.250000  -999.250000 3.0099935532 193.60150146 3.2769999504  -999.250000 3.2770016193
 2089.8737793  -999.250000 11.625000000 12.250000954 0.0940015987 0.3994100094 2.5429999828  -999.250000  -999.250000  -999.250000  -999.250000 3.0080029964 192.82499695 3.2730000019  -999.250000 3.2740094662
 2090.0261230  -999.250000 11.625000000 12.250000954 0.0949967951 0.3994100094 2.5429968834  -999.250000  -999.250000  -999.250000  -999.250000 3.0099968910 192.82420349 3.2730000019  -999.250000 3.2730031013
 2090.1784668  -999.250000 11.625000000 12.250000954 0.0930048078 0.3994100094 2.5410029888  -999.250000  -999.250000  -999.250000  -999.250000 3.0080029964 192.57510376 3.2699999809  -999.250000 3.2700095177
 2090.3308105  -999.250000 11.625000000 12.250000954 0.0960016027 0.3994100094 2.5429968834  -999.250000  -999.250000  -999.250000  -999.250000 3.0099999905 192.29490662 3.2730000019  -999.250000 3.2719936371
 2090.4833984  -999.250000 11.625000000 12.250000954 0.0970031992 0.3994100094 2.5409870148  -999.250000  -999.250000  -999.250000  -999.250000 3.0100128651 192.85481262 3.2699999809  -999.250000 3.2720000744
 2090.6357422  -999.250000 11.625000000 12.250000954 0.0979807675 0.3994100094 2.5369806290  -999.250000  -999.250000  -999.250000  -999.250000 3.0139935017 193.10670471 3.2769999504  -999.250000 3.2729969025
 2090.7880859  -999.250000 11.625000000 12.250000954 0.0859887823 0.3994100094 2.5249919891  -999.250000  -999.250000  -999.250000  -999.250000 3.0099999905 193.32160950 3.2639999390  -999.250000 3.2660224438
 2090.9404297  -999.250000 11.625000000 12.250000954 0.0789951980 0.3994100094 2.5200047493  -999.250000  -999.250000  -999.250000  -999.250000 3.0099999905 192.57339478 3.2699999809  -999.250000 3.2699871063
 2091.0930176  -999.250000 11.625000000 12.250000954 0.0760223940 0.3994100094 2.5230319500  -999.250000  -999.250000  -999.250000  -999.250000 3.0100193024 191.58128357 3.2709999084  -999.250000 3.2719969749
 2091.2453613  -999.250000 11.625000000 12.250000954 0.0830160230 0.3994100094 2.5330095291  -999.250000  -999.250000  -999.250000  -999.250000 3.0160000324 193.53640747 3.2790000439  -999.250000 3.2769839764
 2091.3977051  -999.250000 11.625000000 12.250000954 0.0929984003 0.3994100094 2.5389904976  -999.250000  -999.250000  -999.250000  -999.250000 3.0164005756 193.04341125 3.2769999504  -999.250000 3.2760031223
 2091.5500488  -999.250000 11.625000000 12.250000954 0.0920032039 0.3994100094 2.5329968929  -999.250000  -999.250000  -999.250000  -999.250000 3.2660031319 192.85848999 3.2709999084  -999.250000 3.2710158825
