# LAS format log file from PETREL
# Project units are specified as depth units
#==================================================================
~Version information
VERS.   2.0:
WRAP.   NO:
#==================================================================
~Well
STRT .m      433.43811035 :
STOP .m      2093.8361816 :
STEP .m     0.00000000 :
NULL .        -999.250000 :
COMP.           : COMPANY
WELL.  31/3-2   : WELL
FLD.            : FIELD
LOC.            : LOCATION
SRVC.           : SERVICE COMPANY
DATE.  2018-09-11 14:48:35   : Log Export Date {yyyy-MM-dd HH:mm:ss}
PROV.           : PROVINCE
UWI.   31/3-2   : UNIQUE WELL ID
API.            : API NUMBER
#==================================================================
~Curve
DEPT .m                   : DEPTH
Lithology_geolink ._      : Lithology_geolink
CALI .in                  : CALI
BS .in                    : BS
DRHO .g/cm3               : DRHO
NPHI .m3/m3               : NPHI
RHOB .g/cm3               : RHOB
PEF .b/e                  : PEF
GR .gAPI                  : GR
DTC .us/ft                : DTC
DTE .us/ft                : DTE
RDEP .ohm.m               : RDEP
SP .mV                    : SP
RSHA .ohm.m               : RSHA
RMIC .ohm.m               : RMIC
RMED .ohm.m               : RMED
~Parameter
#==================================================================
~Ascii
# ...
 540.42291260  -999.250000 22.020999908  -999.250000 0.0830144137 0.5044500232 2.0180623531 33.729179382 33.194881439 149.50775146 146.77287292 2.5980820656 137.23899841 1.7680000067  -999.250000 1.7690000534
 540.57531738  -999.250000 20.944999695  -999.250000 0.0520496592 0.5418999791 1.9271458387 29.348815918 37.492877960 148.48844910 145.70701599 2.6389598846 139.72169495 1.8040000200  -999.250000 1.8049999475
 540.72772217  -999.250000 19.461000443  -999.250000 0.0130624752 0.5825200081 1.8441329002 16.010744095 43.656665802 149.62196350 146.86674500 2.6189379692 143.93519592 1.8480000496  -999.250000 1.8569999933
 540.88012695  -999.250000 18.475000381  -999.250000 0.0000208250 0.5791099668 1.8110527992 8.8553028107 48.975986481 151.02606201 148.27738953 2.5879299641 146.91551208 1.9379999638  -999.250000 1.9329999685
 541.03253174  -999.250000 18.009000778  -999.250000 0.0000000000 0.5459400415 1.8469423056 5.6780767441 50.961196899 150.97209167 148.18592834 2.5529139042 148.19709778 2.0060000420  -999.250000 2.0000000000
 541.18487549  -999.250000 17.645999908  -999.250000 0.0000000000 0.4926800132 1.8919098377 4.4544448853 50.069431305 150.12336731 147.36663818 2.5098893642 148.44000244 2.0290000439  -999.250000 2.0299880505
 541.33728027  -999.250000 17.386999130  -999.250000 0.0059879855 0.4956000149 1.9548739195 3.9709651470 54.700782776 151.48645020 148.70480347 2.4408540726 147.42900085 2.0699999332  -999.250000 2.0629868507
 541.48968506  -999.250000 17.375000000  -999.250000 0.0139839808 0.4677700102 2.0058979988 3.8222963810 55.195964813 153.20628357 150.46307373 2.3497655392 146.19700623 2.0659999847  -999.250000 2.0659987926
 541.64208984  -999.250000 17.624000549  -999.250000 0.0140000004 0.4672900140 2.0269579887 3.6752943993 60.777656555 155.20063782 152.44610596 2.2329239845 145.93400574 2.0620000362  -999.250000 2.0430092812
 541.79449463  -999.250000 17.878000259  -999.250000 0.0169951934 0.4702099860 2.0389807224 3.6071362495 57.447589874 157.66699219 154.87425232 2.1950080395 142.71400452 1.9450000525  -999.250000 1.9410408735
 541.94689941  -999.250000 17.886999130  -999.250000 0.0150032034 0.4706900120 2.0310127735 3.7896335125 58.430767059 157.70675659 154.95048523 2.1990239620 144.22999573 1.7599999905  -999.250000 1.7600724697
 542.09930420  -999.250000 17.906000137  -999.250000 0.0329711661 0.4590100050 2.0429806709 4.2790188789 53.920475006 155.07382202 152.26054382 2.2110619545 143.50988770 1.5789999962  -999.250000 1.6190564632
 542.25170898  -999.250000 18.104999542  -999.250000 0.0310032032 0.4291999936 2.0350129604 5.1193156242 51.725879669 151.16586304 148.39942932 2.2420582771 143.25289917 1.6130000353  -999.250000 1.6449896097
 542.40411377  -999.250000 18.033000946  -999.250000 0.0419823788 0.4291999936 2.0409903526 5.4972453117 53.515823364 147.64099121 144.87542725 2.2710318565 142.99971008 1.8079999685  -999.250000 1.8199299574
 542.55651855  -999.250000 17.591999054  -999.250000 0.0449951962 0.4248099923 2.0290193558 4.8692617416 50.288585663 145.07073975 142.30290222 2.2871801853 142.28219604 2.0969998837  -999.250000 2.0950000286
 542.70892334  -999.250000 17.218999863  -999.250000 0.0410064086 0.3965200186 1.9770833254 5.7771754265 49.393596649 144.19621277 141.44650269 2.3772563934 142.77969360 2.2130000591  -999.250000 2.2119998932
 542.86132813  -999.250000 17.027999878  -999.250000 0.0280208252 0.4198600054 1.9011217356 7.5264940262 43.212951660 144.01622009 141.22273254 2.5051343441 142.03250122 2.3199999332  -999.250000 2.3010001183
 543.01373291  -999.250000 17.194000244  -999.250000 0.0150208250 0.4360400140 1.8560720682 8.9117813110 43.185821533 143.42967224 140.69113159 2.5719218254 140.77870178 2.3340001106  -999.250000 2.3329999447
 543.16613770  -999.250000 17.690000534  -999.250000 0.0169967972 0.4525699914 1.8749696016 5.1809897423 42.099109650 144.21723938 141.43174744 2.5328097343 140.03109741 2.3440001011  -999.250000 2.3320000172
 543.31848145  -999.250000 17.913999557  -999.250000 0.0170000009 0.4458100200 1.9268959761 3.3406803608 41.647987366 147.80221558 144.99447632 2.4376893044 140.27600098 2.2070000172  -999.250000 2.2020518780
 543.47088623  -999.250000 18.128000259  -999.250000 0.0359619521 0.4570699930 1.9768998623 3.3868999481 36.029354095 153.63986206 150.87341309 2.2437949181 142.52699280 2.0079998970  -999.250000 1.9950828552
 543.62329102  -999.250000 18.881000519  -999.250000 0.0559599549 0.4916000068 1.9829879999 4.9618401527 34.999168396 161.89314270 159.11802673 2.1157617569 143.77200317 1.7369999886  -999.250000 1.7520972490
 543.77569580  -999.250000 19.910999298  -999.250000 0.0759599507 0.4985400140 1.9480700493 9.1086854935 31.987174988 169.52374268 166.75024414 1.9967917204 143.77699280 1.5379999876  -999.250000 1.5450828075
 543.92810059  -999.250000 20.825000763  -999.250000 0.0590272434 0.5121600032 1.8531522751 20.047454834 31.466354370 172.88174438 170.07278442 1.8928058147 144.30499268 1.3849999905  -999.250000 1.3860636950
 544.08050537  -999.250000 21.156000137  -999.250000 0.0150704840 0.4951399863 1.7691346407 18.488529205 27.948635101 172.34449768 169.59219360 1.7958177328 144.52630615 1.3309999704  -999.250000 1.3410179615
 544.23291016  -999.250000 20.922000885  -999.250000 0.0000240288 0.5268499851 1.7590159178 8.7296533585 28.344024658 171.65643311 168.92041016 1.7048819065 145.27668762 1.3489999771  -999.250000 1.3529952765
 544.38531494  -999.250000 20.956001282  -999.250000 -0.000998398 0.5234500170 1.7929455042 5.5091423988 28.358924866 172.34709167 169.57095337 1.6459199190 144.52949524 1.3880000114  -999.250000 1.3819884062
 544.53771973  -999.250000 21.489999771  -999.250000 0.0049903882 0.5532199740 1.8119696379 5.2424197197 28.311874390 174.02871704 171.26359558 1.6059678793 143.27821350 1.3969999552  -999.250000 1.3930000067
 544.69012451  -999.250000 21.874000549  -999.250000 0.0099919904 0.5410599709 1.8040128946 5.8640017509 28.234598160 175.70791626 172.92608643 1.5899940729 141.27809143 1.3680000305  -999.250000 1.3680000305
 544.84252930  -999.250000 21.642000198  -999.250000 0.0119967964 0.5468699932 1.7960128784 6.9881978035 28.609691620 175.10232544 172.38238525 1.5869979858 138.99380493 1.3350000381  -999.250000 1.3389999866
 544.99493408  -999.250000 20.958000183  -999.250000 0.0139967967 0.5630199909 1.8009920120 6.7973089218 29.449665070 173.47798157 170.73361206 1.5859940052 138.47700500 1.3229999542  -999.250000 1.3250000477
 545.14733887  -999.250000 20.301998138  -999.250000 0.0189919900 0.5790599585 1.8119823933 6.6841812134 27.791547775 171.70329285 168.90344238 1.5829958916 134.73797607 1.3220000267  -999.250000 1.3220000267
 545.29974365  -999.250000 19.922000885  -999.250000 0.0229935925 0.5698199868 1.8209855556 6.4883136749 29.558542252 170.89880371 168.14509583 1.5809919834 135.96238708 1.3220000267  -999.250000 1.3220000267
 545.45208740  -999.250000 19.801000595  -999.250000 0.0379699618 0.5678799748 1.8379659653 6.1696391106 28.832895279 171.29257202 168.52519226 1.5769903660 136.44461060 1.3289999962  -999.250000 1.3289971352
 545.60449219  -999.250000 19.850999832  -999.250000 0.0350060090 0.5425099730 1.8399959803 6.4015336037 29.384519577 171.54365540 168.81610107 1.5709840059 135.44429016 1.3339999914  -999.250000 1.3339979649
 545.75689697  -999.250000 19.875000000  -999.250000 0.0350000001 0.5459100008 1.8360079527 7.7383189201 25.966804504 171.83479309 169.07179260 1.5629779100 138.67471313 1.3389999866  -999.250000 1.3349996805
 545.90930176  -999.250000 19.757999420  -999.250000 0.0310064089 0.5561299920 1.8270144463 7.0381283760 24.601615906 172.14241028 169.37222290 1.5519759655 137.95101929 1.3220000267  -999.250000 1.3220052719
 546.06170654  -999.250000 19.625000000  -999.250000 0.0200176202 0.5468800068 1.8120241165 6.1614046097 26.234567642 173.07852173 170.31961060 1.5399819613 137.97259521 1.3070000410  -999.250000 1.3070060015
 546.21411133  -999.250000 19.573999405  -999.250000 0.0130112134 0.5745962858 1.8050111532 5.7296905518 28.461088181 173.57206726 170.79061890 1.5309859514 139.45619202 1.2890000343  -999.250000 1.2900067568
