# LAS format log file from PETREL
# Project units are specified as depth units
#==================================================================
~Version information
VERS.   2.0:
WRAP.   NO:
#==================================================================
~Well
STRT .m      349.62512207 :
STOP .m      2379.4997559 :
STEP .m     0.00000000 :
NULL .        -999.250000 :
COMP.           : COMPANY
WELL.  31/3-1   : WELL
FLD.            : FIELD
LOC.            : LOCATION
SRVC.           : SERVICE COMPANY
DATE.  2018-09-11 14:48:35   : Log Export Date {yyyy-MM-dd HH:mm:ss}
PROV.           : PROVINCE
UWI.   31/3-1   : UNIQUE WELL ID
API.            : API NUMBER
#==================================================================
~Curve
DEPT .m                   : DEPTH
Lithology_geolink ._      : Lithology_geolink
CALI .in                  : CALI
BS .in                    : BS
DRHO .g/cm3               : DRHO
NPHI .m3/m3               : NPHI
RHOB .g/cm3               : RHOB
GR .gAPI                  : GR
DTC .us/ft                : DTC
DTE .us/ft                : DTE
RDEP .ohm.m               : RDEP
SP .mV                    : SP
RSHA .ohm.m               : RSHA
RMIC .ohm.m               : RMIC
RMED .ohm.m               : RMED
~Parameter
#==================================================================
~Ascii
# ...
 2373.9997559  -999.250000 9.0880002975 8.5000000000 0.1749999970 0.1934499890  -999.250000 77.894996643  -999.250000  -999.250000 1.7369999886 36.259998322 2.2980000973  -999.250000 2.2980000973
 2374.1247559  -999.250000 9.0880002975 8.5000000000 0.1749999970 0.1929599941  -999.250000 77.894996643  -999.250000  -999.250000 1.7369999886 36.388000488 2.3139998913  -999.250000 2.3139998913
 2374.2497559  -999.250000 9.0880002975 8.5000000000 0.1759999990 0.1929700077  -999.250000 77.894996643  -999.250000  -999.250000 1.7379981279 36.321998596 2.3159999847  -999.250000 2.3159999847
 2374.3747559  -999.250000 9.0880002975 8.5000000000 0.1749999970 0.1928700060  -999.250000 77.894996643  -999.250000  -999.250000 1.7380000353 36.092998505 2.3169999123  -999.250000 2.3169999123
 2374.4997559  -999.250000 9.0880002975 8.5000000000 0.1729999930 0.1922300011  -999.250000 77.894996643  -999.250000  -999.250000 1.7380000353 35.720001221 2.3190000057  -999.250000 2.3190000057
 2374.6247559  -999.250000 9.0880002975 8.5000000000 0.1720000058 0.1914599985  -999.250000 77.894996643  -999.250000  -999.250000 1.7370018959 35.266998291 2.3239998817  -999.250000 2.3239998817
 2374.7497559  -999.250000 9.0880002975 8.5000000000 0.1729999930 0.1911100000  -999.250000 77.894996643  -999.250000  -999.250000 1.7350039482 34.799999237 2.3280000687  -999.250000 2.3280000687
 2374.8747559  -999.250000 9.0880002975 8.5000000000 0.1780000031 0.1911700070  -999.250000 77.894996643  -999.250000  -999.250000 1.7340018749 34.390998840 2.3280000687  -999.250000 2.3280000687
 2374.9997559  -999.250000 9.0880002975 8.5000000000 0.1659999937 0.1912700087  -999.250000 77.894996643  -999.250000  -999.250000 1.7339999676 34.095001221 2.3239998817  -999.250000 2.3239998817
 2375.1247559  -999.250000 9.0880002975 8.5000000000 0.1070000008 0.1912599951  -999.250000 77.894996643  -999.250000  -999.250000 1.7349981070 33.919998169 2.3190000057  -999.250000 2.3190000057
 2375.2497559  -999.250000 9.0880002975 8.5000000000 -0.020000000 0.1911399961  -999.250000 77.894996643  -999.250000  -999.250000 1.7350000143 33.937999725 2.3150000572  -999.250000 2.3150000572
 2375.3747559  -999.250000 9.0880002975 8.5000000000 -0.152999997 0.1910199970  -999.250000 77.894996643  -999.250000  -999.250000 1.7350000143 34.104999542 2.3129999638  -999.250000 2.3129999638
 2375.4997559  -999.250000 9.0880002975 8.5000000000 -0.221000001 0.1909900159  -999.250000 77.894996643  -999.250000  -999.250000 1.7350000143 34.393001556 2.3120000362  -999.250000 2.3120000362
 2375.6247559  -999.250000 9.0880002975 8.5000000000 -0.159999996 0.1910099983  -999.250000 77.894996643  -999.250000  -999.250000 1.7359980345 34.678001404 2.3120000362  -999.250000 2.3120000362
 2375.7497559  -999.250000 9.0880002975 8.5000000000 -0.032000002 0.1908499897  -999.250000 77.894996643  -999.250000  -999.250000 1.7369980812 34.826999664 2.3120000362  -999.250000 2.3120000362
 2375.8747559  -999.250000 9.0880002975 8.5000000000 0.0949999988 0.1903899908  -999.250000 77.894996643  -999.250000  -999.250000 1.7379981279 34.705001831 2.3120000362  -999.250000 2.3120000362
 2375.9997559  -999.250000 9.0880002975 8.5000000000 0.1640000045 0.1897800118  -999.250000 77.894996643  -999.250000  -999.250000 1.7389980555 34.323001862 2.3120000362  -999.250000 2.3120000362
 2376.1247559  -999.250000 9.0880002975 8.5000000000 0.1850000024 0.1890700012  -999.250000 77.894996643  -999.250000  -999.250000 1.7380019426 33.777999878 2.3110001087  -999.250000 2.3110001087
 2376.2497559  -999.250000 9.0880002975 8.5000000000 0.1850000024 0.1881700009  -999.250000 77.894996643  -999.250000  -999.250000 1.7370018959 33.195999146 2.3099999428  -999.250000 2.3099999428
 2376.3747559  -999.250000 9.0880002975 8.5000000000 0.1850000024 0.1874600053  -999.250000 77.894996643  -999.250000  -999.250000 1.7350039482 32.661998749 2.3099999428  -999.250000 2.3099999428
 2376.4997559  -999.250000 9.0880002975 8.5000000000 0.1850000024 0.1872600019  -999.250000 77.894996643  -999.250000  -999.250000 1.7350000143 32.252998352 2.3090000153  -999.250000 2.3090000153
 2376.6247559  -999.250000 9.0880002975 8.5000000000 0.1850000024 0.1873200089  -999.250000 77.894996643  -999.250000  -999.250000 1.7350000143 31.971000671 2.3090000153  -999.250000 2.3090000153
 2376.7497559  -999.250000 9.0880002975 8.5000000000 0.1850000024 0.1872899979  -999.250000 77.894996643  -999.250000  -999.250000 1.7350000143 31.810001373 2.3080000877  -999.250000 2.3080000877
 2376.8747559  -999.250000 9.0880002975 8.5000000000 0.1850000024 0.1872699857  -999.250000 77.894996643  -999.250000  -999.250000 1.7359980345 31.736001968 2.3080000877  -999.250000 2.3080000877
 2376.9997559  -999.250000 9.0880002975 8.5000000000 0.1850000024 0.1875299960  -999.250000 77.894996643  -999.250000  -999.250000 1.7359999418 31.715002060 2.3080000877  -999.250000 2.3080000877
 2377.1247559  -999.250000 9.0880002975 8.5000000000 0.1850000024 0.1879899949  -999.250000 77.894996643  -999.250000  -999.250000 1.7359999418 31.712997437 2.3080000877  -999.250000 2.3080000877
 2377.2497559  -999.250000 9.0880002975 8.5000000000 0.1850000024 0.1880600005  -999.250000 77.894996643  -999.250000  -999.250000 1.7359999418 31.712997437 2.3080000877  -999.250000 2.3080000877
 2377.3747559  -999.250000 9.0880002975 8.5000000000 0.1850000024 0.1870400012  -999.250000 77.894996643  -999.250000  -999.250000 1.7359999418 31.712997437 2.3080000877  -999.250000 2.3080000877
 2377.4997559  -999.250000 9.0880002975 8.5000000000 0.1850000024 0.1816900074  -999.250000 77.894996643  -999.250000  -999.250000 1.7359999418 31.712997437 2.3080000877  -999.250000 2.3080000877
 2377.6247559  -999.250000 9.0880002975 8.5000000000 0.1850000024 0.1662500054  -999.250000 77.894996643  -999.250000  -999.250000 1.7359999418 31.712997437 2.3090000153  -999.250000 2.3090000153
 2377.7497559  -999.250000 9.0880002975 8.5000000000 0.1850000024 0.1421400011  -999.250000 77.894996643  -999.250000  -999.250000 1.7359999418 31.712997437 2.3090000153  -999.250000 2.3090000153
 2377.8747559  -999.250000 9.0880002975 8.5000000000 0.1850000024 0.1187399924  -999.250000 77.894996643  -999.250000  -999.250000 1.7359999418 31.712997437 2.3090000153  -999.250000 2.3090000153
 2377.9997559  -999.250000 9.0880002975 8.5000000000 0.1850000024 0.1081300005  -999.250000 77.894996643  -999.250000  -999.250000 1.7359999418 31.712997437 2.3080000877  -999.250000 2.3080000877
 2378.1247559  -999.250000 9.0880002975 8.5000000000 0.1850000024 0.1149300039  -999.250000 77.894996643  -999.250000  -999.250000 1.7359999418 31.712997437 2.3080000877  -999.250000 2.3080000877
 2378.2497559  -999.250000 9.0880002975 8.5000000000 0.1850000024 0.1338000000  -999.250000 77.894996643  -999.250000  -999.250000 1.7359999418 31.712997437 2.3069999218  -999.250000 2.3069999218
 2378.3747559  -999.250000 9.0880002975 8.5000000000 0.1850000024 0.1542100012  -999.250000 77.894996643  -999.250000  -999.250000 1.7359999418 31.712997437 2.3069999218  -999.250000 2.3069999218
 2378.4997559  -999.250000 9.0880002975 8.5000000000  -999.250000  -999.250000  -999.250000 77.894996643  -999.250000  -999.250000 1.7359999418 31.712997437 2.3069999218  -999.250000 2.3069999218
 2378.6247559  -999.250000 9.0880002975 8.5000000000  -999.250000  -999.250000  -999.250000 77.894996643  -999.250000  -999.250000 1.7359999418 31.712997437 2.3069999218  -999.250000 2.3069999218
 2378.7497559  -999.250000 9.0880002975 8.5000000000  -999.250000  -999.250000  -999.250000 77.894996643  -999.250000  -999.250000 1.7359999418 31.712997437 2.3080000877  -999.250000 2.3080000877
 2378.8747559  -999.250000 9.0880002975 8.5000000000  -999.250000  -999.250000  -999.250000 77.894996643  -999.250000  -999.250000 1.7359999418 31.712997437 2.3080000877  -999.250000 2.3080000877
 2378.9997559  -999.250000 9.0880002975 8.5000000000  -999.250000  -999.250000  -999.250000 77.894996643  -999.250000  -999.250000 1.7359999418 31.712997437 2.3080000877  -999.250000 2.3080000877
