# LAS format log file from PETREL
# Project units are specified as depth units
#==================================================================
~Version information
VERS.   2.0:
WRAP.   NO:
#==================================================================
~Well
STRT .m      349.62512207 :
STOP .m      2379.4997559 :
STEP .m     0.00000000 :
NULL .        -999.250000 :
COMP.           : COMPANY
WELL.  31/3-1   : WELL
FLD.            : FIELD
LOC.            : LOCATION
SRVC.           : SERVICE COMPANY
DATE.  2018-09-11 14:48:35   : Log Export Date {yyyy-MM-dd HH:mm:ss}
PROV.           : PROVINCE
UWI.   31/3-1   : UNIQUE WELL ID
API.            : API NUMBER
#==================================================================
~Curve
DEPT .m                   : DEPTH
Lithology_geolink ._      : Lithology_geolink
CALI .in                  : CALI
BS .in                    : BS
DRHO .g/cm3               : DRHO
NPHI .m3/m3               : NPHI
RHOB .g/cm3               : RHOB
GR .gAPI                  : GR
DTC .us/ft                : DTC
DTE .us/ft                : DTE
RDEP .ohm.m               : RDEP
SP .mV                    : SP
RSHA .ohm.m               : RSHA
RMIC .ohm.m               : RMIC
RMED .ohm.m               : RMED
~Parameter
#==================================================================
~Ascii
# ...
 1441.2500000 2.0000000000 12.520000458 12.250000954 -0.009000000 0.2101499885 2.1074080467 79.997779846 139.95208740 137.41040039 16.141000748 114.84600067 13.042525291 1.4931064844 13.042525291
 1441.3750000 2.0000000000 12.531000137 12.250000954 -0.011000000 0.2094700038 2.1098713875 79.772979736 138.58795166 135.97048950 18.266000748 114.94100189 12.557379723 1.6021611691 12.557379723
 1441.4998779 2.0000000000 12.541000366 12.250000954 -0.011999023 0.2063730210 2.1155982018 78.723999023 136.50590515 133.97019958 21.143186569 115.00900269 12.946000099 1.7669999599 12.946000099
 1441.6248779 2.0000000000 12.552000046 12.250000954 -0.011000977 0.1982679218 2.1248230934 76.558998108 134.15733337 131.59353638 24.232999802 115.03600311 14.197999954 1.9509999752 14.197999954
 1441.7498779 1.0000000000 12.562999725 12.250000954 -0.011000000 0.1843799949 2.1361804008 72.691001892 131.57449341 129.00692749 27.798000336 115.17199707 16.697000504 2.0190000534 16.697000504
 1441.8748779 1.0000000000 12.572999954 12.250000954 -0.016000001 0.1640200019 2.1471781731 67.427406311 128.87971497 126.38216400 35.331001282 115.33999634 20.299999237 1.8389999866 20.302999496
 1441.9998779 1.0000000000 12.583000183 12.250000954 -0.027000001 0.1423799992 2.1544446945 61.697380066 126.37436676 123.88419342 59.428001404 115.51000214 27.425289154 1.5080000162 27.425289154
 1442.1250000 1.0000000000 12.588999748 12.250000954 -0.044000000 0.1240699962 2.1525557041 55.941253662 124.59663391 121.98071289 128.99899292 115.68000031 39.003238678 1.2209999561 39.003238678
 1442.2500000 1.0000000000 12.592000008 12.250000954 -0.061000001 0.1131499931 2.1442825794 52.488456726 123.32364655 120.79296112 677.13201904 115.81800079 53.967235565 1.0498558283 53.967235565
 1442.3750000 1.0000000000 12.595999718 12.250000954 -0.075999998 0.1078800038 2.1316566467 50.674381256 122.78366852 120.24124908 2016.6850586 115.90699768 65.859130859 0.9761065841 65.859130859
 1442.5000000 1.0000000000 12.598999977 12.250000954 -0.090999998 0.1065900028 2.1152207851 50.041740417 122.89397430 120.32273865 2016.4090576 115.97699738 72.140502930 0.9521034360 72.140502930
 1442.6248779 1.0000000000 12.601000786 12.250000954 -0.106984377 0.1060705110 2.0952501297 50.797000885 123.60835266 121.10890961 2016.1333008 115.97899628 75.721000671 0.9423599839 75.721000671
 1442.7498779 1.0000000000 12.583000183 12.250000954 -0.122984380 0.1053606942 2.0726039410 52.465999603 125.58053589 122.93184662 2015.8559570 116.05899811 77.355003357 0.9235150218 77.355003357
 1442.8748779 1.0000000000 12.555000305 12.250000954 -0.137985349 0.1048904657 2.0493624210 54.022998810 127.88802338 125.33176422 2015.5810547 116.21900177 78.165000916 0.8953949809 78.166000366
 1442.9998779 1.0000000000 12.527000427 12.250000954 -0.152999997 0.1057699993 2.0238978863 55.345794678 130.37925720 127.82524872 2015.3039551 116.32900238 78.347000122 0.8723289967 78.347000122
 1443.1248779 1.0000000000 12.506999969 12.250000954 -0.165000007 0.1086499989 1.9965956211 56.155876160 133.06764221 130.51440430 2015.0279541 116.25599670 77.385940552 0.8598949909 77.385940552
 1443.2498779 1.0000000000 12.510999680 12.250000954 -0.163000003 0.1125900000 1.9700442553 56.029544830 136.00500488 133.49136353 2014.7519531 116.15200043 75.274826050 0.8603590131 75.274826050
 1443.3750000 1.0000000000 12.517999649 12.250000954 -0.145999998 0.1152999997 1.9489457607 55.562896729 139.31596375 136.82522583 2014.4759521 116.04000092 72.019439697 0.8773822784 72.019439697
 1443.5000000 1.0000000000 12.522998810 12.250000954 -0.118000001 0.1150300056 1.9427968264 54.998394012 143.80697632 141.21678162 2014.1999512 115.91999817 68.147277832 0.9241573811 68.147277832
 1443.6250000 1.0000000000 12.527000427 12.250000954 -0.090999998 0.1125499979 1.9460624456 54.376079559 149.78028870 147.20761108 2013.9229736 115.66899872 64.337615967 1.0331737995 64.337615967
 1443.7498779 1.0000000000 12.531000137 12.250000954 -0.074016601 0.1097227633 1.9512968063 53.437000275 155.43215942 152.84352112 2013.6472168 115.39600372 60.870998383 1.2109999657 60.870998383
 1443.8748779 1.0000000000 12.534000397 12.250000954 -0.068005860 0.1078618169 1.9550238848 52.641998291 159.38471985 156.79512024 2013.3542480 115.12400055 57.729000092 1.4930000305 57.727001190
 1443.9998779 1.0000000000 12.538000107 12.250000954 -0.066001952 0.1072605848 1.9559378624 52.819999695 160.56166077 158.01776123 1897.3979492 114.85099792 54.772998810 1.8329999447 54.772998810
 1444.1248779 1.0000000000 12.541999817 12.250000954 -0.066999026 0.1079399958 1.9550353289 53.578998566 158.22131348 155.59562683 673.20098877 114.59200287 51.817001343 2.1410000324 51.817001343
 1444.2498779 1.0000000000 12.545000076 12.250000954 -0.071999997 0.1099899933 1.9516123533 54.508609772 153.80564880 151.26641846 220.38099670 114.34200287 48.981998444 2.2769999504 48.981998444
 1444.3748779 1.0000000000 12.548999786 12.250000954 -0.081000000 0.1134200022 1.9444358349 55.134174347 149.74194336 147.17179871 102.93099976 114.09100342 46.926242828 2.2260000706 46.926242828
 1444.5000000 1.0000000000 12.552000046 12.250000954 -0.090999998 0.1181199998 1.9355508089 55.314197540 146.79939270 144.21319580 72.390998840 113.93699646 45.122608185 2.0899999142 45.122608185
 1444.6250000 1.0000000000 12.555000305 12.250000954 -0.093999997 0.1235099956 1.9290752411 55.416492462 145.40017700 142.81391907 59.248001099 113.93299866 43.386886597 2.0090000629 43.386886597
 1444.7500000 1.0000000000 12.546999931 12.250000954 -0.085000001 0.1285700053 1.9302051067 55.668357849 145.51643372 142.86061096 59.539001465 113.83399963 42.304668427 2.0090978146 42.304668427
 1444.8750000 1.0000000000 12.531000137 12.250000954 -0.071000002 0.1321599931 1.9443886280 56.035362244 145.80757141 143.25027466 66.528999329 113.70500183 41.966392517 2.1091406345 41.965393066
 1444.9998779 1.0000000000 12.513999939 12.250000954 -0.059011720 0.1332889050 1.9607663155 56.408000946 145.25480652 142.75796509 88.500526428 113.55799866 42.367000580 2.2530000210 42.367000580
 1445.1248779 1.0000000000 12.496999741 12.250000954 -0.057001952 0.1324508190 1.9695048332 56.786998749 144.44398499 141.87275696 118.03299713 113.37400055 42.869998932 2.3870000839 42.869998932
 1445.2498779 1.0000000000 12.482000351 12.250000954 -0.061995115 0.1308699995 1.9675282240 57.277000427 143.60705566 141.02033997 131.37100220 113.16600037 43.452999115 2.4519999027 43.452999115
 1445.3748779 1.0000000000 12.475999832 12.250000954 -0.067000002 0.1302400082 1.9562975168 58.104183197 143.08981323 140.61161804 109.10500336 112.87699890 44.150001526 2.4389998913 44.150001526
 1445.4998779 1.0000000000 12.474999428 12.250000954 -0.066000000 0.1314300001 1.9422780275 59.313236237 143.57482910 141.01023865 67.000999451 112.64199829 44.944545746 2.3680000305 44.944545746
 1445.6250000 1.0000000000 12.474999428 12.250000954 -0.061000001 0.1339199990 1.9364236593 60.581157684 145.99998474 143.50573730 37.541000366 112.51300049 45.502033234 2.2219998837 45.502033234
 1445.7500000 1.0000000000 12.474999428 12.250000954 -0.055000000 0.1368000060 1.9366772175 61.686439514 149.79818726 147.22694397 24.316999435 112.50900269 45.005691528 1.9874517918 45.005687714
 1445.8750000 1.0000000000 12.473999977 12.250000954 -0.050999999 0.1404799968 1.9407578707 62.422950745 153.73184204 151.14630127 17.698999405 112.50599670 43.311607361 1.7067393064 43.309612274
 1446.0000000 1.0000000000 12.473999977 12.250000954 -0.045000002 0.1471399963 1.9479954243 62.371452332 156.63861084 154.08764648 15.078000069 112.50199890 40.862457275 1.4398232698 40.862457275
 1446.1248779 1.0000000000 12.472999573 12.250000954 -0.036008786 0.1571801752 1.9589985609 61.807998657 157.53216553 154.95429993 13.908143044 112.49900055 38.258998871 1.2589999437 38.258998871
 1446.2498779 1.0000000000 12.472000122 12.250000954 -0.024011718 0.1681193113 1.9760515690 60.658000946 155.37710571 152.91081238 13.911999702 112.49500275 35.416000366 1.1790000200 35.416000366
