# LAS format log file from PETREL
# Project units are specified as depth units
#==================================================================
~Version information
VERS.   2.0:
WRAP.   NO:
#==================================================================
~Well
STRT .m      793.37487793 :
STOP .m      2575.0000000 :
STEP .m     0.00000000 :
NULL .        -999.250000 :
COMP.           : COMPANY
WELL.  31/3-3   : WELL
FLD.            : FIELD
LOC.            : LOCATION
SRVC.           : SERVICE COMPANY
DATE.  2018-09-11 14:48:36   : Log Export Date {yyyy-MM-dd HH:mm:ss}
PROV.           : PROVINCE
UWI.   31/3-3   : UNIQUE WELL ID
API.            : API NUMBER
#==================================================================
~Curve
DEPT .m                   : DEPTH
Lithology_geolink ._      : Lithology_geolink
CALI .in                  : CALI
BS .in                    : BS
DRHO .g/cm3               : DRHO
NPHI .m3/m3               : NPHI
RHOB .g/cm3               : RHOB
GR .gAPI                  : GR
DTC .us/ft                : DTC
DTE .us/ft                : DTE
RDEP .ohm.m               : RDEP
SP .mV                    : SP
RSHA .ohm.m               : RSHA
RMED .ohm.m               : RMED
~Parameter
#==================================================================
~Ascii
# ...
 1502.8748779 12.000000000 18.249000549  -999.250000 -0.034000002 0.1594499946 2.4619998932 63.740554810 91.540077209 85.981941223 2.2609980106 4.9647970200 2.1450722218 2.1450722218
 1502.9998779 12.000000000 18.245000839  -999.250000 -0.033000000 0.1617799997 2.4709999561 63.292877197 92.032882690 86.488349915 2.2410390377 5.0568203926 2.1519863605 2.1519863605
 1503.1250000 12.000000000 18.242000580  -999.250000 -0.018999999 0.1629199982 2.4890000820 62.388881683 91.527534485 85.949348450 2.2000401020 5.1429162025 2.2029502392 2.2029502392
 1503.2500000 12.000000000 18.239000320  -999.250000 0.0010000000 0.1624500155 2.5079998970 61.302059174 90.222419739 84.611366272 2.1490497589 5.2299151421 2.2779269218 2.2779269218
 1503.3750000 12.000000000 18.238000870  -999.250000 0.0199999996 0.1609300077 2.5190000534 60.521762848 88.483322144 82.994812012 2.1050429344 5.3039274216 2.3389403820 2.3389403820
 1503.5000000 12.000000000 18.238000870  -999.250000 0.0309999995 0.1601099968 2.5179998875 60.527000427 87.504829407 82.037384033 2.0759999752 5.3509998322 2.3489999771 2.3489999771
 1503.6248779 12.000000000 18.239000320  -999.250000 0.0359999985 0.1612199992 2.5099999905 61.345199585 87.781837463 82.244163513 2.0610146523 5.3829684258 2.3000478745 2.3000478745
 1503.7498779 12.000000000 18.242000580  -999.250000 0.0370000005 0.1638500094 2.5020000935 62.518852234 88.980941772 83.464561462 2.0530078411 5.4529318810 2.2120857239 2.2120857239
 1503.8748779 12.000000000 18.245000839  -999.250000 0.0379999988 0.1668199897 2.4960000515 63.463077545 90.905532837 85.368576050 2.0330195427 5.6617960930 2.1280820370 2.1280820370
 1503.9998779 12.000000000 18.246000290  -999.250000 0.0379999988 0.1685199887 2.4930000305 64.084785461 93.124855042 87.489509583 1.9930781126 5.9993405342 2.0790956020 2.0790956020
 1504.1248779 13.000000000 18.245000839  -999.250000 0.0379999988 0.1679599881 2.4900000095 64.464256287 94.728546143 89.265342712 1.9311211109 6.3722715378 2.0690195560 2.0690195560
 1504.2500000 13.000000000 18.243000031  -999.250000 0.0359999985 0.1649599969 2.4849998951 64.789680481 95.755477905 90.307060242 1.8620673418 6.6427364349 2.0849843025 2.0849843025
 1504.3750000 13.000000000 18.240999222  -999.250000 0.0299999993 0.1606100053 2.4760000706 65.335464478 96.493316650 90.971931458 1.8040566444 6.6959481239 2.0959892273 2.0959892273
 1504.5000000 13.000000000 18.243000031  -999.250000 0.0240000002 0.1577700078 2.4660000801 66.040313721 97.056671143 91.542129517 1.7610419989 6.5990948677 2.0790166855 2.0790166855
 1504.6250000 13.000000000 18.246999741  -999.250000 0.0199999996 0.1583099961 2.4590001106 66.636001587 97.671882629 92.196342468 1.7319999933 6.4349999428 2.0409998894 2.0409998894
 1504.7498779 13.000000000 18.250000000  -999.250000 0.0170000009 0.1624699980 2.4560000896 67.132514954 98.535766602 92.985771179 1.7120195627 6.2791519165 2.0020382404 2.0020382404
 1504.8748779 13.000000000 18.250999451  -999.250000 0.0149999997 0.1687500030 2.4560000896 67.635513306 99.253219604 93.711090088 1.6970146894 6.1601161957 1.9860155582 1.9860155582
 1504.9998779 13.000000000 18.249000549  -999.250000 0.0160000008 0.1731600016 2.4579999447 67.999641418 99.568382263 94.101852417 1.6860107183 6.0600976944 1.9899960756 1.9899960756
 1505.1248779 13.000000000 18.246000290  -999.250000 0.0189999994 0.1735399961 2.4639999866 68.078926086 99.721260071 94.219108582 1.6830029488 5.9920663834 2.0009891987 2.0009891987
 1505.2498779 13.000000000 18.243000031  -999.250000 0.0270000007 0.1708799899 2.4739999771 67.862419128 99.732307434 94.194747925 1.6899863482 5.9920001030 2.0029962063 2.0029962063
 1505.3748779 13.000000000 18.242000580  -999.250000 0.0370000005 0.1669300050 2.4879999161 67.404891968 99.663658142 94.145797729 1.7089629173 6.1027832031 1.9910235405 1.9910235405
 1505.5000000 13.000000000 18.240999222  -999.250000 0.0410000011 0.1631900072 2.4969999790 66.987403870 99.693695068 94.120422363 1.7299795151 6.2978096008 1.9810097218 1.9810097218
 1505.6250000 13.000000000 18.239000320  -999.250000 0.0340000018 0.1604800075 2.4960000515 66.870117188 99.334968567 93.800262451 1.7439862490 6.5547490120 1.9869941473 1.9869941473
 1505.7500000 13.000000000 18.238000870  -999.250000 0.0189999994 0.1591500044 2.4820001125 67.114997864 98.462677002 92.966468811 1.7450000048 6.8359999657 2.0160000324 2.0160000324
 1505.8748779 13.000000000 18.239000320  -999.250000 0.0040000002 0.1590400040 2.4619998932 67.419700623 97.265968323 91.737434387 1.7360087633 7.0447959900 2.0579590797 2.0579590797
 1505.9998779 13.000000000 18.242000580  -999.250000 -0.001000000 0.1595600098 2.4449999332 67.576850891 96.029396057 90.479339600 1.7280079126 7.1019444466 2.0849735737 2.0849735737
 1506.1248779 13.000000000 18.246999741  -999.250000 0.0010000000 0.1608799994 2.4370000362 67.492080688 95.176055908 89.700462341 1.7270009518 6.9821171761 2.0780069828 2.0780069828
 1506.2498779 13.000000000 18.250999451  -999.250000 0.0070000002 0.1636499912 2.4370000362 67.140342712 95.602378845 90.029144287 1.7339931726 6.7422347069 2.0330438614 2.0330438614
 1506.3748779 13.000000000 18.253999710  -999.250000 0.0130000003 0.1679000109 2.4430000782 66.783691406 97.033874512 91.491386414 1.7399883270 6.5383982658 1.9721189737 1.9721189737
 1506.4998779 13.000000000 18.256000519  -999.250000 0.0160000008 0.1731999964 2.4549999237 66.675216675 98.791687012 93.305084229 1.7360078096 6.5040664673 1.9270879030 1.9270879030
 1506.6250000 13.000000000 18.254999161  -999.250000 0.0189999994 0.1777999997 2.4660000801 66.776901245 100.37615967 94.884521484 1.7200156450 6.6588487625 1.9140126705 1.9140126705
 1506.7500000 13.000000000 18.253000259  -999.250000 0.0250000004 0.1795299947 2.4760000706 66.845932007 101.33510590 95.796257019 1.6940253973 6.9427223206 1.9289853573 1.9289853573
 1506.8750000 13.000000000 18.250999451  -999.250000 0.0299999993 0.1769599915 2.4820001125 66.551292419 101.34800720 95.853744507 1.6710224152 7.2706794739 1.9569727182 1.9569727182
 1507.0000000 13.000000000 18.249000549  -999.250000 0.0320000015 0.1704100072 2.4809999466 65.996002197 100.82714081 95.264869690 1.6579999924 7.5900001526 1.9750000238 1.9750000238
 1507.1248779 13.000000000 18.246000290  -999.250000 0.0289999992 0.1634799987 2.4760000706 65.511474609 100.25290680 94.702552795 1.6579999924 7.8757209778 1.9759989977 1.9759989977
 1507.2498779 13.000000000 18.243000031  -999.250000 0.0199999996 0.1586699933 2.4660000801 65.493011475 99.898109436 94.374580383 1.6669912338 8.0788021088 1.9660097361 1.9660097361
 1507.3748779 13.000000000 18.239999771  -999.250000 0.0070000002 0.1572500020 2.4519999027 66.162345886 99.861106873 94.308731079 1.6739932299 8.1009778976 1.9600058794 1.9600058794
 1507.4998779 13.000000000 18.236999512  -999.250000 -0.004000000 0.1597200036 2.4400000572 67.023162842 100.04351807 94.410781860 1.6730009317 7.9521455765 1.9659941196 1.9659941196
 1507.6248779 13.000000000 18.235000610  -999.250000 -0.009000000 0.1631999910 2.4309999943 67.518028259 99.979278564 94.469856262 1.6650155783 7.7094740868 1.9819687605 1.9819687605
 1507.7500000 13.000000000 18.236000061  -999.250000 -0.007000000 0.1651000082 2.4249999523 67.374145508 100.03543091 94.435981750 1.6530116796 7.4982061386 1.9989833832 1.9989833832
 1507.8750000 13.000000000 18.236999512  -999.250000 -0.002000000 0.1646800041 2.4200000763 66.790573120 100.03045654 94.482391357 1.6430097818 7.4200763702 2.0039951801 2.0039951801
 1508.0000000 13.000000000 18.238000870  -999.250000 0.0010000000 0.1630499959 2.4140000343 66.366409302 100.19399261 94.720947266 1.6400029659 7.4100093842 1.9920116663 1.9920116663
 1508.1250000 13.000000000 18.238000870  -999.250000 -0.001000000 0.1625099927 2.4110000134 66.486000061 100.66264343 95.186126709 1.6410000324 7.3680000305 1.9680000544 1.9680000544
 1508.2498779 13.000000000 18.236999512  -999.250000 -0.006000000 0.1644099951 2.4079999924 67.200294495 101.39844513 95.821876526 1.6459951401 7.2391257286 1.9430243969 1.9430243969
