# LAS format log file from PETREL
# Project units are specified as depth units
#==================================================================
~Version information
VERS.   2.0:
WRAP.   NO:
#==================================================================
~Well
STRT .m      433.43811035 :
STOP .m      2093.8361816 :
STEP .m     0.00000000 :
NULL .        -999.250000 :
COMP.           : COMPANY
WELL.  31/3-2   : WELL
FLD.            : FIELD
LOC.            : LOCATION
SRVC.           : SERVICE COMPANY
DATE.  2018-09-11 14:48:35   : Log Export Date {yyyy-MM-dd HH:mm:ss}
PROV.           : PROVINCE
UWI.   31/3-2   : UNIQUE WELL ID
API.            : API NUMBER
#==================================================================
~Curve
DEPT .m                   : DEPTH
Lithology_geolink ._      : Lithology_geolink
CALI .in                  : CALI
BS .in                    : BS
DRHO .g/cm3               : DRHO
NPHI .m3/m3               : NPHI
RHOB .g/cm3               : RHOB
PEF .b/e                  : PEF
GR .gAPI                  : GR
DTC .us/ft                : DTC
DTE .us/ft                : DTE
RDEP .ohm.m               : RDEP
SP .mV                    : SP
RSHA .ohm.m               : RSHA
RMIC .ohm.m               : RMIC
RMED .ohm.m               : RMED
~Parameter
#==================================================================
~Ascii
# ...
 760.33612061  -999.250000 19.002000809  -999.250000 0.0089999996 0.4990099370 1.9780012369  -999.250000 79.028388977 162.87780762 160.11238098 1.3530000448 156.14920044 1.2910000086  -999.250000 1.2889871597
 760.48852539  -999.250000 19.024000168  -999.250000 0.0000108130 0.5237690210 1.9610203505  -999.250000 80.181694031 163.30393982 160.54815674 1.3530241251 156.39860535 1.3109999895  -999.250000 1.3079923391
 760.64093018  -999.250000 19.035999298  -999.250000 -0.001997597 0.5462246537 1.9470168352  -999.250000 78.138061523 163.84860229 161.04582214 1.3650300503 155.90019226 1.3150000572  -999.250000 1.3109987974
 760.79333496  -999.250000 18.951000214  -999.250000 -0.000001603 0.5328019857 1.9470000267  -999.250000 86.284851074 164.35139465 161.59927368 1.3800580502 156.14900208 1.2979999781  -999.250000 1.2990047932
 760.94573975  -999.250000 18.988000870  -999.250000 0.0039967964 0.5128414631 1.9529951811  -999.250000 89.941276550 164.88024902 162.09777832 1.4090260267 156.15029907 1.2879999876  -999.250000 1.2890040874
 761.09814453  -999.250000 18.885000229  -999.250000 0.0049991990 0.5163453817 1.9599944353  -999.250000 94.466751099 164.65162659 161.90574646 1.4219820499 156.40049744 1.2879999876  -999.250000 1.2890000343
 761.25054932  -999.250000 18.827999115  -999.250000 0.0000040048 0.5048124790 1.9520064592  -999.250000 88.694969177 163.62490845 160.86985779 1.4130096436 157.64761353 1.2960000038  -999.250000 1.2949975729
 761.40295410  -999.250000 18.823999405  -999.250000 0.0000000000 0.4860912859 1.9520000219  -999.250000 84.311096191 162.63818359 159.84970093 1.4169976711 158.15058899 1.2970000505  -999.250000 1.2969992161
 761.55535889  -999.250000 18.702999115  -999.250000 0.0019983982 0.4503039420 1.9579951763  -999.250000 83.760093689 162.60636902 159.85116577 1.4159470797 158.64807129 1.2999999523  -999.250000 1.2999987602
 761.70776367  -999.250000 18.593999863  -999.250000 0.0039983983 0.4677101374 1.9619967937  -999.250000 88.808898926 163.79907227 161.03126526 1.3939102888 158.71081543 1.2869999409  -999.250000 1.2860056162
 761.86010742  -999.250000 18.673000336  -999.250000 0.0010036044 0.4679075480 1.9570059776  -999.250000 90.618751526 165.10055542 162.35426331 1.3620215654 157.71820068 1.2699999809  -999.250000 1.2720111609
 762.01251221  -999.250000 18.849000931  -999.250000 0.0010000000 0.4867455661 1.9500085115  -999.250000 93.740478516 165.66151428 162.88612366 1.3709712029 157.96040344 1.2649999857  -999.250000 1.2660048008
 762.16491699  -999.250000 18.863000870  -999.250000 0.0010000000 0.5255690813 1.9500000477  -999.250000 93.306236267 165.33691406 162.54205322 1.3589375019 157.21180725 1.2640000582  -999.250000 1.2660000324
 762.31732178  -999.250000 18.864999771  -999.250000 0.0029975972 0.5482297540 1.9589891434  -999.250000 88.515449524 164.69073486 161.91905212 1.3330191374 156.96299744 1.2819999456  -999.250000 1.2799943686
 762.46972656  -999.250000 18.926000595  -999.250000 0.0010024030 0.5226232409 1.9560035467  -999.250000 85.561141968 165.00819397 162.24066162 1.3410096169 156.96160889 1.2799999714  -999.250000 1.2809996605
 762.62213135  -999.250000 18.978000641  -999.250000 0.0000012014 0.4808417261 1.9400192499  -999.250000 81.520072937 166.74613953 163.99987793 1.3449640274 156.46484375 1.2809947729  -999.250000 1.2780011892
 762.77453613  -999.250000 18.915000916  -999.250000 -0.001998398 0.4851865768 1.9160192013  -999.250000 80.942199707 168.79986572 166.04414368 1.3300071955 156.27514648 1.2679908276  -999.250000 1.2670043707
 762.92694092  -999.250000 18.771999359  -999.250000 -0.002000000 0.5015435815 1.9110040665  -999.250000 82.316986084 169.83914185 167.04270935 1.3330311775 155.21240234 1.2449859381  -999.250000 1.2450088263
 763.07934570  -999.250000 18.815999985  -999.250000 -0.002000000 0.4855748713 1.9179943800  -999.250000 85.430717468 169.00570679 166.25050354 1.3460023403 155.71031189 1.2099984884  -999.250000 1.2140123844
 763.23175049  -999.250000 18.927999496  -999.250000 0.0009975971 0.4727928340 1.9279919863  -999.250000 88.364234924 167.45600891 164.65690613 1.3470648527 155.96192932 1.2060031891  -999.250000 1.2080023289
 763.38415527  -999.250000 18.823999405  -999.250000 0.0029983982 0.4798581004 1.9319968224  -999.250000 84.141975403 166.09458923 163.37147522 1.3741296530 155.90089417 1.2140071392  -999.250000 1.2159967422
 763.53656006  -999.250000 18.944999695  -999.250000 0.0039991993 0.5000459552 1.9329991341  -999.250000 81.007286072 165.42308044 162.67292786 1.4280120134 156.64768982 1.2320224047  -999.250000 1.2329932451
 763.68896484  -999.250000 19.080999374  -999.250000 0.0059983982 0.4824845791 1.9369968176  -999.250000 80.564392090 165.30387878 162.49755859 1.4329903126 156.39999390 1.2600176334  -999.250000 1.2599891424
 763.84136963  -999.250000 18.900999069  -999.250000 0.0069991993 0.4881994128 1.9360008240  -999.250000 82.061210632 165.33869934 162.57644653 1.4289776087 156.39968872 1.2820128202  -999.250000 1.2809915543
 763.99371338  -999.250000 18.797000885  -999.250000 0.0070000002 0.5124256611 1.9340023994  -999.250000 85.308128357 165.70448303 162.92308044 1.4209495783 156.14939880 1.2979935408  -999.250000 1.2909920216
 764.14611816  -999.250000 18.615999222  -999.250000 0.0070000002 0.5516137481 1.9190180302  -999.250000 86.244857788 166.25103760 163.47532654 1.3999975920 155.40460205 1.2819890976  -999.250000 1.2800087929
 764.29852295  -999.250000 18.391000748  -999.250000 0.0199843813 0.5610276461 1.9209976196  -999.250000 86.122222900 167.35693359 164.57908630 1.3990721703 156.14799500 1.2549911737  -999.250000 1.2550200224
 764.45092773  -999.250000 18.336000443  -999.250000 0.0219975971 0.5302117467 1.9200011492  -999.250000 83.815734863 167.73045349 165.00608826 1.4290480614 156.15019226 1.2329924107  -999.250000 1.2330088615
 764.60333252  -999.250000 18.458999634  -999.250000 0.0289915893 0.5097536445 1.9429723024  -999.250000 86.923164368 167.38052368 164.63357544 1.4489903450 156.39959717 1.2140076160  -999.250000 1.2210047245
 764.75573730  -999.250000 18.409000397  -999.250000 0.0130192237 0.5187863708 1.9459964037  -999.250000 84.569381714 166.57342529 163.79116821 1.4449496269 157.14880371 1.2329988480  -999.250000 1.2289967537
 764.90814209  -999.250000 18.176000595  -999.250000 0.0050064102 0.5346587896 1.9519952536  -999.250000 87.296524048 165.73356628 162.95608521 1.4238966703 156.90139771 1.2300012112  -999.250000 1.2309991121
 765.06054688  -999.250000 18.096000671  -999.250000 0.0010032039 0.5316196084 1.9549976587  -999.250000 86.376792908 165.06484985 162.27940369 1.3809640408 157.39880371 1.2330000401  -999.250000 1.2329992056
 765.21295166  -999.250000 18.091999054  -999.250000 0.0019991992 0.4806867242 1.9589967728  -999.250000 86.243415833 164.73376465 162.00570679 1.3660072088 157.14939880 1.2329968214  -999.250000 1.2320003510
 765.36535645  -999.250000 18.055000305  -999.250000 0.0059967963 0.4225601852 1.9629968405  -999.250000 82.139373779 165.06666565 162.33074951 1.3689951897 156.65168762 1.2249944210  -999.250000 1.2240031958
 765.51776123  -999.250000 18.027000427  -999.250000 0.0089975968 0.3981049657 1.9540071487  -999.250000 81.130981445 165.57844543 162.81060791 1.3669807911 156.39909363 1.2109907866  -999.250000 1.2090059519
 765.67016602  -999.250000 17.992000580  -999.250000 0.0109983981 0.4355563223 1.9410103559  -999.250000 84.238616943 165.68395996 162.91062927 1.3590023518 155.65429688 1.1879823208  -999.250000 1.1880084276
 765.82257080  -999.250000 17.892999649  -999.250000 0.0129983984 0.4933959544 1.9280103445  -999.250000 87.114608765 165.84852600 163.04011536 1.3599803448 155.89863586 1.1659911871  -999.250000 1.1670085192
 765.97497559  -999.250000 17.861999512  -999.250000 0.0100024026 0.5382736325 1.9210056067  -999.250000 85.631080627 165.44784546 162.69685364 1.3529523611 155.58769226 1.1549943686  -999.250000 1.1560044289
 766.12731934  -999.250000 18.103000641  -999.250000 0.0119975973 0.5552986264 1.9359819889  -999.250000 89.417694092 164.98049927 162.22982788 1.3359951973 155.33840942 1.1480011940  -999.250000 1.1500047445
