# LAS format log file from PETREL
# Project units are specified as depth units
#==================================================================
~Version information
VERS.   2.0:
WRAP.   NO:
#==================================================================
~Well
STRT .m      1287.9324951 :
STOP .m      2115.3120117 :
STEP .m     0.00000000 :
NULL .        -999.250000 :
COMP.           : COMPANY
WELL.  31/3-4   : WELL
FLD.            : FIELD
LOC.            : LOCATION
SRVC.           : SERVICE COMPANY
DATE.  2018-09-11 14:48:36   : Log Export Date {yyyy-MM-dd HH:mm:ss}
PROV.           : PROVINCE
UWI.   31/3-4   : UNIQUE WELL ID
API.            : API NUMBER
#==================================================================
~Curve
DEPT .m                   : DEPTH
Lithology_geolink ._      : Lithology_geolink
CALI .in                  : CALI
BS .in                    : BS
ROP .m/h                  : ROP
DRHO .g/cm3               : DRHO
NPHI .m3/m3               : NPHI
RHOB .g/cm3               : RHOB
PEF .b/e                  : PEF
GR .gAPI                  : GR
DTC .us/ft                : DTC
DTS .us/ft                : DTS
RDEP .ohm.m               : RDEP
RSHA .ohm.m               : RSHA
RMIC .ohm.m               : RMIC
RMED .ohm.m               : RMED
~Parameter
#==================================================================
~Ascii
 1287.9324951 7.0000000000 8.5354003906 12.250000954 104.32185364 1.6227999926  -999.250000  -999.250000  -999.250000 149.75109863 150.29817200 341.90328979  -999.250000  -999.250000  -999.250000  -999.250000
 1288.0848389 7.0000000000 8.5281000137 12.250000954 90.832023621 1.5012999773  -999.250000  -999.250000  -999.250000 149.75109863 140.79843140 335.50335693  -999.250000  -999.250000  -999.250000  -999.250000
 1288.2373047 7.0000000000 8.6384000778 12.250000954 65.833007813 1.2113000154 0.6334999800  -999.250000  -999.250000 149.74368286 140.09681702 338.60745239  -999.250000  -999.250000  -999.250000  -999.250000
 1288.3896484 7.0000000000 8.6309995651 12.250000954 65.833007813 0.7838000059 0.7250999808  -999.250000  -999.250000 145.11178589 141.67262268 362.29522705  -999.250000  -999.250000  -999.250000  -999.250000
 1288.5419922 7.0000000000 9.4765996933 12.250000954 64.936904907 0.3337000012 0.7138000131  -999.250000  -999.250000 140.47619629 144.20890808 375.41094971  -999.250000  -999.250000  -999.250000  -999.250000
 1288.6944580 6.0000000000 10.719199181 12.250000954 66.859580994 0.0737000033 0.6312000155  -999.250000  -999.250000 135.84059143 144.96482849 387.61483765  -999.250000  -999.250000  -999.250000  -999.250000
 1288.8466797 6.0000000000 10.704400063 12.250000954 66.859580994 0.0351000018 0.5307805538  -999.250000  -999.250000 131.20869446 144.76249695 392.14813232  -999.250000  -999.250000  -999.250000  -999.250000
 1288.9991455 6.0000000000 10.697099686 12.250000954 64.491142273 0.0507999994 0.4599566758  -999.250000  -999.250000 126.57309723 143.93870544 384.87384033  -999.250000  -999.250000  -999.250000  -999.250000
 1289.1514893 6.0000000000 10.410299301 12.250000954 69.704391479 0.0627999976 0.5312427878  -999.250000  -999.250000 127.64600372 140.38650513 383.05459595  -999.250000  -999.250000  -999.250000  -999.250000
 1289.3039551 6.0000000000 10.219200134 12.250000954 72.795608521 0.0535999984 0.5270034671  -999.250000  -999.250000 128.71899414 138.91690063 370.21078491  -999.250000  -999.250000  -999.250000  -999.250000
 1289.4562988 6.0000000000 10.211799622 12.250000954 76.631896973 0.0763000026 0.4895300269  -999.250000  -999.250000 126.24160004 135.80679321 354.26638794  -999.250000  -999.250000  -999.250000  -999.250000
 1289.6086426 6.0000000000 14.454299927 12.250000954 80.065292358 0.0877000019 0.5232458711  -999.250000  -999.250000 128.73100281 131.03329468 330.36358643  -999.250000  -999.250000  -999.250000  -999.250000
 1289.7611084 6.0000000000 14.814599991 12.250000954 93.538383484 0.1155999973 0.5186037421  -999.250000  -999.250000 123.84809875 133.13020325 315.13208008  -999.250000  -999.250000  -999.250000  -999.250000
 1289.9134521 5.0000000000 14.763100624 12.250000954 155.35662842 0.1106999964 0.3583570123  -999.250000  -999.250000 124.06960297 133.31689453 312.63430786  -999.250000  -999.250000  -999.250000  -999.250000
 1290.0659180 5.0000000000 14.674901009 12.250000954 152.02658081 0.1093000025 0.4379359782  -999.250000  -999.250000 116.79640198 134.86439514 325.81182861  -999.250000  -999.250000  -999.250000  -999.250000
 1290.2182617 5.0000000000 14.535099030 12.250000954 144.22834778 0.1064999998 0.4046534896  -999.250000  -999.250000 107.15190125 142.20550537 344.54971313  -999.250000  -999.250000  -999.250000  -999.250000
 1290.3707275 5.0000000000 13.829299927 12.250000954 144.06954956 0.0750999972 0.3712267578  -999.250000  -999.250000 98.368400574 147.44239807 374.69869995  -999.250000  -999.250000  -999.250000  -999.250000
 1290.5230713 5.0000000000 12.130800247 12.250000954 174.68275452 0.0815000013 0.4501366913  -999.250000  -999.250000 96.143699646 147.24620056 400.73858643  -999.250000  -999.250000  -999.250000  -999.250000
 1290.6755371 5.0000000000 11.086799622 12.250000954 157.61943054 0.0949999988 0.5096523762  -999.250000  -999.250000 99.771598816 147.04989624 426.77850342  -999.250000  -999.250000  -999.250000  -999.250000
 1290.8278809 5.0000000000 11.770601273 12.250000954 152.54364014 0.1346000135 0.4968103468  -999.250000  -999.250000 96.398498535 145.11909485 437.37109375  -999.250000  -999.250000  -999.250000  -999.250000
 1290.9803467 5.0000000000 11.836800575 12.250000954 154.53411865 0.1346000135 0.4845098257  -999.250000  -999.250000 95.695198059 143.39030457 432.99139404 0.8880000114 0.7547000051  -999.250000  -999.250000
 1291.1326904 5.0000000000 11.836800575 12.250000954 186.11778259 0.1247999966 0.5321617723  -999.250000  -999.250000 92.774902344 142.25190735 424.27749634 1.2058999538 0.8959000111  -999.250000 1.0976386070
 1291.2851563 5.0000000000 11.880900383 12.250000954 189.19488525 0.1026000008 0.6230272055  -999.250000  -999.250000 92.372802734 141.30070496 419.70776367 1.1756999493 0.8982999921  -999.250000 1.0676242113
 1291.4375000 5.0000000000 11.763199806 12.250000954 215.05381775 0.0769999996 0.5926244259  -999.250000  -999.250000 88.232002258 141.32760620 397.01278687 1.1699999571 0.8966000080  -999.250000 1.0626040697
 1291.5898438 5.0000000000 11.711799622 12.250000954 208.39895630 0.0442999974 0.5620489717  -999.250000  -999.250000 87.865501404 145.00419617 374.31768799 1.1557999849 0.8871999979  -999.250000 1.0484228134
 1291.7423096 5.0000000000 11.755901337 12.250000954 208.39895630 0.0190999992 0.5429153442  -999.250000  -999.250000 93.484298706 146.60679626 366.44009399 1.1375999451 0.8658000231  -999.250000 1.0312138796
 1291.8946533 5.0000000000 11.836800575 12.250000954 194.58859253 -0.005800000 0.5023650527  -999.250000  -999.250000 98.762802124 148.20939636 358.56259155 0.9793999791 0.7387999892  -999.250000 0.8714562058
 1292.0471191 5.0000000000 11.575699806 12.250000954 202.93373108 -0.014700000 0.5139906406  -999.250000  -999.250000 107.96939850 145.51049805 369.06716919 0.9207999706 0.7026000023  -999.250000 0.7945614457
 1292.1994629 5.0000000000 11.851400375 12.250000954 199.92585754 -0.009700001 0.5340678096  -999.250000  -999.250000 108.09590149 144.31239319 390.10769653 0.9973000288 0.7623000145  -999.250000 0.8422234654
 1292.3519287 5.0000000000 11.858800888 12.250000954 180.99639893 -0.009800000 0.5206108093 2.0938038826 9.9999570847 111.74780273 145.47520447 392.73739624 1.0590000153 0.8179000020 0.3446980119 0.8758730292
 1292.5042725 5.0000000000 11.829401016 12.250000954 179.75360107 -0.012500000 0.5327902436 2.0879046917 10.000000000 106.38680267 143.88169861 394.78549194 0.9664000273 0.7921000123 0.3485968709 0.8104525208
 1292.6567383 5.0000000000 11.796299934 12.250000954 179.75360107 -0.011400000 0.5247064829 2.0823044777 10.000000000 107.75499725 145.74760437 420.21060181 0.9431999922 0.7882000208 0.3520972133 0.7977101803
 1292.8090820 5.0000000000 11.741201401 12.250000954 132.31398010 -0.007400000 0.5165065527 2.0818004608 10.000000000 113.34970093 149.96420288 428.53701782 0.9268000126 0.7803999782 0.3526995182 0.7911053300
 1292.9615479 5.0000000000 11.755901337 12.250000954 114.51542664 -0.004800000 0.5722553134 2.0909926891 10.000000000 118.36779785 151.34109497 432.70022583 0.9358000159 0.7885000110 0.3929677308 0.7967954278
 1293.1138916 5.0000000000 11.866200447 12.250000954 95.255577087 -0.005000000 0.4681835175 2.0996930599 9.9397487640 122.50350189 152.71800232 436.86340332 0.9383000135 0.7908999920 0.4211774170 0.7983986735
 1293.2663574 5.0000000000 11.711799622 12.250000954 79.836936951 -0.004200000 0.5242549777 2.0975017548 9.6800079346 119.07080078 153.52810669 444.03048706 0.9948999882 0.8278999925 0.4300928712 0.8293752074
 1293.4187012 5.0000000000 12.932300568 12.250000954 79.815284729 -0.000900000 0.5800552964 2.1038947105 9.3782424927 119.88289642 151.77189636 450.84658813 1.0694999695 0.8999999762 0.4587769806 0.8915501833
 1293.5711670 5.0000000000 12.160299301 12.250000954 58.014438629 0.0034000000 0.4917707741 2.1199870110 9.2133312225 118.60019684 147.67430115 455.45950317 1.1316000223 0.9970999956 0.5963897109 0.9465559721
 1293.7235107 5.0000000000 12.130800247 12.250000954 63.547580719 0.0046999999 0.5407000184 2.1481773853 9.2293863297 112.22489929 145.17500305 455.45950317 1.2790000439 1.1801999807 0.7824508548 1.0796933174
