# LAS format log file from PETREL
# Project units are specified as depth units
#==================================================================
~Version information
VERS.   2.0:
WRAP.   NO:
#==================================================================
~Well
STRT .m      349.62512207 :
STOP .m      2379.4997559 :
STEP .m     0.00000000 :
NULL .        -999.250000 :
COMP.           : COMPANY
WELL.  31/3-1   : WELL
FLD.            : FIELD
LOC.            : LOCATION
SRVC.           : SERVICE COMPANY
DATE.  2018-09-11 14:48:35   : Log Export Date {yyyy-MM-dd HH:mm:ss}
PROV.           : PROVINCE
UWI.   31/3-1   : UNIQUE WELL ID
API.            : API NUMBER
#==================================================================
~Curve
DEPT .m                   : DEPTH
Lithology_geolink ._      : Lithology_geolink
CALI .in                  : CALI
BS .in                    : BS
DRHO .g/cm3               : DRHO
NPHI .m3/m3               : NPHI
RHOB .g/cm3               : RHOB
GR .gAPI                  : GR
DTC .us/ft                : DTC
DTE .us/ft                : DTE
RDEP .ohm.m               : RDEP
SP .mV                    : SP
RSHA .ohm.m               : RSHA
RMIC .ohm.m               : RMIC
RMED .ohm.m               : RMED
~Parameter
#==================================================================
~Ascii
# ...
 2107.4997559 6.0000000000 8.5830001831 8.5000000000 -0.037999999 0.3069800138 2.4637403488 91.078002930 80.228408813 77.531440735 5.7078323364 30.187999725 6.9380002022  -999.250000 6.9380002022
 2107.6247559 6.0000000000 8.5830001831 8.5000000000 -0.039000001 0.3100700080 2.4655153751 90.252998352 80.789192200 78.076652527 5.7459254265 30.813999176 7.3179998398  -999.250000 7.3179998398
 2107.7497559 6.0000000000 8.5830001831 8.5000000000 -0.032000002 0.3151499927 2.4698846340 89.303001404 81.532562256 78.829048157 5.7110681534 31.256999969 7.5659999847  -999.250000 7.5659999847
 2107.8747559 6.0000000000 8.5810003281 8.5000000000 -0.020000000 0.3192400038 2.4752922058 88.580001831 82.382644653 79.723953247 5.5772619247 31.408000946 7.6220002174  -999.250000 7.6220002174
 2107.9997559 6.0000000000 8.5799999237 8.5000000000 -0.010000000 0.3161000013 2.4793848991 87.722000122 83.374786377 80.662101746 5.3454527855 31.188999176 7.5209999084  -999.250000 7.5209999084
 2108.1247559 6.0000000000 8.5780000687 8.5000000000 -0.006000000 0.3040800095 2.4776647091 86.255996704 84.462684631 81.505302429 5.0425915718 30.604000092 7.2319998741  -999.250000 7.2319998741
 2108.2497559 6.0000000000 8.5740003586 8.5000000000 -0.005000000 0.2852900028 2.4689671993 83.787002563 84.719429016 82.129501343 4.7016663551 29.645999908 6.7100000381  -999.250000 6.7100000381
 2108.3747559 5.0000000000 8.5659999847 8.5000000000 -0.003000000 0.2685500085 2.4586312771 81.117996216 85.251411438 82.577980042 4.3626623154 28.466999054 6.1009998322  -999.250000 6.1009998322
 2108.4997559 5.0000000000 8.5570001602 8.5000000000 0.0029883040 0.2552858889 2.4490315914 79.014999390 85.623901367 82.876968384 4.0466170311 27.146999359 5.5180001259  -999.250000 5.5180001259
 2108.6247559 5.0000000000 8.5469999313 8.5000000000 0.0099999998 0.2466099858 2.4406223297 77.876998901 85.672439575 83.050796509 3.7475838661 25.844999313 5.0440001488  -999.250000 5.0440001488
 2108.7497559 5.0000000000 8.5399999619 8.5000000000 0.0109999999 0.2414800078 2.4316921234 77.513999939 85.859100342 83.114883423 3.4785254002 24.693000793 4.6750001907  -999.250000 4.6750001907
 2108.8747559 5.0000000000 8.5399999619 8.5000000000 0.0040000002 0.2406200022 2.4177656174 77.899002075 85.746543884 82.991424561 3.2434589863 23.806999207 4.4380002022  -999.250000 4.4380002022
 2108.9997559 5.0000000000 8.5459995270 8.5000000000 -0.005000000 0.2434900105 2.4022953510 78.652999878 85.432083130 82.715950012 3.0304160118 23.163999557 4.3159999847  -999.250000 4.3159999847
 2109.1247559 5.0000000000 8.5550003052 8.5000000000 -0.013000000 0.2483299971 2.3907668591 79.569999695 84.986488342 82.361068726 2.8353807926 22.738000870 4.3090000153  -999.250000 4.3090000153
 2109.2497559 5.0000000000 8.5590000153 8.5000000000 -0.014000000 0.2520999908 2.3864960670 80.387001038 84.669799805 82.037414551 2.6573476791 22.451999664 4.3600001335  -999.250000 4.3600001335
 2109.3747559 5.0000000000 8.5539999008 8.5000000000 -0.010000000 0.2524000108 2.3904225826 80.693000793 84.682617188 81.888092041 2.5003066063 22.281000137 4.3610000610  -999.250000 4.3610000610
 2109.4997559 5.0000000000 8.5399999619 8.5000000000 -0.004000000 0.2495299876 2.3997614384 79.930000305 84.766746521 82.129592896 2.3722500801 22.274999619 4.2150001526  -999.250000 4.2150001526
 2109.6247559 5.0000000000 8.5229997635 8.5000000000 0.0009902534 0.2458671629 2.4039928913 78.188003540 85.787956238 82.919013977 2.2692012787 22.357000351 3.9400000572  -999.250000 3.9400000572
 2109.7497559 5.0000000000 8.5109996796 8.5000000000 0.0049999999 0.2428300083 2.4012980461 76.250000000 86.798439026 84.028343201 2.1901543140 22.409000397 3.6489999294  -999.250000 3.6489999294
 2109.8747559 5.0000000000 8.5069999695 8.5000000000 0.0109999999 0.2409799993 2.3937752247 74.858001709 87.873641968 85.281066895 2.1321132183 22.334999084 3.4319999218  -999.250000 3.4319999218
 2109.9997559 5.0000000000 8.5080003738 8.5000000000 0.0199999996 0.2404999882 2.3841958046 74.265998840 89.079978943 86.494033813 2.0900819302 22.142000198 3.3099999428  -999.250000 3.3099999428
 2110.1247559 5.0000000000 8.5089998245 8.5000000000 0.0289999992 0.2415300012 2.3751647472 74.218002319 90.329971313 87.495025635 2.0630526543 21.903999329 3.2669999599  -999.250000 3.2669999599
 2110.2497559 5.0000000000 8.5089998245 8.5000000000 0.0350000001 0.2439000010 2.3672058582 74.264999390 90.874382019 88.071350098 2.0420410633 21.680000305 3.2790000439  -999.250000 3.2790000439
 2110.3747559 5.0000000000 8.5089998245 8.5000000000 0.0359999985 0.2465399951 2.3597955704 74.136001587 91.063705444 88.287643433 2.0210409164 21.497999191 3.3489999771  -999.250000 3.3489999771
 2110.4997559 5.0000000000 8.5089998245 8.5000000000 0.0340000018 0.2482299954 2.3539109230 73.960998535 90.988723755 88.298988342 1.9880645275 21.389999390 3.4739999771  -999.250000 3.4739999771
 2110.6247559 5.0000000000 8.5089998245 8.5000000000 0.0309999995 0.2489699870 2.3506057262 73.908996582 90.871002197 88.256317139 1.9400937557 21.351999283 3.6410000324  -999.250000 3.6410000324
 2110.7497559 5.0000000000 8.5089998245 8.5000000000 0.0299999993 0.2501000166 2.3505003452 73.811996460 90.954757690 88.312301636 1.8821132183 21.396999359 3.8010001183  -999.250000 3.8010001183
 2110.8747559 5.0000000000 8.5069999695 8.5000000000 0.0299999993 0.2521899939 2.3532857895 73.398002625 91.420883179 88.616714478 1.8281054497 21.489999771 3.8610000610  -999.250000 3.8610000610
 2110.9997559 5.0000000000 8.5039997101 8.5000000000 0.0320000015 0.2533200085 2.3553671837 72.438003540 91.930686951 89.305732727 1.7880780697 21.635000229 3.7139999866  -999.250000 3.7139999866
 2111.1247559 5.0000000000 8.5019998550 8.5000000000 0.0329999998 0.2509900033 2.3543815613 71.008003235 92.932746887 90.196342468 1.7730293274 21.885000229 3.3719999790  -999.250000 3.3719999790
 2111.2497559 5.0000000000 8.5000000000 8.5000000000 0.0350000001 0.2466699928 2.3498058319 69.608001709 93.902801514 91.116012573 1.7839785814 22.333999634 2.9679999352  -999.250000 2.9679999352
 2111.3747559 5.0000000000 8.5019998550 8.5000000000 0.0340000018 0.2443000078 2.3416519165 69.351997375 94.529220581 91.865928650 1.8229237795 23.086999893 2.6510000229  -999.250000 2.6510000229
 2111.4997559 5.0000000000 8.5089998245 8.5000000000 0.0280000009 0.2481699884 2.3306183815 70.961997986 94.767868042 92.232398987 1.8958574533 24.160999298 2.4920001030  -999.250000 2.4920001030
 2111.6247559 5.0000000000 8.5229997635 8.5000000000 0.0160000008 0.2587099969 2.3198695183 74.535003662 94.696823120 91.833793640 2.0037889481 25.464000702 2.5199999809  -999.250000 2.5199999809
 2111.7497559 5.0000000000 8.5430002213 8.5000000000 0.0000000000 0.2761200070 2.3178334236 79.559997559 93.335594177 90.658218384 2.1656835079 26.854000092 2.8239998817  -999.250000 2.8239998817
 2111.8747559 6.0000000000 8.5640001297 8.5000000000 -0.017000001 0.2985300124 2.3270664215 84.577003479 91.770004272 89.150482178 2.3935546875 28.090000153 3.3759999275  -999.250000 3.3759999275
 2111.9997559 6.0000000000 8.5810003281 8.5000000000 -0.029974658 0.3240401745 2.3470802307 88.481002808 90.505249023 87.762992859 2.7253515720 28.974000931 4.2340002060  -999.250000 4.2340002060
 2112.1247559 6.0000000000 8.5930004120 8.5000000000 -0.032000002 0.3479600251 2.3739163876 90.680000305 89.854171753 86.987564087 3.1581542492 29.538999557 5.2170000076  -999.250000 5.2170000076
 2112.2497559 6.0000000000 8.5979995728 8.5000000000 -0.027000001 0.3687200248 2.3993520737 91.448997498 90.009078979 87.353103638 3.6739921570 29.931999207 6.0310001373  -999.250000 6.0310001373
 2112.3747559 6.0000000000 8.5989999771 8.5000000000 -0.023000000 0.3840700090 2.3846471310 90.169998169 93.023315430 90.242256165 4.2079572678 30.340999603 6.3909997940  -999.250000 6.3909997940
 2112.4997559 18.000000000 8.5989999771 8.5000000000 -0.034000002 0.3951900005 2.3157889843 86.546997070 97.788871765 95.094749451 4.6730914116 30.871000290 6.5320000648  -999.250000 6.5320000648
