# LAS format log file from PETREL
# Project units are specified as depth units
#==================================================================
~Version information
VERS.   2.0:
WRAP.   NO:
#==================================================================
~Well
STRT .m      1287.9324951 :
STOP .m      2115.3120117 :
STEP .m     0.00000000 :
NULL .        -999.250000 :
COMP.           : COMPANY
WELL.  31/3-4   : WELL
FLD.            : FIELD
LOC.            : LOCATION
SRVC.           : SERVICE COMPANY
DATE.  2018-09-11 14:48:36   : Log Export Date {yyyy-MM-dd HH:mm:ss}
PROV.           : PROVINCE
UWI.   31/3-4   : UNIQUE WELL ID
API.            : API NUMBER
#==================================================================
~Curve
DEPT .m                   : DEPTH
Lithology_geolink ._      : Lithology_geolink
CALI .in                  : CALI
BS .in                    : BS
ROP .m/h                  : ROP
DRHO .g/cm3               : DRHO
NPHI .m3/m3               : NPHI
RHOB .g/cm3               : RHOB
PEF .b/e                  : PEF
GR .gAPI                  : GR
DTC .us/ft                : DTC
DTS .us/ft                : DTS
RDEP .ohm.m               : RDEP
RSHA .ohm.m               : RSHA
RMIC .ohm.m               : RMIC
RMED .ohm.m               : RMED
~Parameter
#==================================================================
~Ascii
# ...
 1394.9171143 6.0000000000 8.2927999496 8.5000000000 115.78248596 -0.025300000 0.3400000036 2.0994999409 5.8790001869 89.622001648 119.25640106 256.58090210 0.6180999875 0.3860999942 0.2260999978 0.5304999948
 1395.0695801 6.0000000000 8.2781000137 8.5000000000 97.420280457 -0.032099999 0.3287999928 2.0985000134 5.5913000107 93.204002380 118.09680176 255.56082153 0.5992000103 0.3777000010 0.2322999984 0.5185999870
 1395.2219238 6.0000000000 8.3149003983 8.5000000000 86.796257019 -0.035999998 0.3183000088 2.0897998810 5.4818000793 89.267601013 116.09799957 256.47299194 0.6161000133 0.3756999969 0.2245000005 0.5246999860
 1395.3743896 2.0000000000 8.3368997574 8.5000000000 66.842521667 -0.036400001 0.3262000084 2.0810999870 5.4770998955 84.651901245 113.09299469 254.38000488 0.6049000025 0.3790000081 0.2157000005 0.5207999945
 1395.5267334 2.0000000000 8.3074998856 8.5000000000 63.958660126 -0.034400001 0.3384000063 2.0759000778 5.5602002144 79.736000061 110.42690277 248.66439819 0.6118000150 0.3783999979 0.2146999985 0.5238000154
 1395.6791992 2.0000000000 8.3149003983 8.5000000000 54.951446533 -0.032699998 0.3632000089 2.0766000748 5.6170997620 82.367698669 109.39600372 240.92279053 0.6327999830 0.3871000111 0.2148000002 0.5396999717
 1395.8315430 2.0000000000 8.3221998215 8.5000000000 52.544288635 -0.032699998 0.3551999927 2.0838000774 5.5440001488 88.588600159 110.80930328 229.78990173 0.6273999810 0.3679000139 0.2154999971 0.5329999924
 1395.9840088 2.0000000000 8.3112001419 8.5000000000 52.295276642 -0.030700000 0.3479000032 2.0908000469 5.5135998726 87.597099304 111.24109650 219.43240356 0.6856999993 0.3966999948 0.2161000073 0.5830000043
 1396.1363525 2.0000000000 8.3074998856 8.5000000000 45.761810303 -0.026200000 0.3330999911 2.1024000645 5.5788002014 89.038002014 110.75150299 195.11659241 0.7013000250 0.4045000076 0.2190999985 0.5928000212
 1396.2888184 2.0000000000 8.2781000137 8.5000000000 41.340225220 -0.023100000 0.3337000012 2.1168000698 5.6984000206 88.880500793 108.01821136 203.90058899 0.6856999993 0.4047000110 0.2240000069 0.5856999755
 1396.4411621 2.0000000000 8.2927999496 8.5000000000 42.933727264 -0.021400001 0.3039999902 2.1456999779 5.7031002045 87.050003052 105.50289917 195.60389709 0.6794999838 0.3998000026 0.2462999970 0.5812000036
 1396.5935059 2.0000000000 8.2854003906 8.5000000000 45.879264832 -0.019900000 0.2696999907 2.1745998859 5.5527000427 85.563400269 104.27079773 184.60049438 0.7027999759 0.4070999920 0.2734000087 0.5946000218
 1396.7459717 2.0000000000 8.2781000137 8.5000000000 50.330383301 -0.017000001 0.2495000064 2.2018001080 5.3843002319 81.235198975 105.73259735 188.79690552 0.7175999880 0.4189000130 0.3113000095 0.6071000099
 1396.8983154 2.0000000000 8.2781000137 8.5000000000 61.270996094 -0.016000001 0.2561999857 2.2239999771 5.3140001297 85.159103394 111.69339752 210.03678894 0.7904999852 0.4672999978 0.3124000132 0.6704999804
 1397.0507813 2.0000000000 8.2634000778 8.5000000000 64.449806213 -0.018700000 0.2804999948 2.2383999825 5.4310998917 85.940399170 119.98860168 212.80468750 0.8812000155 0.5820999742 0.3100000024 0.7680000067
 1397.2031250 2.0000000000 8.2615995407 8.5000000000 80.630905151 -0.021400001 0.2948000133 2.2686998844 5.6937999725 84.965499878 131.09129333 254.97180176 0.7357000113 0.6517000198 0.3526000082 0.6987000108
 1397.3555908 2.0000000000 8.2634000778 8.5000000000 88.300857544 -0.017000001 0.2716999948 2.2950000763 5.8425998688 83.372100830 140.60600281 269.14389038 0.7357000113 0.6510000229 0.5062999725 0.6980999708
 1397.5079346 2.0000000000 8.3057003021 8.5000000000 88.543312073 -0.010300000 0.2445999980 2.2660000324 6.1841998100 77.396102905 144.34930420 258.09008789 0.7193999887 0.6463999748 0.6144999862 0.6898999810
 1397.6604004 2.0000000000 8.2193002701 8.5000000000 114.34612274 -0.008100000 0.3154999912 2.2028999329 6.4362001419 78.000999451 146.23558044 412.14114380 0.7143999934 0.6437000036 0.6658999920 0.6877999902
 1397.8127441 2.0000000000 8.0207996368 8.5000000000 129.07841492 -0.008900000 0.3955999911 2.1138999462 6.4074001312 82.213401794 147.46047974 420.88085938 0.6847000122 0.6072999835 0.5741000175 0.6481000185
 1397.9652100 5.0000000000 8.0024003983 8.5000000000 78.694229126 -0.009500000 0.4408999979 2.1029999256 5.9654998779 100.98570251 148.30998230 462.90017700 0.7493000031 0.6990000010 0.5789999962 0.7247999907
 1398.1175537 5.0000000000 8.1237001419 8.5000000000 76.135169983 -0.009200000 0.5432000160 2.1048998833 5.5696001053 113.27100372 148.92012024 480.67251587 0.8331999779 0.7840999961 0.5440999866 0.8281000257
 1398.2700195 5.0000000000 8.1309995651 8.5000000000 68.140090942 -0.010600000 0.5364000201 2.1108999252 5.1989998817 120.63590240 149.19404602 487.09439087 0.8953999877 0.8679999709 0.5346999764 0.9192000031
 1398.4223633 5.0000000000 8.2487001419 8.5000000000 67.274276733 -0.009300000 0.4812000096 2.1177000999 4.8618998528 121.00399780 148.97782898 484.35998535 0.8506000042 0.8446999788 0.5748999715 0.8774999976
 1398.5748291 6.0000000000 8.2046003342 8.5000000000 64.971786499 -0.005300000 0.4826999903 2.1338999271 4.4966001511 121.81159973 148.66195679 469.60791016 0.8546000123 0.8578000069 0.6341000199 0.8664000034
 1398.7271729 6.0000000000 7.8811001778 8.5000000000 64.840881348 -0.003700000 0.5066999793 2.1533000469 4.2100000381 127.39350128 149.19410706 450.97808838 0.8564000130 0.8769000173 0.6732000113 0.8671000004
 1398.8795166 6.0000000000 8.1531000137 8.5000000000 75.244094849 -0.003200000 0.5687000155 2.1712000370 3.8694999218 125.02030182 146.06481934 442.77508545 0.8490999937 0.8815000057 0.7681000233 0.8622999787
 1399.0319824 6.0000000000 8.1752004623 8.5000000000 119.62796021 -0.002900000 0.5508999825 2.1816999912 3.5520999432 122.08339691 141.83332825 448.97262573 0.8694999814 0.9039999843 0.8141000271 0.8762000203
 1399.1843262 5.0000000000 8.1752004623 8.5000000000 128.20701599 -0.002100000 0.5174999833 2.1896998882 3.3092000484 109.77339935 139.38212585 454.74069214 0.9150999784 0.9449999928 0.8116999865 0.9124000072
 1399.3367920 5.0000000000 8.1752004623 8.5000000000 115.32054138 0.0093999999 0.4891999960 2.1998999119 3.3791999817 102.20770264 134.28979492 445.93188477 0.9460999966 0.9681000113 0.7820000052 0.9398000240
 1399.4891357 5.0000000000 8.1752004623 8.5000000000 109.63156128 0.0859000012 0.4663000107 2.3496999741 3.6702001095 95.026000977 130.42652893 420.24523926 1.0204999447 1.0283999443 0.8228999972 1.0085999966
 1399.6416016 16.000000000 8.2265996933 8.5000000000 79.541992188 0.1560000032 0.3623999953 2.4814000130 4.0496001244 90.395599365 129.45677185 378.26538086 1.0532000065 1.0627000332 0.8004999757 1.0424000025
 1399.7939453 16.000000000 8.1623001099 8.5000000000 57.272640228 0.2243999988 0.3758000135 2.6147000790 4.2705001831 91.070297241 130.55020142 349.37881470 1.8974000216 1.7460000515 0.7549999952 1.8587000370
 1399.9464111 16.000000000 8.1752004623 8.5000000000 48.537403107 0.2331999987 0.4474999905 2.6084001064 4.2915000916 105.88890076 129.92071533 320.49218750 1.1532000303 1.1160000563 0.7056999803 1.1419999599
 1400.0987549 5.0000000000 8.1899003983 8.5000000000 48.175197601 0.2421000004 0.4323000014 2.6212000847 4.2416000366 116.85759735 128.93464661 340.01165771 0.9437999725 0.9368000031 0.7110999823 0.9384999871
 1400.2512207 6.0000000000 8.1568002701 8.5000000000 48.607284546 0.2381000072 0.4844999909 2.6301999092 4.1837000847 129.71180725 130.75685120 337.23431396 0.9009000063 0.9041000009 0.7152000070 0.9000999928
 1400.4035645 6.0000000000 8.1677999496 8.5000000000 48.846130371 0.1841000021 0.5151000023 2.5504999161 4.2253999710 126.43080139 135.71621704 321.24371338 0.9007999897 0.9121000171 0.6523000002 0.9046000242
 1400.5560303 6.0000000000 8.1677999496 8.5000000000 48.659778595 0.0982000083 0.5437999964 2.3706998825 4.3249998093 128.05000305 143.36041260 412.15631104 0.9028999805 0.9161999822 0.5831999779 0.9088000059
 1400.7083740 6.0000000000 8.1457996368 8.5000000000 53.517719269 0.0275999997 0.5615000129 2.2007999420 4.5079002380 120.27059937 148.48237610 503.06900024 0.9183999896 0.9200000167 0.5469999909 0.9257000089
