# LAS format log file from PETREL
# Project units are specified as depth units
#==================================================================
~Version information
VERS.   2.0:
WRAP.   NO:
#==================================================================
~Well
STRT .m      1287.9324951 :
STOP .m      2115.3120117 :
STEP .m     0.00000000 :
NULL .        -999.250000 :
COMP.           : COMPANY
WELL.  31/3-4   : WELL
FLD.            : FIELD
LOC.            : LOCATION
SRVC.           : SERVICE COMPANY
DATE.  2018-09-11 14:48:36   : Log Export Date {yyyy-MM-dd HH:mm:ss}
PROV.           : PROVINCE
UWI.   31/3-4   : UNIQUE WELL ID
API.            : API NUMBER
#==================================================================
~Curve
DEPT .m                   : DEPTH
Lithology_geolink ._      : Lithology_geolink
CALI .in                  : CALI
BS .in                    : BS
ROP .m/h                  : ROP
DRHO .g/cm3               : DRHO
NPHI .m3/m3               : NPHI
RHOB .g/cm3               : RHOB
PEF .b/e                  : PEF
GR .gAPI                  : GR
DTC .us/ft                : DTC
DTS .us/ft                : DTS
RDEP .ohm.m               : RDEP
RSHA .ohm.m               : RSHA
RMIC .ohm.m               : RMIC
RMED .ohm.m               : RMED
~Parameter
#==================================================================
~Ascii
# ...
 2001.1644287 5.0000000000 8.2707004547 8.5000000000 115.13878632 0.0161115304 0.0960000008 2.4481999874 5.6504998207 72.076629639 91.141754150 165.76780701 8.9446983337 5.1606998444 1.2289011478 7.2600002289
 2001.3167725 16.000000000 8.2707004547 8.5000000000 92.657150269 0.0232911855 0.1111000031 2.5267000198 5.7020001411 73.163642883 89.749801636 165.33636475 18.174198151 10.257200241 4.5960998535 14.507100105
 2001.4692383 5.0000000000 8.2707004547 8.5000000000 78.412727356 0.0122844670 0.1062999964 2.5383000374 5.8298001289 83.221351624 89.367492676 164.29692078 21.882974625 13.231499672 4.0961709023 17.824399948
 2001.6215820 5.0000000000 8.2854003906 8.5000000000 63.270996094 0.0025984775 0.1049000025 2.5218000412 5.8680000305 99.102630615 91.049720764 163.87431335 2.7257347107 2.1389000416 3.4536488056 2.1554000378
 2001.7739258 6.0000000000 8.2781000137 8.5000000000 59.782482147 0.0007007205 0.1150000021 2.5104000568 5.9008998871 112.74149323 92.936660767 163.49586487 2.7689921856 2.1310999393 2.2669086456 2.1835999489
 2001.9263916 6.0000000000 8.2854003906 8.5000000000 62.043308258 0.0015999199 0.2375999987 2.5025835037 5.9157719612 123.72568512 88.021072388 163.07194519 2.7592990398 2.1338999271 1.5286694765 2.1798999310
 2002.0787354 6.0000000000 8.2781000137 8.5000000000 63.155185699 0.0015001601 0.3195999861 2.4820847511 5.8806009293 128.81715393 80.995147705 164.00305176 2.7578544617 2.1291999817 1.2410510778 2.1772999763
 2002.2312012 6.0000000000 8.2781000137 8.5000000000 62.042316437 0.0016976763 0.2851999998 2.4628715515 5.7569699287 127.39182281 78.681274414 167.07107544 2.3276028633 1.7367000580 1.1800732613 1.8429000378
 2002.3835449 6.0000000000 8.2634000778 8.5000000000 64.531166077 -0.001201441 0.2816999853 2.4274470806 5.5944061279 120.80111694 82.646514893 167.90286255 3.3286938667 2.2300999165 1.1464831829 2.6222000122
 2002.5360107 5.0000000000 8.2046003342 8.5000000000 65.036743164 -0.002999279 0.2790000141 2.3613696098 5.2273516655 116.82855225 87.773162842 167.85537720 3.3208718300 2.2330000401 0.7508772016 2.6203000546
 2002.6883545 5.0000000000 8.3259000778 8.5000000000 62.750331879 -0.002087750 0.2994000018 2.3235783577 4.9170241356 119.02117157 88.092498779 167.68478394 3.2856800556 2.2177999020 0.5977085829 2.5938000679
 2002.8408203 5.0000000000 8.3368997574 8.5000000000 60.463912964 0.0132103367 0.3118000031 2.2965052128 4.5720491409 118.61415863 87.971725464 167.02139282 3.2605986595 2.2114000320 0.4836199284 2.5787000656
 2002.9931641 5.0000000000 8.3368997574 8.5000000000 74.921585083 0.0261120200 0.2994000018 2.3030145168 4.3838729858 117.05865479 88.627029419 167.14755249 3.2573783398 2.2163000107 0.5085293055 2.5773999691
 2003.1456299 5.0000000000 8.3332004547 8.5000000000 89.826118469 0.0411040038 0.2843999863 2.3211987019 4.3499836922 112.14059448 90.662246704 168.07832336 1.6079230309 1.0544999838 0.5450487137 1.2618000507
 2003.2979736 5.0000000000 8.3074998856 8.5000000000 113.18569183 0.0435919873 0.2660999894 2.3203828335 4.4023356438 109.95298767 93.121055603 169.96038818 0.6870017648 0.5067999959 0.5130732656 0.5857999921
 2003.4504395 5.0000000000 8.3002004623 8.5000000000 127.00557709 0.0335676521 0.2748999894 2.2989208698 4.4471812248 102.19436646 94.804130554 171.21191406 0.6891958117 0.5077000260 0.4795816541 0.5874000192
 2003.6027832 5.0000000000 8.2890996933 8.5000000000 122.69947815 0.0133890221 0.2908999920 2.2494730949 4.6848955154 95.193222046 95.698982239 171.71879578 0.6865977049 0.5048000216 0.4057781398 0.5839999914
 2003.7552490 5.0000000000 8.2854003906 8.5000000000 119.31332397 -0.000320657 0.3014999926 2.2158582211 4.9291257858 93.729972839 95.676475525 171.57678223 0.6837235689 0.5024999976 0.3784790337 0.5799000263
 2003.9075928 5.0000000000 8.2707004547 8.5000000000 118.75197601 -0.013199680 0.3030000031 2.1899228096 5.3194913864 93.647628784 95.724861145 170.69506836 0.6984460950 0.5153999925 0.3654079139 0.6007999778
 2004.0599365 5.0000000000 8.1531000137 8.5000000000 115.19324493 -0.012799279 0.2910000086 2.2186374664 5.5579447746 93.805328369 95.562164307 170.03073120 0.7558563352 0.5098000169 0.3753397167 0.7127000093
 2004.2124023 5.0000000000 8.2945995331 8.5000000000 111.14534760 -0.011903446 0.2854000032 2.2654285431 5.6139001846 88.843795776 95.524444580 172.32128906 0.7012949586 0.5113000274 0.4249686599 0.6438999772
 2004.3647461 5.0000000000 8.2412996292 8.5000000000 128.25721741 -0.016207686 0.2736999989 2.3011085987 5.7388710976 86.597671509 97.201919556 176.31419373 0.6950618625 0.5123000145 0.5106473565 0.6101999879
 2004.5172119 5.0000000000 8.2487001419 8.5000000000 120.57776642 -0.025802566 0.2763000131 2.3117978573 6.0774388313 85.820037842 99.234809875 185.42387390 0.7723042369 0.5570999980 0.5698164701 0.6650999784
 2004.6695557 5.0000000000 8.2487001419 8.5000000000 114.04100800 -0.028995035 0.2703000009 2.3090035915 6.2507219315 91.357772827 100.11888885 191.85414124 0.7776015401 0.5605999827 0.5903295875 0.6682000160
 2004.8220215 5.0000000000 8.2487001419 8.5000000000 98.342521667 -0.022794152 0.2732999921 2.3135125637 6.2778997421 91.451843262 99.873970032 196.27743530 0.7794997096 0.5633000135 0.6272846460 0.6704999804
 2004.9743652 5.0000000000 8.2487001419 8.5000000000 100.07611847 -0.015492387 0.2723999918 2.3292291164 6.2776169777 90.498329163 99.080642700 197.19149780 0.7791020870 0.5623000264 0.7329367995 0.6693999767
 2005.1268311 5.0000000000 8.2449998856 8.5000000000 101.81004333 -0.005995837 0.2757000029 2.3655374050 6.2991290092 79.814956665 98.383384705 195.70251465 0.7817089558 0.5633000135 0.9036180377 0.6697999835
 2005.2791748 5.0000000000 8.2265996933 8.5000000000 102.52230835 -0.003399199 0.2856000066 2.3889091015 6.1921830177 79.914993286 97.747276306 193.46577454 0.7873166800 0.5651999712 0.9772011638 0.6714000106
 2005.4316406 5.0000000000 8.1899003983 8.5000000000 102.05709076 -0.002404163 0.2926999927 2.4001832008 5.9208431244 82.915344238 96.963706970 192.82328796 0.8082565665 0.5759000182 0.9786661863 0.6851000190
 2005.5839844 5.0000000000 8.2449998856 8.5000000000 93.945541382 -0.004999439 0.2838000059 2.3898015022 5.3863658905 88.745521545 95.093101501 190.63204956 0.9062232971 0.6334000230 0.9575779438 0.7598000169
 2005.7364502 5.0000000000 8.2781000137 8.5000000000 98.872047424 -0.004300160 0.2901000082 2.3916976452 5.0942716599 94.280418396 92.603469849 186.17089844 1.3103741407 0.8786000013 0.9299629331 1.0873999596
 2005.8887939 6.0000000000 8.2781000137 8.5000000000 94.961616516 -0.004400801 0.2915000021 2.3901963234 5.0142393112 102.03460693 92.329795837 179.54563904 1.9181110859 1.2502000332 0.8444532752 1.5951999426
 2006.0411377 6.0000000000 8.2340002060 8.5000000000 84.958335876 -0.005400321 0.2741999924 2.3857996464 5.0631308556 115.63978577 86.332298279 163.74557495 2.3061692715 1.5541000366 0.7862002850 1.9490000010
 2006.1936035 6.0000000000 8.2340002060 8.5000000000 78.416007996 -0.005800801 0.2123000026 2.3855044842 5.1019687653 118.86560822 80.335685730 150.35806274 2.3921618462 1.8573000431 0.7866598368 2.0360000134
 2006.3459473 6.0000000000 8.2340002060 8.5000000000 94.779205322 -0.006796718 0.0606000014 2.3912394047 5.0623369217 111.87654114 75.447059631 135.08265686 1.7231938839 1.6718000174 0.8615393043 1.4886000156
 2006.4984131 6.0000000000 8.2265996933 8.5000000000 85.456687927 -0.002691987 0.0286999997 2.4402709007 4.8586683273 93.198020935 69.900924683 117.03385162 4.5329174995 3.7693998814 1.1610389948 4.1041998863
 2006.6507568 6.0000000000 8.3002004623 8.5000000000 56.825790405 0.0073028826 0.0255999994 2.5285706520 4.5694036484 81.993759155 58.715709686 106.87321472 93.926567078 56.264499664 2.2368798256 87.270202637
 2006.8032227 16.000000000 8.3809995651 8.5000000000 46.835304260 0.0108975163 0.0551000014 2.6165056229 4.2000265121 69.584724426 58.234130859 104.64105225 47.055397034 51.524501801 39.286514282 50.136398315
 2006.9555664 16.000000000 8.3957004547 8.5000000000 43.095802307 0.0077883010 0.1193000004 2.6236805916 4.2334852219 68.872314453 60.767276764 106.07788849 12.755215645 16.460899353 51.019081116 13.479399681
