# LAS format log file from PETREL
# Project units are specified as depth units
#==================================================================
~Version information
VERS.   2.0:
WRAP.   NO:
#==================================================================
~Well
STRT .m      433.43811035 :
STOP .m      2093.8361816 :
STEP .m     0.00000000 :
NULL .        -999.250000 :
COMP.           : COMPANY
WELL.  31/3-2   : WELL
FLD.            : FIELD
LOC.            : LOCATION
SRVC.           : SERVICE COMPANY
DATE.  2018-09-11 14:48:35   : Log Export Date {yyyy-MM-dd HH:mm:ss}
PROV.           : PROVINCE
UWI.   31/3-2   : UNIQUE WELL ID
API.            : API NUMBER
#==================================================================
~Curve
DEPT .m                   : DEPTH
Lithology_geolink ._      : Lithology_geolink
CALI .in                  : CALI
BS .in                    : BS
DRHO .g/cm3               : DRHO
NPHI .m3/m3               : NPHI
RHOB .g/cm3               : RHOB
PEF .b/e                  : PEF
GR .gAPI                  : GR
DTC .us/ft                : DTC
DTE .us/ft                : DTE
RDEP .ohm.m               : RDEP
SP .mV                    : SP
RSHA .ohm.m               : RSHA
RMIC .ohm.m               : RMIC
RMED .ohm.m               : RMED
~Parameter
#==================================================================
~Ascii
# ...
 653.35131836  -999.250000 18.847999573  -999.250000 0.0269919913 0.4559397399 1.9549968243  -999.250000 87.638664246 163.23857117 160.51127625 1.3959159851 157.40319824 1.4259984493  -999.250000 1.4270000458
 653.50372314  -999.250000 18.882999420  -999.250000 0.0210096110 0.4803030789 1.9480111599  -999.250000 90.683753967 162.84306335 160.08389282 1.3610888720 157.64900208 1.4220160246  -999.250000 1.4309999943
 653.65612793  -999.250000 18.868999481  -999.250000 0.0140112136 0.4880495369 1.9470015764  -999.250000 91.312370300 162.81993103 160.03779602 1.3979831934 156.40585327 1.4620096684  -999.250000 1.4600000381
 653.80853271  -999.250000 18.795000076  -999.250000 0.0130016021 0.5118749142 1.9569840431  -999.250000 94.118957520 162.88899231 160.13841248 1.3910456896 156.21260071 1.4860119820  -999.250000 1.4859999418
 653.96093750  -999.250000 18.650999069  -999.250000 0.0139983986 0.4991865754 1.9679824114  -999.250000 95.749298096 162.28210449 159.51095581 1.4102017879 155.71101379 1.5159991980  -999.250000 1.5110000372
 654.11334229  -999.250000 18.465000153  -999.250000 0.0159967970 0.4907096922 1.9749888182  -999.250000 95.306503296 161.87602234 159.13484192 1.4940527678 154.46739197 1.5139985085  -999.250000 1.5140000582
 654.26574707  -999.250000 18.309000015  -999.250000 0.0150016015 0.4650239348 1.9759984016  -999.250000 90.629394531 161.73802185 158.96086121 1.5160553455 154.96099854 1.5100032091  -999.250000 1.5119999647
 654.41815186  -999.250000 18.332000732  -999.250000 0.0130032040 0.4748564959 1.9690111876  -999.250000 89.625198364 162.01345825 159.22279358 1.5390120745 154.96192932 1.5179899931  -999.250000 1.5160000324
 654.57055664  -999.250000 18.422000885  -999.250000 0.0130000003 0.5159945488 1.9570144415  -999.250000 86.631790161 162.49420166 159.72561646 1.5440047979 154.90089417 1.4929959774  -999.250000 1.4939999580
 654.72296143  -999.250000 18.330999374  -999.250000 0.0199915897 0.5522989035 1.9530047178  -999.250000 86.492424011 162.43554688 159.65359497 1.5459110737 155.65118408 1.4829936028  -999.250000 1.4819999933
 654.87536621  -999.250000 18.190000534  -999.250000 0.0249939933 0.5246107578 1.9569952488  -999.250000 81.774963379 162.23428345 159.50018311 1.5090047121 156.64720154 1.4669888020  -999.250000 1.4670000076
 655.02777100  -999.250000 18.198999405  -999.250000 0.0220036041 0.5006164908 1.9560011625  -999.250000 85.494506836 162.63174438 159.86383057 1.5110529661 157.64770508 1.4529975653  -999.250000 1.4550000429
 655.18017578  -999.250000 18.278999329  -999.250000 0.0160072092 0.4837779403 1.9480096102  -999.250000 85.816390991 163.70706177 160.92951965 1.5332074165 157.40100098 1.4499944448  -999.250000 1.4500000477
 655.33251953  -999.250000 18.295000076  -999.250000 0.0219903886 0.4937357008 1.9599808455  -999.250000 89.798385620 164.55018616 161.76812744 1.6071634293 157.40039063 1.4430108070  -999.250000 1.4479999542
 655.48492432  -999.250000 18.375000000  -999.250000 0.0170080103 0.5328659415 1.9629952908  -999.250000 87.627693176 163.98478699 161.17811584 1.6749302149 157.89920044 1.4700020552  -999.250000 1.4659999609
 655.63726807  -999.250000 18.346000671  -999.250000 0.0080180224 0.5227900147 1.9570120573  -999.250000 89.867752075 163.43493652 160.67234802 1.6459119320 156.90420532 1.4750000238  -999.250000 1.4849923849
 655.78967285  -999.250000 18.077999115  -999.250000 0.0020120146 0.5276899934 1.9490159750  -999.250000 92.059501648 163.02212524 160.26699829 1.6019219160 157.39889526 1.5319999456  -999.250000 1.5269831419
 655.94207764  -999.250000 17.988000870  -999.250000 0.0039959955 0.4976900220 1.9430119991  -999.250000 92.681350708 162.29626465 159.52722168 1.5629719496 157.15083313 1.5310000181  -999.250000 1.5309984684
 656.09448242  -999.250000 18.076000214  -999.250000 0.0089899879 0.5377700329 1.9479899406  -999.250000 88.130577087 163.17147827 160.41180420 1.5490580797 156.71330261 1.5340000391  -999.250000 1.5300003290
 656.24688721  -999.250000 18.038999557  -999.250000 0.0080020027 0.5369099975 1.9440079927  -999.250000 84.746009827 163.31231689 160.51934814 1.5780640841 157.46180725 1.5119999647  -999.250000 1.5210036039
 656.39929199  -999.250000 17.868000031  -999.250000 0.0060040047 0.5164700150 1.9330220222  -999.250000 82.263885498 162.89042664 160.14329529 1.6099499464 156.96420288 1.5360000134  -999.250000 1.5339947939
 656.55169678  -999.250000 17.990999222  -999.250000 0.0079959957 0.5018600225 1.9120420218  -999.250000 84.682014465 163.48249817 160.71018982 1.5849659443 157.46060181 1.5499999523  -999.250000 1.5489940643
 656.70410156  -999.250000 18.510000229  -999.250000 0.0119935898 0.5226899981 1.9020159245  -999.250000 82.826377869 163.72126770 160.91734314 1.5680680275 156.96519470 1.5160000324  -999.250000 1.5170128345
 656.85644531  -999.250000 18.819999695  -999.250000 0.0139959957 0.5402500033 1.9049940109  -999.250000 85.553787231 163.30734253 160.54663086 1.6019487381 157.21119690 1.4880000353  -999.250000 1.4860247374
 657.00885010  -999.250000 19.004999161  -999.250000 0.0080120144 0.5270100236 1.9079940319  -999.250000 85.376045227 163.44786072 160.67683411 1.5699535608 157.71170044 1.4520000219  -999.250000 1.4600208998
 657.16125488  -999.250000 18.573999405  -999.250000 0.0050060069 0.5181800127 1.9060040712  -999.250000 86.241958618 163.44085693 160.69757080 1.5410040617 156.96488953 1.4600000381  -999.250000 1.4570024014
 657.31365967  -999.250000 18.023000717  -999.250000 0.0079939933 0.5218399763 1.9060000181  -999.250000 82.877227783 163.43519592 160.69291687 1.5430120230 156.71189880 1.4349999428  -999.250000 1.4350087643
 657.46606445  -999.250000 18.162000656  -999.250000 0.0199759714 0.5073300004 1.9219679832  -999.250000 80.574958801 163.69465637 160.91664124 1.5490220785 156.46279907 1.4129999876  -999.250000 1.4150079489
 657.61846924  -999.250000 18.295000076  -999.250000 0.0170060080 0.5161899924 1.9140160084  -999.250000 81.378013611 163.54124451 160.76199341 1.5601080656 155.96260071 1.4029999971  -999.250000 1.4120011330
 657.77087402  -999.250000 18.229999542  -999.250000 0.0130080096 0.5250200033 1.9060159922  -999.250000 84.506881714 163.27189636 160.48632813 1.6140140295 154.96220398 1.4349999428  -999.250000 1.4369900227
 657.92327881  -999.250000 18.011999130  -999.250000 0.0110040046 0.5197700262 1.9000120163  -999.250000 88.794929504 162.97038269 160.22337341 1.6209700108 155.46000671 1.4789999723  -999.250000 1.4779835939
 658.07568359  -999.250000 17.913999557  -999.250000 0.0109999999 0.4956499934 1.9119758606  -999.250000 88.745018005 162.69961548 159.90409851 1.6059257984 155.46212769 1.5060000420  -999.250000 1.5039895773
 658.22808838  -999.250000 17.965000153  -999.250000 0.0080060074 0.4897399843 1.9149940014  -999.250000 85.643272400 162.27638245 159.52171326 1.5688939095 155.77267456 1.5149999857  -999.250000 1.5099976063
 658.38049316  -999.250000 18.041000366  -999.250000 0.0099975951 0.5132200122 1.9140012264  -999.250000 87.052696228 162.24792480 159.49687195 1.5159759521 154.96423340 1.4980000257  -999.250000 1.4970052242
 658.53289795  -999.250000 18.007999420  -999.250000 0.0099999998 0.5155199766 1.9060096741  -999.250000 83.134574890 163.00785828 160.20162964 1.5039958954 155.52499390 1.4769999981  -999.250000 1.4770079851
 658.68530273  -999.250000 17.968999863  -999.250000 0.0080024032 0.4784799814 1.9030035734  -999.250000 89.098632813 163.83561707 161.07141113 1.5019859076 155.52514648 1.4559999704  -999.250000 1.4560084343
 658.83770752  -999.250000 18.013000488  -999.250000 0.0060024029 0.4700900018 1.9119890928  -999.250000 86.385261536 163.91719055 161.15574646 1.4950020313 155.71260071 1.4459999800  -999.250000 1.4490028620
 658.99005127  -999.250000 18.083999634  -999.250000 0.0099935923 0.4869300127 1.9339647293  -999.250000 90.286430359 163.20446777 160.48185730 1.4960000515 156.45799255 1.4539999962  -999.250000 1.4549952745
 659.14245605  -999.250000 18.076000214  -999.250000 0.0219807774 0.5129799843 1.9689439535  -999.250000 87.317283630 162.22256470 159.45213318 1.4959022999 156.46220398 1.4680000544  -999.250000 1.4659911394
