# LAS format log file from PETREL
# Project units are specified as depth units
#==================================================================
~Version information
VERS.   2.0:
WRAP.   NO:
#==================================================================
~Well
STRT .m      433.43811035 :
STOP .m      2093.8361816 :
STEP .m     0.00000000 :
NULL .        -999.250000 :
COMP.           : COMPANY
WELL.  31/3-2   : WELL
FLD.            : FIELD
LOC.            : LOCATION
SRVC.           : SERVICE COMPANY
DATE.  2018-09-11 14:48:35   : Log Export Date {yyyy-MM-dd HH:mm:ss}
PROV.           : PROVINCE
UWI.   31/3-2   : UNIQUE WELL ID
API.            : API NUMBER
#==================================================================
~Curve
DEPT .m                   : DEPTH
Lithology_geolink ._      : Lithology_geolink
CALI .in                  : CALI
BS .in                    : BS
DRHO .g/cm3               : DRHO
NPHI .m3/m3               : NPHI
RHOB .g/cm3               : RHOB
PEF .b/e                  : PEF
GR .gAPI                  : GR
DTC .us/ft                : DTC
DTE .us/ft                : DTE
RDEP .ohm.m               : RDEP
SP .mV                    : SP
RSHA .ohm.m               : RSHA
RMIC .ohm.m               : RMIC
RMED .ohm.m               : RMED
~Parameter
#==================================================================
~Ascii
# ...
 1978.7740479 2.0000000000 12.076001167 12.250000954 -0.001000000 0.2504861057 2.3380136490  -999.250000 86.134719849 93.237312317 93.321289063 0.7480000257 194.14060974 0.9609770179  -999.250000 0.7987310290
 1978.9263916 2.0000000000 12.049000740 12.250000954 -0.000999199 0.2456217557 2.3549942970  -999.250000 87.431907654 94.154449463 94.118675232 0.7480048537 195.13499451 0.9449470043  -999.250000 0.8029871583
 1979.0788574 2.0000000000 12.043000221 12.250000954 0.0000008013 0.2602793574 2.3479743004  -999.250000 79.887115479 94.769432068 94.875183105 0.7510095835 195.13639832 0.8204830289  -999.250000 0.7102978230
 1979.2312012 2.0000000000 12.043000221 12.250000954 0.0010000000 0.2719388604 2.3159894943  -999.250000 75.837722778 95.164100647 95.103340149 0.7549920082 194.88719177 0.7775930166  -999.250000 0.6681345701
 1979.3836670 2.0000000000 12.017999649 12.250000954 0.0009951923 0.2705150843 2.3029935360  -999.250000 75.063224792 95.074134827 94.939094543 0.7499831915 194.38699341 0.7499150038  -999.250000 0.6520384550
 1979.5360107 2.0000000000 12.003999710 12.250000954 -0.005002402 0.2768273056 2.2949969769  -999.250000 74.939300537 94.734893799 94.729278564 0.7429839373 194.38739014 0.7820270061  -999.250000 0.6659551859
 1979.6884766 2.0000000000 12.007999420 12.250000954 -0.008003205 0.2734530866 2.2909951210  -999.250000 71.886901855 94.358619690 94.413703918 0.7329903841 194.63533020 0.7762420177  -999.250000 0.6640048027
 1979.8408203 2.0000000000 12.003999710 12.250000954 -0.011997596 0.2773122191 2.2849953175  -999.250000 69.131622314 94.019813538 94.014633179 0.7289903760 194.35760498 0.7762290239  -999.250000 0.6669903994
 1979.9932861 2.0000000000 12.000000000 12.250000954 -0.009001601 0.2675882280 2.2790031433  -999.250000 70.866210938 93.848205566 93.852882385 0.7229880095 195.35121155 0.7941150069  -999.250000 0.6879495382
 1980.1456299 2.0000000000 12.000000000 12.250000954 -0.009998397 0.2602472901 2.2810080051  -999.250000 68.447830200 94.224487305 94.163093567 0.7180128098 194.60699463 0.8634489775  -999.250000 0.7258782983
 1980.2980957 2.0000000000 12.000000000 12.250000954 -0.007998399 0.2568374574 2.2910094261  -999.250000 68.313209534 94.563537598 94.612083435 0.7260192037 194.60592651 0.8540440202  -999.250000 0.7279951572
 1980.4504395 2.0000000000 12.000000000 12.250000954 -0.007001603 0.2490250915 2.2969918251  -999.250000 66.943199158 94.756576538 94.678428650 0.7340144515 194.57550049 0.8098329902  -999.250000 0.6881281137
 1980.6029053 2.0000000000 12.000000000 12.250000954 -0.009003202 0.2553684413 2.2869775295  -999.250000 69.745498657 94.481002808 94.494499207 0.7429975867 194.88699341 0.7236179709  -999.250000 0.6341298223
 1980.7552490 2.0000000000 12.000000000 12.250000954 -0.010999199 0.2543939054 2.2730095387  -999.250000 69.127998352 94.394622803 94.408401489 0.7419775724 194.88699341 0.7236189842  -999.250000 0.6330032349
 1980.9075928 2.0000000000 12.000000000 12.250000954 -0.010000801 0.2592788339 2.2850143909  -999.250000 66.322753906 94.495101929 94.517105103 0.7279711366 194.88659668 0.8048139811  -999.250000 0.6818429232
 1981.0600586 2.0000000000 12.005999565 12.250000954 -0.010999199 0.2578135133 2.3030030727  -999.250000 64.884300232 94.769432068 94.791259766 0.7099879980 194.63740540 0.8251850009  -999.250000 0.7039295435
 1981.2124023 2.0000000000 12.010999680 12.250000954 -0.010000000 0.2622064948 2.3069887161  -999.250000 63.910339355 95.300437927 95.326316833 0.7049983740 194.38960266 0.8109620214  -999.250000 0.6920384169
 1981.3648682 2.0000000000 12.005999565 12.250000954 -0.009997596 0.2578057051 2.2929856777  -999.250000 64.998252869 95.823715210 95.860603333 0.7039927840 195.38758850 0.7858080268  -999.250000 0.6740432978
 1981.5172119 2.0000000000 12.000000000 12.250000954 -0.006999200 0.2524414063 2.2749960423  -999.250000 63.944541931 96.323631287 96.266593933 0.7009695172 195.63520813 0.7738959789  -999.250000 0.6640319824
 1981.6696777 2.0000000000 12.000000000 12.250000954 -0.006002404 0.2417038828 2.2699952126  -999.250000 64.249504089 96.594268799 96.612937927 0.6819423437 195.13699341 0.7726529837  -999.250000 0.6620048285
 1981.8220215 2.0000000000 12.000000000 12.250000954 -0.009000000 0.2465709597 2.2639999390  -999.250000 62.048301697 96.948509216 96.895339966 0.6579743624 195.13699341 0.7833589911  -999.250000 0.6679807901
 1981.9744873 2.0000000000 12.000000000 12.250000954 -0.009003202 0.2602472603 2.2639839649  -999.250000 60.537418365 96.879791260 96.963195801 0.6419568062 195.13819885 0.7679089904  -999.250000 0.6580240130
 1982.1268311 2.0000000000 12.000000000 12.250000954 -0.010999199 0.2710162401 2.2539904118  -999.250000 61.060733795 96.948509216 96.890808105 0.6239663363 195.63699341 0.7571089864  -999.250000 0.6480320096
 1982.2792969 2.0000000000 12.000000000 12.250000954 -0.010000000 0.2787767351 2.2419905663  -999.250000 63.673809052 96.674850464 96.688262939 0.6029831767 195.63519287 0.7451990247  -999.250000 0.6410167813
 1982.4316406 2.0000000000 12.000000000 12.250000954 -0.009995993 0.2705053389 2.2360048294  -999.250000 65.247482300 96.301582336 96.379013062 0.5960160494 194.88739014 0.7571110129  -999.250000 0.6479775906
 1982.5841064 2.0000000000 12.005999565 12.250000954 -0.005004804 0.2646558881 2.2419872284  -999.250000 62.798931122 96.197959900 96.153236389 0.6060912609 195.13540649 0.7428420186  -999.250000 0.6350312233
 1982.7364502 2.0000000000 12.032999992 12.250000954 -0.008000801 0.2558545172 2.2340016365  -999.250000 60.291019440 95.688392639 95.813606262 0.6440609097 194.88879395 0.7177159786  -999.250000 0.6170576215
 1982.8887939 2.0000000000 12.049000740 12.250000954 -0.009001601 0.2490180582 2.2359983921  -999.250000 58.941238403 95.176422119 95.189689636 0.6821041703 195.38699341 0.7068970203  -999.250000 0.6090256572
 1983.0412598 5.0000000000 12.022000313 12.250000954 -0.010997596 0.2465864718 2.2340142727  -999.250000 64.655822754 94.223632813 94.147659302 0.7472833991 195.38459778 0.7164239883  -999.250000 0.6179711223
 1983.1936035 5.0000000000 12.001999855 12.250000954 -0.008001601 0.2421946824 2.2520201206  -999.250000 69.170150757 92.642539978 92.586120605 0.8652483821 194.38861084 0.7928739786  -999.250000 0.6927596331
 1983.3460693 5.0000000000 12.019000053 12.250000954 -0.009997596 0.2480276674 2.2770376205  -999.250000 77.260032654 90.611442566 90.724205017 1.0204203129 194.13859558 1.0980000496  -999.250000 0.9024952054
 1983.4984131 5.0000000000 12.055998802 12.250000954 -0.007000000 0.2451289743 2.3240263462  -999.250000 80.484268188 88.863540649 88.846572876 1.1953830719 194.38600159 1.2079999447  -999.250000 1.0505260229
 1983.6508789 5.0000000000 12.086001396 12.250000954 -0.006996795 0.2563503981 2.3570241928  -999.250000 86.490371704 86.880256653 86.835029602 1.4351313114 194.38751221 1.4680000544  -999.250000 1.2405433655
 1983.8032227 5.0000000000 12.095999718 12.250000954 -0.002993590 0.2568438947 2.3870282173  -999.250000 86.686546326 84.552375793 84.612861633 1.9054710865 194.60339355 1.7109999657  -999.250000 1.4503273964
 1983.9556885 16.000000000 12.105999947 12.250000954 0.0050368295 0.2617285550 2.4221153259  -999.250000 88.684799194 83.014770508 82.950340271 2.1992521286 193.60540771 2.2809998989  -999.250000 1.9737404585
 1984.1080322 16.000000000 12.135000229 12.250000954 0.0280096158 0.2670883834 2.4940471649  -999.250000 91.541130066 82.544334412 82.583335876 2.3040015697 193.35816956 3.2030000687  -999.250000 2.5750720501
 1984.2604980 5.0000000000 12.171998978 12.250000954 0.0399727784 0.2900196314 2.5529935360  -999.250000 92.913810730 83.220954895 83.247245789 2.3043804169 194.09523010 3.2379999161  -999.250000 2.6667838097
 1984.4128418 5.0000000000 12.184000015 12.250000954 0.0229879804 0.3022777736 2.5489671230  -999.250000 91.877502441 84.880378723 84.758178711 2.0464181900 194.60690308 2.6840000153  -999.250000 2.2922041416
 1984.5653076 5.0000000000 12.159000397 12.250000954 0.0079919938 0.3119376600 2.5079343319  -999.250000 89.326087952 86.950050354 86.973442078 1.6829094887 195.16700745 2.2669999599  -999.250000 1.9079229832
