# LAS format log file from PETREL
# Project units are specified as depth units
#==================================================================
~Version information
VERS.   2.0:
WRAP.   NO:
#==================================================================
~Well
STRT .m      1287.9324951 :
STOP .m      2115.3120117 :
STEP .m     0.00000000 :
NULL .        -999.250000 :
COMP.           : COMPANY
WELL.  31/3-4   : WELL
FLD.            : FIELD
LOC.            : LOCATION
SRVC.           : SERVICE COMPANY
DATE.  2018-09-11 14:48:36   : Log Export Date {yyyy-MM-dd HH:mm:ss}
PROV.           : PROVINCE
UWI.   31/3-4   : UNIQUE WELL ID
API.            : API NUMBER
#==================================================================
~Curve
DEPT .m                   : DEPTH
Lithology_geolink ._      : Lithology_geolink
CALI .in                  : CALI
BS .in                    : BS
ROP .m/h                  : ROP
DRHO .g/cm3               : DRHO
NPHI .m3/m3               : NPHI
RHOB .g/cm3               : RHOB
PEF .b/e                  : PEF
GR .gAPI                  : GR
DTC .us/ft                : DTC
DTS .us/ft                : DTS
RDEP .ohm.m               : RDEP
RSHA .ohm.m               : RSHA
RMIC .ohm.m               : RMIC
RMED .ohm.m               : RMED
~Parameter
#==================================================================
~Ascii
# ...
 1941.7283936 6.0000000000 8.2302999496 8.5000000000 93.609909058 -0.012101282 0.3752000034 2.2717003822 6.0188021660 120.74162292 91.401992798 182.28555298 1.2463229895 1.0841592550 0.4099697173 1.2037999630
 1941.8808594 6.0000000000 8.2523002625 8.5000000000 109.14994049 -0.013701921 0.3689999878 2.2722024918 6.0217361450 112.77526855 91.516990662 180.48831177 0.7761650681 0.6592353582 0.3721671999 0.7609999776
 1942.0332031 5.0000000000 8.3148002625 8.5000000000 133.82414246 -0.014904086 0.3292999864 2.2736971378 5.9818100929 103.09291077 90.886711121 175.99472046 0.7543785572 0.6188757420 0.3516833484 0.7465999722
 1942.1856689 5.0000000000 8.3332996368 8.5000000000 130.96850586 -0.020007206 0.3206999898 2.2700927258 5.8694820404 103.72727966 90.523590088 173.39810181 0.7275815606 0.5885838270 0.3308921754 0.7181000113
 1942.3380127 5.0000000000 8.2781000137 8.5000000000 134.44882202 -0.024505848 0.3122000098 2.2654960155 5.7958388329 103.71417999 90.455009460 171.71694946 0.7161003947 0.5785011053 0.3259948790 0.7050999999
 1942.4903564 5.0000000000 8.3093996048 8.5000000000 137.12434387 -0.031802725 0.2759999931 2.2603988647 5.7195124626 106.05396271 90.464805603 171.78076172 0.7165997028 0.5798988938 0.3195993602 0.7062000036
 1942.6428223 5.0000000000 8.2965002060 8.5000000000 141.23031616 -0.035199519 0.2581000030 2.2589075565 5.7349448204 101.26660156 90.841583252 176.48692322 0.7161995769 0.5785007477 0.3188290000 0.7056000233
 1942.7951660 5.0000000000 8.2927999496 8.5000000000 143.99179077 -0.034596797 0.2401999980 2.2685089111 5.7910246849 97.762901306 91.062377930 179.26708984 0.7156910300 0.5794927478 0.3550314605 0.7046999931
 1942.9476318 5.0000000000 8.2854003906 8.5000000000 171.01017761 -0.030590465 0.2065999955 2.2795162201 5.8218173981 86.659980774 90.664466858 181.22293091 0.7044719458 0.5703745484 0.3943448067 0.6934000254
 1943.0999756 2.0000000000 8.2817001343 8.5000000000 173.99705505 -0.018694235 0.2212000042 2.2998101711 5.8429780006 83.137329102 89.877662659 182.38404846 0.6695207953 0.5386132598 0.4502356946 0.6423000097
 1943.2524414 2.0000000000 8.2045001984 8.5000000000 183.11286926 -0.011491266 0.2334000021 2.3125057220 5.8153553009 78.806694031 88.943756104 182.91101074 0.6955198646 0.5550911427 0.4948021770 0.6455000043
 1943.4047852 2.0000000000 8.2339000702 8.5000000000 188.53642273 -0.000597118 0.2456000000 2.3196966648 5.7593803406 78.420082092 88.145080566 183.16874695 0.7203056812 0.5439997911 0.4974595606 0.6425999999
 1943.5572510 2.0000000000 8.3112001419 8.5000000000 223.14697266 0.0030007211 0.2624999881 2.3154947758 5.7350273132 74.521255493 87.748222351 182.46459961 0.7274003029 0.5437008739 0.4469862878 0.6445000172
 1943.7095947 2.0000000000 8.3074998856 8.5000000000 226.70114136 0.0038990383 0.2644000053 2.3090987206 5.6443572044 72.847000122 87.277412415 179.08163452 0.7278012037 0.5448005199 0.4298917353 0.6446999907
 1943.8620605 2.0000000000 8.2927999496 8.5000000000 196.67848206 0.0027057647 0.2615000010 2.3076281548 5.5905885696 73.085426331 86.665832520 167.53138733 0.7293041945 0.5455014110 0.4196763933 0.6459000111
 1944.0144043 2.0000000000 8.2890996933 8.5000000000 168.83464050 0.0063013621 0.2587000132 2.3251128197 5.5208721161 69.112823486 86.997856140 167.21150208 0.7319253683 0.5464172959 0.4673326015 0.6474999785
 1944.1668701 2.0000000000 8.2927999496 8.5000000000 169.32742310 0.0080003208 0.2599000037 2.3413367271 5.4862680435 65.527992249 87.185974121 168.82763672 0.7640094161 0.5682661533 0.5080869794 0.6736999750
 1944.3192139 2.0000000000 8.3185997009 8.5000000000 134.48588562 0.0082011223 0.2441000044 2.3642084599 5.4663991928 65.279037476 87.113784790 170.85627747 1.0195451975 0.7343544364 0.5623186231 0.8873000145
 1944.4716797 2.0000000000 8.3406000137 8.5000000000 124.18209076 0.0095905531 0.2283000052 2.3745868206 5.4649820328 68.451683044 87.226066589 173.44265747 1.3244367838 0.9263693690 0.5854425430 1.1396000385
 1944.6240234 2.0000000000 8.3221998215 8.5000000000 123.19553375 0.0036952724 0.2028000057 2.3663845062 5.4535646439 69.196128845 88.199676514 175.34356689 0.7861496806 0.5954646468 0.5495727062 0.6794999838
 1944.7763672 2.0000000000 8.3149003983 8.5000000000 119.62040710 -0.002204964 0.1865999997 2.3470795155 5.4094085693 75.719223022 89.298118591 175.31362915 0.7233993411 0.5514003038 0.5154582262 0.6231999993
 1944.9288330 2.0000000000 8.3074998856 8.5000000000 100.46489716 -0.008405047 0.1851000041 2.3213679790 5.4202165604 80.490348816 89.439987183 176.21946716 0.7225999832 0.5518001914 0.4632435739 0.6226000190
 1945.0811768 2.0000000000 8.3149003983 8.5000000000 98.039695740 -0.014702082 0.1764000058 2.2815799713 5.4411621094 84.292755127 89.423942566 177.41928101 0.7225979567 0.5519976616 0.3928894997 0.6226000190
 1945.2336426 2.0000000000 8.2927999496 8.5000000000 97.658134460 -0.017299360 0.1712999940 2.2564971447 5.3940529823 82.863426208 90.218513489 180.00282288 0.7200974226 0.5490997434 0.3798040748 0.6201000214
 1945.3859863 2.0000000000 8.3002004623 8.5000000000 93.039375305 -0.016498638 0.1764999926 2.2530090809 5.3353600502 80.400703430 91.992652893 184.02569580 0.7168895602 0.5487936139 0.3849074543 0.6175000072
 1945.5384521 2.0000000000 8.2927999496 8.5000000000 94.148628235 -0.014797356 0.1932000071 2.2643125057 5.2852082253 79.529891968 93.681938171 188.03102112 0.7039300203 0.5408241153 0.3941953480 0.6071000099
 1945.6907959 2.0000000000 8.3074998856 8.5000000000 80.303474426 -0.011499359 0.2292000055 2.2798056602 5.2953405380 78.524681091 95.096961975 191.31050110 0.7414842248 0.5709500909 0.3883926272 0.6409000158
 1945.8432617 2.0000000000 8.2927999496 8.5000000000 83.865783691 -0.010701922 0.2408999950 2.2867963314 5.3459224701 78.370491028 97.667564392 194.43804932 0.8464929461 0.6333779097 0.3792088330 0.7304000258
 1945.9956055 2.0000000000 8.2781000137 8.5000000000 85.072601318 -0.011901763 0.2205999941 2.2845909595 5.4221715927 77.368598938 100.20296478 196.58789063 0.8420640230 0.6195695400 0.3847016096 0.7286999822
 1946.1480713 2.0000000000 8.2854003906 8.5000000000 84.357215881 -0.014119055 0.2126999944 2.2733094692 5.3863353729 77.622261047 100.89350128 198.08326721 0.7971928120 0.5815891027 0.3866181672 0.6913999915
 1946.3004150 2.0000000000 8.2927999496 8.5000000000 79.818962097 -0.026008975 0.2337999940 2.2167484760 5.4083056450 80.719711304 99.769538879 198.56579590 0.7926905155 0.5747936964 0.3355801105 0.6887999773
 1946.4528809 2.0000000000 8.3809995651 8.5000000000 85.619644165 -0.037195675 0.2322999984 2.1523861885 5.4154458046 85.350120544 97.558204651 198.32577515 0.7808691263 0.5668851137 0.3108198345 0.6801000237
 1946.6052246 2.0000000000 8.4031000137 8.5000000000 85.139053345 -0.034497276 0.2283000052 2.1437003613 5.2568674088 89.292854309 96.690048218 197.69029236 0.7615832686 0.5575902462 0.3231900632 0.6643000245
 1946.7575684 2.0000000000 8.4215002060 8.5000000000 78.109039307 -0.031100640 0.2334000021 2.1442959309 5.2165217400 91.606201172 97.597068787 197.67234802 0.7406561971 0.5453701615 0.3107969463 0.6432999969
 1946.9100342 5.0000000000 8.3737001419 8.5000000000 74.570602417 -0.031902004 0.2745000124 2.1392965317 5.2440123558 94.726799011 99.636917114 198.47683716 0.6859546900 0.5080713630 0.3070057034 0.5914000273
 1947.0623779 5.0000000000 8.3515996933 8.5000000000 76.289077759 -0.034398802 0.3129000068 2.1347098351 5.2593631744 93.606597900 101.88507843 198.89616394 0.6294749379 0.4723849595 0.3141094446 0.5411000252
 1947.2148438 5.0000000000 8.3515996933 8.5000000000 89.025558472 -0.032900643 0.3018999994 2.1468033791 5.2135009766 98.226959229 102.49416351 197.74916077 0.5981862545 0.4535987973 0.3259262741 0.5144000053
 1947.3671875 5.0000000000 8.3590002060 8.5000000000 88.991271973 -0.033700559 0.2937000096 2.1508963108 5.2144646645 100.91645050 101.27088165 195.08717346 0.5809893012 0.4520947933 0.3587280214 0.5156000257
 1947.5196533 5.0000000000 8.3737001419 8.5000000000 88.737403870 -0.034399278 0.2992999852 2.1462919712 5.1705622673 93.982696533 98.755661011 193.03366089 0.5676820278 0.4455921650 0.3937105834 0.5123000145
