# LAS format log file from PETREL
# Project units are specified as depth units
#==================================================================
~Version information
VERS.   2.0:
WRAP.   NO:
#==================================================================
~Well
STRT .m      1287.9324951 :
STOP .m      2115.3120117 :
STEP .m     0.00000000 :
NULL .        -999.250000 :
COMP.           : COMPANY
WELL.  31/3-4   : WELL
FLD.            : FIELD
LOC.            : LOCATION
SRVC.           : SERVICE COMPANY
DATE.  2018-09-11 14:48:36   : Log Export Date {yyyy-MM-dd HH:mm:ss}
PROV.           : PROVINCE
UWI.   31/3-4   : UNIQUE WELL ID
API.            : API NUMBER
#==================================================================
~Curve
DEPT .m                   : DEPTH
Lithology_geolink ._      : Lithology_geolink
CALI .in                  : CALI
BS .in                    : BS
ROP .m/h                  : ROP
DRHO .g/cm3               : DRHO
NPHI .m3/m3               : NPHI
RHOB .g/cm3               : RHOB
PEF .b/e                  : PEF
GR .gAPI                  : GR
DTC .us/ft                : DTC
DTS .us/ft                : DTS
RDEP .ohm.m               : RDEP
RSHA .ohm.m               : RSHA
RMIC .ohm.m               : RMIC
RMED .ohm.m               : RMED
~Parameter
#==================================================================
~Ascii
# ...
 1614.8303223 13.000000000 8.4912996292 8.5000000000 105.11843872 -0.007100000 0.1818999946 2.4463000298 4.2939000130 85.839447021 97.968879700 235.61090088 2.0153000355 2.2325999737 2.5453999043 2.1066999435
 1614.9827881 13.000000000 8.4840002060 8.5000000000 103.24606323 -0.005300000 0.1807000041 2.4465000629 4.2305002213 90.268074036 98.570175171 225.83790588 2.2109999657 2.4142000675 2.5409998894 2.3006999493
 1615.1351318 13.000000000 8.4693002701 8.5000000000 100.91141510 -0.007300000 0.1819999963 2.4391999245 4.2034001350 88.612579346 96.911964417 220.38290405 1.9627000093 2.1466999054 2.2829000950 2.0445001125
 1615.2875977 13.000000000 8.4546003342 8.5000000000 91.370735168 -0.009500000 0.2029000074 2.4326999187 4.2716999054 85.718070984 96.252372742 218.42898560 2.5592000484 2.7298998833 2.1719000340 2.6384999752
 1615.4399414 13.000000000 8.4546003342 8.5000000000 90.367454529 -0.007200000 0.2155999988 2.4303998947 4.4663000107 85.825668335 96.733695984 220.67408752 2.9902000427 3.1998000145 2.2952001095 3.0901000500
 1615.5924072 13.000000000 8.4399003983 8.5000000000 94.353347778 -0.003300000 0.2275000066 2.4530999660 4.6508002281 88.282730103 97.610786438 220.67280579 3.1642000675 3.3843998909 2.4470000267 3.2655000687
 1615.7447510 13.000000000 8.4434995651 8.5000000000 96.143043518 -0.006400000 0.2474000007 2.4773001671 4.7902998924 90.982917786 98.603149414 221.16636658 3.2005000114 3.4314000607 2.5027999878 3.3094000816
 1615.8972168 13.000000000 8.4618997574 8.5000000000 95.444549561 -0.004400000 0.2477000058 2.5136001110 4.9025001526 88.746337891 98.920417786 221.78579712 2.7634999752 2.9769999981 3.0018000603 2.8603999615
 1616.0495605 13.000000000 8.5059995651 8.5000000000 87.197509766 -0.002800000 0.2354999930 2.5246999264 4.8937997818 84.094390869 99.236824036 222.40521240 2.1954998970 2.3703000546 3.4999001026 2.2746999264
 1616.2019043 13.000000000 8.5059995651 8.5000000000 87.937667847 -0.002300000 0.2290000021 2.5134999752 4.7329998016 83.457183838 99.139739990 222.23741150 2.0257000923 2.1895000935 3.1080000401 2.0973999500
 1616.3543701 13.000000000 8.4912996292 8.5000000000 82.994422913 -0.005300000 0.2198999971 2.4907999039 4.6550002098 79.569190979 98.189430237 220.76739502 2.2987000942 2.5395998955 2.5464999676 2.3777000904
 1616.5067139 13.000000000 8.4693002701 8.5000000000 80.341857910 -0.008400000 0.2050999999 2.4753999710 4.6473999023 71.698425293 95.854751587 218.61090088 2.3575999737 2.6145999432 2.4237999916 2.4263000488
 1616.6591797 13.000000000 8.4399003983 8.5000000000 89.554458618 -0.009400000 0.1732999980 2.4825000763 4.7013998032 64.122200012 92.802467346 219.24989319 1.9782999754 2.1768000126 2.5632998943 2.0260000229
 1616.8115234 13.000000000 8.4399003983 8.5000000000 97.259513855 -0.008200000 0.1634999961 2.4965000153 4.7653999329 62.127296448 92.017349243 220.67120361 1.9839999676 2.1807999611 2.6919999123 2.0302000046
 1616.9639893 12.000000000 8.4618997574 8.5000000000 93.195205688 -0.008100000 0.1814000010 2.5132000446 4.8916997910 64.746765137 94.578254700 220.82009888 1.9857000113 2.1847000122 3.7611999512 2.0315999985
 1617.1163330 12.000000000 8.4618997574 8.5000000000 87.307090759 -0.006400000 0.2167000026 2.5090999603 4.9309000969 66.082878113 97.876960754 219.18061829 1.9802999496 2.1805999279 3.7126998901 2.0274000168
 1617.2687988 12.000000000 8.4546003342 8.5000000000 86.547248840 -0.002000000 0.2197999954 2.4842000008 4.8228001595 67.929397583 99.952682495 218.56579590 1.9804999828 2.1781001091 2.8399000168 2.0255999565
 1617.4211426 12.000000000 8.4546003342 8.5000000000 86.138122559 -0.001700000 0.2247000039 2.4705998898 4.7880001068 68.050857544 99.872985840 218.75849915 1.9789999723 2.1744999886 2.8034999371 2.0250999928
 1617.5736084 12.000000000 8.4399003983 8.5000000000 81.580383301 -0.007300000 0.2152000070 2.4844999313 4.8281002045 66.996810913 98.361045837 215.77011108 1.9881999493 2.1939001083 3.1577999592 2.0443000793
 1617.7259521 12.000000000 8.4177999496 8.5000000000 83.467521667 -0.006700000 0.2030999959 2.5153000355 4.8520998955 61.079025269 96.828422546 217.03051758 2.5241999626 2.7674000263 3.7179000378 2.6185998917
 1617.8784180 12.000000000 8.4765996933 8.5000000000 76.198165894 -0.006500000 0.1943999976 2.5320000648 4.8341999054 63.478256226 94.365211487 217.54171753 2.2806000710 2.4830999374 4.7948999405 2.3763000965
 1618.0307617 12.000000000 8.4765996933 8.5000000000 71.359252930 -0.003700000 0.1719000041 2.5378000736 4.6986999512 61.836826324 93.434555054 218.22900391 5.2578001022 5.5577998161 6.6364998817 5.4436001778
 1618.1831055 12.000000000 8.4656000137 8.5000000000 71.942588806 -0.001700000 0.1693000048 2.5353999138 4.5837001801 69.853843689 92.503578186 218.91641235 5.6255998611 6.0356001854 6.1613001823 5.8129000664
 1618.3355713 13.000000000 8.4674997330 8.5000000000 73.686355591 0.0005000000 0.1685999930 2.5343000889 4.4635000229 71.776245117 92.090705872 222.78610229 5.6241002083 6.0321002007 5.9942998886 5.8152999878
 1618.4879150 13.000000000 8.4546003342 8.5000000000 74.642387390 0.0017000000 0.1678999960 2.5294001102 4.3814001083 75.073097229 92.344505310 218.10099792 5.6279001236 6.0201001167 4.6704001427 5.8245000839
 1618.6403809 13.000000000 8.4618997574 8.5000000000 74.050193787 0.0007000000 0.1770000011 2.5167000294 4.3949999809 71.318939209 93.976211548 218.36862183 5.3378000259 5.7039999962 3.8570001125 5.5265998840
 1618.7927246 13.000000000 8.4619998932 8.5000000000 59.523292542 -0.000700000 0.1763000041 2.5039000511 4.4460000992 64.881210327 94.740036011 220.91929626 4.1634998322 4.4253001213 3.3032000065 4.2839999199
 1618.9451904 13.000000000 8.4434995651 8.5000000000 56.890090942 -0.002900000 0.1756999940 2.4874000549 4.5137000084 60.779003143 93.667556763 223.66818237 2.2785999775 2.4742999077 2.8122999668 2.3619000912
 1619.0975342 12.000000000 8.4399003983 8.5000000000 55.187995911 -0.004100000 0.1733999997 2.4765000343 4.5486001968 59.288181305 93.987342834 225.66931152 2.4742999077 2.7395999432 2.7866001129 2.5508000851
 1619.2500000 12.000000000 8.4399003983 8.5000000000 48.917980194 -0.004600000 0.1691000015 2.4721999168 4.5595002174 63.884323120 95.031608582 227.91369629 2.5701000690 2.8468000889 2.6868999004 2.6361000538
 1619.4023438 12.000000000 8.4546003342 8.5000000000 49.652889252 -0.004400000 0.1697999984 2.4756000042 4.5531001091 66.577766418 93.599914551 233.09680176 2.5555999279 2.7718999386 2.6336998940 2.6082000732
 1619.5548096 12.000000000 8.4546003342 8.5000000000 53.002620697 -0.004500000 0.1703999937 2.4830999374 4.5465002060 64.545669556 91.492088318 229.04699707 2.6565999985 2.8608999252 2.6614999771 2.6961998940
 1619.7071533 12.000000000 8.4802999496 8.5000000000 48.314304352 -0.006000000 0.2027000040 2.4848999977 4.5591998100 69.454048157 89.857788086 222.03630066 2.7037999630 2.9072000980 2.6475000381 2.7434000969
 1619.8596191 12.000000000 8.4840002060 8.5000000000 45.512138367 -0.007400000 0.2347999960 2.4863998890 4.5661001205 72.766967773 89.218284607 218.00610352 2.9563000202 3.2104001045 2.6033999920 3.0213000774
 1620.0119629 13.000000000 8.4876003265 8.5000000000 45.989830017 -0.007900000 0.2335000038 2.4867999554 4.5819001198 79.047698975 90.333488464 218.89869690 2.9818000793 3.2112998962 2.6291000843 3.0762000084
 1620.1643066 13.000000000 8.4912996292 8.5000000000 47.645996094 -0.008700000 0.2322999984 2.4856998920 4.6003999710 78.166702271 91.187080383 217.31262207 2.5397999287 2.7058000565 2.7342998981 2.6115999222
 1620.3167725 13.000000000 8.4912996292 8.5000000000 52.728347778 -0.008400000 0.2185000032 2.4856998920 4.6118001938 73.546257019 92.041275024 215.72650146 2.1061999798 2.2460000515 2.7888998985 2.1754000187
 1620.4691162 13.000000000 8.4840002060 8.5000000000 54.627296448 -0.007600000 0.2106000036 2.4855000973 4.6360998154 71.864532471 93.752143860 211.13589478 4.5275998116 4.7079000473 2.8454000950 4.6591000557
 1620.6215820 12.000000000 8.4765996933 8.5000000000 57.606300354 -0.007500000 0.2027000040 2.4835999012 4.6575999260 61.539810181 94.561798096 205.54528809 2.9584999084 3.1961998940 2.9272999763 3.0660998821
