# LAS format log file from PETREL
# Project units are specified as depth units
#==================================================================
~Version information
VERS.   2.0:
WRAP.   NO:
#==================================================================
~Well
STRT .m      898.43609619 :
STOP .m      2454.1354980 :
STEP .m     0.00000000 :
NULL .        -999.250000 :
COMP.           : COMPANY
WELL.  31/4-6   : WELL
FLD.            : FIELD
LOC.            : LOCATION
SRVC.           : SERVICE COMPANY
DATE.  2018-09-11 14:48:38   : Log Export Date {yyyy-MM-dd HH:mm:ss}
PROV.           : PROVINCE
UWI.   31/4-6   : UNIQUE WELL ID
API.            : API NUMBER
#==================================================================
~Curve
DEPT .m                   : DEPTH
Lithology_geolink ._      : Lithology_geolink
CALI .in                  : CALI
DRHO .g/cm3               : DRHO
NPHI .m3/m3               : NPHI
RHOB .g/cm3               : RHOB
GR .gAPI                  : GR
DTC .us/ft                : DTC
DTE .us/ft                : DTE
RDEP .ohm.m               : RDEP
SP .mV                    : SP
RSHA .ohm.m               : RSHA
RMED .ohm.m               : RMED
~Parameter
#==================================================================
~Ascii
# ...
 1205.6745605  -999.250000 18.077999115 -0.001016026  -999.250000 2.0181808472 42.688449860 145.43400574 146.66891479 1.3769687414 34.924999237  -999.250000 1.2499847412
 1205.8269043  -999.250000 18.233999252 0.0069743590  -999.250000 2.0298793316 43.250000000 147.13851929 148.42117310 1.3380000591 35.174999237  -999.250000 1.2309999466
 1205.9793701  -999.250000 18.281000137 -0.000974380  -999.250000 2.0290915966 43.250450134 147.34324646 148.67472839 1.3189840317 35.549999237  -999.250000 1.2279847860
 1206.1317139  -999.250000 18.031000137 -0.003990385  -999.250000 2.0262126923 43.812999725 146.70666504 147.96328735 1.2990000248 35.799999237  -999.250000 1.2089999914
 1206.2841797  -999.250000 17.922000885 -0.003003203  -999.250000 2.0268959999 49.188400269 146.72753906 147.92594910 1.2940015793 35.174999237  -999.250000 1.2190088034
 1206.4365234  -999.250000 17.968999863 0.0109551279  -999.250000 2.0326995850 49.687522888 146.19483948 147.47523499 1.2960032225 35.549999237  -999.250000 1.2300200462
 1206.5889893  -999.250000 17.937999725 0.0119967973  -999.250000 2.0342042446 49.090496063 145.10144043 146.38903809 1.2999975681 34.674999237  -999.250000 1.2550152540
 1206.7413330  -999.250000 18.000000000 0.0050224359  -999.250000 2.0313677788 44.716850281 144.56051636 145.76423645 1.2970080376 34.924999237  -999.250000 1.2740024328
 1206.8936768  -999.250000 18.062999725 0.0030080064  -999.250000 2.0237057209 42.030998230 144.92912292 146.21066284 1.3070000410 34.049999237  -999.250000 1.2769999504
 1207.0461426  -999.250000 17.843999863 -0.000987180  -999.250000 2.0114476681 40.467826843 146.04090881 147.38224792 1.3189991713 34.299999237  -999.250000 1.2709808350
 1207.1984863  -999.250000 17.937999725 -0.001000000  -999.250000 2.0008604527 39.000000000 146.17689514 147.43450928 1.3179999590 34.674999237  -999.250000 1.2469999790
 1207.3509521  -999.250000 17.858999252 -0.003990385  -999.250000 1.9942669868 41.187072754 145.23593140 146.54774475 1.3170015812 34.799999237  -999.250000 1.2650111914
 1207.5032959  -999.250000 18.108999252 -0.004000000  -999.250000 1.9928754568 40.030998230 143.37519836 144.62876892 1.3190000057 33.674999237  -999.250000 1.2790000439
 1207.6557617  -999.250000 17.797000885 -0.001009615  -999.250000 1.9920669794 38.376251221 141.62777710 142.83084106 1.3130040169 33.424999237  -999.250000 1.2929999828
 1207.8081055  -999.250000 17.781000137 -0.001000000  -999.250000 1.9900736809 39.937999725 141.68292236 142.93013000 1.3179999590 33.549999237  -999.250000 1.2929999828
 1207.9605713  -999.250000 17.827999115 0.0029871794  -999.250000 1.9865708351 40.469825745 142.63087463 143.96255493 1.3319967985 34.299999237  -999.250000 1.2870047092
 1208.1129150  -999.250000 17.858999252 0.0039967950  -999.250000 1.9833213091 41.500000000 142.72724915 143.94427490 1.3279999495 34.799999237  -999.250000 1.2929999828
 1208.2653809  -999.250000 17.766000748 0.0089839865  -999.250000 1.9813749790 37.687072754 143.33122253 144.57582092 1.3240079880 35.299999237  -999.250000 1.2940024137
 1208.4177246  -999.250000 17.733999252 0.0010256411  -999.250000 1.9817951918 36.537002563 144.02915955 145.22114563 1.3340015411 36.049999237  -999.250000 1.2969880104
 1208.5701904  -999.250000 17.812999725 -0.004980784  -999.250000 1.9867625237 44.031497955 143.39056396 144.68870544 1.3360040188 35.174999237  -999.250000 1.2819879055
 1208.7225342  -999.250000 17.766000748 -0.005000000  -999.250000 1.9933661222 44.656948090 143.00564575 144.25083923 1.3410111666 34.549999237  -999.250000 1.2670103312
 1208.8748779  -999.250000 18.358999252 -0.005995997  -999.250000 1.9966886044 45.844001770 142.53186035 143.80252075 1.3550000191 34.299999237  -999.250000 1.2799999714
 1209.0273438  -999.250000 18.468999863 -0.007993590  -999.250000 2.0012612343 43.783576965 142.15103149 143.40467834 1.3680127859 35.424999237  -999.250000 1.3000152111
 1209.1796875  -999.250000 17.656000137 -0.004016013  -999.250000 2.0095036030 47.000000000 142.05519104 143.33656311 1.3839999437 35.174999237  -999.250000 1.3190000057
 1209.3321533  -999.250000 17.718999863 0.0039743590  -999.250000 2.0198197365 46.935470581 141.49911499 142.68907166 1.4130176306 34.549999237  -999.250000 1.3330231905
 1209.4844971  -999.250000 18.016000748 0.0159519631  -999.250000 2.0255584717 43.780998230 140.66487122 141.86199951 1.4349999428 34.799999237  -999.250000 1.3619999886
 1209.6369629  -999.250000 17.906000137 0.0179935899  -999.250000 2.0248169899 43.154270172 139.55654907 140.81159973 1.4460064173 34.799999237  -999.250000 1.4030352831
 1209.7893066  -999.250000 17.858999252 0.0110280225  -999.250000 2.0224132538 41.000000000 137.71023560 138.89897156 1.4539999962 36.549999237  -999.250000 1.4470000267
 1209.9417725  -999.250000 17.843999863 -0.000961539  -999.250000 2.0225541592 39.811721802 137.24804688 138.41113281 1.4620008469 33.799999237  -999.250000 1.4619959593
 1210.0941162  -999.250000 18.108999252 -0.001996795  -999.250000 2.0265078545 38.219001770 137.76899719 138.95352173 1.4630000591 32.424999237  -999.250000 1.4570000172
 1210.2465820  -999.250000 17.750000000 0.0079679750  -999.250000 2.0287833214 37.749626160 138.71311951 139.86933899 1.4569879770 34.799999237  -999.250000 1.4209775925
 1210.3989258  -999.250000 17.718999863 0.0159743596  -999.250000 2.0250766277 37.280998230 140.44532776 141.63610840 1.4420000315 34.174999237  -999.250000 1.3930000067
 1210.5513916  -999.250000 17.812999725 0.0010480385  -999.250000 2.0153748989 38.440128326 141.82196045 143.13151550 1.4229735136 35.049999237  -999.250000 1.3549847603
 1210.7037354  -999.250000 18.327999115 -0.008967948  -999.250000 2.0093665123 41.095703125 142.56311035 143.76860046 1.3899847269 34.424999237  -999.250000 1.3359751701
 1210.8562012  -999.250000 17.797000885 -0.011990393  -999.250000 2.0116040707 43.218574524 143.52488708 144.78843689 1.3710080385 35.424999237  -999.250000 1.3049902916
 1211.0085449  -999.250000 17.827999115 -0.006019231  -999.250000 2.0200107098 42.688373566 144.63009644 145.85153198 1.3810184002 34.299999237  -999.250000 1.2929872274
 1211.1608887  -999.250000 18.031000137 -0.000024019  -999.250000 2.0307922363 43.155998230 144.38920593 145.65502930 1.4040000439 37.549999237  -999.250000 1.2769999504
 1211.3133545  -999.250000 18.093999863 0.0069775642  -999.250000 2.0392742157 37.751651764 143.47195435 144.65287781 1.4380415678 36.674999237  -999.250000 1.2900383472
 1211.4656982  -999.250000 17.983999252 0.0109839868  -999.250000 2.0416867733 39.812999725 141.65643311 142.97332764 1.4900000095 33.174999237  -999.250000 1.3380000591
 1211.6181641  -999.250000 17.937999725 0.0100032045  -999.250000 2.0352232456 37.658199310 139.22445679 140.44984436 1.5350383520 33.299999237  -999.250000 1.4421081543
 1211.7705078  -999.250000 18.093999863 0.0099999998  -999.250000 2.0185456276 40.405998230 136.72285461 137.96577454 1.5829999447 34.674999237  -999.250000 1.5770000219
 1211.9229736  -999.250000 18.172000885 -0.008939102  -999.250000 1.9936869144 37.873699188 134.82482910 136.01885986 1.6190015078 34.549999237  -999.250000 1.6990383863
 1212.0753174  -999.250000 17.797000885 -0.018967949  -999.250000 1.9750944376 36.250000000 133.51240540 134.67449951 1.6210000515 34.674999237  -999.250000 1.7469999790
 1212.2277832  -999.250000 17.766000748 -0.022987191  -999.250000 1.9689499140 40.626201630 133.92663574 135.15206909 1.6049791574 33.799999237  -999.250000 1.7179175615
 1212.3801270  -999.250000 17.750000000 -0.017019231  -999.250000 1.9744852781 42.125000000 139.78865051 140.95750427 1.5789999962 33.424999237  -999.250000 1.6150000095
 1212.5325928  -999.250000 17.781000137 -0.014009608  -999.250000 1.9889500141 46.658126831 147.17982483 148.44268799 1.5369678736 33.549999237  -999.250000 1.4789134264
 1212.6849365  -999.250000 17.812999725 -0.013003205  -999.250000 2.0088055134 49.310371399 148.29762268 149.56629944 1.4969727993 33.299999237  -999.250000 1.3709399700
 1212.8374023  -999.250000 17.827999115 -0.006016827  -999.250000 2.0234000683 46.031272888 144.62660217 145.95205688 1.4629759789 34.049999237  -999.250000 1.2959767580
