# LAS format log file from PETREL
# Project units are specified as depth units
#==================================================================
~Version information
VERS.   2.0:
WRAP.   NO:
#==================================================================
~Well
STRT .m      860.54608154 :
STOP .m      3158.4321289 :
STEP .m     0.00000000 :
NULL .        -999.250000 :
COMP.           : COMPANY
WELL.  31/4-4   : WELL
FLD.            : FIELD
LOC.            : LOCATION
SRVC.           : SERVICE COMPANY
DATE.  2018-09-11 14:48:37   : Log Export Date {yyyy-MM-dd HH:mm:ss}
PROV.           : PROVINCE
UWI.   31/4-4   : UNIQUE WELL ID
API.            : API NUMBER
#==================================================================
~Curve
DEPT .m                   : DEPTH
Lithology_geolink ._      : Lithology_geolink
CALI .in                  : CALI
DRHO .g/cm3               : DRHO
NPHI .m3/m3               : NPHI
RHOB .g/cm3               : RHOB
GR .gAPI                  : GR
DTC .us/ft                : DTC
DTE .us/ft                : DTE
RDEP .ohm.m               : RDEP
SP .mV                    : SP
RSHA .ohm.m               : RSHA
RMED .ohm.m               : RMED
~Parameter
#==================================================================
~Ascii
# ...
 2842.9643555 7.0000000000 12.703001022 0.0140000004 0.3075499833 2.5568118095 125.45580292 86.301177979 84.889411926 4.1171121597 66.723396301 6.0589613914 6.0589613914
 2843.1166992 6.0000000000 12.703001022 0.0170000009 0.2924700081 2.5702097416 130.98847961 85.882827759 84.528038025 4.1520814896 66.224769592 6.0470433235 6.0470433235
 2843.2690430 6.0000000000 12.703001022 0.0179999992 0.2825399935 2.5879726410 123.79277039 85.112846375 83.705131531 4.2031316757 66.080528259 6.0739870071 6.0739870071
 2843.4213867 6.0000000000 12.710000992 0.0240000002 0.2756099999 2.5964787006 111.17278290 83.564689636 82.287467957 4.2851696014 65.787155151 6.0659437180 6.0659437180
 2843.5739746 6.0000000000 12.703001022 0.0230000000 0.2593199909 2.5834531784 101.66460419 82.007347107 80.669418335 4.3912110329 65.878898621 6.0314259529 6.0314259529
 2843.7263184 6.0000000000 12.703001022 0.0080000004 0.2445899993 2.5553877354 94.372596741 80.343040466 79.065734863 4.4570751190 65.224647522 6.1647515297 6.1647515297
 2843.8786621 16.000000000 12.703001022 -0.003000000 0.2323100120 2.5388572216 92.876502991 77.947280884 76.782783508 4.5040435791 65.004440308 6.6339325905 6.6339325905
 2844.0310059 6.0000000000 12.703001022 0.0000000000 0.2106599957 2.5336093903 93.821014404 77.352539063 75.955612183 4.5310754776 64.036048889 7.2151813507 7.2151813507
 2844.1835938 6.0000000000 12.703001022 -0.004000000 0.1948399991 2.5309514999 98.821998596 78.030197144 76.746170044 4.5783390999 63.441303253 7.3266143799 7.3266143799
 2844.3359375 6.0000000000 12.703001022 0.0080000004 0.2189100087 2.5412003994 101.62890625 80.091598511 78.836776733 4.6841316223 62.600643158 6.8944792747 6.8944792747
 2844.4882813 6.0000000000 12.703001022 0.0089999996 0.2414999902 2.5546593666 104.07031250 82.344665527 81.072067261 4.7659935951 62.999359131 6.5701012611 6.5701012611
 2844.6406250 6.0000000000 12.703001022 0.0480000004 0.2601499856 2.5905752182 108.63011169 83.692100525 82.363349915 4.7619872093 62.600173950 6.6334004402 6.6334004402
 2844.7929688 6.0000000000 12.703001022 0.0540000014 0.2711400092 2.6140213013 111.81710052 84.469078064 83.122940063 4.7539615631 62.708332062 6.8834304810 6.8834304810
 2844.9455566 6.0000000000 12.703001022 0.0399999991 0.2979499996 2.6065101624 114.38000488 84.669799805 83.355339050 4.7298636436 64.162055969 7.1522002220 7.1522002220
 2845.0979004 6.0000000000 12.703001022 0.0149999997 0.3419100046 2.5774207115 117.49839783 84.176803589 82.875320435 4.6448860168 64.193649292 7.2770624161 7.2770624161
 2845.2502441 6.0000000000 12.703001022 0.0000000000 0.3153699934 2.5511598587 116.49659729 83.621192932 82.239547729 4.5737175941 63.975971222 7.3159565926 7.3159565926
 2845.4025879 6.0000000000 12.703001022 -0.001000000 0.2889299989 2.5506553650 114.37599945 83.615440369 82.335647583 4.3976631165 64.584938049 7.2881364822 7.2881364822
 2845.5551758 6.0000000000 12.701999664 -0.006000000 0.2691799998 2.5474262238 114.98960114 83.793769836 82.606300354 4.1874723434 67.042007446 6.7485117912 6.7485117912
 2845.7075195 6.0000000000 12.657999992 -0.004000000 0.3121100068 2.5436563492 111.75009918 85.075950623 83.700500488 4.0228056908 68.600898743 6.2843990326 6.2843990326
 2845.8598633 6.0000000000 12.656000137 0.0040000002 0.3295699954 2.5473206043 111.79907990 87.011566162 85.707901001 3.9018781185 69.160659790 5.9095687866 5.9095687866
 2846.0122070 6.0000000000 12.640999794 0.0160000008 0.3480400145 2.5648956299 103.14472961 88.462257385 87.179748535 3.8259279728 68.324134827 5.6407995224 5.6407995224
 2846.1647949 6.0000000000 12.640999794 0.0080000004 0.3410699964 2.5707082748 115.47540283 89.378562927 88.063667297 3.7808687687 67.783866882 5.5157728195 5.5157728195
 2846.3171387 7.0000000000 12.640999794 0.0000000000 0.3497999907 2.5649175644 127.13621521 90.147827148 88.748497009 3.7399470806 66.804664612 5.4449505806 5.4449505806
 2846.4694824 7.0000000000 12.656000137 0.0020000001 0.3349500000 2.5572025776 134.12199402 90.294898987 88.974937439 3.7070159912 65.974449158 5.4140257835 5.4140257835
 2846.6218262 7.0000000000 12.656000137 0.0049999999 0.3094199896 2.5474529266 132.23217773 89.740417480 88.377540588 3.7170305252 65.630844116 5.4301490784 5.4301490784
 2846.7744141 6.0000000000 12.656000137 -0.002000000 0.3100099862 2.5341007710 121.12200165 88.747337341 87.401718140 3.7361888885 65.533843994 5.5233774185 5.5233774185
 2846.9267578 6.0000000000 12.656000137 -0.001000000 0.3001300097 2.5351636410 120.17828369 88.385757446 86.984916687 3.7951219082 64.548576355 5.6412243843 5.6412243843
 2847.0791016 6.0000000000 12.656000137 0.0020000001 0.3059599996 2.5446548462 114.12459564 87.989356995 86.621803284 3.8711185455 63.659664154 5.7813320160 5.7813320160
 2847.2314453 6.0000000000 12.656000137 0.0070000002 0.2844099998 2.5519411564 113.87089539 87.573081970 86.262817383 3.9451136589 62.205829620 5.9885206223 5.9885206223
 2847.3837891 6.0000000000 12.656000137 0.0109999999 0.3144100010 2.5624241829 111.31650543 87.393760681 86.167861938 4.0161185265 62.099376678 6.3132309914 6.3132309914
 2847.5363770 6.0000000000 12.656000137 0.0250000004 0.3225199878 2.5792605877 113.46820068 86.820365906 85.697387695 4.0901250839 61.713039398 6.4569740295 6.4569740295
 2847.6887207 6.0000000000 12.656000137 0.0240000002 0.3312799931 2.5907166004 103.56159973 86.593734741 85.262954712 4.1290130615 61.724678040 6.4490127563 6.4490127563
 2847.8410645 6.0000000000 12.633999825 0.0199999996 0.2931999862 2.5870406628 102.68890381 86.481361389 85.187500000 4.1369938850 61.525722504 6.4570813179 6.4570813179
 2847.9934082 6.0000000000 12.633000374 -0.002000000 0.2953000069 2.5710813999 103.28245544 86.477760315 85.201072693 4.1329870224 61.976409912 6.5078878403 6.5078878403
 2848.1459961 6.0000000000 12.640000343 -0.001000000 0.3209299743 2.5573728085 123.52519989 86.854942322 85.554267883 4.1249489784 62.857376099 6.4373250008 6.4373250008
 2848.2983398 7.0000000000 12.640999794 0.0020000001 0.3350099921 2.5433318615 131.36828613 87.802978516 86.511131287 4.1089940071 63.288890839 6.2266430855 6.2266430855
 2848.4506836 7.0000000000 12.640999794 0.0060000001 0.3264499903 2.5364220142 127.17298126 88.564910889 87.352188110 4.1049695015 64.469619751 6.0038943291 6.0038943291
 2848.6030273 7.0000000000 12.656000137 -0.003000000 0.3134099841 2.5355236530 117.81019592 89.277938843 87.931892395 4.0859565735 66.102142334 5.9380116463 5.9380116463
 2848.7556152 7.0000000000 12.656000137 -0.010000000 0.3271699846 2.5438346863 116.06980133 89.401458740 88.055641174 4.0588622093 67.439720154 5.9455251694 5.9455251694
 2848.9079590 7.0000000000 12.656000137 -0.001000000 0.3536299765 2.5533425808 118.18740082 88.924781799 87.518936157 4.0160303116 67.977035522 6.1092824936 6.1092824936
 2849.0603027 7.0000000000 12.656000137 0.0020000001 0.3293999732 2.5620713234 117.80628967 88.642120361 87.294853210 4.0350623131 69.247077942 6.2846617699 6.2846617699
 2849.2126465 7.0000000000 12.640999794 0.0209999997 0.3598099947 2.5743834972 113.62470245 88.526451111 87.267349243 4.0740385056 71.155555725 6.0739307404 6.0739307404
 2849.3649902 7.0000000000 12.640999794 0.0250000004 0.3424099982 2.5945694447 113.44712067 88.624092102 87.303894043 4.0980367661 67.137130737 6.0312452316 6.0312452316
 2849.5175781 7.0000000000 12.640999794 0.0280000009 0.3729900122 2.5954377651 119.13200378 88.668518066 87.477996826 4.1210384369 65.972297668 6.1843872070 6.1843872070
 2849.6699219 7.0000000000 12.640999794 0.0140000004 0.3541400135 2.5707221031 121.31781006 88.601600647 87.333702087 4.1330189705 65.130844116 6.3051681519 6.3051681519
 2849.8222656 7.0000000000 12.640000343 -0.002000000 0.3378900290 2.5321843624 124.30278778 88.388099670 87.055656433 4.1450238228 65.035438538 6.4102067947 6.4102067947
 2849.9746094 7.0000000000 12.633000374 -0.006000000 0.2977000177 2.5153563023 117.93279266 87.832313538 86.514411926 4.1600384712 64.059753418 6.5391011238 6.5391011238
 2850.1271973 7.0000000000 12.640000343 0.0020000001 0.2708600163 2.5268058777 114.68620300 87.393379211 86.176925659 4.1840000153 63.285282135 6.6019234657 6.6019234657
