# LAS format log file from PETREL
# Project units are specified as depth units
#==================================================================
~Version information
VERS.   2.0:
WRAP.   NO:
#==================================================================
~Well
STRT .m      860.54608154 :
STOP .m      3158.4321289 :
STEP .m     0.00000000 :
NULL .        -999.250000 :
COMP.           : COMPANY
WELL.  31/4-4   : WELL
FLD.            : FIELD
LOC.            : LOCATION
SRVC.           : SERVICE COMPANY
DATE.  2018-09-11 14:48:37   : Log Export Date {yyyy-MM-dd HH:mm:ss}
PROV.           : PROVINCE
UWI.   31/4-4   : UNIQUE WELL ID
API.            : API NUMBER
#==================================================================
~Curve
DEPT .m                   : DEPTH
Lithology_geolink ._      : Lithology_geolink
CALI .in                  : CALI
DRHO .g/cm3               : DRHO
NPHI .m3/m3               : NPHI
RHOB .g/cm3               : RHOB
GR .gAPI                  : GR
DTC .us/ft                : DTC
DTE .us/ft                : DTE
RDEP .ohm.m               : RDEP
SP .mV                    : SP
RSHA .ohm.m               : RSHA
RMED .ohm.m               : RMED
~Parameter
#==================================================================
~Ascii
# ...
 1014.1652222  -999.250000 17.608999252 -0.004999199  -999.250000 1.9212726355 71.276679993 146.53248596 144.28294373 1.4180155993 21.477926254 1.1659584045 1.1659584045
 1014.3176270  -999.250000 17.608999252 -0.003000801  -999.250000 1.9208413363 76.360359192 146.52407837 144.33891296 1.4210884571 22.036350250 1.1578385830 1.1578385830
 1014.4699707  -999.250000 17.608999252 -0.005000000  -999.250000 1.9203901291 73.566307068 146.37788391 144.18624878 1.4380720854 21.913202286 1.1268798113 1.1268798113
 1014.6223755  -999.250000 17.608999252 -0.009000000  -999.250000 1.9215052128 74.237083435 145.89108276 143.71084595 1.4530816078 22.171010971 1.1019663811 1.1019663811
 1014.7747803  -999.250000 17.608999252 -0.010000000  -999.250000 1.9270669222 71.548286438 146.01815796 143.80450439 1.4700433016 24.042709351 1.0950480700 1.0950480700
 1014.9271851  -999.250000 17.608999252 -0.005000000  -999.250000 1.9349839687 68.496093750 146.26519775 144.08149719 1.4789855480 25.232812881 1.1050913334 1.1050913334
 1015.0795898  -999.250000 17.608999252 -0.005000000  -999.250000 1.9366606474 67.662780762 146.47457886 144.26957703 1.4759739637 26.851625443 1.1241248846 1.1241248846
 1015.2319946  -999.250000 17.607999802 -0.003000000  -999.250000 1.9351487160 62.849208832 146.48321533 144.20869446 1.4710208178 27.159397125 1.1480780840 1.1480780840
 1015.3843994  -999.250000 17.562999725 -0.002000000  -999.250000 1.9373005629 63.850997925 145.96565247 143.74493408 1.4750103951 26.655820847 1.1629843712 1.1629843712
 1015.5367432  -999.250000 17.562999725 0.0049999999  -999.250000 1.9430371523 65.213233948 145.63357544 143.41845703 1.4769952297 25.512542725 1.1599327326 1.1599327326
 1015.6891479  -999.250000 17.562999725 0.0000000000  -999.250000 1.9426805973 70.438301086 145.43463135 143.22427368 1.4759566784 33.261169434 1.1459472179 1.1459472179
 1015.8415527  -999.250000 17.562999725 -0.002000000  -999.250000 1.9402829409 70.515014648 145.34567261 143.13418579 1.4669567347 27.908699036 1.1349327564 1.1349327564
 1015.9939575  -999.250000 17.562999725 -0.009000000  -999.250000 1.9383850098 73.631607056 145.54510498 143.35722351 1.4579566717 27.218992233 1.1208846569 1.1208846569
 1016.1463623  -999.250000 17.562999725 -0.010000000  -999.250000 1.9335284233 75.034240723 145.87857056 143.65687561 1.4490144253 25.975000381 1.0968462229 1.0968462229
 1016.2987671  -999.250000 17.562999725 -0.011000000  -999.250000 1.9260817766 82.101570129 146.09658813 143.90992737 1.4520192146 25.970493317 1.0649279356 1.0649279356
 1016.4511719  -999.250000 17.562999725 -0.008000000  -999.250000 1.9205508232 77.240692139 146.45953369 144.21992493 1.4559758902 25.031295776 1.0501201153 1.0501201153
 1016.6035767  -999.250000 17.593999863 -0.005000000  -999.250000 1.9198026657 75.304290771 146.50755310 144.23345947 1.4510047436 23.846996307 1.0752403736 1.0752403736
 1016.7559814  -999.250000 17.607999802 -0.007000000  -999.250000 1.9152060747 73.518325806 146.52398682 144.35107422 1.4520144463 23.218393326 1.1251682043 1.1251682043
 1016.9083862  -999.250000 17.562999725 -0.014000000  -999.250000 1.9077357054 77.324714661 146.69259644 144.48149109 1.4550528526 21.847293854 1.1599999666 1.1599999666
 1017.0607910  -999.250000 17.561000824 -0.011000000  -999.250000 1.9103865623 79.711540222 146.25344849 144.03219604 1.4661009312 21.286703110 1.1599278450 1.1599278450
 1017.2131958  -999.250000 17.496999741 -0.009000000  -999.250000 1.9228653908 71.721366882 145.62843323 143.37924194 1.4871040583 21.222396851 1.1448959112 1.1448959112
 1017.3656006  -999.250000 17.422000885 -0.003000000  -999.250000 1.9386022091 66.229499817 145.50059509 143.26956177 1.5070155859 20.728904724 1.1249115467 1.1249115467
 1017.5179443  -999.250000 17.437999725 -0.003000000  -999.250000 1.9456924200 62.324111938 145.44456482 143.22122192 1.5099807978 21.475601196 1.1079711914 1.1079711914
 1017.6703491  -999.250000 17.468999863 -0.007000000  -999.250000 1.9432084560 64.642120361 145.26600647 143.02795410 1.5059375763 21.602403641 1.1019952297 1.1019952297
 1017.8227539  -999.250000 17.466999054 -0.010000000  -999.250000 1.9407147169 68.187698364 144.66799927 142.45394897 1.4929231405 22.108409882 1.1010143757 1.1010143757
 1017.9751587  -999.250000 17.420000076 -0.012000000  -999.250000 1.9472675323 68.134315491 143.91369629 141.66662598 1.4769231081 23.850000381 1.1039999723 1.1039999723
 1018.1275635  -999.250000 17.375000000 -0.008000000  -999.250000 1.9606932402 70.053390503 143.43324280 141.22117615 1.4609663486 23.859909058 1.1039519310 1.1039519310
 1018.2799683  -999.250000 17.375000000 -0.011000000  -999.250000 1.9730277061 68.072013855 143.28509521 141.05265808 1.4540096521 25.921915054 1.0938653946 1.0938653946
 1018.4323730  -999.250000 17.375000000 -0.013000000  -999.250000 1.9768555164 69.941009521 143.28509521 141.07234192 1.4560335875 27.978302002 1.0658462048 1.0658462048
 1018.5847778  -999.250000 17.391000748 -0.012000000  -999.250000 1.9752281904 70.575019836 143.24884033 141.02804565 1.4630241394 28.668310165 1.0338895321 1.0338895321
 1018.7371826  -999.250000 17.391000748 -0.008000000  -999.250000 1.9722907543 73.060600281 142.70069885 140.47209167 1.4679759741 29.973798752 1.0109808445 1.0109808445
 1018.8895874  -999.250000 17.391000748 -0.011000000  -999.250000 1.9644722939 72.534469604 142.33140564 140.13424683 1.4629231691 29.728302002 1.0071104765 1.0071104765
 1019.0419922  -999.250000 17.391000748 -0.012000000  -999.250000 1.9600586891 66.604415894 142.61076355 140.36677551 1.4469326735 30.410799026 1.0301538706 1.0301538706
 1019.1943970  -999.250000 17.391000748 -0.018999999  -999.250000 1.9538308382 62.333911896 143.08761597 140.90827942 1.4329999685 30.154520035 1.0620052814 1.0620052814
 1019.3468018  -999.250000 17.389999390 -0.021000000  -999.250000 1.9511584044 60.436100006 144.05363464 141.88275146 1.4330780506 28.728576660 1.0628958941 1.0628958941
 1019.4992065  -999.250000 17.375000000 -0.021000000  -999.250000 1.9543348551 66.250152588 144.63024902 142.42245483 1.4480624199 29.408424377 1.0428854227 1.0428854227
 1019.6515503  -999.250000 17.375000000 -0.016000001  -999.250000 1.9605044127 78.126197815 144.02540588 141.80564880 1.4600048065 28.721094131 1.0209472179 1.0209472179
 1019.8039551  -999.250000 17.375000000 -0.007000000  -999.250000 1.9715752602 78.384315491 143.12820435 140.96405029 1.4609758854 27.912904739 1.0100047588 1.0100047588
 1019.9563599  -999.250000 17.375000000 -0.011000000  -999.250000 1.9730744362 80.279060364 142.10980225 139.92964172 1.4559711218 28.092489243 1.0110625029 1.0110625029
 1020.1087646  -999.250000 17.391000748 -0.017000001  -999.250000 1.9669603109 73.250000000 141.89555359 139.64123535 1.4500336647 26.536102295 1.0240577459 1.0240577459
 1020.2611694  -999.250000 17.391000748 -0.017999999  -999.250000 1.9622564316 73.255409241 142.93113708 140.75808716 1.4571105242 26.347293854 1.0359663963 1.0359663963
 1020.4135742  -999.250000 17.391000748 -0.017999999  -999.250000 1.9582563639 74.383407593 144.29173279 142.09069824 1.4800528288 25.780094147 1.0289615393 1.0289615393
 1020.5659790  -999.250000 17.391000748 -0.020000000  -999.250000 1.9604083300 76.125000000 145.63726807 143.40803528 1.4910000563 24.350000381 1.0211154222 1.0211154222
 1020.7183838  -999.250000 17.391000748 -0.017000001  -999.250000 1.9650920630 76.089256287 146.30990601 144.05998230 1.4909615517 24.344593048 1.0451153517 1.0451153517
 1020.8707886  -999.250000 17.389999390 -0.009000000  -999.250000 1.9718316793 68.660667419 145.89552307 143.72019958 1.4829423428 23.225000381 1.0690288544 1.0690288544
 1021.0231934  -999.250000 17.375000000 -0.005000000  -999.250000 1.9754241705 63.016819000 144.99122620 142.79643250 1.4710047245 23.228902817 1.0749279261 1.0749279261
 1021.1755981  -999.250000 17.375000000 -0.006000000  -999.250000 1.9730736017 66.515930176 144.03758240 141.77153015 1.4720288515 24.037303925 1.0598556995 1.0598556995
 1021.3280029  -999.250000 17.375000000 -0.008000000  -999.250000 1.9695664644 69.842285156 143.57286072 141.37809753 1.4779740572 24.105529785 1.0299531221 1.0299531221
