# LAS format log file from PETREL
# Project units are specified as depth units
#==================================================================
~Version information
VERS.   2.0:
WRAP.   NO:
#==================================================================
~Well
STRT .m      895.02691650 :
STOP .m      2933.5300293 :
STEP .m     0.00000000 :
NULL .        -999.250000 :
COMP.           : COMPANY
WELL.  31/4-5   : WELL
FLD.            : FIELD
LOC.            : LOCATION
SRVC.           : SERVICE COMPANY
DATE.  2018-09-11 14:48:38   : Log Export Date {yyyy-MM-dd HH:mm:ss}
PROV.           : PROVINCE
UWI.   31/4-5   : UNIQUE WELL ID
API.            : API NUMBER
#==================================================================
~Curve
DEPT .m                   : DEPTH
Lithology_geolink ._      : Lithology_geolink
CALI .in                  : CALI
DRHO .g/cm3               : DRHO
SGR .gAPI                 : SGR
NPHI .m3/m3               : NPHI
RHOB .g/cm3               : RHOB
PEF .b/e                  : PEF
GR .gAPI                  : GR
DTC .us/ft                : DTC
DTE .us/ft                : DTE
RDEP .ohm.m               : RDEP
SP .mV                    : SP
RSHA .ohm.m               : RSHA
RMIC .ohm.m               : RMIC
RMED .ohm.m               : RMED
~Parameter
#==================================================================
~Ascii
# ...
 2386.8710938 5.0000000000 12.531000137 0.0110048000 95.608352661 0.3793779612 2.3948061466 4.3100385666 93.609001160 103.22336578 98.511802673 2.6503505707 117.25388336 3.3783071041  -999.250000 3.3840193748
 2387.0234375 5.0000000000 12.531000137 0.0140000004 97.062210083 0.3718700111 2.3965349197 4.2408461571 93.473999023 102.86038208 98.255920410 2.6526491642 117.38339996 3.2969439030  -999.250000 3.3901410103
 2387.1757813 5.0000000000 12.531000137 0.0170000009 97.310409546 0.3513600230 2.3987510204 4.1645383835 95.333000183 102.93512726 98.228027344 2.6591811180 117.38478088 3.2393174171  -999.250000 3.4339969158
 2387.3283691 5.0000000000 12.531000137 0.0159967951 96.571166992 0.3483770788 2.3985941410 3.9958510399 100.13300323 103.28575134 98.535491943 2.6546924114 117.85989380 3.3081924915  -999.250000 3.4316313267
 2387.4807129 5.0000000000 12.531000137 0.0139968004 97.228050232 0.3652744889 2.3978266716 3.9042308331 99.932998657 103.82650757 99.162544250 2.6478078365 117.79826355 3.3896536827  -999.250000 3.3166954517
 2387.6330566 5.0000000000 12.531000137 0.0120000001 98.947181702 0.3743099868 2.3986253738 3.9188845158 96.438003540 104.11789703 99.397781372 2.6425840855 116.72315979 3.4440431595  -999.250000 3.2221245766
 2387.7854004 5.0000000000 12.527999878 0.0109999999 99.808547974 0.3779299855 2.4015765190 3.9839231968 101.22399902 103.61406708 98.911285400 2.6402339935 117.19273376 3.4500000477  -999.250000 3.2611825466
 2387.9379883 5.0000000000 12.527999878 0.0109999999 98.880203247 0.3709761500 2.4060618877 4.1026000977 97.512001038 102.84648132 98.230499268 2.6311540604 119.30039978 3.4163844585  -999.250000 3.3752274513
 2388.0903320 5.0000000000 12.531000137 0.0110096000 97.976341248 0.3747992516 2.4121861458 4.1585769653 99.126998901 102.44586945 97.723594666 2.6096539497 120.80141449 3.3721923828  -999.250000 3.4460449219
 2388.2426758 5.0000000000 12.531000137 0.0170000009 97.100570679 0.3743399680 2.4201831818 4.2542304993 97.421997070 101.86635590 97.260345459 2.5760879517 120.32876587 3.3219568729  -999.250000 3.4599103928
 2388.3950195 5.0000000000 12.531000137 0.0209999997 97.341827393 0.3780499995 2.4257068634 4.4384999275 98.166999817 101.36490631 96.643928528 2.5331475735 118.03212738 3.2665512562  -999.250000 3.4319310188
 2388.5476074 5.0000000000 12.531000137 0.0199935902 96.890556335 0.3839158714 2.4254040718 4.4468431473 102.94699860 100.75020599 95.925224304 2.4899613857 117.18402100 3.1945385933  -999.250000 3.3888428211
 2388.6999512 5.0000000000 12.531000137 0.0159967951 96.822341919 0.3875511885 2.4230117798 4.4556150436 97.655998230 100.04763794 95.382110596 2.4549231529 116.94938660 3.1037306786  -999.250000 3.3398268223
 2388.8522949 5.0000000000 12.531000137 0.0140000004 96.877021790 0.3758307993 2.4236936569 4.3048458099 95.291999817 100.27025604 95.468841553 2.4271535873 117.56678772 3.0223441124  -999.250000 3.2858173847
 2389.0046387 5.0000000000 12.531000137 0.0140000004 97.194473267 0.3763400018 2.4260876179 4.3407306671 93.348999023 100.59963989 95.762306213 2.4036908150 117.92572021 2.9688494205  -999.250000 3.2286992073
 2389.1572266 5.0000000000 12.531000137 0.0139983976 97.911781311 0.3903097808 2.4244768620 4.2230429649 98.458000183 101.18869781 96.561836243 2.3850767612 117.17688751 2.9691922665  -999.250000 3.1346890926
 2389.3095703 5.0000000000 12.531000137 0.0130000003 97.728729248 0.4213228524 2.4186208248 4.1167502403 100.88300323 102.22030640 97.387168884 2.3768076897 116.23448944 3.0000767708  -999.250000 3.0377788544
 2389.4619141 6.0000000000 12.531000137 0.0129952002 98.621940613 0.4293026924 2.4114563465 4.0395383835 94.711997986 102.46937561 97.871994019 2.3733503819 115.08888245 3.0234303474  -999.250000 2.9689648151
 2389.6142578 6.0000000000 12.531000137 0.0099999998 99.393020630 0.4122700095 2.4064297676 4.1345000267 94.469001770 102.88551331 98.184371948 2.3747661114 115.56610107 3.0383622646  -999.250000 2.9580831528
 2389.7666016 6.0000000000 12.531000137 0.0080000004 100.01802063 0.3957899809 2.4069621563 4.3001537323 98.166999817 103.02322388 98.205276489 2.3802981377 118.10997009 3.0647244453  -999.250000 2.9840672016
 2389.9191895 6.0000000000 12.531000137 0.0090064099 99.808403015 0.3809670806 2.4134378433 4.3792815208 104.96499634 102.57018280 98.015220642 2.3916153908 118.56545258 3.0680000782  -999.250000 3.0261123180
 2390.0715332 6.0000000000 12.531000137 0.0130016003 98.632171631 0.3728983700 2.4209120274 4.2693462372 106.99299622 102.40802002 97.762893677 2.4018461704 118.90346527 3.0697691441  -999.250000 3.0610513687
 2390.2238770 6.0000000000 12.531000137 0.0140000004 98.975051880 0.3593999743 2.4252970219 4.3681154251 105.51999664 102.26835632 97.413383484 2.4091825485 119.03926086 3.0903134346  -999.250000 3.0769584179
 2390.3762207 6.0000000000 12.531000137 0.0170000009 99.917175293 0.3641799986 2.4283399582 4.3520383835 102.28099823 101.64170837 97.068382263 2.4152979851 118.63448334 3.1503958702  -999.250000 3.0640094280
 2390.5288086 6.0000000000 12.531000137 0.0210112184 100.56572723 0.3655440211 2.4327619076 4.5099186897 103.08899689 101.39085388 96.654106140 2.4275000095 118.12065887 3.1473846436  -999.250000 3.0702018738
 2390.6811523 6.0000000000 12.531000137 0.0280048084 99.276298523 0.3555714190 2.4370348454 4.2098846436 105.47599792 101.36530304 96.505447388 2.4422693253 117.61046600 3.0938076973  -999.250000 3.1331858635
 2390.8334961 5.0000000000 12.531000137 0.0309951995 98.090042114 0.3439952433 2.4369428158 4.2476153374 106.48999786 101.16464233 96.479331970 2.4537150860 117.49684906 3.0587377548  -999.250000 3.1907787323
 2390.9858398 5.0000000000 12.531000137 0.0280000009 99.190933228 0.3410200179 2.4337711334 4.1368074417 100.71800232 101.46434784 96.612083435 2.4549999237 117.53435516 3.1053316593  -999.250000 3.1217374802
 2391.1384277 5.0000000000 12.531000137 0.0249919873 100.82441711 0.3580883145 2.4296596050 4.0483303070 99.155998230 101.32662201 96.716140747 2.4434998035 117.87307739 3.2004613876  -999.250000 3.0400993824
 2391.2907715 5.0000000000 12.531000137 0.0199919865 99.319168091 0.3695251048 2.4233613014 3.9478657246 94.886001587 101.41710663 96.676948547 2.4331538677 118.72246552 3.2385385036  -999.250000 3.0713367462
 2391.4431152 5.0000000000 12.531000137 0.0149919996 96.242370605 0.3789350688 2.4169154167 3.9218461514 96.273078918 101.31323242 96.595375061 2.4258174896 119.82789612 3.2110879421  -999.250000 3.1762821674
 2391.5954590 5.0000000000 12.531000137 0.0099999998 95.695915222 0.3758499920 2.4137966633 4.0323462486 96.322998047 101.15254974 96.676048279 2.4232339859 120.51392365 3.1310608387  -999.250000 3.2639391422
 2391.7478027 5.0000000000 12.531000137 0.0070000002 99.212791443 0.3660100102 2.4140732288 3.9567692280 97.287002563 101.86634064 97.095710754 2.4212338924 119.53279877 3.0432949066  -999.250000 3.2448668480
 2391.9003906 5.0000000000 12.531000137 0.0090128202 102.48476410 0.3580666780 2.4160544872 3.9396910667 90.908309937 102.81124115 97.944404602 2.4156923294 117.75172424 2.9914231300  -999.250000 3.1616826057
 2392.0527344 5.0000000000 12.531000137 0.0170128010 102.90644836 0.3560200334 2.4192614555 4.0451536179 89.853012085 103.48569489 98.824295044 2.4079232216 117.03289795 2.9851152897  -999.250000 3.0627596378
 2392.2050781 5.0000000000 12.531000137 0.0250000004 101.88526154 0.3685399890 2.4237542152 4.2660002708 88.609001160 104.06514740 99.217056274 2.3990511894 115.45105743 3.0212111473  -999.250000 2.9879295826
 2392.3574219 6.0000000000 12.531000137 0.0299999993 100.99086761 0.3713399768 2.4263510704 4.4212694168 97.667999268 104.01538086 99.156303406 2.3962337971 115.16101837 3.0842788219  -999.250000 2.9660561085
 2392.5100098 6.0000000000 12.531000137 0.0279887822 100.13059235 0.3665094674 2.4233281612 4.1088542938 104.52146149 103.32406616 98.797866821 2.4057307243 117.45433044 3.1247308254  -999.250000 3.0011825562
 2392.6623535 6.0000000000 12.531000137 0.0209903847 99.450675964 0.3474768996 2.4159672260 3.8793461323 107.92406464 102.92230988 98.250976563 2.4211540222 117.82212830 3.1254615784  -999.250000 3.0582501888
