# LAS format log file from PETREL
# Project units are specified as depth units
#==================================================================
~Version information
VERS.   2.0:
WRAP.   NO:
#==================================================================
~Well
STRT .m      895.02691650 :
STOP .m      2933.5300293 :
STEP .m     0.00000000 :
NULL .        -999.250000 :
COMP.           : COMPANY
WELL.  31/4-5   : WELL
FLD.            : FIELD
LOC.            : LOCATION
SRVC.           : SERVICE COMPANY
DATE.  2018-09-11 14:48:38   : Log Export Date {yyyy-MM-dd HH:mm:ss}
PROV.           : PROVINCE
UWI.   31/4-5   : UNIQUE WELL ID
API.            : API NUMBER
#==================================================================
~Curve
DEPT .m                   : DEPTH
Lithology_geolink ._      : Lithology_geolink
CALI .in                  : CALI
DRHO .g/cm3               : DRHO
SGR .gAPI                 : SGR
NPHI .m3/m3               : NPHI
RHOB .g/cm3               : RHOB
PEF .b/e                  : PEF
GR .gAPI                  : GR
DTC .us/ft                : DTC
DTE .us/ft                : DTE
RDEP .ohm.m               : RDEP
SP .mV                    : SP
RSHA .ohm.m               : RSHA
RMIC .ohm.m               : RMIC
RMED .ohm.m               : RMED
~Parameter
#==================================================================
~Ascii
# ...
 1572.5976563  -999.250000 18.073999405 0.0470208302  -999.250000  -999.250000 2.1158716679  -999.250000 64.164001465 151.62121582 150.75692749 0.5274868608 108.46549225 0.5902202129  -999.250000 0.5890184045
 1572.7500000  -999.250000 18.340000153 0.0240552444  -999.250000  -999.250000 2.0951447487  -999.250000 66.443000793 152.63192749 151.69555664 0.5291234255 109.06941986 0.5805156827  -999.250000 0.5800071955
 1572.9024658  -999.250000 18.343999863 0.0130176283  -999.250000  -999.250000 2.0866408348  -999.250000 66.515998840 152.16299438 151.22160339 0.5249891877 108.56614685 0.5787280798  -999.250000 0.5790007710
 1573.0548096  -999.250000 18.093000412 0.0020176284  -999.250000  -999.250000 2.0809814930  -999.250000 70.793998718 150.44566345 149.59857178 0.5145146847 107.97666168 0.5958305597  -999.250000 0.5969855785
 1573.2071533  -999.250000 18.031999588 0.0059903925  -999.250000  -999.250000 2.0714504719  -999.250000 72.791999817 149.84010315 148.94023132 0.5019935966 108.68679810 0.6106257439  -999.250000 0.6109775901
 1573.3596191  -999.250000 18.336000443 0.0119903851  -999.250000  -999.250000 2.0632491112  -999.250000 77.864997864 150.38323975 149.42442322 0.5065187812 109.33680725 0.5972280502  -999.250000 0.5970112085
 1573.5119629  -999.250000 18.642999649 0.0159903932  -999.250000  -999.250000 2.0704813004  -999.250000 74.014999390 151.89965820 151.00402832 0.5142112374 108.04087067 0.6038228869  -999.250000 0.6039887667
 1573.6644287  -999.250000 18.785999298 0.0199935902  -999.250000  -999.250000 2.0995638371  -999.250000 75.916999817 152.56782532 151.67272949 0.5151370168 107.71918488 0.6041190028  -999.250000 0.6039999723
 1573.8167725  -999.250000 18.687000275 0.0259855893  -999.250000  -999.250000 2.1388094425  -999.250000 72.686996460 151.04197693 150.05451965 0.5159973502 107.79680634 0.6177775264  -999.250000 0.6179775596
 1573.9692383  -999.250000 18.281999588 0.0619423054  -999.250000  -999.250000 2.1649529934  -999.250000 70.370002747 149.33395386 148.44599915 0.5100821853 107.88685608 0.6015365720  -999.250000 0.6010136604
 1574.1215820  -999.250000 18.061000824 0.0669879913  -999.250000  -999.250000 2.1668527126  -999.250000 65.029998779 148.26498413 147.28877258 0.5036820769 107.92220306 0.5905122161  -999.250000 0.5900087953
 1574.2740479  -999.250000 18.048000336 0.0620080121  -999.250000  -999.250000 2.1560854912  -999.250000 65.594001770 148.11300659 147.25781250 0.5102523565 108.66507721 0.6229549050  -999.250000 0.6239727736
 1574.4263916  -999.250000 17.976999283 0.0400528423  -999.250000  -999.250000 2.1455345154  -999.250000 71.183998108 148.61335754 147.70849609 0.5331821442 109.05786133 0.6214150190  -999.250000 0.6210023761
 1574.5788574  -999.250000 17.958000183 0.0260224361  -999.250000  -999.250000 2.1443197727  -999.250000 75.469001770 147.10632324 146.11351013 0.5624096990 108.74160004 0.6106977463  -999.250000 0.6100088358
 1574.7312012  -999.250000 18.034000397 0.0150264204  -999.250000  -999.250000 2.1609427929  -999.250000 78.847000122 145.29606628 144.44789124 0.5758173466 108.67159271 0.6158311367  -999.250000 0.6159951687
 1574.8836670  -999.250000 17.986000061 0.0279791672  -999.250000  -999.250000 2.1918156147  -999.250000 74.885002136 143.30488586 142.36688232 0.5836102366 108.44729614 0.6477140188  -999.250000 0.6489735842
 1575.0360107  -999.250000 17.827999115 0.0449727587  -999.250000  -999.250000 2.2138109207  -999.250000 72.439002991 140.68641663 139.70889282 0.5952335000 108.64096832 0.7215837836  -999.250000 0.7239398956
 1575.1884766  -999.250000 17.746999741 0.0579791814  -999.250000  -999.250000 2.2056527138  -999.250000 66.291000366 139.63526917 138.76560974 0.5798800588 109.03313446 0.7176029682  -999.250000 0.7170056105
 1575.3408203  -999.250000 17.677999496 0.0400288440  -999.250000  -999.250000 2.1754481792  -999.250000 64.116996765 141.93328857 141.04528809 0.5569596887 108.88158417 0.6873898506  -999.250000 0.6860248446
 1575.4931641  -999.250000 17.726999283 0.0429927967  -999.250000  -999.250000 2.1434800625  -999.250000 62.335998535 145.19113159 144.25859070 0.5585033894 108.50981903 0.6091305614  -999.250000 0.6061280966
 1575.6456299  -999.250000 18.041999817 0.0499887839  -999.250000  -999.250000 2.1146316528  -999.250000 61.384998322 147.42977905 146.55165100 0.5452974439 108.71704865 0.6021363735  -999.250000 0.6020032167
 1575.7979736  -999.250000 18.408000946 0.0539903939  -999.250000  -999.250000 2.0829763412  -999.250000 61.541999817 149.65748596 148.76657104 0.5189229250 109.50057220 0.5930698514  -999.250000 0.5930144191
 1575.9504395  -999.250000 18.631000519 0.0420192294  -999.250000  -999.250000 2.0505042076  -999.250000 59.672000885 152.42440796 151.45918274 0.5143325329 109.03285217 0.5870586634  -999.250000 0.5870048404
 1576.1027832  -999.250000 18.805000305 0.0080816653  -999.250000  -999.250000 2.0323679447  -999.250000 62.422000885 153.08590698 152.22717285 0.5124384165 108.93736267 0.5653350949  -999.250000 0.5640368462
 1576.2552490  -999.250000 18.952999115 -0.003980769  -999.250000  -999.250000 2.0364508629  -999.250000 65.438003540 153.01878357 152.06002808 0.4988529682 108.70687866 0.5655153990  -999.250000 0.5659983754
 1576.4075928  -999.250000 18.834999084 -0.011980785  -999.250000  -999.250000 2.0516397953  -999.250000 65.114997864 151.70135498 150.84797668 0.4910440147 108.61251068 0.5667792559  -999.250000 0.5669999719
 1576.5600586  -999.250000 18.486000061 -0.000019231  -999.250000  -999.250000 2.0619428158  -999.250000 66.953002930 149.84904480 148.93482971 0.4885110557 108.99748230 0.5875713825  -999.250000 0.5879999995
 1576.7124023  -999.250000 18.486000061 -0.000997598  -999.250000  -999.250000 2.0616366863  -999.250000 68.957000732 149.94491577 148.96923828 0.4727859199 109.66864777 0.5855974555  -999.250000 0.5849999785
 1576.8648682  -999.250000 18.795999527 0.0159727577  -999.250000  -999.250000 2.0523133278  -999.250000 71.416999817 150.32228088 149.49293518 0.4763032794 109.28862762 0.5784996748  -999.250000 0.5780000091
 1577.0172119  -999.250000 18.966999054 0.0030312249  -999.250000  -999.250000 2.0396833420  -999.250000 66.301002502 150.77781677 149.80780029 0.4817855656 109.45928955 0.5888276696  -999.250000 0.5889999866
 1577.1696777  -999.250000 19.079000473 0.0069935899  -999.250000  -999.250000 2.0344059467  -999.250000 59.395000458 151.15748596 150.18029785 0.4927606583 109.89320374 0.5588864088  -999.250000 0.5580000281
 1577.3220215  -999.250000 18.997999191 0.0000112179  -999.250000  -999.250000 2.0429544449  -999.250000 55.689998627 151.51399231 150.62123108 0.4950013459 110.79971313 0.5744866133  -999.250000 0.5749999881
 1577.4743652  -999.250000 18.593000412 0.0079807853  -999.250000  -999.250000 2.0603191853  -999.250000 57.727001190 151.97148132 151.07548523 0.4929654598 111.35095978 0.5620855689  -999.250000 0.5609999895
 1577.6268311  -999.250000 18.575000763 0.0109951925  -999.250000  -999.250000 2.0753941536  -999.250000 61.833999634 152.44859314 151.53112793 0.4995678067 110.15235901 0.5833203197  -999.250000 0.5839999914
 1577.7791748  -999.250000 18.820999146 0.0239687748  -999.250000  -999.250000 2.0831582546  -999.250000 64.421997070 152.42724609 151.55624390 0.5065139532 109.29520416 0.5748042464  -999.250000 0.5740000010
 1577.9316406  -999.250000 18.750000000 0.0170112196  -999.250000  -999.250000 2.0867195129  -999.250000 66.344001770 152.60647583 151.71726990 0.4956938028 108.87619781 0.5766879320  -999.250000 0.5770000219
 1578.0839844  -999.250000 18.593999863 0.0110144112  -999.250000  -999.250000 2.0892155170  -999.250000 65.640998840 152.14347839 151.34645081 0.5135093927 109.15254211 0.5719832778  -999.250000 0.5720000267
 1578.2364502  -999.250000 18.257999420 0.0159919877  -999.250000  -999.250000 2.0868282318  -999.250000 62.554000854 151.24667358 150.28752136 0.5303289294 109.74304199 0.5717195272  -999.250000 0.5720000267
 1578.3887939  -999.250000 18.045999527 0.0090168128  -999.250000  -999.250000 2.0775666237  -999.250000 57.299999237 150.99522400 150.04814148 0.5309355855 110.12013245 0.5851203203  -999.250000 0.5860000253
