# LAS format log file from PETREL
# Project units are specified as depth units
#==================================================================
~Version information
VERS.   2.0:
WRAP.   NO:
#==================================================================
~Well
STRT .m      950.21093750 :
STOP .m      2894.8349609 :
STEP .m     0.00000000 :
NULL .        -999.250000 :
COMP.           : COMPANY
WELL.  31/4-2   : WELL
FLD.            : FIELD
LOC.            : LOCATION
SRVC.           : SERVICE COMPANY
DATE.  2018-09-11 14:48:36   : Log Export Date {yyyy-MM-dd HH:mm:ss}
PROV.           : PROVINCE
UWI.   31/4-2   : UNIQUE WELL ID
API.            : API NUMBER
#==================================================================
~Curve
DEPT .m                   : DEPTH
Lithology_geolink ._      : Lithology_geolink
CALI .in                  : CALI
DRHO .g/cm3               : DRHO
NPHI .m3/m3               : NPHI
RHOB .g/cm3               : RHOB
GR .gAPI                  : GR
DTC .us/ft                : DTC
DTE .us/ft                : DTE
RDEP .ohm.m               : RDEP
SP .mV                    : SP
RSHA .ohm.m               : RSHA
RMED .ohm.m               : RMED
~Parameter
#==================================================================
~Ascii
# ...
 2888.7387695  -999.250000 12.329000473 -0.001000000 0.1842967570 2.5552814007 3.1700000763 75.738990784 75.714096069 4.4060001373 69.225395203 3.1250000000 3.1250000000
 2888.8913574  -999.250000 12.336999893 0.0060000001 0.2135315388 2.5508244038 0.0780000016 75.390296936 75.652267456 4.0120000839 70.094757080 2.9649999142 2.9649999142
 2889.0437012  -999.250000 12.317999840 0.0199999996 0.2452188432 2.5353126526 0.1729999930 75.815284729 75.920890808 3.5550000668 70.642517090 3.0409998894 3.0409998894
 2889.1960449  -999.250000 12.312999725 0.0329999998 0.2819035947 2.5192062855 0.2669999897 76.292289734 76.348312378 3.0840001106 70.966003418 3.3599998951 3.3599998951
 2889.3483887  -999.250000 12.347999573 0.0289999992 0.3028331697 2.5078876019 0.3619999886 76.654067993 76.570693970 3.0000000000 70.965034485 3.3680000305 3.3680000305
 2889.5007324  -999.250000 12.369999886 0.0089999996 0.3047924340 2.5029814243 0.4670000076 76.344238281 76.363761902 2.9230000973 70.987190247 3.1670000553 3.1670000553
 2889.6533203  -999.250000 12.378999710 0.0230000000 0.2937974930 2.5048565865 0.6660000086 75.874862671 75.956336975 2.8550000191 71.105865479 3.0160000324 3.0160000324
 2889.8056641  -999.250000 12.380000114 0.0270000007 0.2836730182 2.5031249523 0.8650000095 75.845100403 75.750289917 2.7969999313 71.374984741 2.8919999599 2.8919999599
 2889.9580078  -999.250000 12.380999565 0.0189999994 0.2855422497 2.4907188416 1.0759999752 75.845100403 75.776550293 2.7390000820 71.988731384 2.7550001144 2.7550001144
 2890.1103516  -999.250000 12.368000031 0.0130000003 0.2869255245 2.4745249748 1.2860000134 76.177818298 75.872100830 2.6199998856 72.445274353 2.7290000916 2.7290000916
 2890.2629395  -999.250000 12.333999634 0.0140000004 0.2778655291 2.4659054279 1.4199999571 75.867248535 76.033752441 2.4879999161 72.615501404 2.9100000858 2.9100000858
 2890.4152832  -999.250000 12.290999413 0.0149999997 0.2671013474 2.4688687325 1.3609999418 76.292289734 76.253540039 2.4449999332 72.772178650 2.9340000153 2.9340000153
 2890.5676270  -999.250000 12.286000252 0.0260000005 0.2554539740 2.4780998230 1.3029999733 76.436950684 76.439720154 2.4679999352 72.880348206 2.7249999046 2.7249999046
 2890.7199707  -999.250000 12.255000114 0.0289999992 0.2454507649 2.4862000942 1.2439999580 76.661727905 76.493385315 2.5139999390 73.100593567 2.4179999828 2.4179999828
 2890.8725586  -999.250000 12.286000252 0.0309999995 0.2333795428 2.4909191132 1.2089999914 76.344200134 76.329963684 2.5590000153 72.847976685 2.1610000134 2.1610000134
 2891.0249023  -999.250000 12.345001221 0.0230000000 0.2051409483 2.4928874969 1.1799999475 75.874916077 76.084144592 2.5920000076 72.528701782 2.1789999008 2.1789999008
 2891.1772461  -999.250000 12.362001419 0.0170000009 0.1682734638 2.4918751717 1.1510000229 76.292289734 75.985908508 2.6250000000 72.343002319 2.3159999847 2.3159999847
 2891.3295898  -999.250000 12.338000298 0.0209999997 0.1205288321 2.4934873581 1.1210000515 75.761192322 76.059806824 2.7590000629 72.343955994 2.4500000477 2.4500000477
 2891.4819336  -999.250000 12.315999985 0.0370000005 0.0823354870 2.5025856495 1.0920000076 76.283813477 76.173393250 2.8959999084 72.938003540 2.6189999580 2.6189999580
 2891.6345215  -999.250000 12.307000160 0.0320000015 0.0295303203 2.5124812126 1.0629999638 76.322105408 76.233024597 2.9679999352 72.936721802 2.8310000896 2.8310000896
 2891.7868652  -999.250000 12.307000160 0.0280000009 -0.013901523 2.5143187046 1.0340000391 76.322105408 76.227218628 3.0409998894 72.764350891 2.8870000839 2.8870000839
 2891.9392090  -999.250000 12.244999886 0.0309999995 -0.027328653 2.5125248432 0.9710000157 75.874916077 76.145317078 3.1210000515 72.361549377 2.9440000057 2.9440000057
 2892.0915527  -999.250000 12.168999672 0.0560000017 -0.038957290 2.5175561905 0.8920000196 76.177818298 76.003677368 3.1719999313 72.080764771 2.9900000095 2.9900000095
 2892.2441406  -999.250000 12.107999802 0.0799999982 -0.043497536 2.5230567455 0.8130000234 75.867248535 75.898788452 3.1189999580 71.934997559 2.9879999161 2.9879999161
 2892.3964844  -999.250000 11.993000031 0.0799999982 -0.042728763 2.5097124577 0.7350000143 75.845100403 75.922683716 3.0390000343 71.933830261 2.8970000744 2.8970000744
 2892.5488281  -999.250000 11.909999847 0.0560000017 -0.041958768 2.4756126404 0.6560000181 75.959190369 76.052108765 2.8610000610 71.826622009 2.7320001125 2.7320001125
 2892.7011719  -999.250000 11.918999672 0.0399999991 -0.041189022 2.4361813068 0.5770000219 76.185424805 76.105598450 2.6970000267 70.966018677 2.5290000439 2.5290000439
 2892.8537598  -999.250000 11.769000053 0.0419999994 -0.040579040 2.4006965160 0.4979999959 75.867248535 75.950431824 2.5510001183 70.353691101 2.2170000076 2.2170000076
 2893.0061035  -999.250000 11.432001114 0.0370000005 -0.040279713 2.3724374771 0.4189999998 75.397918701 75.663429260 2.4119999409 69.943710327 1.9850000143 1.9850000143
 2893.1584473  -999.250000 11.307000160 0.0270000007 -0.040099714 2.3503561020 0.3409999907 75.368103027 75.434997559 2.2839999199 69.765144348 1.9529999495 1.9529999495
 2893.3107910  -999.250000 11.048999786 0.0130000003 -0.039920595 2.3296873569 0.2619999945 75.701568604 75.437683105 2.1640000343 69.856300354 1.9440000057 1.9440000057
 2893.4633789  -999.250000 11.352000237 0.0030000000 -0.040292110 2.3169612885 0.2129999995 75.390296936 75.660072327 2.1050000191 70.046165466 1.9229999781 1.9229999781
 2893.6157227  -999.250000 11.727000237 0.0130000003 -0.040949211 2.3262312412 0.2109999955 75.815284729 75.899894714 2.0889999866 70.722961426 1.8960000277 1.8960000277
 2893.7680664  -999.250000 11.812000275 0.0329999998 -0.040458992 2.3522124290 0.2099999934 76.292289734 75.961303711 2.0889999866 71.320449829 1.8890000582 1.8890000582
 2893.9204102  -999.250000 11.798999786 0.0170000009 -0.039829053 2.3763062954 0.2090000063 75.874916077 75.876747131 2.1180000305 71.601837158 1.8999999762 1.8999999762
 2894.0727539  -999.250000 11.611000061 0.0080000004 -0.039239086 2.3930811882 0.2070000023 75.731384277 75.756431580 2.1489999294 70.880393982 2.0239999294 2.0239999294
 2894.2253418  -999.250000 11.444000244 0.0089999996 -0.038668849 2.4074139595 0.2060000002 75.390296936 75.635253906 2.1979999542 71.127632141 2.1229999065 2.1229999065
 2894.3776855  -999.250000 10.628999710 0.0170000009 -0.038310997 2.4160811901 0.2049999982 75.815284729 75.643829346 2.2709999084 71.636314392 2.2090001106 2.2090001106
 2894.5300293  -999.250000 10.218000412 0.0199999996 -0.038931664 2.4152874947 0.2029999942 75.959190369 75.893432617 2.3469998837 71.206077576 2.2400000095 2.2400000095
 2894.6823730  -999.250000 10.803999901 0.0199999996 -0.039971665 2.4123873711 0.2020000070 76.185424805 76.169311523 2.3120000362 70.631126404 2.2339999676 2.2339999676
 2894.8349609  -999.250000 11.187000275 0.0089999996 -0.041013326 2.4101374149 0.2010000050 75.867248535 76.195884705 2.2449998856 70.084732056 2.1429998875 2.1429998875
