# LAS format log file from PETREL
# Project units are specified as depth units
#==================================================================
~Version information
VERS.   2.0:
WRAP.   NO:
#==================================================================
~Well
STRT .m      895.02691650 :
STOP .m      2933.5300293 :
STEP .m     0.00000000 :
NULL .        -999.250000 :
COMP.           : COMPANY
WELL.  31/4-5   : WELL
FLD.            : FIELD
LOC.            : LOCATION
SRVC.           : SERVICE COMPANY
DATE.  2018-09-11 14:48:38   : Log Export Date {yyyy-MM-dd HH:mm:ss}
PROV.           : PROVINCE
UWI.   31/4-5   : UNIQUE WELL ID
API.            : API NUMBER
#==================================================================
~Curve
DEPT .m                   : DEPTH
Lithology_geolink ._      : Lithology_geolink
CALI .in                  : CALI
DRHO .g/cm3               : DRHO
SGR .gAPI                 : SGR
NPHI .m3/m3               : NPHI
RHOB .g/cm3               : RHOB
PEF .b/e                  : PEF
GR .gAPI                  : GR
DTC .us/ft                : DTC
DTE .us/ft                : DTE
RDEP .ohm.m               : RDEP
SP .mV                    : SP
RSHA .ohm.m               : RSHA
RMIC .ohm.m               : RMIC
RMED .ohm.m               : RMED
~Parameter
#==================================================================
~Ascii
# ...
 1168.4326172  -999.250000 17.940999985 0.0120128207  -999.250000  -999.250000 1.8429981470  -999.250000 67.515998840 152.06719971 151.10643005 0.9619140029 114.99288177 0.9314435124  -999.250000 0.9310072064
 1168.5849609  -999.250000 17.944999695 0.0040320256  -999.250000  -999.250000 1.8343434334  -999.250000 73.225425720 151.94799805 151.11337280 0.9606249332 115.52306366 0.9311519861  -999.250000 0.9309999943
 1168.7374268  -999.250000 17.941999435 0.0020064104  -999.250000  -999.250000 1.8309881687  -999.250000 72.603996277 152.02862549 151.12342834 0.9608796239 115.71212006 0.9363123775  -999.250000 0.9369855523
 1168.8897705  -999.250000 17.937999725 0.0010040032  -999.250000  -999.250000 1.8337011337  -999.250000 74.961105347 152.04579163 151.12493896 0.9579305053 115.52891541 0.9443160892  -999.250000 0.9449807405
 1169.0422363  -999.250000 17.937999725 0.0159519240  -999.250000  -999.250000 1.8366490602  -999.250000 65.734001160 151.94749451 151.12500000 0.9532200098 115.19154358 0.9509022236  -999.250000 0.9509855509
 1169.1945801  -999.250000 17.944000244 0.0169967953  -999.250000  -999.250000 1.8345013857  -999.250000 64.531959534 152.32620239 151.40431213 0.9466220140 115.27145386 0.9357636571  -999.250000 0.9350384474
 1169.3470459  -999.250000 17.972999573 0.0140096080  -999.250000  -999.250000 1.8287985325  -999.250000 63.869998932 152.70802307 151.77742004 0.9436505437 115.39347076 0.9000551105  -999.250000 0.8990864754
 1169.4993896  -999.250000 18.006999969 0.0030352564  -999.250000  -999.250000 1.8238601685  -999.250000 70.509681702 152.76132202 151.95729065 0.9381995201 115.20999908 0.8748682737  -999.250000 0.8740600944
 1169.6518555  -999.250000 17.993000031 -0.001983987  -999.250000  -999.250000 1.8221771717  -999.250000 71.697998047 152.96307373 151.99613953 0.9310497642 115.11580658 0.8742206693  -999.250000 0.8740000129
 1169.8041992  -999.250000 17.944999695 -0.005987179  -999.250000  -999.250000 1.8224191666  -999.250000 70.376060486 152.70207214 151.77655029 0.9224363565 115.04100037 0.8895615935  -999.250000 0.8899615407
 1169.9565430  -999.250000 17.976999283 -0.006995997  -999.250000  -999.250000 1.8237571716  -999.250000 64.529685974 152.54429626 151.67953491 0.9162307382 114.83785248 0.9010539055  -999.250000 0.9009647965
 1170.1090088  -999.250000 18.065000534 -0.008993589  -999.250000  -999.250000 1.8278560638  -999.250000 57.588558197 152.62231445 151.72341919 0.9142377377 114.74438477 0.8976142406  -999.250000 0.8970096111
 1170.2613525  -999.250000 18.033000946 0.0029519617  -999.250000  -999.250000 1.8351374865  -999.250000 60.174919128 152.54621887 151.74664307 0.9153511524 114.38256073 0.8892395496  -999.250000 0.8890192509
 1170.4138184  -999.250000 17.968999863 0.0069871796  -999.250000  -999.250000 1.8427708149  -999.250000 59.522998810 152.52546692 151.58236694 0.9211171269 114.24106598 0.8911939263  -999.250000 0.8909951448
 1170.5661621  -999.250000 17.968999863 0.0119799841  -999.250000  -999.250000 1.8446705341  -999.250000 62.955249786 152.22285461 151.25819397 0.9253119230 113.96662903 0.9001942873  -999.250000 0.9009760022
 1170.7186279  -999.250000 17.968999863 -0.001955128  -999.250000  -999.250000 1.8392673731  -999.250000 59.528999329 152.06677246 151.22384644 0.9300810099 113.73495483 0.9060967565  -999.250000 0.9059880376
 1170.8709717  -999.250000 17.968999863 -0.005983987  -999.250000  -999.250000 1.8323329687  -999.250000 63.537788391 152.44776917 151.49748230 0.9353899360 113.60966492 0.9170495868  -999.250000 0.9169735312
 1171.0234375  -999.250000 17.968999863 -0.003009615  -999.250000  -999.250000 1.8295234442  -999.250000 64.796997070 152.72492981 151.80575562 0.9407647848 113.88343811 0.9304966927  -999.250000 0.9309663773
 1171.1757813  -999.250000 17.968999863 -0.003996795  -999.250000  -999.250000 1.8339774609  -999.250000 65.046798706 152.86073303 152.01637268 0.9465622306 114.28331757 0.9450178146  -999.250000 0.9459639192
 1171.3282471  -999.250000 17.968999863 0.0059679747  -999.250000  -999.250000 1.8411082029  -999.250000 65.348999023 153.18237305 152.21612549 0.9558651447 114.37162018 0.9489274621  -999.250000 0.9489927888
 1171.4805908  -999.250000 17.968999863 0.0069967951  -999.250000  -999.250000 1.8422162533  -999.250000 69.496673584 153.14050293 152.17153931 0.9746608138 114.52164459 0.9530884027  -999.250000 0.9529904127
 1171.6330566  -999.250000 17.968999863 0.0060032024  -999.250000  -999.250000 1.8357400894  -999.250000 70.563003540 152.52093506 151.65551758 0.9942657948 114.07639313 0.9669548869  -999.250000 0.9669663906
 1171.7854004  -999.250000 17.968999863 -0.007955128  -999.250000  -999.250000 1.8293026686  -999.250000 71.770034790 151.90383911 150.96917725 1.0163257122 113.83792877 0.9980334044  -999.250000 0.9989230633
 1171.9378662  -999.250000 17.968999863 -0.008000000  -999.250000  -999.250000 1.8300617933  -999.250000 64.319000244 151.40884399 150.42945862 1.0383909941 113.80937195 1.0310865641  -999.250000 1.0319206715
 1172.0902100  -999.250000 17.972000122 -0.007003205  -999.250000  -999.250000 1.8386150599  -999.250000 62.881153107 151.03112793 150.18525696 1.0577332973 113.58187103 1.0473299026  -999.250000 1.0479614735
 1172.2425537  -999.250000 17.989999771 0.0019639712  -999.250000  -999.250000 1.8519339561  -999.250000 62.068653107 150.77578735 149.85116577 1.0784927607 113.37911987 1.0534030199  -999.250000 1.0529879332
 1172.3950195  -999.250000 18.017999649 0.0069839745  -999.250000  -999.250000 1.8653489351  -999.250000 61.885143280 150.23657227 149.36149597 1.0933299065 112.83294678 1.0654492378  -999.250000 1.0659687519
 1172.5473633  -999.250000 18.031000137 0.0189519618  -999.250000  -999.250000 1.8719421625  -999.250000 66.222518921 149.93923950 148.96508789 1.1029254198 112.21777344 1.0916570425  -999.250000 1.0919375420
 1172.6998291  -999.250000 18.024999619 0.0080352565  -999.250000  -999.250000 1.8717103004  -999.250000 64.333000183 149.60131836 148.67951965 1.1075228453 111.68262482 1.1178983450  -999.250000 1.1189351082
 1172.8521729  -999.250000 18.016000748 0.0040160129  -999.250000  -999.250000 1.8713324070  -999.250000 65.556022644 149.34370422 148.48179626 1.1106418371 111.71218109 1.1350897551  -999.250000 1.1349614859
 1173.0046387  -999.250000 18.021999359 -0.000983974  -999.250000  -999.250000 1.8718867302  -999.250000 64.655998230 149.60504150 148.67539978 1.1074743271 111.94001007 1.1378813982  -999.250000 1.1379928589
 1173.1569824  -999.250000 18.038000107 -0.001996795  -999.250000  -999.250000 1.8709104061  -999.250000 65.535301208 150.16168213 149.25271606 1.1087614298 112.07463837 1.1230280399  -999.250000 1.1220384836
 1173.3094482  -999.250000 18.052999496 -0.004990392  -999.250000  -999.250000 1.8706160784  -999.250000 69.120002747 150.35899353 149.52745056 1.1081186533 112.13424683 1.1068974733  -999.250000 1.1070359945
 1173.4617920  -999.250000 18.062999725 -0.005996795  -999.250000  -999.250000 1.8767193556  -999.250000 69.207931519 150.57714844 149.63458252 1.1044771671 112.01605988 1.0909087658  -999.250000 1.0900409222
 1173.6142578  -999.250000 18.062999725 -0.001016013  -999.250000  -999.250000 1.8879672289  -999.250000 69.989997864 150.51774597 149.60728455 1.1048814058 112.21178436 1.0969327688  -999.250000 1.0969831944
 1173.7666016  -999.250000 18.062999725 0.0069743590  -999.250000  -999.250000 1.8954325914  -999.250000 69.260589600 149.99728394 149.19465637 1.1050000191 112.55889893 1.1059263945  -999.250000 1.1069759130
 1173.9190674  -999.250000 18.146999359 0.0050064051  -999.250000  -999.250000 1.8933959007  -999.250000 70.503997803 149.90124512 148.96736145 1.0997115374 112.24192047 1.1272724867  -999.250000 1.1279495955
 1174.0714111  -999.250000 18.259000778 0.0040032053  -999.250000  -999.250000 1.8855907917  -999.250000 68.735420227 149.90065002 148.97718811 1.1025228500 111.82385254 1.1361649036  -999.250000 1.1359808445
 1174.2237549  -999.250000 18.166000366 -0.000979984  -999.250000  -999.250000 1.8804283142  -999.250000 71.651657104 150.00115967 149.16471863 1.1047612429 110.84757233 1.1440448761  -999.250000 1.1439744234
