# LAS format log file from PETREL
# Project units are specified as depth units
#==================================================================
~Version information
VERS.   2.0:
WRAP.   NO:
#==================================================================
~Well
STRT .m      860.54608154 :
STOP .m      3158.4321289 :
STEP .m     0.00000000 :
NULL .        -999.250000 :
COMP.           : COMPANY
WELL.  31/4-4   : WELL
FLD.            : FIELD
LOC.            : LOCATION
SRVC.           : SERVICE COMPANY
DATE.  2018-09-11 14:48:37   : Log Export Date {yyyy-MM-dd HH:mm:ss}
PROV.           : PROVINCE
UWI.   31/4-4   : UNIQUE WELL ID
API.            : API NUMBER
#==================================================================
~Curve
DEPT .m                   : DEPTH
Lithology_geolink ._      : Lithology_geolink
CALI .in                  : CALI
DRHO .g/cm3               : DRHO
NPHI .m3/m3               : NPHI
RHOB .g/cm3               : RHOB
GR .gAPI                  : GR
DTC .us/ft                : DTC
DTE .us/ft                : DTE
RDEP .ohm.m               : RDEP
SP .mV                    : SP
RSHA .ohm.m               : RSHA
RMED .ohm.m               : RMED
~Parameter
#==================================================================
~Ascii
# ...
 1467.7073975  -999.250000 18.121000290 -0.003000000  -999.250000 2.1061990261 63.017028809 140.01390076 138.99366760 0.8290520906 9.9747476578 0.8663285375 0.8663285375
 1467.8597412  -999.250000 18.929000854 0.0329999998  -999.250000 2.1732952595 67.267265320 138.61376953 137.51312256 0.8420119882 9.9155025482 0.9479159713 0.9479159713
 1468.0122070  -999.250000 18.183000565 0.0359999985  -999.250000 2.2238929272 71.566253662 137.93536377 136.89283752 0.8449679613 10.783746719 0.9266955256 0.9266955256
 1468.1645508  -999.250000 18.047000885 0.0450000018  -999.250000 2.2070116997 72.353485107 137.74270630 136.69869995 0.8370040059 9.9752483368 0.8507478237 0.8507478237
 1468.3170166  -999.250000 18.061000824 0.0209999997  -999.250000 2.1513938904 67.016525269 139.97463989 138.92666626 0.8379439116 10.039255142 0.7878397107 0.7878397107
 1468.4693604  -999.250000 18.030000687 0.0199999996  -999.250000 2.1108860970 71.101478577 141.90556335 140.95083618 0.8238838911 10.593743324 0.7479439974 0.7479439974
 1468.6217041  -999.250000 18.002000809 0.0160000008  -999.250000 2.0944292545 65.264022827 143.96434021 142.95257568 0.7949519157 9.0380029678 0.7339968085 0.7339968085
 1468.7741699  -999.250000 18.080999374 0.0130000003  -999.250000 2.0743992329 69.606483459 145.67037964 144.59606934 0.7800160050 9.3482465744 0.7330359817 0.7330359817
 1468.9265137  -999.250000 18.618000031 0.0099999998  -999.250000 2.0407810211 65.015625000 144.85179138 143.77612305 0.7840320468 8.9089965820 0.7420544624 0.7420544624
 1469.0789795  -999.250000 17.959999084 0.0170000009  -999.250000 2.0200788975 69.867240906 146.98759460 146.01176453 0.7940080166 7.9775037766 0.7590481043 0.7590481043
 1469.2313232  -999.250000 18.632999420 0.0189999994  -999.250000 2.0270364285 67.926742554 149.69432068 148.68717957 0.7960320115 8.5969982147 0.7711561322 0.7711561322
 1469.3837891  -999.250000 17.965999603 0.0189999994  -999.250000 2.0574181080 65.112358093 149.16290283 148.12045288 0.8039719462 7.8487458229 0.8101001382 0.8101001382
 1469.5361328  -999.250000 18.833999634 0.0089999996  -999.250000 2.0853817463 61.963497162 147.84266663 146.86332703 0.7970200181 7.5352506638 0.8350200057 0.8350200057
 1469.6885986  -999.250000 19.437999725 0.0089999996  -999.250000 2.0917856693 60.613658905 146.63063049 145.62759399 0.8020961285 7.0972433090 0.8398477435 0.8398477435
 1469.8409424  -999.250000 18.502000809 0.0049999999  -999.250000 2.0805561543 65.502754211 145.10960388 144.06121826 0.8259999752 6.4127526283 0.8018278480 0.8018278480
 1469.9934082  -999.250000 18.094999313 0.0140000004  -999.250000 2.0682911873 66.190254211 144.13653564 143.16719055 0.8259719014 6.5982451439 0.7589879632 0.7589879632
 1470.1457520  -999.250000 18.142000198 0.0120000001  -999.250000 2.0668227673 66.739494324 144.42887878 143.43615723 0.8189719915 6.1662554741 0.7560640574 0.7560640574
 1470.2982178  -999.250000 18.183000565 0.0160000008  -999.250000 2.0843191147 64.136268616 144.49565125 143.39762878 0.8119278550 7.2252483368 0.7720360756 0.7720360756
 1470.4505615  -999.250000 18.063999176 0.0199999996  -999.250000 2.1091120243 66.945755005 144.85623169 143.72724915 0.7938959599 7.2902545929 0.7809479833 0.7809479833
 1470.6029053  -999.250000 18.125000000 0.0189999994  -999.250000 2.1146671772 68.877006531 145.18203735 144.14019775 0.7679230571 8.1032056808 0.7678782344 0.7678782344
 1470.7553711  -999.250000 18.148000717 0.0170000009  -999.250000 2.1001012325 69.502754211 145.55122375 144.53547668 0.7438959479 9.1000003815 0.7298519015 0.7298519015
 1470.9077148  -999.250000 18.365999222 0.0149999997  -999.250000 2.0765454769 70.184196472 146.68417358 145.62351990 0.7179262638 9.1036062241 0.6929327250 0.6929327250
 1471.0601807  -999.250000 18.110000610 0.0230000000  -999.250000 2.0592072010 69.009765625 148.32402039 147.30693054 0.6949238777 10.224246979 0.6719879508 0.6719879508
 1471.2125244  -999.250000 18.607999802 0.0189999994  -999.250000 2.0386312008 71.440505981 150.32214355 149.27732849 0.6759599447 10.034997940 0.6689640284 0.6689640284
 1471.3649902  -999.250000 18.547000885 0.0010000000  -999.250000 2.0122585297 72.073020935 151.14231873 150.07446289 0.6659439206 9.5362501144 0.6599519253 0.6599519253
 1471.5173340  -999.250000 18.084999084 -0.001000000  -999.250000 1.9999622107 74.549240112 151.65118408 150.59013367 0.6520079970 9.3452444077 0.6480160356 0.6480160356
 1471.6697998  -999.250000 18.290000916 0.0000000000  -999.250000 2.0126123428 71.124496460 151.62797546 150.66130066 0.6540160179 8.1612501144 0.6520521045 0.6520521045
 1471.8221436  -999.250000 18.086000443 0.0230000000  -999.250000 2.0438671112 70.991493225 150.56425476 149.58995056 0.6579959989 7.9699959755 0.6650440693 0.6650440693
 1471.9746094  -999.250000 18.344999313 0.0260000005  -999.250000 2.0623774529 68.870994568 149.88101196 148.83102417 0.6570240259 6.7222433090 0.6759960055 0.6759960055
 1472.1269531  -999.250000 18.364999771 0.0120000001  -999.250000 2.0521237850 67.861740112 149.29379272 148.27664185 0.6630760431 6.0392541885 0.6750119925 0.6750119925
 1472.2794189  -999.250000 18.075000763 0.0199999996  -999.250000 2.0451900959 64.567756653 148.52853394 147.49691772 0.6820240021 6.5974960327 0.6780760884 0.6780760884
 1472.4317627  -999.250000 18.891000748 0.0149999997  -999.250000 2.0455472469 65.761512756 148.78970337 147.71794128 0.6880120039 5.9785027504 0.6970720887 0.6970720887
 1472.5841064  -999.250000 17.926000595 0.0250000004  -999.250000 2.0584182739 68.640220642 148.90692139 147.92358398 0.6910223961 6.8483972549 0.7150256038 0.7150256038
 1472.7365723  -999.250000 18.083000183 0.0189999994  -999.250000 2.0664622784 73.374748230 149.33619690 148.33364868 0.6980040073 6.3494997025 0.7229679823 0.7229679823
 1472.8889160  -999.250000 18.711999893 0.0289999992  -999.250000 2.0711445808 73.314002991 149.36363220 148.28318787 0.6990000010 6.2278041840 0.7149711251 0.7149711251
 1473.0413818  -999.250000 18.045000076 0.0350000001  -999.250000 2.0695090294 73.620491028 148.71797180 147.63908386 0.6990481019 7.0987458229 0.7059599161 0.7059599161
 1473.1937256  -999.250000 17.993000031 0.0439999998  -999.250000 2.0729980469 72.487243652 148.67953491 147.71098328 0.7110160589 6.7897543907 0.6960079670 0.6960079670
 1473.3461914  -999.250000 17.822000504 0.0399999991  -999.250000 2.0814416409 69.319015503 148.06141663 147.03944397 0.7150360346 7.4755005836 0.6980360746 0.6980360746
 1473.4985352  -999.250000 18.599000931 0.0320000015  -999.250000 2.0942459106 70.813003540 147.93527222 146.81759644 0.7240520120 7.6007485390 0.7070200443 0.7070200443
 1473.6510010  -999.250000 18.722000122 0.0140000004  -999.250000 2.0895094872 70.829032898 147.88339233 146.88336182 0.7370681167 7.7882542610 0.7120240331 0.7120240331
 1473.8033447  -999.250000 17.892000198 0.0179999992  -999.250000 2.0857133865 74.810501099 147.35696411 146.37338257 0.7540560365 8.0964975357 0.7180280089 0.7180280089
 1473.9558105  -999.250000 17.947000504 0.0189999994  -999.250000 2.0850446224 74.172981262 147.15859985 146.10673523 0.7680801153 7.2262496948 0.7250640988 0.7250640988
 1474.1081543  -999.250000 18.709999084 0.0240000002  -999.250000 2.0972497463 70.413482666 146.67146301 145.66404724 0.7880319953 7.5309953690 0.7410680652 0.7410680652
 1474.2606201  -999.250000 18.427000046 0.0230000000  -999.250000 2.1130332947 64.312248230 146.18504333 145.14283752 0.7960079908 6.0349969864 0.7580521107 0.7580521107
 1474.4129639  -999.250000 18.100999832 0.0299999993  -999.250000 2.1271874905 64.140014648 145.94718933 144.86494446 0.7979959846 5.5392541885 0.7710080147 0.7710080147
 1474.5654297  -999.250000 17.849000931 0.0320000015  -999.250000 2.1337049007 67.899787903 146.19679260 145.13591003 0.7969920039 6.0987458229 0.7729719281 0.7729719281
 1474.7177734  -999.250000 17.993000031 0.0189999994  -999.250000 2.1192538738 74.064506531 146.65325928 145.62562561 0.7949640155 5.7885012627 0.7659479380 0.7659479380
 1474.8701172  -999.250000 17.783000946 0.0020000001  -999.250000 2.0959987640 74.437004089 147.35905457 146.33384705 0.7859423161 6.1618013382 0.7529807687 0.7529807687
