# LAS format log file from PETREL
# Project units are specified as depth units
#==================================================================
~Version information
VERS.   2.0:
WRAP.   NO:
#==================================================================
~Well
STRT .m      996.03363037 :
STOP .m      2328.0097656 :
STEP .m     0.00000000 :
NULL .        -999.250000 :
COMP.           : COMPANY
WELL.  31/4-10   : WELL
FLD.            : FIELD
LOC.            : LOCATION
SRVC.           : SERVICE COMPANY
DATE.  2018-09-11 14:48:36   : Log Export Date {yyyy-MM-dd HH:mm:ss}
PROV.           : PROVINCE
UWI.   31/4-10   : UNIQUE WELL ID
API.            : API NUMBER
#==================================================================
~Curve
DEPT .m                   : DEPTH
Lithology_geolink ._      : Lithology_geolink
CALI .in                  : CALI
DRHO .g/cm3               : DRHO
NPHI .m3/m3               : NPHI
RHOB .g/cm3               : RHOB
GR .gAPI                  : GR
DTC .us/ft                : DTC
RDEP .ohm.m               : RDEP
SP .mV                    : SP
RSHA .ohm.m               : RSHA
RMED .ohm.m               : RMED
~Parameter
#==================================================================
~Ascii
# ...
 2231.8452148 5.0000000000 8.2897205353 -0.012733334 0.3437030911 2.2218220234 95.598503113 100.28749847 0.8717585802 -56.12530136 0.6249250174 0.7631180882
 2231.9978027 5.0000000000 8.2921190262 -0.013932051 0.3215618730 2.2585093975 91.996910095 98.575393677 0.9360647202 -56.27083206 0.7871668339 0.8229500651
 2232.1501465 5.0000000000 8.2941942215 -0.012430239 0.3366292119 2.2781510353 89.870567322 96.154342651 1.0083121061 -57.22916794 0.9341239929 0.9210323691
 2232.3024902 5.0000000000 8.2935810089 -0.010333333 0.3390288949 2.3013403416 87.146759033 92.003028870 1.1290853024 -58.14583206 1.0439099073 0.9614848495
 2232.4548340 5.0000000000 8.2919273376 -0.009033334 0.3150016069 2.3664329052 88.992027283 84.048927307 1.4026069641 -58.08369827 0.9939454794 1.1294720173
 2232.6074219 16.000000000 8.3179607391 -0.003382212 0.2466911972 2.4739398956 88.711158752 77.367530823 1.8213762045 -57.83333206 1.5883656740 1.5744280815
 2232.7597656 16.000000000 8.3691120148 0.0058057602 0.2273738831 2.5335407257 85.093460083 73.875312805 2.2262253761 -58.79166794 41.346611023 1.9188276529
 2232.9121094 16.000000000 8.3806543350 0.0053666667 0.2620539367 2.4728484154 81.851844788 81.096260071 2.4548633099 -60.12500000 6.3024740219 2.2156093121
 2233.0644531 16.000000000 8.3453035355 -0.006066666 0.3371484876 2.3889200687 85.367851257 90.541893005 2.3171150684 -60.39619827 1.5944659710 2.4859199524
 2233.2167969 6.0000000000 8.3557176590 -0.013333333 0.3456060886 2.3425641060 92.555458069 95.884048462 1.8818999529 -59.23257065 1.7495549917 1.8976939917
 2233.3693848 6.0000000000 8.3695468903 -0.013797116 0.3460224271 2.3272495270 98.165351868 94.788902283 1.5431023836 -57.08333206 1.4973998070 1.4353773594
 2233.5217285 6.0000000000 8.4289731979 -0.012700320 0.3205704987 2.3226993084 98.124374390 93.695983887 1.4236601591 -55.45833206 1.5348302126 1.3869750500
 2233.6740723 6.0000000000 8.4676876068 -0.011833334 0.3269973099 2.3315660954 97.257583618 93.301071167 1.3844499588 -55.18740082 1.6073900461 1.3401629925
 2233.8264160 6.0000000000 8.4682941437 -0.009300001 0.3496609032 2.3394970894 99.570762634 93.390991211 1.3539780378 -55.45763397 1.4177999496 1.3106659651
 2233.9790039 6.0000000000 8.4677762985 -0.009471314 0.3567372262 2.3391518593 101.46665955 92.403015137 1.3285934925 -56.10416794 1.3365730047 1.2838197947
 2234.1313477 6.0000000000 8.4762182236 -0.012670720 0.3508964181 2.3346710205 100.37398529 92.589851379 1.3283424377 -56.95833206 1.3239954710 1.2769584656
 2234.2836914 6.0000000000 8.4782562256 -0.015800001 0.3504692912 2.3320760727 93.813163757 91.678138733 1.3686109781 -57.68750000 1.2450649738 1.3365399837
 2234.4360352 6.0000000000 8.4848852158 -0.016766667 0.3358106017 2.3406078815 95.585586548 89.201393127 1.4410270452 -59.10329819 1.5635600090 1.3799170256
 2234.5886230 6.0000000000 8.5056209564 -0.015496154 0.3477067351 2.3645050526 101.16262817 88.898193359 1.5254008770 -60.33333206 1.6484155655 1.4858942032
 2234.7409668 6.0000000000 8.4628992081 -0.012696160 0.3296138942 2.3837635517 107.97319794 88.691360474 1.5626364946 -60.33333206 1.7533890009 1.6167442799
 2234.8933105 6.0000000000 8.3981981277 -0.010600000 0.3398032188 2.3803100586 110.08528137 87.906974792 1.5104948282 -59.29166794 1.7419277430 1.5744467974
 2235.0456543 6.0000000000 8.3360929489 -0.011033333 0.3224798143 2.3634650707 107.95400238 88.511993408 1.4130320549 -58.04219818 1.6020029783 1.4813050032
 2235.1982422 6.0000000000 8.2876825333 -0.011738301 0.3193848729 2.3476023674 104.46823120 89.884727478 1.3334774971 -57.37500000 1.2935711145 1.3761506081
 2235.3505859 6.0000000000 8.2856998444 -0.013599038 0.3085429966 2.3478975296 101.74997711 88.594390869 1.2932884693 -57.39583206 1.4058904648 1.3235255480
 2235.5029297 6.0000000000 8.2856998444 -0.013233440 0.3216788769 2.3570485115 104.97946930 87.911911011 1.3017206192 -57.33333206 1.4884703159 1.2896790504
 2235.6552734 6.0000000000 8.2856998444 -0.012466666 0.3198088109 2.3792259693 105.52410126 80.531044006 1.3302179575 -57.27059937 1.5522960424 1.3502609730
 2235.8076172 6.0000000000 8.2857179642 -0.010866667 0.3202455044 2.3951361179 104.67489624 73.029357910 1.3227699995 -57.85276413 2.1411309242 1.3710420132
 2235.9602051 6.0000000000 8.2878179550 -0.010564583 0.2682822645 2.4453418255 95.081306458 64.870712280 1.3446260691 -58.60416794 2.0724334717 1.2871401310
 2236.1125488 2.0000000000 8.2898216248 -0.009164103 0.2008794844 2.5245823860 88.282135010 61.527557373 1.6119124889 -59.12500000 4.2620267868 1.4162566662
 2236.2648926 2.0000000000 8.3025484085 -0.006425321 0.1359136999 2.6222410202 78.771507263 55.379924774 3.1360499859 -60.00000000 152.41580200 1.8734680414
 2236.4172363 2.0000000000 8.2982416153 -0.003401442 0.1103269979 2.6675162315 72.241531372 52.708759308 20.959539413 -61.24959946 274.08981323 3.0904309750
 2236.5698242 2.0000000000 8.3703527451 -0.006721600 0.1013895199 2.6704742908 67.234214783 53.212863922 89.351318359 -61.56250000 642.19976807 14.079063416
 2236.7221680 2.0000000000 8.3648147583 -0.012468429 0.1004053876 2.6680676937 68.696777344 54.498054504 190.21644592 -60.56250000 750.21704102 208.30442810
 2236.8745117 2.0000000000 8.3342370987 -0.012932051 0.1008956283 2.6742012501 69.813545227 54.397762299 249.69155884 -58.54166794 293.70352173 287.84106445
 2237.0268555 2.0000000000 8.3175058365 -0.012567468 0.1005396992 2.6655449867 67.935432434 54.193805695 258.96289063 -56.47999954 569.22198486 302.72949219
 2237.1794434 2.0000000000 8.3175001144 -0.012765600 0.1050655916 2.6702654362 65.565338135 53.499801636 236.38563538 -55.27083206 448.59671021 298.80722046
 2237.3317871 2.0000000000 8.3175001144 -0.011729647 0.1114349067 2.6668326855 63.896442413 53.421245575 180.64416504 -55.12500000 268.60983276 256.38916016
 2237.4841309 2.0000000000 8.3174428940 -0.010032533 0.1241368726 2.6510694027 67.594711304 55.588443756 97.465469360 -55.66666794 156.96148682 140.72314453
 2237.6364746 2.0000000000 8.3112964630 -0.009264584 0.1545695961 2.6119949818 72.836112976 77.317939758 28.938049316 -56.35359955 176.30230713 12.142680168
 2237.7888184 2.0000000000 8.2878208160 -0.010607040 0.2210465968 2.5069179535 81.783767700 80.721450806 5.9066810608 -57.37349701 133.50160217 4.9454531670
 2237.9414063 6.0000000000 8.2898797989 -0.015870834 0.2840430737 2.4167859554 92.536750793 83.852577209 3.2392778397 -58.43750000 1.9123966694 3.5038776398
 2238.0937500 6.0000000000 8.2877016068 -0.017733974 0.3253351450 2.3688695431 99.855026245 89.271202087 2.2770817280 -59.70833206 1.2565604448 2.4932482243
 2238.2460938 6.0000000000 8.2877817154 -0.016291827 0.3284814060 2.3660039902 104.01370239 87.001823425 1.7384439707 -60.33333206 1.4895980358 1.7657630444
 2238.3984375 6.0000000000 8.2857007980 -0.012933441 0.3266110122 2.3547620773 100.14969635 87.011253357 1.5407010317 -59.54240036 1.7077690363 1.5721880198
 2238.5510254 6.0000000000 8.2857170105 -0.013401924 0.3278978765 2.3274650574 100.83551025 88.317253113 1.4557534456 -58.41666794 1.4503017664 1.5530766249
 2238.7033691 6.0000000000 8.2876634598 -0.014233493 0.3372547328 2.3149678707 95.980308533 90.113677979 1.3663209677 -58.41666794 1.3459252119 1.4181139469
 2238.8557129 6.0000000000 8.2833356857 -0.013060737 0.3510579467 2.3399140835 93.649185181 91.423446655 1.3422870636 -58.97916794 1.2467552423 1.3291339874
 2239.0080566 6.0000000000 8.2563018799 -0.010533012 0.3206895888 2.3941559792 87.787109375 85.059700012 1.4846149683 -60.14309692 1.0940519571 1.3958460093
 2239.1606445 5.0000000000 8.2783908844 -0.009560000 0.2842054963 2.4250643253 85.664421082 80.474304199 1.7773797512 -61.10416412 1.1163613796 1.6899946928
 2239.3129883 5.0000000000 8.3449296951 -0.009507692 0.2659205496 2.4020905495 85.408988953 77.589378357 2.0434045792 -58.20833206 1.2161076069 2.0810949802
 2239.4653320 5.0000000000 8.3369102478 -0.015145032 0.2956988513 2.3457727432 85.668998718 76.472274780 2.1352210045 -61.27083206 12.352853775 2.1358609200
