# LAS format log file from PETREL
# Project units are specified as depth units
#==================================================================
~Version information
VERS.   2.0:
WRAP.   NO:
#==================================================================
~Well
STRT .m      950.21093750 :
STOP .m      2894.8349609 :
STEP .m     0.00000000 :
NULL .        -999.250000 :
COMP.           : COMPANY
WELL.  31/4-2   : WELL
FLD.            : FIELD
LOC.            : LOCATION
SRVC.           : SERVICE COMPANY
DATE.  2018-09-11 14:48:36   : Log Export Date {yyyy-MM-dd HH:mm:ss}
PROV.           : PROVINCE
UWI.   31/4-2   : UNIQUE WELL ID
API.            : API NUMBER
#==================================================================
~Curve
DEPT .m                   : DEPTH
Lithology_geolink ._      : Lithology_geolink
CALI .in                  : CALI
DRHO .g/cm3               : DRHO
NPHI .m3/m3               : NPHI
RHOB .g/cm3               : RHOB
GR .gAPI                  : GR
DTC .us/ft                : DTC
DTE .us/ft                : DTE
RDEP .ohm.m               : RDEP
SP .mV                    : SP
RSHA .ohm.m               : RSHA
RMED .ohm.m               : RMED
~Parameter
#==================================================================
~Ascii
# ...
 2632.7070313 5.0000000000 13.699999809 -0.013000000 0.4494704306 2.3712055683 74.223999023 95.923637390 96.036178589 4.5852675438 64.126266479 7.9656577110 7.9656577110
 2632.8593750 18.000000000 13.708998680 -0.008000000 0.4558916390 2.2867436409 73.524002075 103.50225067 103.25337219 4.9806909561 63.898662567 7.2344279289 7.2344279289
 2633.0117188 18.000000000 13.936999321 0.0140000004 0.4881031215 2.1964623928 70.825996399 111.14408875 111.32525635 5.4113364220 63.691009521 6.2546477318 6.2546477318
 2633.1640625 18.000000000 13.991000175 0.0250000004 0.5149657130 2.1239562035 70.050003052 114.75150299 114.81534576 5.6207804680 63.693309784 6.0365734100 6.0365734100
 2633.3166504 18.000000000 14.128999710 0.0260000005 0.5122761130 2.0967164040 70.111000061 112.27669525 112.31626129 5.4838562012 63.886295319 7.0220403671 7.0220403671
 2633.4689941 18.000000000 14.003000259 0.0340000018 0.5048127174 2.1248250008 71.940002441 105.23269653 105.01817322 5.4396653175 63.977169037 8.5948963165 8.5948963165
 2633.6213379 5.0000000000 13.564999580 -0.006000000 0.4877810180 2.2211124897 73.778999329 93.892410278 93.925659180 5.8549456596 63.458435059 10.400561333 10.400561333
 2633.7736816 5.0000000000 13.590999603 -0.007000000 0.4634366333 2.3550875187 75.231002808 84.082901001 84.411109924 6.4453296661 63.106002808 11.374135971 11.374135971
 2633.9260254 5.0000000000 13.625000000 -0.002000000 0.4426340759 2.4542562962 75.061996460 79.005332947 79.106872559 7.2755208015 63.108146667 12.082232475 12.082232475
 2634.0786133 5.0000000000 13.657999992 -0.001000000 0.4388830662 2.4966788292 76.040000916 76.802932739 76.773468018 8.2241230011 63.196918488 12.226820946 12.226820946
 2634.2309570 6.0000000000 13.647001266 -0.002000000 0.4242146313 2.4936623573 77.839996338 77.685791016 77.413940430 8.5727119446 63.483776093 12.170594215 12.170594215
 2634.3833008 6.0000000000 13.612000465 -0.009000000 0.3959703743 2.4544875622 81.230003357 79.989128113 80.222312927 7.7683525085 62.718509674 11.917364120 11.917364120
 2634.5356445 6.0000000000 13.610000610 -0.011000000 0.4024840593 2.3926501274 84.902999878 85.951828003 85.789688110 6.7408480644 62.411365509 11.519648552 11.519648552
 2634.6882324 6.0000000000 13.609000206 0.0040000002 0.4362030923 2.3177237511 87.671997070 93.354331970 93.501258850 6.0215916634 62.636863708 10.675008774 10.675008774
 2634.8405762 6.0000000000 13.612000465 0.0410000011 0.4496514201 2.2507498264 88.495002747 97.986984253 97.955383301 5.5828285217 61.971389771 9.7408218384 9.7408218384
 2634.9929199 6.0000000000 13.640999794 0.0450000018 0.4629934728 2.2223186493 88.222999573 97.817512512 97.499038696 5.4765000343 61.590652466 8.3822326660 8.3822326660
 2635.1452637 6.0000000000 13.418000221 0.0160000008 0.4651367962 2.2392625809 83.189002991 94.210105896 94.187088013 5.7882404327 61.374309540 7.2795658112 7.2795658112
 2635.2978516 6.0000000000 13.494999886 0.0189999994 0.4506442845 2.2630023956 79.776000977 91.288093567 91.407318115 5.9377508163 60.944618225 6.3862018585 6.3862018585
 2635.4501953 6.0000000000 13.593000412 0.0320000015 0.4332535565 2.2582187653 78.207000732 92.312316895 92.249107361 5.8596029282 61.134773254 6.4501376152 6.4501376152
 2635.6025391 18.000000000 13.857000351 0.0280000009 0.4104943275 2.2562062740 76.402000427 94.462219238 94.545143127 5.6114501953 59.746730804 7.1599535942 7.1599535942
 2635.7548828 18.000000000 13.156998634 0.0070000002 0.3695337772 2.3079435825 74.105003357 93.563697815 93.313705444 5.2685656548 59.574859619 7.7544903755 7.7544903755
 2635.9072266 18.000000000 13.255998611 0.0020000001 0.3469662666 2.4030873775 70.941001892 89.022636414 89.284194946 4.9983143806 58.238685608 8.0600681305 8.0600681305
 2636.0598145 5.0000000000 13.357998848 0.0109999999 0.3571252227 2.4770822525 67.305999756 84.572532654 84.329200745 5.1940608025 56.791595459 8.1042213440 8.1042213440
 2636.2121582 5.0000000000 13.395999908 0.0040000002 0.3650006950 2.5006313324 66.447998047 79.503692627 79.530120850 5.2122769356 55.730270386 8.7964429855 8.7964429855
 2636.3645020 5.0000000000 13.392000198 0.0000000000 0.3716477454 2.4944937229 64.838996887 76.053794861 76.337127686 4.7607069016 54.651855469 9.0720624924 9.0720624924
 2636.5168457 5.0000000000 13.097999573 0.0020000001 0.3577241600 2.4753439426 62.215999603 75.511344910 75.461418152 3.9541392326 53.314247131 8.4842710495 8.4842710495
 2636.6694336 3.0000000000 12.867000580 -0.005000000 0.3290505111 2.4449408054 58.680000305 76.717361450 76.646499634 3.4163808823 52.216506958 6.1557807922 6.1557807922
 2636.8217773 3.0000000000 12.479999542 -0.026000001 0.2949021757 2.4138438702 55.265998840 78.916343689 78.727432251 2.9113285542 51.126262665 4.5283942223 4.5283942223
 2636.9741211 3.0000000000 12.446000099 -0.030999999 0.2713376582 2.3944625854 52.238998413 80.965042114 81.275695801 2.4925289154 50.042434692 3.5273878574 3.5273878574
 2637.1264648 3.0000000000 12.465000153 -0.032000002 0.2636339366 2.3914248943 49.243000031 83.775428772 83.547576904 2.1986746788 49.067825317 3.1454117298 3.1454117298
 2637.2790527 3.0000000000 12.460000038 -0.022000000 0.2536003590 2.3906435966 46.331001282 85.296096802 85.272087097 1.9955680370 48.335044861 2.7777712345 2.7777712345
 2637.4313965 3.0000000000 12.404000282 -0.016000001 0.2443579882 2.3754124641 44.473999023 86.596740723 86.848442078 1.8609566689 48.038902283 2.3945960999 2.3945960999
 2637.5837402 3.0000000000 12.255999565 -0.020000000 0.2431250364 2.3535876274 44.025001526 88.282127380 88.366432190 1.8340801001 48.604255676 2.1428091526 2.1428091526
 2637.7360840 3.0000000000 12.161001205 -0.016000001 0.2587458789 2.3394498825 44.449001312 90.045104980 89.769195557 1.8841986656 49.388927460 2.0240929127 2.0240929127
 2637.8884277 3.0000000000 12.156999588 -0.017999999 0.2686470151 2.3331623077 47.097000122 90.155502319 90.148521423 2.0082066059 50.591930389 2.0823655128 2.0823655128
 2638.0410156 3.0000000000 12.178999901 -0.021000000 0.2668305933 2.3401134014 60.507999420 88.680648804 88.790008545 2.1375248432 51.796848297 2.3117694855 2.3117694855
 2638.1933594 3.0000000000 12.248000145 -0.013000000 0.2795067728 2.3631937504 67.525001526 86.479591370 86.770805359 2.3016843796 52.685413361 2.8646073341 2.8646073341
 2638.3457031 6.0000000000 12.453000069 -0.003000000 0.3024501801 2.3864500523 73.841003418 84.997840881 85.022575378 2.7288172245 53.567337036 3.8705222607 3.8705222607
 2638.4980469 6.0000000000 12.716999054 0.0179999992 0.3275345862 2.4042124748 77.987998962 82.796493530 82.819007874 3.2395303249 54.401260376 6.6899938583 6.6899938583
 2638.6506348 6.0000000000 13.171999931 0.0740000010 0.3679254949 2.4134571552 81.963996887 80.742523193 80.820411682 4.1961040497 55.187507629 7.9333119392 7.9333119392
 2638.8029785 6.0000000000 13.746999741 0.0579999983 0.4163911939 2.4162499905 84.753997803 79.601287842 79.396385193 5.1643896103 55.969329834 8.3429136276 8.3429136276
 2638.9553223 6.0000000000 13.418000221 0.0140000004 0.4357867241 2.4450874329 85.597000122 77.864387512 77.947982788 6.0304150581 56.799686432 8.9135618210 8.9135618210
 2639.1076660 6.0000000000 13.384999275 0.0030000000 0.4212680757 2.4962186813 84.944999695 77.305915833 77.396888733 6.2892932892 57.852661133 9.8879823685 9.8879823685
 2639.2602539 6.0000000000 13.383000374 0.0099999998 0.4138773382 2.5190019608 84.276000977 77.276100159 77.236061096 6.4724831581 58.886978149 10.500438690 10.500438690
 2639.4125977 6.0000000000 13.355999947 0.0030000000 0.4255127907 2.5078310966 85.987998962 76.713691711 76.876586914 6.6236524582 58.879268646 10.636051178 10.636051178
 2639.5649414 6.0000000000 13.242000580 0.0250000004 0.4272575378 2.4903125763 85.846000671 76.907012939 76.965782166 7.0308222771 58.423278809 10.043261528 10.043261528
 2639.7172852 6.0000000000 13.217000008 0.0869999975 0.4257205427 2.4709188938 85.095001221 77.701179504 77.561576843 7.5425949097 58.597610474 8.9587392807 8.9587392807
 2639.8696289 6.0000000000 13.333000183 0.0850000009 0.4260735214 2.4228248596 85.097999573 78.200386047 78.198173523 7.2883124352 58.977619171 8.1737651825 8.1737651825
