# LAS format log file from PETREL
# Project units are specified as depth units
#==================================================================
~Version information
VERS.   2.0:
WRAP.   NO:
#==================================================================
~Well
STRT .m      898.43609619 :
STOP .m      2454.1354980 :
STEP .m     0.00000000 :
NULL .        -999.250000 :
COMP.           : COMPANY
WELL.  31/4-6   : WELL
FLD.            : FIELD
LOC.            : LOCATION
SRVC.           : SERVICE COMPANY
DATE.  2018-09-11 14:48:38   : Log Export Date {yyyy-MM-dd HH:mm:ss}
PROV.           : PROVINCE
UWI.   31/4-6   : UNIQUE WELL ID
API.            : API NUMBER
#==================================================================
~Curve
DEPT .m                   : DEPTH
Lithology_geolink ._      : Lithology_geolink
CALI .in                  : CALI
DRHO .g/cm3               : DRHO
NPHI .m3/m3               : NPHI
RHOB .g/cm3               : RHOB
GR .gAPI                  : GR
DTC .us/ft                : DTC
DTE .us/ft                : DTE
RDEP .ohm.m               : RDEP
SP .mV                    : SP
RSHA .ohm.m               : RSHA
RMED .ohm.m               : RMED
~Parameter
#==================================================================
~Ascii
# ...
 1103.2617188  -999.250000 17.827999115 -0.005020016  -999.250000 1.9035397768 50.812999725 144.26805115 145.57836914 1.4780000448 34.174999237  -999.250000 1.3609999418
 1103.4141846  -999.250000 18.125000000 -0.001012821  -999.250000 1.8939291239 51.408199310 143.72746277 144.92526245 1.4850047827 35.924999237  -999.250000 1.3939880133
 1103.5665283  -999.250000 17.891000748 0.0049807690  -999.250000 1.8788979053 54.155998230 143.66835022 144.97990417 1.4910000563 33.799999237  -999.250000 1.3789999485
 1103.7189941  -999.250000 18.233999252 0.0000160128  -999.250000 1.8697291613 52.496994019 143.25669861 144.44413757 1.4809999466 33.299999237  -999.250000 1.4139720201
 1103.8713379  -999.250000 17.750000000 0.0019935898  -999.250000 1.8745399714 48.747749329 144.36602783 145.60282898 1.4810014963 32.924999237  -999.250000 1.3790223598
 1104.0238037  -999.250000 17.672000885 0.0010032026  -999.250000 1.8823624849 45.938400269 146.66810608 147.84823608 1.4830064774 33.674999237  -999.250000 1.4069695473
 1104.1761475  -999.250000 17.733999252 0.0029935897  -999.250000 1.8798521757 46.440174103 147.59077454 148.85990906 1.4909960032 33.049999237  -999.250000 1.3690096140
 1104.3284912  -999.250000 17.812999725 -0.001979984  -999.250000 1.8675322533 49.155998230 147.72587585 149.03164673 1.4859999418 32.799999237  -999.250000 1.3810000420
 1104.4809570  -999.250000 18.327999115 -0.005987179  -999.250000 1.8602749109 47.621997833 146.73727417 148.03227234 1.4809935093 32.799999237  -999.250000 1.3620127439
 1104.6333008  -999.250000 19.375000000 -0.010979984  -999.250000 1.8604036570 43.875000000 144.93348694 146.23568726 1.4730000496 32.299999237  -999.250000 1.3780000210
 1104.7857666  -999.250000 18.937999725 -0.009006410  -999.250000 1.8618249893 44.281475067 144.13052368 145.33816528 1.4689872265 33.049999237  -999.250000 1.3549991846
 1104.9381104  -999.250000 17.922000885 -0.006012009  -999.250000 1.8575007915 44.875000000 144.26199341 145.51289368 1.4529999495 33.674999237  -999.250000 1.3539999723
 1105.0905762  -999.250000 18.156000137 -0.002012821  -999.250000 1.8534083366 46.467826843 145.86380005 147.06115723 1.4420008659 33.799999237  -999.250000 1.3510007858
 1105.2429199  -999.250000 18.733999252 -0.006979984  -999.250000 1.8536334038 45.000000000 147.50149536 148.78956604 1.4429999590 35.299999237  -999.250000 1.3519999981
 1105.3953857  -999.250000 17.827999115 -0.013977565  -999.250000 1.8609777689 47.220378876 148.55085754 149.83180237 1.4390000105 35.924999237  -999.250000 1.3419903517
 1105.5477295  -999.250000 17.812999725 -0.011009615  -999.250000 1.8695791960 48.937999725 149.13156128 150.46157837 1.4390000105 35.174999237  -999.250000 1.3300000429
 1105.7001953  -999.250000 18.156000137 -0.008009608  -999.250000 1.8673477173 48.935420990 148.34594727 149.62553406 1.4379935265 33.049999237  -999.250000 1.3270144463
 1105.8525391  -999.250000 19.547000885 -0.008996795  -999.250000 1.8565750122 45.719001770 147.89907837 149.22395325 1.4299999475 32.674999237  -999.250000 1.3450000286
 1106.0050049  -999.250000 18.797000885 -0.010993595  -999.250000 1.8445940018 42.372772217 147.99385071 149.29644775 1.4309959412 31.549997330  -999.250000 1.3509855270
 1106.1573486  -999.250000 18.125000000 -0.012993590  -999.250000 1.8353124857 39.593425751 148.01815796 149.22351074 1.4259991646 31.424999237  -999.250000 1.3329895735
 1106.3098145  -999.250000 18.375000000 -0.006022418  -999.250000 1.8262461424 38.877655029 148.31190491 149.63592529 1.4250015020 33.174999237  -999.250000 1.3199920654
 1106.4621582  -999.250000 17.812999725 -0.009987179  -999.250000 1.8133459091 42.189327240 148.91738892 150.18733215 1.4270024300 33.799999237  -999.250000 1.3099935055
 1106.6145020  -999.250000 17.937999725 -0.011991994  -999.250000 1.8005015850 43.844001770 148.22715759 149.52383423 1.4299999475 33.174999237  -999.250000 1.3020000458
 1106.7669678  -999.250000 17.718999863 -0.012996796  -999.250000 1.7918791771 42.904197693 147.70582581 148.98338318 1.4169960022 32.799999237  -999.250000 1.2820014954
 1106.9193115  -999.250000 18.422000885 -0.012004003  -999.250000 1.7882497311 40.655998230 147.54132080 148.81837463 1.4119999409 33.174999237  -999.250000 1.2840000391
 1107.0717773  -999.250000 18.077999115 -0.012996796  -999.250000 1.7892208099 37.374900818 147.85992432 149.12576294 1.4129863977 33.549999237  -999.250000 1.2980031967
 1107.2241211  -999.250000 18.047000885 -0.017979983  -999.250000 1.7889249325 37.250000000 149.15574646 150.41699219 1.3960000277 33.174999237  -999.250000 1.3020000458
 1107.3765869  -999.250000 17.843999863 -0.020990385  -999.250000 1.7861835957 33.531772614 151.22793579 152.60685730 1.3890104294 33.799999237  -999.250000 1.3229439259
 1107.5289307  -999.250000 18.468999863 -0.018009614  -999.250000 1.7792625427 34.500000000 152.54483032 153.87727356 1.4019999504 34.549999237  -999.250000 1.2530000210
 1107.6813965  -999.250000 18.483999252 -0.019993594  -999.250000 1.7712731361 34.000774384 151.91801453 153.19602966 1.3970007896 32.924999237  -999.250000 1.2629847527
 1107.8337402  -999.250000 18.702999115 -0.018006409  -999.250000 1.7700458765 34.969001770 150.75090027 152.09538269 1.3980000019 31.549997330  -999.250000 1.2439999580
 1107.9862061  -999.250000 18.858999252 -0.021987190  -999.250000 1.7774509192 38.284530640 149.72624207 151.04058838 1.4160071611 33.549999237  -999.250000 1.2709968090
 1108.1385498  -999.250000 18.250000000 -0.016019231  -999.250000 1.7915208340 42.691051483 148.89268494 150.24386597 1.4249984026 34.174999237  -999.250000 1.2670176029
 1108.2910156  -999.250000 18.047000885 -0.015003202  -999.250000 1.8025001287 46.498371124 148.35639954 149.71430969 1.4230240583 34.049999237  -999.250000 1.2890144587
 1108.4433594  -999.250000 18.281000137 -0.013006411  -999.250000 1.8086750507 44.466800690 148.75355530 150.05055237 1.4530071020 34.174999237  -999.250000 1.3070127964
 1108.5957031  -999.250000 18.125000000 -0.018975981  -999.250000 1.8143522739 41.719001770 148.09831238 149.35206604 1.4620000124 33.424999237  -999.250000 1.3229999542
 1108.7481689  -999.250000 17.968999863 -0.016009616  -999.250000 1.8256332874 36.905998230 146.60841370 147.86061096 1.4530063868 33.424999237  -999.250000 1.3459999561
 1108.9005127  -999.250000 18.125000000 -0.016000001  -999.250000 1.8354575634 36.905998230 146.27461243 147.57942200 1.4609999657 33.549999237  -999.250000 1.3459999561
 1109.0529785  -999.250000 17.781000137 -0.013009615  -999.250000 1.8386000395 37.905948639 145.91311646 147.25021362 1.4669920206 33.424999237  -999.250000 1.3269840479
 1109.2053223  -999.250000 17.687999725 -0.012004003  -999.250000 1.8352832794 37.844001770 145.52416992 146.78797913 1.4570000172 33.674999237  -999.250000 1.3070000410
 1109.3577881  -999.250000 18.483999252 -0.012000000  -999.250000 1.8291686773 40.405998230 146.88768005 148.19682312 1.4389991760 33.924999237  -999.250000 1.3029823303
 1109.5101318  -999.250000 17.812999725 -0.012000000  -999.250000 1.8265875578 40.405998230 148.33619690 149.61508179 1.4379999638 34.174999237  -999.250000 1.2810000181
 1109.6624756  -999.250000 18.218999863 -0.013991987  -999.250000 1.8295689821 42.062999725 149.40931702 150.74476624 1.4290000200 34.674598694  -999.250000 1.2649999857
 1109.8149414  -999.250000 18.047000885 -0.012006410  -999.250000 1.8416999578 39.437999725 149.96105957 151.23986816 1.4179999828 34.674999237  -999.250000 1.2710000277
 1109.9672852  -999.250000 18.250000000 -0.007020016  -999.250000 1.8581017256 38.437999725 148.48056030 149.75909424 1.4110000134 33.549999237  -999.250000 1.2860000134
 1110.1196289  -999.250000 17.718999863 -0.006004007  -999.250000 1.8713111877 38.437999725 147.08435059 148.41554260 1.4090000391 34.049999237  -999.250000 1.2990000248
 1110.2720947  -999.250000 17.906000137 -0.002016013  -999.250000 1.8770331144 39.000000000 146.87554932 148.08604431 1.4040000439 33.799999237  -999.250000 1.3020000458
 1110.4244385  -999.250000 17.718999863 -0.002995994  -999.250000 1.8781546354 40.719001770 147.30812073 148.58616638 1.4069999456 33.674999237  -999.250000 1.3020000458
