# LAS format log file from PETREL
# Project units are specified as depth units
#==================================================================
~Version information
VERS.   2.0:
WRAP.   NO:
#==================================================================
~Well
STRT .m      950.21093750 :
STOP .m      2894.8349609 :
STEP .m     0.00000000 :
NULL .        -999.250000 :
COMP.           : COMPANY
WELL.  31/4-2   : WELL
FLD.            : FIELD
LOC.            : LOCATION
SRVC.           : SERVICE COMPANY
DATE.  2018-09-11 14:48:36   : Log Export Date {yyyy-MM-dd HH:mm:ss}
PROV.           : PROVINCE
UWI.   31/4-2   : UNIQUE WELL ID
API.            : API NUMBER
#==================================================================
~Curve
DEPT .m                   : DEPTH
Lithology_geolink ._      : Lithology_geolink
CALI .in                  : CALI
DRHO .g/cm3               : DRHO
NPHI .m3/m3               : NPHI
RHOB .g/cm3               : RHOB
GR .gAPI                  : GR
DTC .us/ft                : DTC
DTE .us/ft                : DTE
RDEP .ohm.m               : RDEP
SP .mV                    : SP
RSHA .ohm.m               : RSHA
RMED .ohm.m               : RMED
~Parameter
#==================================================================
~Ascii
 950.21093750  -999.250000 17.969999313 -0.497999996  -999.250000 1.9376249313 25.250673294 147.08781433 144.79309082  -999.250000 67.451011658 0.1639959961 0.1639959961
 950.36334229  -999.250000 17.969999313 -0.497999996  -999.250000 1.9325248003 24.668905258 148.44432068 146.20797729  -999.250000 63.588092804 0.1630000025 0.1630000025
 950.51568604  -999.250000 17.971000671 -0.497999996  -999.250000 1.9353863001 23.900268555 147.69183350 145.41374207  -999.250000 64.177909851 0.1630000025 0.1630000025
 950.66809082  -999.250000 17.971000671 -0.497999996  -999.250000 1.9391624928 24.253461838 146.57350159 144.38174438  -999.250000 67.591857910 0.1630000025 0.1630000025
 950.82049561  -999.250000 17.972000122 -0.497996390  -999.250000 1.9463376999 24.936819077 144.65792847 142.41363525  -999.250000 73.789054871 0.1630000025 0.1630000025
 950.97290039  -999.250000 17.972000122 -0.497000009  -999.250000 1.9438936710 25.718765259 145.26176453 143.09147644  -999.250000 79.722389221 0.1630000025 0.1630000025
 951.12530518  -999.250000 17.972999573 -0.497000009  -999.250000 1.9403249025 26.482423782 146.31636047 144.06733704  -999.250000 81.089416504 0.1629959941 0.1629959941
 951.27770996  -999.250000 17.972999573 -0.497000009  -999.250000 1.9392563105 26.336585999 146.60784912 144.35848999  -999.250000 81.846359253 0.1620000005 0.1620000005
 951.43011475  -999.250000 17.974000931 -0.497000009  -999.250000 1.9248558283 25.733865738 150.53509521 148.36775208  -999.250000 82.889999390 0.1620000005 0.1620000005
 951.58251953  -999.250000 17.974000931 -0.497000009  -999.250000 1.9325251579 25.204816818 148.61558533 146.21742249  -999.250000 82.888832092 0.1620000005 0.1620000005
 951.73492432  -999.250000 17.975000381 -0.496996015  -999.250000 1.9358187914 25.660051346 147.57542419 145.30805969  -999.250000 82.287712097 0.1620000005 0.1620000005
 951.88732910  -999.250000 17.975000381 -0.495999992  -999.250000 1.9221246243 26.420494080 151.48425293 149.16654968  -999.250000 81.932388306 0.1620000005 0.1620000005
 952.03973389  -999.250000 17.975999832 -0.495999992  -999.250000 1.9244813919 26.790622711 150.63172913 148.46818542  -999.250000 82.042617798 0.1620000005 0.1620000005
 952.19213867  -999.250000 17.975999832 -0.495999992  -999.250000 1.9254500866 26.446233749 150.38957214 148.19953918  -999.250000 82.492744446 0.1620000005 0.1620000005
 952.34454346  -999.250000 17.976999283 -0.495999992  -999.250000 1.9251250029 26.007656097 150.54611206 148.29577637  -999.250000 83.254959106 0.1620000005 0.1620000005
 952.49694824  -999.250000 17.976999283 -0.495999992  -999.250000 1.9379440546 26.171789169 146.97959900 144.72006226  -999.250000 83.798774719 0.1620000005 0.1620000005
 952.64929199  -999.250000 17.976999283 -0.495999992  -999.250000 1.9443290234 26.367279053 145.17807007 142.95584106  -999.250000 84.012405396 0.1620000005 0.1620000005
 952.80169678  -999.250000 17.978000641 -0.495999992  -999.250000 1.9421688318 26.167160034 145.74247742 143.54884338  -999.250000 83.827239990 0.1620000005 0.1620000005
 952.95410156  -999.250000 17.978000641 -0.495999992  -999.250000 1.9509065151 25.934093475 143.60697937 141.19007874  -999.250000 83.589653015 0.1620000005 0.1620000005
 953.10650635  -999.250000 17.978000641 -0.495999992  -999.250000 1.9512187243 25.684324265 143.18223572 141.09757996  -999.250000 83.167648315 0.1620040089 0.1620040089
 953.25891113  -999.250000 17.979000092 -0.495999992  -999.250000 1.9405121803 25.762639999 146.34997559 143.99998474  -999.250000 82.745651245 0.1630000025 0.1630000025
 953.41131592  -999.250000 17.979000092 -0.495999992  -999.250000 1.9357687235 25.173957825 147.40081787 145.30191040  -999.250000 82.324325562 0.1630000025 0.1630000025
 953.56372070  -999.250000 17.979000092 -0.495999992  -999.250000 1.9331561327 24.667985916 148.40698242 146.04322815  -999.250000 82.115325928 0.1630000025 0.1630000025
 953.71612549  -999.250000 17.979999542 -0.495999992  -999.250000 1.9358125925 25.163591385 147.52001953 145.29399109  -999.250000 81.929328918 0.1630000025 0.1630000025
 953.86853027  -999.250000 17.979999542 -0.495999992  -999.250000 1.9457503557 25.557525635 144.77340698 142.57936096  -999.250000 81.743331909 0.1630000025 0.1630000025
 954.02093506  -999.250000 17.979999542 -0.495999992  -999.250000 1.9479937553 25.186477661 144.20327759 141.98301697  -999.250000 81.557380676 0.1630000025 0.1630000025
 954.17333984  -999.250000 17.979999542 -0.496003985  -999.250000 1.9445374012 24.059957504 145.01571655 142.91390991  -999.250000 81.386421204 0.1630000025 0.1630000025
 954.32574463  -999.250000 17.981000900 -0.497000009  -999.250000 1.9653942585 23.551980972 139.76098633 137.40449524  -999.250000 81.225563049 0.1630000025 0.1630000025
 954.47814941  -999.250000 17.981000900 -0.497000009  -999.250000 2.0206139088 23.544189453 126.15846252 124.05307007  -999.250000 81.105789185 0.1630000025 0.1630000025
 954.63049316  -999.250000 17.981000900 -0.497007221  -999.250000 2.0799589157 22.842823029 113.70895386 111.43899536  -999.250000 81.323745728 0.1629963964 0.1629963964
 954.78289795  -999.250000 17.982000351 -0.499003619  -999.250000 2.1110858917 22.241870880 107.73210144 105.42466736  -999.250000 81.872428894 0.1620000005 0.1620000005
 954.93530273  -999.250000 17.982000351 -0.500000000  -999.250000 2.1177771091 22.482192993 106.32502747 104.18099976  -999.250000 83.255439758 0.1620000005 0.1620000005
 955.08770752  -999.250000 17.982000351 -0.500000000  -999.250000 2.0877113342 22.257446289 112.19637299 109.86329651  -999.250000 84.640480042 0.1620000005 0.1620000005
 955.24011230  -999.250000 17.982999802 -0.499996006  -999.250000 2.0059764385 21.828250885 129.68920898 127.47937012  -999.250000 86.038398743 0.1620000005 0.1620000005
 955.39251709  -999.250000 17.982999802 -0.499000013  -999.250000 1.9635580778 21.892854691 140.16038513 137.87715149  -999.250000 87.410842896 0.1620040089 0.1620040089
 955.54492188  -999.250000 17.982999802 -0.499000013  -999.250000 1.9496573210 22.356943130 143.74075317 141.53608704  -999.250000 88.608650208 0.1630000025 0.1630000025
 955.69732666  -999.250000 17.982999802 -0.498996019  -999.250000 1.9413027763 23.092992783 145.95193481 143.79579163  -999.250000 89.433433533 0.1630000025 0.1630000025
 955.84973145  -999.250000 17.983999252 -0.497999996  -999.250000 1.9391117096 24.087791443 146.64533997 144.38211060  -999.250000 89.830474854 0.1630000025 0.1630000025
 956.00213623  -999.250000 17.983999252 -0.497999996  -999.250000 1.9347792864 24.532840729 147.68823242 145.57360840  -999.250000 89.684417725 0.1630000025 0.1630000025
 956.15454102  -999.250000 17.983999252 -0.497999996  -999.250000 1.9374076128 24.491186142 147.02781677 144.85768127  -999.250000 89.525810242 0.1630000025 0.1630000025
 956.30694580  -999.250000 17.983999252 -0.497999996  -999.250000 1.9406013489 24.039415359 146.36451721 143.96951294  -999.250000 90.033432007 0.1630000025 0.1630000025
 956.45935059  -999.250000 17.983999252 -0.497999996  -999.250000 1.9414567947 23.895998001 145.98919678 143.74859619  -999.250000 92.100906372 0.1630000025 0.1630000025
 956.61175537  -999.250000 17.985000610 -0.497999996  -999.250000 1.9361515045 24.394998550 147.42076111 145.20843506  -999.250000 95.961326599 0.1630000025 0.1630000025
 956.76409912  -999.250000 17.985000610 -0.498003602  -999.250000 1.9273586273 24.891780853 149.92112732 147.66041565  -999.250000 100.21848297 0.1630000025 0.1630000025
 956.91650391  -999.250000 17.985000610 -0.499000013  -999.250000 1.9247366190 24.830995560 150.52767944 148.39453125  -999.250000 106.59483337 0.1630000025 0.1630000025
 957.06890869  -999.250000 17.985000610 -0.498844951  -999.250000 1.9240372181 24.829635620 151.00384521 148.61776733  -999.250000 107.78604889 0.1630000025 0.1630000025
 957.22131348  -999.250000 17.985000610 -0.454758525  -999.250000 1.9407888651 24.728704453 146.11276245 143.92884827  -999.250000 107.80004883 0.1630000025 0.1630000025
 957.37371826  -999.250000 17.985000610 -0.145423308  -999.250000 1.9520295858 24.654180527 143.15864563 140.89451599  -999.250000 107.81404877 0.1630000025 0.1630000025
