# LAS format log file from PETREL
# Project units are specified as depth units
#==================================================================
~Version information
VERS.   2.0:
WRAP.   NO:
#==================================================================
~Well
STRT .m      895.02691650 :
STOP .m      2933.5300293 :
STEP .m     0.00000000 :
NULL .        -999.250000 :
COMP.           : COMPANY
WELL.  31/4-5   : WELL
FLD.            : FIELD
LOC.            : LOCATION
SRVC.           : SERVICE COMPANY
DATE.  2018-09-11 14:48:38   : Log Export Date {yyyy-MM-dd HH:mm:ss}
PROV.           : PROVINCE
UWI.   31/4-5   : UNIQUE WELL ID
API.            : API NUMBER
#==================================================================
~Curve
DEPT .m                   : DEPTH
Lithology_geolink ._      : Lithology_geolink
CALI .in                  : CALI
DRHO .g/cm3               : DRHO
SGR .gAPI                 : SGR
NPHI .m3/m3               : NPHI
RHOB .g/cm3               : RHOB
PEF .b/e                  : PEF
GR .gAPI                  : GR
DTC .us/ft                : DTC
DTE .us/ft                : DTE
RDEP .ohm.m               : RDEP
SP .mV                    : SP
RSHA .ohm.m               : RSHA
RMIC .ohm.m               : RMIC
RMED .ohm.m               : RMED
~Parameter
#==================================================================
~Ascii
# ...
 2791.0358887 6.0000000000 8.2340002060 -0.004991987  -999.250000 0.3032500148 2.2611081600  -999.250000 131.08200073 98.138183594 98.064743042 0.7007401586 120.36157990 1.0352368355  -999.250000 1.0214229822
 2791.1884766 6.0000000000 8.2340002060 -0.000012800  -999.250000 0.2710799873 2.2878158092  -999.250000 130.17700195 98.503196716 98.451957703 0.7486836314 119.71985626 0.8469470143  -999.250000 0.8418750167
 2791.3408203 6.0000000000 8.2410001755 -0.003988782  -999.250000 0.2620300055 2.3531270027  -999.250000 124.28900146 98.101753235 98.004470825 0.7906287313 119.38651276 0.8160842061  -999.250000 0.8161680102
 2791.4931641 5.0000000000 8.3100004196 0.0031137820  -999.250000 0.2723200023 2.4563751221  -999.250000 111.39299774 97.022895813 97.044471741 0.8398999572 119.74723816 0.8498721123  -999.250000 0.8512339592
 2791.6455078 5.0000000000 8.5129995346 0.0740897432  -999.250000 0.2997400165 2.5591807365  -999.250000 100.58200073 95.027679443 95.011955261 0.8979678154 120.59389496 0.9218749404  -999.250000 0.9244840145
 2791.7978516 5.0000000000 8.8540000916 0.1301410198  -999.250000 0.3207799792 2.6004562378  -999.250000 96.134002686 91.877761841 91.828582764 0.9816704392 122.92137146 1.0698459148  -999.250000 1.0761827230
 2791.9504395 5.0000000000 9.1499996185 0.2178079933  -999.250000 0.3315000236 2.5544545650  -999.250000 101.56300354 87.930183411 87.892219543 1.1176068783 125.82489014 1.4304176569  -999.250000 1.4472500086
 2792.1027832 5.0000000000 9.2270002365 0.1580416709  -999.250000 0.3743099868 2.4695086479  -999.250000 111.84700012 83.568565369 83.475471497 1.3233077526 127.39154053 2.0986537933  -999.250000 2.1255054474
 2792.2551270 6.0000000000 9.1809997559 0.1839439124  -999.250000 0.3877800107 2.4038095474  -999.250000 124.30599976 79.367248535 79.323234558 1.6239999533 128.76380920 3.2300386429  -999.250000 3.2705481052
 2792.4074707 6.0000000000 9.0550003052 0.1489407122  -999.250000 0.4023199975 2.3737394810  -999.250000 126.12000275 78.105216980 78.037422180 2.1713075638 129.65481567 4.3383078575  -999.250000 4.3743495941
 2792.5600586 6.0000000000 8.9209995270 0.1120736003  -999.250000 0.3768500090 2.3833870888  -999.250000 123.43699646 78.393783569 78.305305481 2.9139871597 130.20118713 4.4818115234  -999.250000 4.4804034233
 2792.7124023 6.0000000000 8.7410001755 0.1350368708  -999.250000 0.3754600286 2.4212472439  -999.250000 123.12999725 79.673027039 79.590682983 3.4531538486 130.23548889 3.9611921310  -999.250000 3.9417040348
 2792.8647461 6.0000000000 8.7089996338 0.1580304503  -999.250000 0.3605500162 2.4567580223  -999.250000 119.17800140 82.396644592 82.439949036 3.7402307987 130.35774231 3.6798076630  -999.250000 3.6730194092
 2793.0170898 6.0000000000 9.0010004044 0.1769391000  -999.250000 0.3782300055 2.4682576656  -999.250000 117.60900116 84.383857727 84.438026428 3.7213461399 130.58090210 3.6785383224  -999.250000 3.6785383224
 2793.1696777 6.0000000000 9.1619997025 0.1387695968  -999.250000 0.4139100015 2.4599590302  -999.250000 117.61499786 85.876144409 85.794586182 3.7238621712 131.51742554 3.5393188000  -999.250000 3.5352597237
 2793.3220215 6.0000000000 8.9090003967 0.0669198707  -999.250000 0.4387300014 2.4539921284  -999.250000 114.30599976 85.298004150 85.304046631 4.0444126129 131.59132385 3.5873599052  -999.250000 3.5900800228
 2793.4743652 5.0000000000 8.6820001602 0.0170064103  -999.250000 0.4107099771 2.4606037140  -999.250000 110.22399902 83.830184937 83.791435242 4.6424231529 130.49876404 3.8065385818  -999.250000 3.8161473274
 2793.6267090 5.0000000000 8.7279996872 0.0210881401  -999.250000 0.3700099885 2.4638509750  -999.250000 98.947998047 80.189842224 80.281173706 5.0953845978 130.16007996 4.4611926079  -999.250000 4.4879298210
 2793.7790527 5.0000000000 8.7600002289 0.0761185884  -999.250000 0.3645299971 2.4406421185  -999.250000 100.40100098 76.633590698 76.664634705 5.4280772209 130.38475037 5.6691155434  -999.250000 5.7126088142
 2793.9316406 5.0000000000 8.9750003815 0.1499296129  -999.250000 0.3770700097 2.3806498051  -999.250000 96.391998291 75.480476379 75.445762634 5.7861824036 130.33732605 6.5008354187  -999.250000 6.5225648880
 2794.0839844 5.0000000000 9.6490001678 0.1278910339  -999.250000 0.3866400123 2.3004472256  -999.250000 95.713996887 75.066215515 75.030822754 5.5688076019 129.72352600 6.2370386124  -999.250000 6.2231860161
 2794.2363281 6.0000000000 10.277999878 0.0599374995  -999.250000 0.4010800123 2.2379970551  -999.250000 108.33100128 75.511848450 75.494125366 4.7919230461 129.68511963 5.6761541367  -999.250000 5.6570830345
 2794.3886719 6.0000000000 10.534000397 0.0210048072  -999.250000 0.4172399938 2.2154066563  -999.250000 130.12800598 77.613296509 77.542564392 4.2358846664 130.04804993 5.0808849335  -999.250000 5.0572052002
 2794.5412598 6.0000000000 10.604999542 0.0241599996  -999.250000 0.4179499745 2.2239427567  -999.250000 159.15600586 82.930114746 83.005104065 3.8919792175 130.30111694 3.9157328606  -999.250000 3.8703222275
 2794.6936035 6.0000000000 10.402000427 0.0740945488  -999.250000 0.4124200046 2.2429161072  -999.250000 149.38200378 90.762596130 90.713531494 3.3923461437 130.63807678 2.5309998989  -999.250000 2.4856142998
 2794.8459473 6.0000000000 9.9440002441 0.1330865324  -999.250000 0.4219200015 2.2557754517  -999.250000 135.09199524 97.749671936 97.769783020 2.9843461514 131.07150269 2.0036537647  -999.250000 1.9904456139
 2794.9982910 5.0000000000 9.6149997711 0.1870352626  -999.250000 0.4260900021 2.2525520325  -999.250000 105.85099792 103.57045746 103.62756348 2.8478846550 130.27215576 1.8233076334  -999.250000 1.8181442022
 2795.1508789 5.0000000000 9.4829998016 0.2089520097  -999.250000 0.4158000052 2.2291774750  -999.250000 105.26100159 104.86798859 104.93440247 2.5329134464 130.99937439 1.8609455824  -999.250000 1.8635914326
 2795.3032227 5.0000000000 9.4469995499 0.1939294934  -999.250000 0.4089400172 2.1897368431  -999.250000 106.29599762 101.32982635 101.43344116 2.2816479206 132.47061157 1.9821392298  -999.250000 1.9867343903
 2795.4555664 5.0000000000 9.4770002365 0.1499166787  -999.250000 0.4179499745 2.1514654160  -999.250000 106.54699707 95.505638123 95.472007751 2.1964998245 131.19006348 2.1341152191  -999.250000 2.1391794682
 2795.6079102 5.0000000000 9.4589996338 0.0980352536  -999.250000 0.4348199964 2.1437330246  -999.250000 106.84899902 91.977066040 91.909957886 2.2013845444 130.29447937 2.1935768127  -999.250000 2.1956346035
 2795.7602539 5.0000000000 9.4370002747 0.1199759990  -999.250000 0.4590100050 2.1815972328  -999.250000 108.07800293 92.173904419 92.197898865 2.2949998379 132.18927002 2.3856539726  -999.250000 2.3933012486
 2795.9128418 5.0000000000 9.4239997864 0.1051298007  -999.250000 0.4544300139 2.2569100857  -999.250000 113.79399872 92.302001953 92.375183105 2.4397199154 133.01182556 2.4843232632  -999.250000 2.4877104759
 2796.0651855 5.0000000000 9.3900003433 0.1860240400  -999.250000 0.4564400017 2.3352446556  -999.250000 108.70600128 91.576545715 91.666076660 2.5277690887 132.46392822 2.6302306652  -999.250000 2.6354038715
 2796.2175293 6.0000000000 9.4209995270 0.2010865360  -999.250000 0.4483100176 2.3738498688  -999.250000 109.33200073 89.957969666 90.066383362 2.7236537933 131.68592834 2.7568075657  -999.250000 2.7618365288
 2796.3698730 6.0000000000 9.4429998398 0.2547916472  -999.250000 0.4676200151 2.3634874821  -999.250000 118.37599945 87.270477295 87.353477478 2.9328846931 131.47830200 3.0133845806  -999.250000 3.0223302841
 2796.5224609 6.0000000000 9.2250003815 0.1246960014  -999.250000 0.4582300186 2.3512432575  -999.250000 131.27600098 85.927001953 86.013534546 3.1003375053 131.37724304 3.1228623390  -999.250000 3.1252691746
 2796.6748047 6.0000000000 8.8079996109 0.0299310889  -999.250000 0.4529800117 2.4001641273  -999.250000 137.86700439 86.849990845 86.948371887 3.3313076496 131.09645081 3.1798846722  -999.250000 3.1806015968
 2796.8271484 6.0000000000 8.4739999771 -0.012969552  -999.250000 0.4231499732 2.5000605583  -999.250000 133.56900024 86.136314392 86.234512329 3.8066153526 130.72773743 3.1010768414  -999.250000 3.0980546474
