# LAS format log file from PETREL
# Project units are specified as depth units
#==================================================================
~Version information
VERS.   2.0:
WRAP.   NO:
#==================================================================
~Well
STRT .m      860.54608154 :
STOP .m      3158.4321289 :
STEP .m     0.00000000 :
NULL .        -999.250000 :
COMP.           : COMPANY
WELL.  31/4-4   : WELL
FLD.            : FIELD
LOC.            : LOCATION
SRVC.           : SERVICE COMPANY
DATE.  2018-09-11 14:48:37   : Log Export Date {yyyy-MM-dd HH:mm:ss}
PROV.           : PROVINCE
UWI.   31/4-4   : UNIQUE WELL ID
API.            : API NUMBER
#==================================================================
~Curve
DEPT .m                   : DEPTH
Lithology_geolink ._      : Lithology_geolink
CALI .in                  : CALI
DRHO .g/cm3               : DRHO
NPHI .m3/m3               : NPHI
RHOB .g/cm3               : RHOB
GR .gAPI                  : GR
DTC .us/ft                : DTC
DTE .us/ft                : DTE
RDEP .ohm.m               : RDEP
SP .mV                    : SP
RSHA .ohm.m               : RSHA
RMED .ohm.m               : RMED
~Parameter
#==================================================================
~Ascii
# ...
 2996.5834961 6.0000000000 12.616999626 0.0080000004 0.2626999915 2.5757367611 111.18679810 81.731864929 80.482345581 4.7071375847 75.076240540 6.7926125526 6.7926125526
 2996.7358398 6.0000000000 12.616999626 0.0270000007 0.2792400122 2.5822682381 110.44691467 81.752838135 80.430656433 4.7931685448 75.849563599 6.5506300926 6.5506300926
 2996.8881836 6.0000000000 12.616999626 0.0329999998 0.2755299807 2.5934648514 115.99939728 81.117042542 79.870506287 4.8981952667 75.581130981 6.3196187019 6.3196187019
 2997.0407715 6.0000000000 12.616999626 0.0460000001 0.2640500069 2.6020593643 115.60279846 80.338478088 79.039146423 5.0202846527 75.660743713 6.0821757317 6.0821757317
 2997.1931152 6.0000000000 12.616999626 0.0540000014 0.2712500095 2.6137256622 108.67968750 79.096809387 77.811515808 5.1090517044 75.268928528 6.1381764412 6.1381764412
 2997.3454590 6.0000000000 12.616999626 0.0230000000 0.2903899848 2.5937485695 103.49178314 78.415962219 77.040573120 5.1410799026 75.223526001 6.8726840019 6.8726840019
 2997.4978027 5.0000000000 12.616999626 0.0089999996 0.2815600038 2.5717511177 98.375000000 77.434715271 76.133155823 5.1910448074 74.303962708 7.9225001335 7.9225001335
 2997.6503906 5.0000000000 12.616999626 -0.006000000 0.2708500028 2.5591216087 98.344802856 76.473846436 75.351974487 5.2190351486 73.036201477 8.2322626114 8.2322626114
 2997.8027344 5.0000000000 12.616999626 -0.002000000 0.2383700013 2.5547425747 88.935096741 76.803840637 75.534606934 5.2299566269 72.786598206 7.6901555061 7.6901555061
 2997.9550781 5.0000000000 12.616999626 -0.009000000 0.2496100068 2.5458936691 87.128707886 77.362564087 76.057167053 5.2028622627 72.537666321 7.1636428833 7.1636428833
 2998.1074219 5.0000000000 12.616999626 0.0030000000 0.2613400221 2.5395083427 89.444709778 78.621543884 77.289955139 5.1167998314 72.949539185 6.9406056404 6.9406056404
 2998.2600098 5.0000000000 12.616999626 -0.008000000 0.2711700201 2.5389738083 93.648399353 79.699737549 78.459251404 4.9916386604 72.663223267 6.6937136650 6.6937136650
 2998.4123535 5.0000000000 12.616999626 -0.005000000 0.2771599889 2.5419769287 100.93650055 80.314781189 79.006927490 4.8787999153 73.044692993 6.2922420502 6.2922420502
 2998.5646973 5.0000000000 12.616999626 -0.011000000 0.2645599842 2.5484864712 100.00320435 80.401893616 79.075286865 4.7538061142 73.476150513 5.8194999695 5.8194999695
 2998.7170410 5.0000000000 12.616999626 0.0109999999 0.2575399876 2.5676376820 101.99238586 80.322914124 78.993949890 4.6328301430 74.195549011 5.5081682205 5.5081682205
 2998.8693848 5.0000000000 12.616999626 0.0060000001 0.2601599991 2.5690124035 97.252304077 80.099212646 78.788093567 4.5268573761 75.161834717 5.6134519577 5.6134519577
 2999.0219727 5.0000000000 12.616999626 -0.007000000 0.2578899860 2.5478301048 98.676406860 78.649520874 77.241836548 4.4378724098 75.059341431 5.8955726624 5.8955726624
 2999.1743164 5.0000000000 12.616999626 -0.014000000 0.2587600052 2.5254764557 95.069412231 78.234832764 76.899009705 4.3980059624 76.099349976 6.0739760399 6.0739760399
 2999.3266602 5.0000000000 12.616999626 -0.026000001 0.2587899864 2.5171563625 99.068710327 78.515754700 77.379539490 4.4021072388 75.694549561 6.0587115288 6.0587115288
 2999.4790039 6.0000000000 12.616999626 -0.013000000 0.2876199782 2.5326504707 102.63341522 78.746185303 77.511596680 4.4690432549 76.037002563 5.8791060448 5.8791060448
 2999.6315918 6.0000000000 12.616999626 -0.013000000 0.2923600078 2.5396726131 107.87080383 79.362411499 78.157775879 4.4958620071 76.037002563 5.9461522102 5.9461522102
 2999.7839355 6.0000000000 12.616999626 0.0049999999 0.2726300061 2.5477037430 106.56019592 79.725593567 78.424980164 4.4528622627 76.037422180 6.3055381775 6.3055381775
 2999.9362793 6.0000000000 12.609000206 -0.007000000 0.2412000149 2.5374827385 104.81961060 79.152526855 77.805000305 4.3668942451 76.299781799 6.6408362389 6.6408362389
 3000.0886230 6.0000000000 12.593999863 -0.009000000 0.2340900004 2.5247745514 108.94671631 79.539657593 78.140258789 4.3010931015 76.161750793 6.5380239487 6.5380239487
 3000.2412109 6.0000000000 12.586000443 -0.016000001 0.2504299879 2.5222749710 114.36040497 81.251258850 79.925094604 4.3600144386 76.004104614 5.9275231361 5.9275231361
 3000.3935547 6.0000000000 12.586000443 -0.013000000 0.2613700032 2.5265734196 109.81700897 83.296424866 81.964729309 4.6766633987 75.099578857 5.1556124687 5.1556124687
 3000.5458984 6.0000000000 12.585000038 -0.008000000 0.2953300178 2.5461831093 112.30909729 84.331542969 83.108749390 5.0904569626 74.837417603 4.9157900810 4.9157900810
 3000.6982422 6.0000000000 12.571000099 -0.012000000 0.3134000003 2.5532605648 109.88160706 84.153816223 82.918334961 5.3752756119 74.473655701 6.0365595818 6.0365595818
 3000.8505859 6.0000000000 12.569999695 -0.011000000 0.2879700065 2.5609128475 113.98948669 81.873100281 80.597541809 5.5472497940 73.636138916 9.5073747635 9.5073747635
 3001.0031738 6.0000000000 12.569999695 -0.007000000 0.2426799983 2.5746316910 107.42100525 77.320793152 76.091888428 5.7030639648 73.100776672 14.097497940 14.097497940
 3001.1555176 16.000000000 12.569999695 0.0179999992 0.1986000091 2.6030673981 102.11808777 73.812911987 72.534820557 5.7228860855 73.343315125 12.690168381 12.690168381
 3001.3078613 16.000000000 12.569999695 0.0299999993 0.2209399939 2.6235578060 97.816711426 72.795402527 71.498497009 5.6517195702 73.536560059 9.6772823334 9.6772823334
 3001.4602051 16.000000000 12.571000099 0.0099711539 0.2372800112 2.6043176651 100.12820435 73.993240356 72.665679932 5.4765305519 73.262840271 7.9824361801 7.9824361801
 3001.6127930 16.000000000 12.586000443 -0.008006400 0.2576400042 2.5724928379 102.12139893 76.974693298 75.670799255 5.1830978394 73.786346436 7.0055007935 7.0055007935
 3001.7651367 16.000000000 12.616000175 -0.009996795 0.2753199935 2.5699913502 101.00420380 78.811218262 77.482971191 4.9016313553 73.582031250 6.2257227898 6.2257227898
 3001.9174805 5.0000000000 12.616999626 -0.007993590 0.2754099965 2.5840461254 103.62189484 80.518684387 79.269935608 4.6717371941 74.225547791 5.4292163849 5.4292163849
 3002.0698242 5.0000000000 12.616999626 -0.004009616 0.2999700010 2.5878875256 101.70132446 82.124267578 80.875946045 4.5077610016 74.569953918 4.9407753944 4.9407753944
 3002.2224121 5.0000000000 12.616999626 -0.009974400 0.3225199878 2.5641667843 109.97840118 82.801551819 81.496498108 4.3586516380 75.163887024 4.8021359444 4.8021359444
 3002.3747559 5.0000000000 12.616999626 -0.001998398 0.3322199881 2.5457286835 103.25560760 82.444694519 81.008903503 4.2499437332 75.749656677 5.1571092606 5.1571092606
 3002.5270996 5.0000000000 12.616999626 -0.000977564 0.3140600026 2.5381081104 106.74659729 81.138740540 79.860412598 4.2150692940 75.538253784 5.8491697311 5.8491697311
 3002.6794434 5.0000000000 12.616999626 0.0129695516 0.2813400030 2.5486340523 104.62950897 80.838729858 79.605972290 4.2581939697 76.319053650 6.5784502029 6.5784502029
 3002.8317871 5.0000000000 12.616999626 -0.006003200 0.2930299938 2.5434188843 107.43109894 81.230949402 79.924041748 4.3792624474 76.351051331 6.8590388298 6.8590388298
 3002.9843750 5.0000000000 12.616999626 -0.007990385 0.3123599887 2.5442886353 103.11798859 81.886375427 80.608901978 4.5432133675 77.005844116 6.8828558922 6.8828558922
 3003.1367188 5.0000000000 12.616999626 -0.001975962 0.3191399872 2.5480389595 98.748298645 82.623779297 81.240379333 4.6761059761 76.911384583 6.7926254272 6.7926254272
 3003.2890625 5.0000000000 12.616999626 0.0130208340 0.3065499961 2.5521368980 97.697517395 83.083496094 81.749877930 4.7419567108 76.524215698 6.5588059425 6.5588059425
 3003.4414063 5.0000000000 12.616999626 0.0259759612 0.2763699889 2.5546169281 103.62590027 83.316513062 82.028793335 4.7149119377 76.036125183 6.4378108978 6.4378108978
 3003.5939941 6.0000000000 12.616999626 0.0110671995 0.2649900019 2.5489637852 104.19280243 83.989097595 82.683441162 4.6596636772 75.486557007 6.3195648193 6.3195648193
 3003.7463379 6.0000000000 12.618000984 0.0319471173 0.2986800075 2.5545279980 105.69271088 83.798667908 82.460227966 4.5549373627 75.035140991 6.1834983826 6.1834983826
