# LAS format log file from PETREL
# Project units are specified as depth units
#==================================================================
~Version information
VERS.   2.0:
WRAP.   NO:
#==================================================================
~Well
STRT .m      898.43609619 :
STOP .m      2454.1354980 :
STEP .m     0.00000000 :
NULL .        -999.250000 :
COMP.           : COMPANY
WELL.  31/4-6   : WELL
FLD.            : FIELD
LOC.            : LOCATION
SRVC.           : SERVICE COMPANY
DATE.  2018-09-11 14:48:38   : Log Export Date {yyyy-MM-dd HH:mm:ss}
PROV.           : PROVINCE
UWI.   31/4-6   : UNIQUE WELL ID
API.            : API NUMBER
#==================================================================
~Curve
DEPT .m                   : DEPTH
Lithology_geolink ._      : Lithology_geolink
CALI .in                  : CALI
DRHO .g/cm3               : DRHO
NPHI .m3/m3               : NPHI
RHOB .g/cm3               : RHOB
GR .gAPI                  : GR
DTC .us/ft                : DTC
DTE .us/ft                : DTE
RDEP .ohm.m               : RDEP
SP .mV                    : SP
RSHA .ohm.m               : RSHA
RMED .ohm.m               : RMED
~Parameter
#==================================================================
~Ascii
# ...
 2134.7050781 7.0000000000 12.739999771 -0.011000000 0.4522090256 2.1561415195 150.12500000 136.46577454 131.94711304 1.5570000410 57.049999237 1.4919999838 2.3399999142
 2134.8574219 7.0000000000 12.508000374 -0.011000000 0.4494044483 2.1519958973 163.25000000 139.08366394 134.62899780 1.2890000343 58.549999237 1.4650431871 2.2850000858
 2135.0097656 7.0000000000 12.456000328 -0.010001603 0.4517762065 2.1703999043 182.12500000 140.27168274 135.70973206 1.1069999933 60.174999237 1.4120848179 2.0659999847
 2135.1621094 7.0000000000 12.369999886 0.0009823719 0.4449120462 2.2294459343 195.87500000 131.50657654 126.96450806 1.1640000343 62.424999237 1.3870400190 1.2029999495
 2135.3146973 7.0000000000 12.273999214 0.0289999992 0.4058826268 2.3214302063 183.50000000 119.63636017 115.03392792 1.1900000572 62.549999237 1.3229999542 0.7990000248
 2135.4670410 7.0000000000 12.427000999 0.0560000017 0.3560299277 2.3980338573 154.00000000 108.84219360 104.30450439 1.2410000563 60.549999237 0.5339999795 0.8349999785
 2135.6193848 7.0000000000 12.666999817 0.0300415996 0.3282944262 2.4083750248 114.31300354 99.338027954 94.739105225 1.2879999876 58.424999237 3.2206943035 1.5779999495
 2135.7717285 7.0000000000 12.805000305 -0.010934295 0.3273329735 2.3828959465 89.313003540 97.320632935 92.900428772 1.3339999914 56.924999237 6.8032565117 3.5639998913
 2135.9243164 6.0000000000 12.852000237 -0.023000000 0.3451214433 2.3667752743 80.750000000 98.831588745 94.542816162 1.4839999676 55.924999237 6.4099998474 4.6479997635
 2136.0766602 6.0000000000 12.880000114 -0.021000000 0.3659965396 2.3668122292 75.438003540 100.74896240 96.211936951 1.9819999933 54.924999237 6.7459998131 4.4180002213
 2136.2290039 6.0000000000 12.890998840 -0.011016000 0.3741968870 2.3768582344 70.125000000 100.23242950 95.696479797 2.6389999390 54.174999237 6.4884128571 4.3200001717
 2136.3813477 6.0000000000 12.880000114 -0.010001603 0.3703062534 2.3889708519 69.000000000 101.86219788 97.319900513 3.2709999084 53.174999237 6.2304134369 4.3130002022
 2136.5336914 6.0000000000 12.869999886 -0.009001602 0.3687748909 2.4001665115 70.125000000 103.36854553 98.790969849 3.8259999752 52.674999237 6.2729306221 4.3439998627
 2136.6862793 6.0000000000 12.845999718 -0.009000000 0.3759185076 2.3995928764 72.250000000 101.80157471 97.356895447 4.0939998627 51.799999237 6.4180002213 4.3949999809
 2136.8386230 6.0000000000 12.793999672 -0.010996800 0.3662854433 2.3838129044 73.375000000 101.31531525 96.741241455 3.7829999924 51.424999237 6.5657629967 4.4489998817
 2136.9909668 6.0000000000 12.758000374 -0.010001603 0.3634645045 2.3669209480 72.438003540 101.12680054 96.570724487 3.6480000019 50.799999237 6.4412002563 4.4800000191
 2137.1433105 6.0000000000 12.750000000 -0.009001602 0.3424175680 2.3612582684 73.375000000 101.07711029 96.501724243 3.6349999905 50.424999237 6.6207113266 4.4219999313
 2137.2958984 6.0000000000 12.733999252 -0.008000000 0.3577053547 2.3607850075 69.250000000 100.85441589 96.315841675 3.6329998970 49.799999237 6.5120000839 4.2969999313
 2137.4482422 6.0000000000 12.727001190 -0.012000000 0.3441317976 2.3582377434 71.563003540 100.59439087 96.010284424 3.5999999046 49.299999237 6.7340002060 4.1719999313
 2137.6005859 6.0000000000 12.737001419 -0.016992001 0.3520372808 2.3523292542 70.125000000 100.06128693 95.557029724 3.5659999847 48.924999237 6.5982174873 4.1020002365
 2137.7529297 6.0000000000 12.746999741 -0.016001603 0.3471257687 2.3500041962 68.375000000 99.884613037 95.433235168 3.5139999390 48.299999237 6.5630564690 4.0549998283
 2137.9055176 6.0000000000 12.760000229 -0.010000000 0.3581322730 2.3522791862 63.437999725 99.712303162 95.448692322 3.4409999847 48.174999237 6.5700001717 4.0079998970
 2138.0578613 6.0000000000 12.781000137 -0.010000000 0.3500429988 2.3520114422 67.375000000 99.857902527 95.326622009 3.3129999638 47.674999237 6.3010001183 3.9690001011
 2138.2102051 6.0000000000 12.793999672 -0.015990401 0.3302916884 2.3512792587 71.313003540 100.12310791 95.518974304 3.2209999561 47.674999237 6.3549137115 3.9219999313
 2138.3625488 6.0000000000 12.807000160 -0.020991987 0.3088743389 2.3530125618 70.313003540 99.884613037 95.395263672 3.1860001087 47.299999237 6.0474934578 3.8650000095
 2138.5148926 5.0000000000 12.817999840 -0.017006410 0.3099962771 2.3636083603 66.438003540 99.662551880 95.023056030 3.1389999390 47.299999237 5.8013944626 3.7950000763
 2138.6674805 5.0000000000 12.819999695 -0.007000000 0.3195047379 2.3795895576 62.844001770 99.419479370 94.803993225 3.1310000420 46.924999237 5.4840002060 3.7269999981
 2138.8198242 5.0000000000 12.814999580 -0.003006400 0.3293342590 2.3865323067 67.500000000 98.880218506 94.314445496 3.1579999924 47.049999237 5.2583613396 3.6879999638
 2138.9721680 5.0000000000 12.812999725 -0.005995193 0.3262949288 2.3846292496 66.375000000 98.552886963 94.082534790 3.1679999828 47.049999237 5.0473380089 3.6779999733
 2139.1245117 5.0000000000 12.786000252 -0.012988782 0.3376136422 2.3791959286 68.688003540 98.741699219 94.179550171 3.1879999638 47.049999237 5.1797866821 3.7030000687
 2139.2770996 5.0000000000 12.737001419 -0.016000001 0.3410545290 2.3775508404 65.938003540 98.758537292 94.237953186 3.2290000916 47.174999237 5.4409999847 3.7599999905
 2139.4294434 5.0000000000 12.718999863 -0.012000000 0.3549576998 2.3796229362 62.437999725 98.805091858 94.293663025 3.2909998894 47.424999237 5.7620000839 3.8159999847
 2139.5817871 5.0000000000 12.718999863 -0.012000000 0.3475419283 2.3781166077 65.625000000 98.642326355 94.084632874 3.3110001087 47.424999237 5.7460255623 3.8610000610
 2139.7341309 5.0000000000 12.718999863 -0.011001603 0.3347011805 2.3788416386 59.155998230 98.314392090 93.921371460 3.2990000248 47.299999237 5.7030692101 3.9059998989
 2139.8867188 5.0000000000 12.718999863 -0.010000000 0.3334419727 2.3837027550 62.655998230 98.620086670 94.267822266 3.3459999561 47.799999237 6.1290001869 3.9179999828
 2140.0390625 5.0000000000 12.739999771 -0.009000000 0.3381923735 2.3876030445 62.062999725 99.093284607 94.575225830 3.3689999580 47.799999237 6.3709998131 3.9140000343
 2140.1914063 5.0000000000 12.760000229 -0.010996800 0.3683016896 2.3896458149 71.188003540 99.467239380 94.996055603 3.3889999390 48.174999237 5.8448429108 3.9649999142
 2140.3437500 6.0000000000 12.812999725 -0.012996796 0.3990007937 2.3907208443 76.813003540 100.51066589 96.028999329 3.4300000668 48.299999237 6.3541812897 3.9939999580
 2140.4960938 6.0000000000 12.892999649 -0.008008013 0.4092074037 2.3930957317 76.313003540 101.05311584 96.603149414 3.4319999218 48.549999237 6.1762871742 4.0390000343
 2140.6486816 6.0000000000 12.921999931 -0.005000000 0.3982076943 2.3932795525 67.688003540 101.81352997 97.308288574 3.4389998913 48.674999237 5.9409999847 4.1129999161
 2140.8010254 6.0000000000 12.921999931 -0.005998400 0.3734496832 2.3865916729 64.563003540 102.36898804 97.833251953 3.4300000668 48.549999237 6.7327313423 4.1880002022
 2140.9533691 6.0000000000 12.921999931 -0.009993589 0.3500774801 2.3792250156 64.125000000 102.55780029 98.088912964 3.3949999809 48.424999237 6.5393123627 4.2699999809
 2141.1057129 6.0000000000 12.921999931 -0.009001602 0.3561204672 2.3766083717 70.688003540 102.45842743 97.890144348 3.3750000000 48.174999237 6.6518187523 4.3010001183
 2141.2583008 6.0000000000 12.921999931 -0.007000000 0.3650956452 2.3809795380 69.750000000 102.09649658 97.633331299 3.3629999161 48.299999237 6.7420001030 4.2620000839
 2141.4106445 6.0000000000 12.916999817 -0.006000000 0.3926657736 2.3885366917 65.750000000 102.08993530 97.564369202 3.3670001030 48.049999237 6.9060001373 4.0780000687
 2141.5629883 6.0000000000 12.887999535 -0.006000000 0.4011664391 2.3922207355 68.813003540 101.74292755 97.155967712 3.3910000324 48.299999237 6.3369121552 3.8540000916
 2141.7153320 6.0000000000 12.854000092 -0.010991987 0.3975915313 2.3864374161 66.313003540 101.21623993 96.830009460 3.3980000019 48.174999237 6.3399939537 3.7850000858
 2141.8679199 6.0000000000 12.828000069 -0.014000000 0.3905712366 2.3771302700 68.313003540 100.71597290 96.426666260 3.4200000763 48.299999237 5.3750000000 3.9730000496
