# LAS format log file from PETREL
# Project units are specified as depth units
#==================================================================
~Version information
VERS.   2.0:
WRAP.   NO:
#==================================================================
~Well
STRT .m      860.54608154 :
STOP .m      3158.4321289 :
STEP .m     0.00000000 :
NULL .        -999.250000 :
COMP.           : COMPANY
WELL.  31/4-4   : WELL
FLD.            : FIELD
LOC.            : LOCATION
SRVC.           : SERVICE COMPANY
DATE.  2018-09-11 14:48:37   : Log Export Date {yyyy-MM-dd HH:mm:ss}
PROV.           : PROVINCE
UWI.   31/4-4   : UNIQUE WELL ID
API.            : API NUMBER
#==================================================================
~Curve
DEPT .m                   : DEPTH
Lithology_geolink ._      : Lithology_geolink
CALI .in                  : CALI
DRHO .g/cm3               : DRHO
NPHI .m3/m3               : NPHI
RHOB .g/cm3               : RHOB
GR .gAPI                  : GR
DTC .us/ft                : DTC
DTE .us/ft                : DTE
RDEP .ohm.m               : RDEP
SP .mV                    : SP
RSHA .ohm.m               : RSHA
RMED .ohm.m               : RMED
~Parameter
#==================================================================
~Ascii
# ...
 3150.2023926  -999.250000 12.404999733 0.0130000003 0.2095400095 2.3827149868 137.00000000  -999.250000  -999.250000 2.9609999657 105.55000305 3.0920000076 3.0920000076
 3150.3547363  -999.250000 12.406000137 0.0160000008 0.1920000017 2.3979766369 137.00000000  -999.250000  -999.250000 3.0720000267 105.41200256 2.8459999561 2.8459999561
 3150.5073242  -999.250000 12.397999763 0.0130000003 0.1937700063 2.3998789787 137.00000000  -999.250000  -999.250000 3.1310000420 105.50599670 2.6429998875 2.6429998875
 3150.6596680  -999.250000 12.375999451 0.0149999997 0.1739600003 2.3975367546 137.00000000  -999.250000  -999.250000 3.1679999828 106.84999847 2.4839999676 2.4839999676
 3150.8120117  -999.250000 12.385000229 0.0469999984 0.1794800013 2.4219830036 137.00000000  -999.250000  -999.250000 3.0999999046 106.92500305 2.6040000916 2.6040000916
 3150.9643555  -999.250000 12.446000099 0.0560000017 0.1640900075 2.4557459354 137.00000000  -999.250000  -999.250000 3.0350000858 106.59999847 2.9920001030 2.9920001030
 3151.1166992  -999.250000 12.538999557 0.0599999987 0.1824799925 2.4855022430 137.00000000  -999.250000  -999.250000 3.0160000324 105.82499695 3.5120000839 3.5120000839
 3151.2692871  -999.250000 12.612000465 0.0350000001 0.1920999885 2.4768834114 137.00000000  -999.250000  -999.250000 3.0039999485 105.84999847 3.8110001087 3.8110001087
 3151.4216309  -999.250000 12.522998810 0.0329999998 0.2094300091 2.4556245804 137.00000000  -999.250000  -999.250000 2.9649999142 106.43699646 3.7460000515 3.7460000515
 3151.5739746  -999.250000 12.424000740 0.0209999997 0.2104299963 2.4224095345 137.00000000  -999.250000  -999.250000 2.8519999981 105.72499847 3.4879999161 3.4879999161
 3151.7263184  -999.250000 12.399000168 0.0199999996 0.2246299982 2.3962872028 137.00000000  -999.250000  -999.250000 2.7460000515 104.59999847 3.2170000076 3.2170000076
 3151.8789063  -999.250000 12.381999969 0.0350000001 0.2269899994 2.3895411491 137.00000000  -999.250000  -999.250000 2.6519999504 103.47499847 2.9769999981 2.9769999981
 3152.0312500  -999.250000 12.333999634 0.0289999992 0.2137999982 2.3763194084 137.00000000  -999.250000  -999.250000 2.5529999733 102.33300018 2.9800000191 2.9800000191
 3152.1835938  -999.250000 12.213000298 0.0289999992 0.1949500144 2.3572773933 137.00000000  -999.250000  -999.250000 2.5000000000 101.53700256 3.1329998970 3.1329998970
 3152.3359375  -999.250000 12.145000458 0.0219999999 0.1905499995 2.3426864147 137.00000000  -999.250000  -999.250000 2.5139999390 101.76300049 3.0720000267 3.0720000267
 3152.4885254  -999.250000 12.201000214 0.0329999998 0.1946800053 2.3496904373 137.00000000  -999.250000  -999.250000 2.5529999733 101.78700256 2.9340000153 2.9340000153
 3152.6408691  -999.250000 12.210000038 0.0260000005 0.1900900006 2.3689324856 137.00000000  -999.250000  -999.250000 2.5550000668 102.19300079 2.8829998970 2.8829998970
 3152.7932129  -999.250000 12.190999985 0.0160000008 0.1856900007 2.3796005249 137.00000000  -999.250000  -999.250000 2.5610001087 102.34999847 2.8829998970 2.8829998970
 3152.9455566  -999.250000 12.260999680 0.0189999994 0.1779800057 2.3892996311 137.00000000  -999.250000  -999.250000 2.5639998913 102.46299744 2.8770000935 2.8770000935
 3153.0979004  -999.250000 11.977999687 0.0450000018 0.1744300127 2.4005918503 137.00000000  -999.250000  -999.250000 2.5629999638 102.47499847 2.8770000935 2.8770000935
 3153.2504883  -999.250000 11.954999924 0.0579999983 0.1615300030 2.4104852676 137.00000000  -999.250000  -999.250000 2.5680000782 102.62500000 2.8750000000 2.8750000000
 3153.4028320  -999.250000 11.987000465 0.0529999994 0.1611300111 2.4061300755 137.00000000  -999.250000  -999.250000 2.5659999847 102.47499847 2.8770000935 2.8770000935
 3153.5551758  -999.250000 11.858000755 0.0329999998 0.1616099924 2.3948948383 137.00000000  -999.250000  -999.250000 2.5720000267 101.75000000 2.8710000515 2.8710000515
 3153.7075195  -999.250000 11.904000282 0.0419999994 0.1611499935 2.4074175358 137.00000000  -999.250000  -999.250000 2.5780000687 101.22499847 2.8710000515 2.8710000515
 3153.8601074  -999.250000 11.897999763 0.0379999988 0.1611300111 2.4225647449 137.00000000  -999.250000  -999.250000 2.5799999237 101.66200256 2.8710000515 2.8710000515
 3154.0124512  -999.250000 11.883000374 0.0630000010 0.1611300111 2.4477989674 137.00000000  -999.250000  -999.250000 2.5859999657 99.599998474 2.8710000515 2.8710000515
 3154.1647949  -999.250000 11.882000923 0.0680000037 0.1611300111 2.4571642876 137.00000000  -999.250000  -999.250000 2.5880000591 99.530998230 2.8710000515 2.8710000515
 3154.3171387  -999.250000 11.859999657 0.0850000009 0.1616099924 2.4680113792 137.00000000  -999.250000  -999.250000 2.5859999657 99.912002563 2.8710000515 2.8710000515
 3154.4697266  -999.250000 11.859999657 0.0610000007 0.1616200060 2.4661834240 137.00000000  -999.250000  -999.250000 2.5840001106 99.719001770 2.8710000515 2.8710000515
 3154.6220703  -999.250000 11.875000954 0.0460000001 0.1611499935 2.4460575581 137.00000000  -999.250000  -999.250000 2.5840001106 99.474998474 2.8710000515 2.8710000515
 3154.7744141  -999.250000 11.875000954 0.0270000007 0.1611300111 2.4270715714 137.00000000  -999.250000  -999.250000 2.5840001106 100.36199951 2.8710000515 2.8710000515
 3154.9267578  -999.250000 11.875000954 0.0140000004 0.1611300111 2.4068493843 137.00000000  -999.250000  -999.250000 2.5840001106  -999.250000 2.8710000515 2.8710000515
 3155.0791016  -999.250000 11.875000954 0.0109999999 0.1611300111 2.4057874680 137.00000000  -999.250000  -999.250000 2.5840001106  -999.250000 2.8710000515 2.8710000515
 3155.2316895  -999.250000 11.859999657 0.0299999993 0.1616099924 2.4241788387 137.00000000  -999.250000  -999.250000 2.5840001106  -999.250000 2.8710000515 2.8710000515
 3155.3840332  -999.250000 11.859000206 0.0590000004 0.1616200060 2.4521222115 137.00000000  -999.250000  -999.250000 2.5840001106 48.730998993 2.8710000515 2.8710000515
 3155.5363770  -999.250000 11.859000206 0.0599999987 0.1616200060 2.4642658234 137.00000000  -999.250000  -999.250000 2.5840001106  -999.250000 2.8710000515 2.8710000515
 3155.6887207  -999.250000 11.859000206 0.0509999990 0.1616200060 2.4512526989  -999.250000  -999.250000  -999.250000  -999.250000  -999.250000  -999.250000  -999.250000
 3155.8413086  -999.250000 11.859000206 0.0529999994 0.1616200060 2.4441244602  -999.250000  -999.250000  -999.250000  -999.250000  -999.250000  -999.250000  -999.250000
 3155.9936523  -999.250000 11.859000206 0.0399999991 0.1616200060 2.4325373173  -999.250000  -999.250000  -999.250000  -999.250000  -999.250000  -999.250000  -999.250000
 3156.1459961  -999.250000 11.859000206 0.0430000015 0.1616200060 2.4275348186  -999.250000  -999.250000  -999.250000  -999.250000  -999.250000  -999.250000  -999.250000
 3156.2983398  -999.250000 11.859000206 0.0460000001 0.1616200060 2.4251468182  -999.250000  -999.250000  -999.250000  -999.250000  -999.250000  -999.250000  -999.250000
 3156.4509277  -999.250000 11.859000206 0.0680000037 0.1616200060 2.4288084507  -999.250000  -999.250000  -999.250000  -999.250000  -999.250000  -999.250000  -999.250000
 3156.6032715  -999.250000 11.859000206 0.0879999995 0.1616200060  -999.250000  -999.250000  -999.250000  -999.250000  -999.250000  -999.250000  -999.250000  -999.250000
 3156.7556152  -999.250000 11.859000206 0.0689999983 0.1616200060  -999.250000  -999.250000  -999.250000  -999.250000  -999.250000  -999.250000  -999.250000  -999.250000
 3156.9079590  -999.250000 11.859000206 0.0740000010 0.1616200060  -999.250000  -999.250000  -999.250000  -999.250000  -999.250000  -999.250000  -999.250000  -999.250000
 3157.0603027  -999.250000 11.859000206 0.0560000017 0.1616200060  -999.250000  -999.250000  -999.250000  -999.250000  -999.250000  -999.250000  -999.250000  -999.250000
 3157.2128906  -999.250000 11.859000206 0.0599999987 0.1616200060  -999.250000  -999.250000  -999.250000  -999.250000  -999.250000  -999.250000  -999.250000  -999.250000
 3157.3652344  -999.250000 11.859000206 -1.300999999 0.1616200060  -999.250000  -999.250000  -999.250000  -999.250000  -999.250000  -999.250000  -999.250000  -999.250000
