# LAS format log file from PETREL
# Project units are specified as depth units
#==================================================================
~Version information
VERS.   2.0:
WRAP.   NO:
#==================================================================
~Well
STRT .m      821.52105713 :
STOP .m      2574.1203613 :
STEP .m     0.00000000 :
NULL .        -999.250000 :
COMP.           : COMPANY
WELL.  31/4-8   : WELL
FLD.            : FIELD
LOC.            : LOCATION
SRVC.           : SERVICE COMPANY
DATE.  2018-09-11 14:48:38   : Log Export Date {yyyy-MM-dd HH:mm:ss}
PROV.           : PROVINCE
UWI.   31/4-8   : UNIQUE WELL ID
API.            : API NUMBER
#==================================================================
~Curve
DEPT .m                   : DEPTH
Lithology_geolink ._      : Lithology_geolink
CALI .in                  : CALI
DRHO .g/cm3               : DRHO
NPHI .m3/m3               : NPHI
RHOB .g/cm3               : RHOB
GR .gAPI                  : GR
DTC .us/ft                : DTC
DTE .us/ft                : DTE
RDEP .ohm.m               : RDEP
SP .mV                    : SP
RSHA .ohm.m               : RSHA
RMED .ohm.m               : RMED
~Parameter
#==================================================================
~Ascii
# ...
 2343.0820313 5.0000000000 12.569999695 0.0109967953 0.3132103384 2.4740128517 87.051498413 88.590797424 88.373405457 4.3499999046 34.570999146  -999.250000 4.3039999008
 2343.2343750 5.0000000000 12.569999695 0.0129935900 0.3136579394 2.4789841175 87.488922119 89.015945435 89.021759033 4.2870001793 33.459999084  -999.250000 4.3179998398
 2343.3869629 5.0000000000 12.571000099 0.0110032046 0.3111779988 2.4859888554 86.533081055 89.222259521 89.189857483 4.1040000916 34.069999695  -999.250000 4.1649999619
 2343.5393066 5.0000000000 12.572999954 0.0040224004 0.3068040311 2.4929776192 86.877876282 89.388359070 89.250762939 4.0050001144 34.669998169  -999.250000 3.9690001011
 2343.6916504 5.0000000000 12.571999550 0.0020064104 0.3027131259 2.5009741783 87.656494141 89.559341431 89.341850281 4.0929999352 34.351001740  -999.250000 4.0320000648
 2343.8439941 5.0000000000 12.562000275 0.0069839745 0.3016451001 2.5069806576 88.167549133 89.148361206 89.224617004 4.1589999199 34.011001587  -999.250000 4.1149997711
 2343.9963379 5.0000000000 12.546999931 0.0129807694 0.3031128943 2.5079967976 87.829650879 88.907516479 88.934104919 4.2189998627 35.071998596  -999.250000 4.0679998398
 2344.1489258 5.0000000000 12.531999588 0.0159904007 0.3029904068 2.5050096512 87.290725708 88.807373047 88.687797546 4.1939997673 35.520999908  -999.250000 4.0599999428
 2344.3012695 5.0000000000 12.510000229 0.0160000008 0.2995709777 2.5010128021 88.157211304 89.090072632 88.826240540 4.1929998398 34.089000702  -999.250000 4.0640001297
 2344.4536133 5.0000000000 12.484999657 0.0169967953 0.2955493331 2.4970128536 88.657600403 89.234710693 89.217277527 4.2049999237 35.770000458  -999.250000 4.0710000992
 2344.6059570 5.0000000000 12.467000008 0.0179967936 0.2931017280 2.4920160770 88.400253296 89.424049377 89.483100891 4.2220001221 35.569999695  -999.250000 4.2369999886
 2344.7585449 6.0000000000 12.458999634 0.0170016028 0.2913555801 2.4870080948 89.505447388 89.698532104 89.535797119 4.2480001450 36.229999542  -999.250000 4.2020001411
 2344.9108887 6.0000000000 12.456999779 0.0140096005 0.2890573740 2.4840095043 91.552429199 89.691543579 89.457832336 4.4109997749 36.618999481  -999.250000 4.2109999657
 2345.0632324 6.0000000000 12.453000069 0.0130032049 0.2888807952 2.4839999676 92.953277588 89.500885010 89.566917419 4.3850002289 37.611000061  -999.250000 4.2410001755
 2345.2155762 6.0000000000 12.435000420 0.0189807694 0.2917561233 2.4879870415 92.480316162 89.733787537 89.761260986 4.4759998322 36.881999969  -999.250000 4.2610001564
 2345.3681641 6.0000000000 12.395999908 0.0319791697 0.2944812477 2.4909951687 91.485191345 89.972480774 89.813400269 4.4959998131 37.651000977  -999.250000 4.2659997940
 2345.5205078 6.0000000000 12.333000183 0.0459551997 0.2936427295 2.4780414104 92.137893677 90.233810425 90.020973206 4.5409998894 38.159999847  -999.250000 4.4219999313
 2345.6728516 6.0000000000 12.266999245 0.0509839728 0.2912177742 2.4371314049 91.097351074 90.865745544 90.926200867 4.8169999123 38.828998566  -999.250000 4.6250000000
 2345.8251953 5.0000000000 12.232000351 0.0420288444 0.2897271514 2.3781890869 85.735229492 92.509422302 92.605239868 5.0529999733 40.000000000  -999.250000 4.8150000572
 2345.9777832 5.0000000000 12.237000465 0.0300192293 0.2863707542 2.3330719471 77.797714233 94.184394836 94.158233643 5.3179998398 40.129001617  -999.250000 4.9140000343
 2346.1301270 5.0000000000 12.258999825 0.0290031992 0.2793924212 2.3280160427 71.053604126 94.707862854 94.526161194 5.5159997940 41.299999237  -999.250000 4.8740000725
 2346.2824707 5.0000000000 12.269000053 0.0409615412 0.2736783028 2.3589005470 68.756317139 93.815597534 93.877410889 5.6160001755 41.360000610  -999.250000 5.1170001030
 2346.4348145 5.0000000000 12.256999016 0.0569487177 0.2733514905 2.3918941021 70.342872620 92.796714783 92.870887756 5.9840002060 41.930000305  -999.250000 5.2829999924
 2346.5871582 5.0000000000 12.234999657 0.0629807711 0.2734893262 2.3989775181 72.704421997 92.072814941 92.058578491 6.5900001526 42.221000671  -999.250000 5.8070001602
 2346.7397461 5.0000000000 12.220999718 0.0560112186 0.2672301233 2.3780336380 73.494743347 92.085563660 91.866096497 7.0199999809 42.441001892  -999.250000 6.3429999352
 2346.8920898 5.0000000000 12.220000267 0.0410480015 0.2569629550 2.3451056480 71.408699036 92.362419128 92.332199097 7.5260000229 42.860000610  -999.250000 6.6729998589
 2347.0444336 5.0000000000 12.226000786 0.0270448718 0.2497147918 2.3190834522 68.590042114 93.240142822 93.227531433 7.2369999886 43.291000366  -999.250000 6.4470000267
 2347.1967773 5.0000000000 12.237000465 0.0180288460 0.2488440424 2.3060417175 67.503463745 94.192939758 94.114425659 6.7210001945 42.349998474  -999.250000 5.8800001144
 2347.3493652 5.0000000000 12.260999680 0.0100128204 0.2542725503 2.3129887581 67.480033875 94.800735474 94.657791138 6.1649999619 42.929000854  -999.250000 5.6760001183
 2347.5017090 5.0000000000 12.317000389 0.0060128001 0.2659724355 2.3558623791 67.250732422 93.990760803 93.970436096 5.9109997749 43.941001892  -999.250000 5.5209999084
 2347.6540527 5.0000000000 12.385000229 0.0109839747 0.2847796381 2.4377372265 66.912086487 91.866256714 91.769439697 6.1409997940 42.549999237  -999.250000 5.7379999161
 2347.8063965 5.0000000000 12.416000366 0.0259519238 0.3059979677 2.5227274895 68.349372864 89.072189331 88.994606018 7.1909999847 43.069999695  -999.250000 6.6550002098
 2347.9589844 16.000000000 12.401000023 0.0459679477 0.3232946992 2.5599405766 72.913681030 86.617683411 86.483795166 8.4010000229 43.597999573  -999.250000 7.9580001831
 2348.1113281 16.000000000 12.362999916 0.0619487986 0.3352916241 2.5380704403 77.792358398 85.130073547 85.078720093 9.1850004196 42.888999939  -999.250000 8.7110004425
 2348.2636719 16.000000000 12.317999840 0.0699743629 0.3435435891 2.4811825752 80.689727783 85.506782532 85.512817383 9.0439996719 44.421001434  -999.250000 8.6590003967
 2348.4160156 2.0000000000 12.262000084 0.0670096204 0.3466252983 2.4032502174 81.557235718 88.247459412 88.277702332 8.3690004349 42.898998260  -999.250000 8.1149997711
 2348.5683594 2.0000000000 12.204000473 0.0510512814 0.3396139443 2.3093013763 80.864234924 93.400588989 93.264968872 8.3629999161 43.938999176  -999.250000 7.9429998398
 2348.7209473 2.0000000000 12.173000336 0.0300671998 0.3232325912 2.2153007984 77.097084045 98.796516418 98.774894714 8.9079999924 45.000999451  -999.250000 8.2609996796
 2348.8732910 2.0000000000 12.166999817 0.0150480764 0.3035730422 2.1452243328 69.788459778 102.61487579 102.62403870 10.845999718 43.379001617  -999.250000 9.7589998245
 2349.0256348 1.0000000000 12.166000366 0.0080224359 0.2853177488 2.1061248779 61.560382843 104.38050079 104.33256531 14.220999718 44.970001221  -999.250000 12.276000023
 2349.1779785 1.0000000000 12.168001175 0.0060064103 0.2703419030 2.0900511742 55.203353882 104.76305389 104.61121368 18.537000656 44.659999847  -999.250000 15.965000153
 2349.3305664 1.0000000000 12.170000076 0.0069983979 0.2597438693 2.0850081444 52.384494781 104.11869049 104.16313934 23.829000473 44.525001526  -999.250000 20.233999252
 2349.4829102 1.0000000000 12.170000076 0.0079968004 0.2541080117 2.0889871120 52.319194794 103.54131317 103.49066162 27.186000824 46.262001038  -999.250000 23.465999603
 2349.6352539 1.0000000000 12.170000076 0.0089967949 0.2524678409 2.0959775448 53.465316772 102.80296326 102.80705261 30.903999329 44.199001312  -999.250000 26.159000397
 2349.7875977 1.0000000000 12.170000076 0.0080032051 0.2531068921 2.1019806862 54.010261536 102.50318909 102.31877899 39.115001678 45.159000397  -999.250000 32.776000977
 2349.9401855 1.0000000000 12.170000076 0.0060032052 0.2545752823 2.1049952507 53.102462769 102.32164001 102.31665039 47.973999023 45.639999390  -999.250000 39.405998230
 2350.0925293 1.0000000000 12.170000076 0.0040064002 0.2575205564 2.1040031910 52.192913055 102.39496613 102.44324493 46.291999817 45.249000549  -999.250000 38.429000854
 2350.2448730 1.0000000000 12.168999672 0.0040000002 0.2628628612 2.0950288773 52.130191803 103.01506042 102.91603088 38.388999939 46.738998413  -999.250000 32.231998444
