# LAS format log file from PETREL
# Project units are specified as depth units
#==================================================================
~Version information
VERS.   2.0:
WRAP.   NO:
#==================================================================
~Well
STRT .m      898.43609619 :
STOP .m      2454.1354980 :
STEP .m     0.00000000 :
NULL .        -999.250000 :
COMP.           : COMPANY
WELL.  31/4-6   : WELL
FLD.            : FIELD
LOC.            : LOCATION
SRVC.           : SERVICE COMPANY
DATE.  2018-09-11 14:48:38   : Log Export Date {yyyy-MM-dd HH:mm:ss}
PROV.           : PROVINCE
UWI.   31/4-6   : UNIQUE WELL ID
API.            : API NUMBER
#==================================================================
~Curve
DEPT .m                   : DEPTH
Lithology_geolink ._      : Lithology_geolink
CALI .in                  : CALI
DRHO .g/cm3               : DRHO
NPHI .m3/m3               : NPHI
RHOB .g/cm3               : RHOB
GR .gAPI                  : GR
DTC .us/ft                : DTC
DTE .us/ft                : DTE
RDEP .ohm.m               : RDEP
SP .mV                    : SP
RSHA .ohm.m               : RSHA
RMED .ohm.m               : RMED
~Parameter
#==================================================================
~Ascii
# ...
 1512.9129639  -999.250000 19.577999115 -0.011983987  -999.250000 1.9635199308 37.187999725 142.75007629 144.00000000 0.7319999933 41.799999237  -999.250000 0.6330000162
 1513.0653076  -999.250000 18.797000885 -0.008012821  -999.250000 1.9665075541 36.187999725 142.74722290 144.00000000 0.7360000014 38.924999237  -999.250000 0.6570000052
 1513.2177734  -999.250000 18.797000885 -0.006004808  -999.250000 1.9610599279 35.125000000 142.75007629 144.00000000 0.7310000062 39.049999237  -999.250000 0.7139999866
 1513.3701172  -999.250000 19.031000137 -0.004006405  -999.250000 1.9520339966 34.094001770 142.74722290 144.00000000 0.7239999771 37.424999237  -999.250000 0.7680000067
 1513.5225830  -999.250000 18.858999252 -0.007990385  -999.250000 1.9471791983 35.562999725 142.77391052 144.00000000 0.7229999900 37.174999237  -999.250000 0.7730000019
 1513.6749268  -999.250000 18.358999252 -0.005009607  -999.250000 1.9472868443 32.937999725 142.81321716 144.00000000 0.7279999852 36.924999237  -999.250000 0.7549999952
 1513.8273926  -999.250000 18.593999863 -0.005997596  -999.250000 1.9488540888 31.452999115 142.68054199 144.00000000 0.7400000095 37.174999237  -999.250000 0.7139999866
 1513.9797363  -999.250000 18.297000885 -0.009987189  -999.250000 1.9545356035 30.031000137 142.81678772 144.00000000 0.7500000000 37.924999237  -999.250000 0.6779999733
 1514.1322021  -999.250000 18.047000885 -0.010000000  -999.250000 1.9673625231 30.141000748 142.68054199 144.00000000 0.7500000000 37.549999237  -999.250000 0.6719999909
 1514.2845459  -999.250000 17.625000000 -0.010000000  -999.250000 1.9838143587 29.577999115 142.81678772 144.00000000 0.7379999757 36.674999237  -999.250000 0.7129999995
 1514.4370117  -999.250000 17.750000000 -0.005012019  -999.250000 1.9968374968 31.141000748 142.67956543 144.00000000 0.7269999981 38.049999237  -999.250000 0.7559999824
 1514.5893555  -999.250000 18.468999863 -0.005000000  -999.250000 2.0104033947 32.155998230 142.83686829 144.00000000 0.7110000253 40.424999237  -999.250000 0.7730000019
 1514.7416992  -999.250000 17.891000748 -0.004003205  -999.250000 2.0517024994 33.250000000 142.74722290 144.00006104 0.6990000010 41.049999237  -999.250000 0.7749999762
 1514.8941650  -999.250000 18.062999725 -0.020945556  -999.250000 2.1494216919 31.718999863 142.77488708 144.02934265 0.6909999847 41.924999237  -999.250000 0.7509999871
 1515.0465088  -999.250000 18.031000137 -0.021996794  -999.250000 2.2856662273 31.077999115 143.13842773 144.38635254 0.6959999800 40.424999237  -999.250000 0.6809999943
 1515.1989746  -999.250000 18.406000137 0.0348629802  -999.250000 2.3592407703 32.594001770 144.72634888 145.90269470 0.7020000219 39.799999237  -999.250000 0.6349999905
 1515.3513184  -999.250000 17.577999115 0.0659007207  -999.250000 2.2949304581 37.250000000 147.17207336 148.47447205 0.7070000172 40.674999237  -999.250000 0.6280000210
 1515.5037842  -999.250000 17.750000000 0.0659999996  -999.250000 2.1568996906 36.844001770 148.44064331 149.77491760 0.7080000043 39.049999237  -999.250000 0.6159999967
 1515.6561279  -999.250000 17.656000137 0.0171569269  -999.250000 2.0516610146 41.250000000 147.08229065 148.33337402 0.7039999962 37.674999237  -999.250000 0.6219999790
 1515.8085938  -999.250000 17.827999115 -0.001954327  -999.250000 2.0302000046 36.969001770 142.74423218 143.96298218 0.6899999976 36.799999237  -999.250000 0.6610000134
 1515.9609375  -999.250000 17.718999863 -0.025923138  -999.250000 2.0931177139 37.969001770 136.89601135 138.07920837 0.6740000248 36.174999237  -999.250000 0.7459999919
 1516.1134033  -999.250000 17.733999252 -0.048944712  -999.250000 2.2119834423 32.094001770 134.06521606 135.27299500 0.6690000296 36.799999237  -999.250000 0.8199999928
 1516.2657471  -999.250000 18.172000885 -0.019096076  -999.250000 2.3036873341 30.641000748 136.59013367 137.78512573 0.6750000119 39.424999237  -999.250000 0.7860000134
 1516.4182129  -999.250000 17.422000885 0.0089326920  -999.250000 2.2833583355 32.280998230 142.13479614 143.39079285 0.6869999766 40.174999237  -999.250000 0.7179999948
 1516.5705566  -999.250000 17.375000000 0.0249487590  -999.250000 2.1805639267 33.219001770 147.83258057 149.03314209 0.6990000010 38.674999237  -999.250000 0.6679999828
 1516.7229004  -999.250000 18.375000000 0.0200160258  -999.250000 2.0800857544 35.780998230 150.97871399 152.27056885 0.6999999881 37.799999237  -999.250000 0.6650000215
 1516.8753662  -999.250000 19.391000748 0.0050480384  -999.250000 2.0231456757 32.000000000 151.15213013 152.49468994 0.6880000234 37.924999237  -999.250000 0.6779999733
 1517.0277100  -999.250000 18.077999115 0.0119775645  -999.250000 2.0036151409 28.483999252 149.69892883 150.97702026 0.6869999766 38.174999237  -999.250000 0.6859999895
 1517.1801758  -999.250000 17.843999863 -0.000958367  -999.250000 2.0030190945 27.108999252 148.32159424 149.65156555 0.6899999976 38.799999237  -999.250000 0.7030000091
 1517.3325195  -999.250000 18.375000000 -0.001000000  -999.250000 2.0135431290 25.547000885 147.45823669 148.77299500 0.6980000138 39.674999237  -999.250000 0.7210000157
 1517.4849854  -999.250000 17.672000885 -0.008980769  -999.250000 2.0264191628 28.656000137 146.10137939 147.44027710 0.7110000253 39.549999237  -999.250000 0.7509999871
 1517.6373291  -999.250000 17.375000000 -0.013983987  -999.250000 2.0354905128 28.016000748 145.27359009 146.58689880 0.7279999852 39.174999237  -999.250000 0.7710000277
 1517.7897949  -999.250000 17.343999863 -0.016992789  -999.250000 2.0422585011 30.156000137 145.34707642 146.59403992 0.7369999886 39.299999237  -999.250000 0.7699999809
 1517.9421387  -999.250000 17.375000000 -0.011019215  -999.250000 2.0503396988 28.593999863 145.00305176 146.28367615 0.7459999919 38.799999237  -999.250000 0.7549999952
 1518.0946045  -999.250000 17.358999252 -0.013992789  -999.250000 2.0637917519 31.047000885 143.58895874 144.82875061 0.7459999919 37.549999237  -999.250000 0.7549999952
 1518.2469482  -999.250000 17.672000885 -0.008019215  -999.250000 2.0822801590 32.500000000 141.42129517 142.69749451 0.7409999967 36.299999237  -999.250000 0.7749999762
 1518.3994141  -999.250000 17.500000000 -0.008997596  -999.250000 2.1016333103 34.530998230 139.80854797 141.02668762 0.7379999757 36.424999237  -999.250000 0.7919999957
 1518.5517578  -999.250000 17.437999725 -0.001025620  -999.250000 2.1193432808 32.594001770 139.04312134 140.29353333 0.7409999967 36.174999237  -999.250000 0.7969999909
 1518.7041016  -999.250000 17.593999863 0.0109615382  -999.250000 2.1333754063 32.594001770 139.10040283 140.36163330 0.7440000176 35.674999237  -999.250000 0.7979999781
 1518.8565674  -999.250000 17.733999252 0.0189743787  -999.250000 2.1421949863 33.094001770 139.26908875 140.54827881 0.7519999743 37.174999237  -999.250000 0.8000000119
 1519.0089111  -999.250000 17.750000000 0.0279711541  -999.250000 2.1457660198 32.030998230 138.97236633 140.16278076 0.7530000210 37.674999237  -999.250000 0.8100000024
 1519.1613770  -999.250000 18.141000748 0.0200256202  -999.250000 2.1471285820 31.608999252 137.97306824 139.19848633 0.7480000257 37.799999237  -999.250000 0.8199999928
 1519.3137207  -999.250000 17.733999252 0.0180064086  -999.250000 2.1508753300 29.141000748 136.92506409 138.12437439 0.7390000224 37.299999237  -999.250000 0.8169999719
 1519.4661865  -999.250000 18.093999863 0.0339615420  -999.250000 2.1540794373 31.093999863 136.69987488 137.87290955 0.7289999723 38.549999237  -999.250000 0.7839999795
 1519.6185303  -999.250000 17.672000885 0.0429711789  -999.250000 2.1490077972 34.625000000 137.47769165 138.64234924 0.7189999819 38.674999237  -999.250000 0.7500000000
 1519.7709961  -999.250000 18.047000885 0.0459927879  -999.250000 2.1323707104 35.562999725 138.48939514 139.66679382 0.7129999995 39.049999237  -999.250000 0.7229999900
 1519.9233398  -999.250000 17.766000748 0.0230736583  -999.250000 2.1096210480 34.687999725 139.24876404 140.53926086 0.7030000091 39.049999237  -999.250000 0.7089999914
 1520.0758057  -999.250000 17.702999115 0.0289855767  -999.250000 2.0891084671 31.672000885 140.23255920 141.38290405 0.6959999800 39.174999237  -999.250000 0.7059999704
