# LAS format log file from PETREL
# Project units are specified as depth units
#==================================================================
~Version information
VERS.   2.0:
WRAP.   NO:
#==================================================================
~Well
STRT .m      898.43609619 :
STOP .m      2454.1354980 :
STEP .m     0.00000000 :
NULL .        -999.250000 :
COMP.           : COMPANY
WELL.  31/4-6   : WELL
FLD.            : FIELD
LOC.            : LOCATION
SRVC.           : SERVICE COMPANY
DATE.  2018-09-11 14:48:38   : Log Export Date {yyyy-MM-dd HH:mm:ss}
PROV.           : PROVINCE
UWI.   31/4-6   : UNIQUE WELL ID
API.            : API NUMBER
#==================================================================
~Curve
DEPT .m                   : DEPTH
Lithology_geolink ._      : Lithology_geolink
CALI .in                  : CALI
DRHO .g/cm3               : DRHO
NPHI .m3/m3               : NPHI
RHOB .g/cm3               : RHOB
GR .gAPI                  : GR
DTC .us/ft                : DTC
DTE .us/ft                : DTE
RDEP .ohm.m               : RDEP
SP .mV                    : SP
RSHA .ohm.m               : RSHA
RMED .ohm.m               : RMED
~Parameter
#==================================================================
~Ascii
# ...
 1929.8793945 5.0000000000 13.149000168 0.0569807850 0.4343504906 2.1118664742 41.750175476 132.37733459 127.81007385 0.7990056276 50.799999237  -999.250000 0.9288887382
 1930.0318604 5.0000000000 13.880999565 0.0410128199 0.4750673473 2.0557026863 41.972232819 138.76460266 134.31166077 0.8059775829 51.174999237  -999.250000 0.7899711728
 1930.1842041 5.0000000000 13.458000183 0.0240272228 0.5116313696 2.0171415806 45.997596741 140.76841736 136.31192017 0.7779743671 50.924999237  -999.250000 0.7540384531
 1930.3366699 5.0000000000 13.630999565 0.0110104168 0.4665861726 2.0008144379 43.003055573 139.90861511 135.39862061 0.7459911704 51.049999237  -999.250000 0.8020240068
 1930.4890137 5.0000000000 14.373001099 0.0060040066 0.4389721155 2.0027792454 46.811698914 136.59544373 132.03211975 0.7349992394 50.799999237  -999.250000 0.8320120573
 1930.6414795 5.0000000000 13.843000412 0.0149927940 0.4031586647 2.0271744728 45.186397552 131.56800842 127.04997253 0.7340208292 50.924999237  -999.250000 0.8469936252
 1930.7938232 5.0000000000 14.090999603 0.0199959930 0.4355839789 2.0665168762 44.188350677 129.03540039 124.41374969 0.7470200062 50.924999237  -999.250000 0.8430055976
 1930.9462891 5.0000000000 14.182001114 0.0209991988 0.4242590964 2.0896048546 44.625949860 129.74291992 125.36205292 0.7720272541 51.049999237  -999.250000 0.8500944972
 1931.0986328 5.0000000000 13.861999512 0.0200008005 0.4432247877 2.0668456554 45.222606659 132.89685059 128.33772278 0.7889975905 51.049999237  -999.250000 0.9090048075
 1931.2510986 5.0000000000 13.397999763 0.0050120093 0.4462875724 2.0187051296 49.712097168 135.75724792 131.22511292 0.7859839797 51.049999237  -999.250000 0.9150416255
 1931.4034424 5.0000000000 13.395999908 -0.008988782 0.4582404196 1.9992464781 45.410781860 138.99946594 134.39436340 0.7759872079 51.174999237  -999.250000 0.9409976006
 1931.5557861 5.0000000000 13.453001022 -0.012993596 0.4556941092 2.0243251324 51.373447418 138.31393433 133.77041626 0.7599855661 51.174999237  -999.250000 0.9379655719
 1931.7082520 5.0000000000 13.765999794 0.0079831732 0.4277524054 2.0601115227 49.439376831 136.52754211 132.11991882 0.7419871688 51.549999237  -999.250000 0.8949735165
 1931.8605957 5.0000000000 13.845999718 0.0199807845 0.4097588062 2.0702672005 51.149593353 136.96014404 132.44267273 0.7259920239 51.424999237  -999.250000 0.8619303107
 1932.0130615 5.0000000000 13.836000443 0.0090088136 0.4077115953 2.0679841042 43.154796600 136.76945496 132.28759766 0.7159920335 51.549999237  -999.250000 0.7749711275
 1932.1654053 5.0000000000 14.159000397 -0.005975981 0.4230853617 2.0827674866 41.652095795 134.18980408 129.71182251 0.7059823275 51.674999237  -999.250000 0.7389936447
 1932.3178711 5.0000000000 14.473999977 -0.006000000 0.4620087743 2.1061475277 36.782978058 129.37699890 124.76473999 0.6839879751 52.049999237  -999.250000 0.7310528755
 1932.4702148 5.0000000000 14.392999649 0.0189799666 0.4907869399 2.1063787937 39.250801086 128.41741943 123.99877167 0.6689984202 51.924999237  -999.250000 0.7970304489
 1932.6226807 5.0000000000 14.463999748 0.0339879915 0.4954163134 2.0810217857 40.257106781 130.36778259 125.83126831 0.6669983864 52.049999237  -999.250000 0.8349919915
 1932.7750244 5.0000000000 14.622000694 0.0369975977 0.4763952494 2.0681703091 44.687248230 132.01762390 127.38881683 0.6660079956 52.049999237  -999.250000 0.8300039768
 1932.9274902 5.0000000000 13.699000359 0.0180152114 0.4493017197 2.0866417885 43.743595123 133.93930054 129.52603149 0.6760032177 51.924999237  -999.250000 0.8349183202
 1933.0798340 5.0000000000 13.296999931 0.0040112180 0.4325734079 2.1280376911 39.750953674 132.63729858 128.06639099 0.6779991984 52.049999237  -999.250000 0.7840055823
 1933.2322998 5.0000000000 13.397999763 0.0020016013 0.4118765891 2.1658949852 40.938747406 132.86381531 128.38763428 0.6769999862 51.924999237  -999.250000 0.7909631729
 1933.3846436 5.0000000000 13.560000420 -0.001996795 0.4057648778 2.1977243423 41.411483765 132.42808533 128.02868652 0.6769927740 51.799999237  -999.250000 0.7680488825
 1933.5369873 5.0000000000 13.411000252 0.0249567665 0.3980223835 2.2324957848 48.249851227 129.03210449 124.51292419 0.6679911613 51.424999237  -999.250000 0.8290359974
 1933.6894531 5.0000000000 13.472000122 0.0389887840 0.4281358421 2.2468178272 48.062122345 129.08520508 124.56549072 0.6570039988 51.549999237  -999.250000 0.8739791512
 1933.8417969 5.0000000000 13.836000443 0.0399983972 0.4385832846 2.2289874554 46.966648102 129.82951355 125.40559387 0.6620023847 51.424999237  -999.250000 0.8479839563
 1933.9942627 5.0000000000 14.477000237 0.0320064127 0.4552466571 2.1864862442 44.027591705 132.22091675 127.56205750 0.6650016308 51.674999237  -999.250000 0.8280023932
 1934.1466064 5.0000000000 14.204999924 0.0180224180 0.4242098033 2.1487431526 39.780723572 133.47914124 128.99877930 0.6670104265 51.549999237  -999.250000 0.8310063481
 1934.2990723 5.0000000000 13.616998672 0.0100064101 0.3951033056 2.1357157230 39.439601898 133.69085693 129.23255920 0.6800056100 51.674999237  -999.250000 0.8389511108
 1934.4514160 5.0000000000 13.458000183 -0.000991186 0.3783534169 2.1424567699 41.435546875 133.56822205 128.98423767 0.6869919896 51.799999237  -999.250000 0.7779864073
 1934.6038818 5.0000000000 13.852000237 -0.006995196 0.3619531393 2.1616957188 38.371067047 130.93757629 126.49913025 0.6769871712 51.674999237  -999.250000 0.7610592842
 1934.7562256 5.0000000000 14.172000885 -0.000005609 0.3594419956 2.1857779026 33.469676971 129.33271790 124.83009338 0.6609911919 51.674999237  -999.250000 0.8350777030
 1934.9086914 5.0000000000 13.744000435 0.0279775821 0.3794439435 2.1969604492 34.313747406 128.18540955 123.70927429 0.6499983668 51.674999237  -999.250000 0.9319695830
 1935.0610352 5.0000000000 13.093000412 0.0629719570 0.4254431427 2.1771337986 34.785755157 129.15217590 124.65995026 0.6490224004 51.799999237  -999.250000 0.9128878117
 1935.2135010 5.0000000000 13.348999977 0.0849823877 0.4516989887 2.1292955875 40.717601776 134.53761292 129.94445801 0.6770576239 51.549999237  -999.250000 0.7729119062
 1935.3658447 5.0000000000 13.609000206 0.0640168265 0.4464741945 2.0770039558 39.845554352 139.15443420 134.67628479 0.7129983902 51.674999237  -999.250000 0.7180496454
 1935.5183105 5.0000000000 13.973999977 0.0220336262 0.4171335101 2.0526566505 41.775344849 137.04380798 132.47914124 0.7109968066 51.424999237  -999.250000 0.7801473141
 1935.6706543 5.0000000000 13.866999626 -0.002979968 0.4096759558 2.0648794174 38.248874664 133.37081909 128.82540894 0.7090104222 51.799999237  -999.250000 0.8720640540
 1935.8229980 5.0000000000 13.204999924 -0.007991994 0.4198436737 2.0915207863 36.845676422 128.57720947 124.01887512 0.7220135927 52.049999237  -999.250000 0.9520216584
 1935.9754639 5.0000000000 12.930000305 -0.001005609 0.4209591150 2.1151559353 38.940452576 125.20577240 120.67957306 0.7390160561 52.424999237  -999.250000 0.9789895415
 1936.1278076 5.0000000000 13.494999886 0.0039919936 0.4268804789 2.1211459637 41.998748779 126.53865051 121.98936462 0.7590216398 52.299999237  -999.250000 0.9659880400
 1936.2802734 5.0000000000 13.300999641 0.0119935898 0.4153492749 2.0937328339 40.436370850 129.24198914 124.75629425 0.7860072255 52.299999237  -999.250000 0.9509927630
 1936.4326172 5.0000000000 13.328000069 0.0100032026 0.4600682557 2.0369830132 38.405124664 132.78630066 128.18655396 0.7949951887 52.174999237  -999.250000 0.9419695735
 1936.5850830 5.0000000000 13.345999718 -0.003988782 0.4672143459 1.9953181744 37.313373566 133.00723267 128.61050415 0.7889919877 52.049999237  -999.250000 0.9040111899
 1936.7374268 5.0000000000 13.564999580 -0.006997596 0.4847858846 2.0059480667 37.781726837 133.45751953 128.97309875 0.7789951563 51.799999237  -999.250000 0.9179855585
 1936.8898926 5.0000000000 13.833000183 0.0119847879 0.4732092917 2.0478124619 38.691204071 134.48240662 129.85276794 0.7729967833 51.799999237  -999.250000 0.9000191689
 1937.0422363 5.0000000000 13.402999878 0.0369799696 0.4652163982 2.0781464577 40.688827515 135.13206482 130.62033081 0.7710064650 51.924999237  -999.250000 0.9119703770
