# LAS format log file from PETREL
# Project units are specified as depth units
#==================================================================
~Version information
VERS.   2.0:
WRAP.   NO:
#==================================================================
~Well
STRT .m      895.02691650 :
STOP .m      2933.5300293 :
STEP .m     0.00000000 :
NULL .        -999.250000 :
COMP.           : COMPANY
WELL.  31/4-5   : WELL
FLD.            : FIELD
LOC.            : LOCATION
SRVC.           : SERVICE COMPANY
DATE.  2018-09-11 14:48:38   : Log Export Date {yyyy-MM-dd HH:mm:ss}
PROV.           : PROVINCE
UWI.   31/4-5   : UNIQUE WELL ID
API.            : API NUMBER
#==================================================================
~Curve
DEPT .m                   : DEPTH
Lithology_geolink ._      : Lithology_geolink
CALI .in                  : CALI
DRHO .g/cm3               : DRHO
SGR .gAPI                 : SGR
NPHI .m3/m3               : NPHI
RHOB .g/cm3               : RHOB
PEF .b/e                  : PEF
GR .gAPI                  : GR
DTC .us/ft                : DTC
DTE .us/ft                : DTE
RDEP .ohm.m               : RDEP
SP .mV                    : SP
RSHA .ohm.m               : RSHA
RMIC .ohm.m               : RMIC
RMED .ohm.m               : RMED
~Parameter
#==================================================================
~Ascii
# ...
 2250.1682129 5.0000000000 12.881999969 0.0179999992 82.806152344 0.3612500131 2.3770942688 4.0450773239 85.823997498 94.724945068 92.081947327 3.3151426315 113.85501099 3.5186135769 4.4019999504 3.2699439526
 2250.3205566 5.0000000000 12.864000320 0.0170000009 82.009269714 0.3495700061 2.3933601379 4.4707307816 89.344001770 94.412986755 91.807617188 3.3909277916 113.89273071 4.0146460533 4.5659999847 3.2350351810
 2250.4729004 6.0000000000 12.847999573 0.0199999996 81.852607727 0.3389899731 2.4144279957 4.7689232826 86.536003113 94.307708740 91.660423279 3.4352035522 112.00285339 4.8125495911 4.6409997940 3.2572147846
 2250.6254883 6.0000000000 12.843999863 0.0179999992 80.936386108 0.3370700181 2.4327919483 4.6556601524 85.504997253 93.421325684 90.734344482 3.4656128883 111.31611633 5.5326557159 5.7849998474 3.3921585083
 2250.7778320 6.0000000000 12.843999863 0.0160000008 79.904846191 0.3359000087 2.4396383762 4.4467678070 85.094001770 90.769165039 88.157768250 3.4981396198 111.17216492 5.6794600487 13.312999725 3.7540736198
 2250.9301758 6.0000000000 12.843999863 0.0160000008 79.053939819 0.3282099962 2.4295465946 4.3149614334 80.879997253 87.569778442 84.883903503 3.5143623352 111.58465576 4.8085193634 9.6250000000 4.4247016907
 2251.0825195 6.0000000000 12.842999458 0.0189999994 80.712211609 0.3171800077 2.4095239639 4.0904617310 84.161003113 85.337684631 82.852195740 3.4886264801 112.01316071 4.0474004745 5.8480000496 5.4857916832
 2251.2348633 6.0000000000 12.831999779 0.0250000004 83.665344238 0.3221699893 2.3934199810 3.9674615860 81.238998413 85.841606140 83.283721924 3.4047744274 111.72291565 3.6005439758 4.9099998474 5.9776635170
 2251.3874512 5.0000000000 12.817000389 0.0350000001 86.019248962 0.3384999931 2.3892331123 3.8320128918 81.166999817 88.894264221 86.227577209 3.2544839382 111.44628143 3.4813587666 4.8239998817 5.1416783333
 2251.5397949 5.0000000000 12.812999725 0.0460000001 86.270477295 0.3529100120 2.3903303146 3.8823461533 73.452003479 92.374618530 89.790870667 3.1123781204 110.08940887 3.4675848484 4.8159999847 4.1061987877
 2251.6921387 5.0000000000 12.812999725 0.0460000001 84.501922607 0.3472900093 2.3866519928 3.8750767708 80.759002686 94.405654907 91.736648560 3.0174117088 110.06896973 3.4299135208 4.4730000496 3.6067917347
 2251.8444824 6.0000000000 12.817000389 0.0379999988 83.448532104 0.3345199823 2.3782584667 3.9747307301 82.586997986 95.087661743 92.356620789 2.9558670521 113.10399628 3.3818016052 4.8750000000 3.4770064354
 2251.9970703 6.0000000000 12.828000069 0.0309999995 83.145408630 0.3395999968 2.3717520237 4.0331249237 85.954002380 95.164100647 92.584098816 2.9172115326 113.68399811 3.3380303383 4.5040001869 3.4809231758
 2252.1494141 6.0000000000 12.838999748 0.0329999998 83.231346130 0.3568100035 2.3690330982 4.1186156273 80.405998230 94.890663147 92.378105164 2.8971056938 113.50149536 3.3082756996 4.5310001373 3.4568991661
 2252.3017578 6.0000000000 12.843999863 0.0340000018 83.510749817 0.3664599955 2.3656711578 4.1431536674 80.563003540 94.711227417 92.183166504 2.8782227039 112.82922363 3.2829246521 4.6329998970 3.3939263821
 2252.4541016 6.0000000000 12.847000122 0.0320000015 83.869140625 0.3574199975 2.3621599674 4.2308077812 84.571998596 94.559837341 92.034179688 2.8645207882 113.59275055 3.2649888992 4.5939998627 3.3479471207
 2252.6066895 5.0000000000 12.847999573 0.0289999992 83.271682739 0.3415700197 2.3631987572 4.3253045082 82.014999390 94.388954163 91.844528198 2.8577008247 115.04894257 3.2603504658 4.3359999657 3.3149232864
 2252.7590332 5.0000000000 12.847999573 0.0350000001 82.368675232 0.3311800063 2.3691370487 4.3253822327 77.968002319 94.635421753 92.105468750 2.8587660789 113.57456207 3.2758944035 4.2109999657 3.2909598351
 2252.9113770 5.0000000000 12.847000122 0.0430000015 80.432044983 0.3306899965 2.3728923798 4.1683073044 69.719001770 95.015983582 92.391723633 2.8572340012 111.48357391 3.3000752926 4.3010001183 3.2659823895
 2253.0637207 5.0000000000 12.843999863 0.0439999998 78.991874695 0.3387900293 2.3718039989 3.9684228897 73.291000366 95.022476196 92.471336365 2.8578829765 111.45803833 3.3162453175 4.4840002060 3.2550177574
 2253.2160645 5.0000000000 12.843999863 0.0430000015 78.972640991 0.3683000207 2.3715000153 4.0078077316 78.492996216 95.067413330 92.486938477 2.8624079227 111.04156494 3.3171184063 4.4920001030 3.2660431862
 2253.3686523 5.0000000000 12.843999863 0.0430000015 80.354057312 0.3916400075 2.3742763996 3.9983041286 80.771003723 95.150444031 92.733177185 2.8718299866 110.82312012 3.3002228737 4.4060001373 3.2930800915
 2253.5209961 5.0000000000 12.843999863 0.0439999998 81.398010254 0.3912400007 2.3758938313 4.1552309990 76.754997253 95.694656372 93.180793762 2.8765320778 111.08977509 3.2988829613 4.4219999313 3.3180096149
 2253.6733398 5.0000000000 12.843999863 0.0410000011 80.770889282 0.3856199980 2.3749241829 4.1308846474 77.861999512 96.266777039 93.674568176 2.8840641975 111.24694824 3.3007662296 4.3550000191 3.3239693642
 2253.8256836 5.0000000000 12.843999863 0.0390000008 79.090660095 0.3772400022 2.3741960526 4.1807308197 81.318000793 96.757255554 94.119819641 2.8894081116 111.64615631 3.2921838760 4.5859999657 3.3049728870
 2253.9782715 5.0000000000 12.843999863 0.0399999991 78.807693481 0.3802600205 2.3745205402 3.9437952042 84.947998047 97.235023499 94.619361877 2.8829360008 111.87704468 3.2592115402 4.5859999657 3.2880480289
 2254.1306152 6.0000000000 12.843999863 0.0390000008 77.709655762 0.3743500113 2.3731696606 3.9243845940 88.171997070 97.511367798 94.827362061 2.8714036942 111.53386688 3.2126154900 4.3319997787 3.3029999733
 2254.2829590 6.0000000000 12.843999863 0.0350000001 78.056716919 0.3659299910 2.3703758717 3.9428076744 85.973999023 97.077964783 94.456199646 2.8523397446 110.97228241 3.1619663239 4.1989998817 3.3029534817
 2254.4353027 6.0000000000 12.843999863 0.0299999993 79.038887024 0.3580300212 2.3669600487 4.1732306480 88.838996887 96.528358459 93.896598816 2.8367547989 110.20331573 3.1277437210 4.1449999809 3.2739279270
 2254.5878906 6.0000000000 12.843999863 0.0240000002 80.255523682 0.3570899963 2.3626980782 4.1375250816 85.055999756 95.696174622 93.225013733 2.8332335949 110.70244598 3.1222336292 4.1719999313 3.2288367748
 2254.7402344 6.0000000000 12.842999458 0.0170000009 79.319343567 0.3649100065 2.3604013920 4.1564230919 84.688003540 95.426910400 92.758232117 2.8144567013 113.11159515 3.1096377373 3.9570000172 3.1779181957
 2254.8925781 5.0000000000 12.831999779 0.0170000009 77.527328491 0.3633199930 2.3630447388 4.1431922913 78.213996887 95.129501343 92.575622559 2.7837436199 113.95191193 3.0982868671 3.9839999676 3.1269471645
 2255.0449219 5.0000000000 12.819999695 0.0270000007 77.607513428 0.3538800180 2.3701519966 4.0401539803 76.424003601 95.022476196 92.462005615 2.7561585903 114.74589539 3.0961170197 4.2109999657 3.0939970016
 2255.1972656 5.0000000000 12.808999062 0.0419999994 80.210563660 0.3365200162 2.3757667542 3.9341154099 81.633003235 95.468635559 92.794090271 2.7380127907 114.70033264 3.1004080772 4.0229997635 3.0920224190
 2255.3498535 5.0000000000 12.798000336 0.0419999994 82.824584961 0.3448099792 2.3729820251 3.7211503983 85.678001404 96.831611633 94.260047913 2.7271699905 112.73666382 3.0868718624 4.1209998131 3.1059710979
 2255.5021973 5.0000000000 12.796999931 0.0309999995 84.602302551 0.3722299933 2.3647279739 3.6516537666 83.021003723 98.208183289 95.679405212 2.7224678993 111.70419312 3.0876491070 4.0469999313 3.0879857540
 2255.6545410 5.0000000000 12.798000336 0.0240000002 84.659744263 0.3930699825 2.3606121540 3.6530768871 76.457000732 98.490272522 96.025901794 2.7272980213 111.31695557 3.0950641632 4.0939998627 3.0790207386
 2255.8068848 5.0000000000 12.808999062 0.0260000005 83.569625854 0.3841600120 2.3648025990 3.8565769196 80.279998779 98.370849609 95.750450134 2.7394607067 111.27130127 3.0968813896 3.9900000095 3.0920224190
 2255.9594727 6.0000000000 12.831999779 0.0329999998 83.074844360 0.3517400026 2.3708322048 3.9431662560 80.056999207 97.003311157 94.443382263 2.7489471436 111.25997162 3.0678603649 3.7950000763 3.1059198380
