# LAS format log file from PETREL
# Project units are specified as depth units
#==================================================================
~Version information
VERS.   2.0:
WRAP.   NO:
#==================================================================
~Well
STRT .m      821.52105713 :
STOP .m      2574.1203613 :
STEP .m     0.00000000 :
NULL .        -999.250000 :
COMP.           : COMPANY
WELL.  31/4-8   : WELL
FLD.            : FIELD
LOC.            : LOCATION
SRVC.           : SERVICE COMPANY
DATE.  2018-09-11 14:48:38   : Log Export Date {yyyy-MM-dd HH:mm:ss}
PROV.           : PROVINCE
UWI.   31/4-8   : UNIQUE WELL ID
API.            : API NUMBER
#==================================================================
~Curve
DEPT .m                   : DEPTH
Lithology_geolink ._      : Lithology_geolink
CALI .in                  : CALI
DRHO .g/cm3               : DRHO
NPHI .m3/m3               : NPHI
RHOB .g/cm3               : RHOB
GR .gAPI                  : GR
DTC .us/ft                : DTC
DTE .us/ft                : DTE
RDEP .ohm.m               : RDEP
SP .mV                    : SP
RSHA .ohm.m               : RSHA
RMED .ohm.m               : RMED
~Parameter
#==================================================================
~Ascii
# ...
 1860.2790527 19.000000000 18.152999878 0.0380048081  -999.250000 2.1470119953 60.261924744 133.57832336 129.52491760 0.9009912014 -8.229669571  -999.250000 0.5509976149
 1860.4315186 19.000000000 18.159000397 0.0260096081  -999.250000 2.1380071640 57.647197723 131.62106323 127.68955231 0.8899887800 -6.568966389  -999.250000 0.5479983687
 1860.5838623 19.000000000 18.160999298 0.0170072131  -999.250000 2.1409976482 53.192714691 129.78224182 125.81359100 0.8829967976 -5.300310135  -999.250000 0.5469992161
 1860.7363281 19.000000000 18.166000366 0.0170000009  -999.250000 2.1499929428 50.304618835 129.17785645 125.23592377 0.8789967895 -4.440702915  -999.250000 0.5460000038
 1860.8886719 19.000000000 18.173000336 0.0229951926  -999.250000 2.1579935551 50.587310791 129.80407715 125.83554840 0.8770007491 -4.879840851  -999.250000 0.5460023880
 1861.0411377 6.0000000000 18.179000854 0.0259975977  -999.250000 2.1639952660 53.691017151 130.32600403 126.43511200 0.8780096173 -5.932472229  -999.250000 0.5490064025
 1861.1934814 6.0000000000 18.180000305 0.0230024047  -999.250000 2.1729929447 58.589145660 130.16998291 126.21966553 0.8840048313 -8.719867706  -999.250000 0.5530039668
 1861.3458252 6.0000000000 18.179000854 0.0170096084  -999.250000 2.1839823723 62.280132294 129.60252380 125.56880188 0.8900063634 -7.309698105  -999.250000 0.5580048561
 1861.4982910 6.0000000000 18.173999786 0.0140024042  -999.250000 2.1939918995 63.068748474 129.76274109 125.79075623 0.8980064392 -9.430420876  -999.250000 0.5640056133
 1861.6506348 6.0000000000 18.166000366 0.0149983987  -999.250000 2.1989917755 62.790672302 130.78205872 126.84545898 0.9060048461 -11.19986057  -999.250000 0.5710048079
 1861.8031006 6.0000000000 18.156999588 0.0179975946  -999.250000 2.1989998817 62.650226593 131.34133911 127.40538788 0.9120032191 -8.530272484  -999.250000 0.5770048499
 1861.9554443 6.0000000000 18.152000427 0.0209951960  -999.250000 2.1940081120 62.032485962 131.26768494 127.25579834 0.9160000086 -8.870528221  -999.250000 0.5830032229
 1862.1079102 6.0000000000 18.156999588 0.0259959940  -999.250000 2.1850070953 60.363677979 132.14131165 128.20201111 0.9159976244 -9.530240059  -999.250000 0.5870023966
 1862.2602539 19.000000000 18.170000076 0.0339935906  -999.250000 2.1810030937 59.181838989 134.42227173 130.48678589 0.9129951596 -9.830161095  -999.250000 0.5900015831
 1862.4127197 19.000000000 18.188999176 0.0409943983  -999.250000 2.1800007820 59.948764801 135.60806274 131.61222839 0.9069935679 -10.03056622  -999.250000 0.5920000076
 1862.5650635 19.000000000 18.215000153 0.0370032042  -999.250000 2.1780016422 60.300155640 135.24003601 131.27986145 0.8989935517 -9.489753723  -999.250000 0.5919992328
 1862.7175293 19.000000000 18.247999191 0.0260088071  -999.250000 2.1779999733 59.302600861 134.56045532 130.61549377 0.8909903765 -10.43084335  -999.250000 0.5909968019
 1862.8698730 19.000000000 18.285999298 0.0230024047  -999.250000 2.1889910698 58.372234344 133.02613831 129.04635620 0.8849983811 -11.57992744  -999.250000 0.5889983773
 1863.0223389 19.000000000 18.316999435 0.0289951954  -999.250000 2.2069857121 58.179306030 130.76815796 126.73455048 0.8830000162 -11.49015617  -999.250000 0.5869984031
 1863.1746826 19.000000000 18.326999664 0.0349951908  -999.250000 2.2179911137 59.077556610 128.85124207 124.89718628 0.8830016255 -12.21045399  -999.250000 0.5860032439
 1863.3271484 19.000000000 18.305999756 0.0310032014  -999.250000 2.2179999352 60.806228638 128.43394470 124.44618225 0.8850032091 -11.53082752  -999.250000 0.5900095701
 1863.4794922 19.000000000 18.256000519 0.0170112196  -999.250000 2.2160017490 61.699569702 129.30834961 125.30085754 0.8870016336 -12.66978359  -999.250000 0.5960072279
 1863.6318359 19.000000000 18.191999435 0.0030224179  -999.250000 2.2229888439 60.603645325 129.51965332 125.59764099 0.8889999986 -12.39992046  -999.250000 0.6050088406
 1863.7843018 19.000000000 18.135999680 -0.000996795  -999.250000 2.2379879951 58.694061279 127.82848358 123.88624573 0.8890016079 -12.30024529  -999.250000 0.6160088181
 1863.9366455 19.000000000 18.104000092 0.0069871899  -999.250000 2.2469856739 57.652500153 125.78173065 121.83194733 0.8909999728 -11.35951328  -999.250000 0.6270071864
 1864.0891113 19.000000000 18.100999832 0.0239863787  -999.250000 2.2450015545 57.012023926 125.48311615 121.49636841 0.8909983635 -10.75026703  -999.250000 0.6360048056
 1864.2414551 19.000000000 18.104999542 0.0369791836  -999.250000 2.2370128632 55.175422668 126.48159790 122.53569031 0.8889999986 -8.589680672  -999.250000 0.6420032382
 1864.3939209 19.000000000 18.097000122 0.0419959947  -999.250000 2.2260088921 54.170604706 127.05855560 123.11186218 0.8890023828 -9.440081596  -999.250000 0.6460040212
 1864.5462646 19.000000000 18.069000244 0.0390024036  -999.250000 2.2110118866 55.914794922 126.73852539 122.71617126 0.8920032382 -9.540171623  -999.250000 0.6510064602
 1864.6987305 19.000000000 18.031000137 0.0320056044  -999.250000 2.1930143833 58.035602570 126.28548431 122.32116699 0.8960064054 -7.260929108  -999.250000 0.6590223908
 1864.8510742 19.000000000 17.996999741 0.0260048080  -999.250000 2.1830081940 59.316921234 126.76186371 122.83004761 0.9000071883 -7.840352058  -999.250000 0.6730144024
 1865.0035400 19.000000000 17.979000092 0.0230024029  -999.250000 2.1889951229 59.330982208 128.63479614 124.66970825 0.9090127945 -8.280361176  -999.250000 0.6910303831
 1865.1558838 19.000000000 17.975999832 0.0220008008  -999.250000 2.2069857121 57.704914093 129.54367065 125.52317047 0.9170104265 -9.129929543  -999.250000 0.7100136280
 1865.3083496 19.000000000 17.979000092 0.0229991991  -999.250000 2.2269840240 56.861347198 126.91445160 122.93442535 0.9300208092 -10.28995037  -999.250000 0.7270208001
 1865.4606934 19.000000000 17.981000900 0.0239991993  -999.250000 2.2379910946 57.615787506 123.58479309 119.64924622 0.9430080056 -10.25948143  -999.250000 0.7400048375
 1865.6130371 6.0000000000 17.989999771 0.0249983985  -999.250000 2.2419936657 59.842639923 122.23136139 118.31188965 0.9530048370 -10.86047173  -999.250000 0.7459999919
 1865.7655029 6.0000000000 18.018999100 0.0259991996  -999.250000 2.2449975014 62.195232391 122.77283478 118.75453186 0.9589976072 -11.45042324  -999.250000 0.7459967732
 1865.9178467 6.0000000000 18.072999954 0.0279967990  -999.250000 2.2469968796 63.047954559 124.26441193 120.36002350 0.9559911489 -11.97965622  -999.250000 0.7419936061
 1866.0703125 6.0000000000 18.142999649 0.0319967978  -999.250000 2.2390065193 62.412021637 126.40204620 122.44439697 0.9449911714 -12.79966545  -999.250000 0.7339944243
 1866.2226563 19.000000000 18.208999634 0.0359935947  -999.250000 2.2180335522 60.446731567 129.01638794 125.01062775 0.9339904189 -13.62936020  -999.250000 0.7269936204
 1866.3751221 19.000000000 18.253999710 0.0350008011  -999.250000 2.1960177422 57.816215515 131.79216003 127.86354065 0.9219920039 -12.82968616  -999.250000 0.7189927697
 1866.5274658 19.000000000 18.267999649 0.0310032051  -999.250000 2.1880064011 55.007751465 133.27565002 129.36096191 0.9120007753 -11.19021416  -999.250000 0.7099935412
 1866.6799316 19.000000000 18.253000259 0.0280024037  -999.250000 2.1939952374 53.262786865 132.32499695 128.35740662 0.9130160213 -10.21003246  -999.250000 0.7019872069
 1866.8322754 19.000000000 18.222999573 0.0280000009  -999.250000 2.1999952793 54.086013794 130.23684692 126.23598480 0.9230176210 -10.22941494  -999.250000 0.6939911842
 1866.9847412 19.000000000 18.188999176 0.0309975967  -999.250000 2.2029976845 57.023288727 128.47856140 124.50564575 0.9450464249 -9.499621391  -999.250000 0.6829823852
 1867.1370850 19.000000000 18.156999588 0.0339975990  -999.250000 2.2000024319 60.161453247 128.33929443 124.38097382 0.9740256071 -8.640192986  -999.250000 0.6719943881
 1867.2895508 5.0000000000 18.128999710 0.0310024023  -999.250000 2.1930058002 61.727497101 130.51235962 126.47015381 1.0060513020 -8.879141808  -999.250000 0.6649904251
 1867.4418945 5.0000000000 18.110000610 0.0250048079  -999.250000 2.1890029907 61.900726318 132.46244812 128.49273682 1.0380232334 -7.720565796  -999.250000 0.6589959860
