# LAS format log file from PETREL
# Project units are specified as depth units
#==================================================================
~Version information
VERS.   2.0:
WRAP.   NO:
#==================================================================
~Well
STRT .m      860.54608154 :
STOP .m      3158.4321289 :
STEP .m     0.00000000 :
NULL .        -999.250000 :
COMP.           : COMPANY
WELL.  31/4-4   : WELL
FLD.            : FIELD
LOC.            : LOCATION
SRVC.           : SERVICE COMPANY
DATE.  2018-09-11 14:48:37   : Log Export Date {yyyy-MM-dd HH:mm:ss}
PROV.           : PROVINCE
UWI.   31/4-4   : UNIQUE WELL ID
API.            : API NUMBER
#==================================================================
~Curve
DEPT .m                   : DEPTH
Lithology_geolink ._      : Lithology_geolink
CALI .in                  : CALI
DRHO .g/cm3               : DRHO
NPHI .m3/m3               : NPHI
RHOB .g/cm3               : RHOB
GR .gAPI                  : GR
DTC .us/ft                : DTC
DTE .us/ft                : DTE
RDEP .ohm.m               : RDEP
SP .mV                    : SP
RSHA .ohm.m               : RSHA
RMED .ohm.m               : RMED
~Parameter
#==================================================================
~Ascii
# ...
 1928.5646973 6.0000000000 13.944999695 0.0280000009 0.3860825002 2.2786965370 77.082015991 133.22122192 132.19354248 0.6969904304 13.417623520 0.7782145739 0.7782145739
 1928.7170410 6.0000000000 13.946999550 0.0219999999 0.4225322604 2.2651379108 82.988731384 132.83598328 131.83444214 0.6939976215 11.739360809 0.8451130390 0.8451130390
 1928.8695068 6.0000000000 14.012999535 0.0040000002 0.4063560963 2.2593166828 78.326217651 132.38650513 131.31553650 0.6930480599 9.8114223480 0.8920993209 0.8920993209
 1929.0218506 6.0000000000 14.010000229 0.0000000000 0.4001049697 2.2615320683 82.431838989 130.74250793 129.71682739 0.7080889344 9.0084180832 0.9229086041 0.9229086041
 1929.1743164 5.0000000000 14.080000877 0.0049999999 0.3701480627 2.2704000473 79.862190247 130.24308777 129.23759460 0.7450576425 8.7692260742 0.8849583864 0.8849583864
 1929.3266602 5.0000000000 13.961999893 -0.003000000 0.3710277677 2.2693135738 75.873352051 131.42257690 130.34616089 0.7630168200 9.4635219574 0.8720889091 0.8720889091
 1929.4791260 5.0000000000 14.123000145 -0.002000000 0.3654289842 2.2688584328 75.189002991 130.62208557 129.62986755 0.7699807882 10.095426559 0.9091728926 0.9091728926
 1929.6314697 5.0000000000 14.212999344 0.0020000001 0.3930534720 2.2769708633 75.501205444 129.28079224 128.29351807 0.7639423013 10.232244492 0.9631033540 0.9631033540
 1929.7839355 5.0000000000 13.909000397 -0.003000000 0.4247392416 2.2779750824 76.003608704 128.83277893 127.78176117 0.7398622036 11.998256683 1.0061025620 1.0061025620
 1929.9362793 5.0000000000 13.906001091 -0.002000000 0.4092673659 2.2801799774 77.134208679 127.22134399 126.18038940 0.6970096231 13.329755783 1.0376061201 1.0376061201
 1930.0887451 6.0000000000 13.906001091 0.0060000001 0.4341998994 2.2846167088 80.025642395 127.98778534 127.01805878 0.6999679208 15.741244316 0.9146859050 0.9146859050
 1930.2410889 6.0000000000 13.918999672 0.0260000005 0.4166382551 2.2897217274 88.010406494 129.13809204 128.11889648 0.6899743676 14.888454437 0.8166829348 0.8166829348
 1930.3934326 6.0000000000 14.296999931 0.0219999999 0.4839179516 2.2769880295 91.246696472 128.34716797 127.25588226 0.6820120215 16.275939941 0.7180360556 0.7180360556
 1930.5458984 6.0000000000 14.218999863 0.0209999997 0.4428761005 2.2592718601 89.860786438 127.84651184 126.82594299 0.6870672107 16.664947510 0.7329006791 0.7329006791
 1930.6982422 6.0000000000 13.939000130 0.0070000002 0.4560281634 2.2434737682 85.421623230 126.38066101 125.32363129 0.7080312371 16.342899323 0.7021178007 0.7021178007
 1930.8507080 6.0000000000 14.626000404 0.0340000018 0.4022364020 2.2391166687 78.611587524 128.12651062 127.06307983 0.7210448384 18.787096024 0.7512817979 0.7512817979
 1931.0030518 5.0000000000 14.637999535 0.0439999998 0.3923835158 2.2398931980 74.439056396 129.69451904 128.73753357 0.7350048423 17.571249008 0.8392740488 0.8392740488
 1931.1555176 5.0000000000 14.315999985 0.0340000018 0.3906727135 2.2405250072 74.889808655 129.12081909 128.14396667 0.7370128036 17.252948761 0.9532946348 0.9532946348
 1931.3078613 5.0000000000 14.088999748 0.0080000004 0.3915678263 2.2555391788 79.499397278 127.66831207 126.58647156 0.7409543395 15.366616249 1.0449086428 1.0449086428
 1931.4603271 5.0000000000 13.956000328 -0.002000000 0.3831035793 2.2841999531 79.250602722 125.31689453 124.23083496 0.7219904065 14.374998093 1.0067597628 1.0067597628
 1931.6126709 5.0000000000 13.911999702 0.0189999994 0.3653627038 2.3261437416 79.431541443 124.82623291 123.81512451 0.7190071940 13.749612808 0.9317860603 0.9317860603
 1931.7651367 5.0000000000 14.041000366 0.0520000011 0.3600284755 2.3492417336 76.766426086 128.70240784 127.66131592 0.7219743729 12.760429382 0.8427019119 0.8427019119
 1931.9174805 6.0000000000 14.234000206 0.0700000003 0.3848701715 2.3324317932 81.889007568 135.91105652 134.84957886 0.7139006853 13.206523895 0.7498878837 0.7498878837
 1932.0699463 6.0000000000 13.954999924 0.0489999987 0.3947043121 2.2716917992 86.253005981 140.89097595 139.89533997 0.6829551458 13.678621292 0.7149262428 0.7149262428
 1932.2222900 6.0000000000 13.946000099 0.0280000009 0.4361035824 2.2147603035 87.199615479 143.07559204 142.04173279 0.6689199805 12.941827774 0.6921921372 0.6921921372
 1932.3747559 6.0000000000 13.963999748 0.0149999997 0.4535421133 2.1970915794 90.808197021 143.54380798 142.44412231 0.6439487338 13.820220947 0.7520608902 0.7520608902
 1932.5270996 6.0000000000 14.300999641 0.0399999991 0.4588215649 2.2169919014 89.310600281 141.39395142 140.33964539 0.6280576587 13.265623093 0.7710896730 0.7710896730
 1932.6794434 6.0000000000 14.064000130 0.0370000005 0.4368229806 2.2365186214 88.557594299 138.05531311 137.06883240 0.6460745335 12.835368156 0.7990216613 0.7990216613
 1932.8319092 6.0000000000 14.093998909 0.0329999998 0.4450067580 2.2391424179 86.296592712 135.90599060 134.88841248 0.6770319939 12.154720306 0.8082242012 0.8082242012
 1932.9842529 6.0000000000 13.903000832 0.0130000003 0.4608718157 2.2415125370 81.183044434 132.78663635 131.72608948 0.6870552897 11.137475967 0.8780649304 0.8780649304
 1933.1367188 5.0000000000 13.826000214 0.0109999999 0.4637854099 2.2563166618 79.103187561 129.21075439 128.20718384 0.7100480199 12.585703850 0.9050384164 0.9050384164
 1933.2890625 5.0000000000 13.696999550 0.0099999998 0.4445363581 2.2845180035 72.321563721 128.24380493 127.22520447 0.7250601053 14.365675926 0.9169591069 0.9169591069
 1933.4415283 5.0000000000 13.618000031 0.0070000002 0.4074794054 2.3159332275 75.890609741 128.44531250 127.40900421 0.7500224113 16.303598404 0.8999167085 0.8999167085
 1933.5938721 5.0000000000 13.571000099 0.0030000000 0.4241696894 2.3256857395 80.748947144 129.20721436 128.24021912 0.7570553422 15.557540894 0.8739134669 0.8739134669
 1933.7463379 5.0000000000 13.553999901 0.0189999994 0.4247990549 2.3305416107 80.326225281 130.72964478 129.71685791 0.7800127864 16.203609467 0.8380128145 0.8380128145
 1933.8986816 5.0000000000 13.532999992 0.0209999997 0.4507575035 2.3224439621 84.426994324 131.21444702 130.15283203 0.7839487195 18.260253906 0.8421152830 0.8421152830
 1934.0511475 5.0000000000 13.555001259 0.0320000015 0.4209879041 2.3252918720 81.006011963 130.99815369 129.94190979 0.7679551244 18.656810760 0.8781794906 0.8781794906
 1934.2034912 5.0000000000 13.576999664 0.0099999998 0.4100163281 2.3264811039 82.849777222 127.67915344 126.69897461 0.7540128231 20.775852203 0.9342081547 0.9342081547
 1934.3559570 5.0000000000 13.578000069 0.0149999997 0.3917393088 2.3363249302 75.008010864 120.96714020 119.98212433 0.7580288649 21.045955658 0.9990512729 0.9990512729
 1934.5083008 5.0000000000 13.571000099 0.0130000003 0.3930079043 2.3363585472 77.519615173 118.87527466 117.81558990 0.7670769095 22.585298538 1.0147438049 1.0147438049
 1934.6606445 6.0000000000 13.569999695 0.0370000005 0.4105078578 2.3256289959 83.634918213 121.69516754 120.65708160 0.7910577059 22.052394867 0.9348966479 0.9348966479
 1934.8131104 6.0000000000 13.569999695 0.0509999990 0.4432475269 2.3021671772 87.753807068 125.77038574 124.70954895 0.8150416017 20.548746109 0.8918911219 0.8918911219
 1934.9654541 6.0000000000 13.567999840 0.0430000015 0.4721505344 2.2753658295 88.942512512 129.48379517 128.38264465 0.8280072212 18.290098190 0.8582091331 0.8582091331
 1935.1179199 6.0000000000 13.508999825 0.0170000009 0.4693645835 2.2595167160 90.815605164 130.06466675 129.03186035 0.8310832381 17.916198730 0.9449327588 0.9449327588
 1935.2702637 6.0000000000 13.498000145 0.0080000004 0.4357608855 2.2668063641 91.613578796 123.39875031 122.36520386 0.8570048213 17.975448608 0.9239735603 0.9239735603
 1935.4227295 6.0000000000 13.879000664 0.0109999999 0.4298493564 2.2856416702 86.855186462 115.76178741 114.70523071 0.8590480685 16.914447784 0.9134995937 0.9134995937
 1935.5750732 5.0000000000 13.453001022 0.0099999998 0.4428885877 2.2944071293 80.670578003 113.61382294 112.53795624 0.8739976287 16.433029175 1.0693173409 1.0693173409
 1935.7275391 5.0000000000 13.461000443 0.0010000000 0.4886965156 2.3032834530 73.450813293 112.31261444 111.29424286 0.8729007244 17.274797440 1.2010191679 1.2010191679
