# LAS format log file from PETREL
# Project units are specified as depth units
#==================================================================
~Version information
VERS.   2.0:
WRAP.   NO:
#==================================================================
~Well
STRT .m      821.52105713 :
STOP .m      2574.1203613 :
STEP .m     0.00000000 :
NULL .        -999.250000 :
COMP.           : COMPANY
WELL.  31/4-8   : WELL
FLD.            : FIELD
LOC.            : LOCATION
SRVC.           : SERVICE COMPANY
DATE.  2018-09-11 14:48:38   : Log Export Date {yyyy-MM-dd HH:mm:ss}
PROV.           : PROVINCE
UWI.   31/4-8   : UNIQUE WELL ID
API.            : API NUMBER
#==================================================================
~Curve
DEPT .m                   : DEPTH
Lithology_geolink ._      : Lithology_geolink
CALI .in                  : CALI
DRHO .g/cm3               : DRHO
NPHI .m3/m3               : NPHI
RHOB .g/cm3               : RHOB
GR .gAPI                  : GR
DTC .us/ft                : DTC
DTE .us/ft                : DTE
RDEP .ohm.m               : RDEP
SP .mV                    : SP
RSHA .ohm.m               : RSHA
RMED .ohm.m               : RMED
~Parameter
#==================================================================
~Ascii
# ...
 1165.3353271  -999.250000 17.893999100 0.0650032014  -999.250000 2.0450024605 69.863769531 146.34576416 145.58042908 1.3699855804 112.39058685  -999.250000 0.7570000291
 1165.4876709  -999.250000 17.874000549 0.0689999983  -999.250000 2.0480065346 68.670951843 147.44067383 146.61511230 1.3609999418 111.50967407  -999.250000 0.7570000291
 1165.6401367  -999.250000 17.850999832 0.0689951926  -999.250000 2.0560030937 69.378433228 148.48606873 147.65002441 1.3610014915 112.34880066  -999.250000 0.7570032477
 1165.7924805  -999.250000 17.841999054 0.0629943982  -999.250000 2.0599968433 70.238311768 148.76663208 147.90100098 1.3620111942 110.97979736  -999.250000 0.7590016127
 1165.9449463  -999.250000 17.854000092 0.0559959970  -999.250000 2.0559918880 71.609001160 148.03453064 147.22471619 1.3690311909 110.72014618  -999.250000 0.7610111833
 1166.0972900  -999.250000 17.874000549 0.0509983972  -999.250000 2.0459871292 72.361396790 147.26023865 146.39974976 1.3820208311 110.19040680  -999.250000 0.7680088282
 1166.2497559  -999.250000 17.878999710 0.0489975959  -999.250000 2.0299856663 69.792999268 146.83572388 146.03034973 1.3950480223 111.94008636  -999.250000 0.7790176272
 1166.4020996  -999.250000 17.864000320 0.0459975973  -999.250000 2.0119912624 65.775222778 147.06576538 146.24504089 1.4150352478 111.98779297  -999.250000 0.7900240421
 1166.5545654  -999.250000 17.840999603 0.0429959968  -999.250000 2.0009999275 62.770000458 147.62773132 146.76651001 1.4370504618 109.37134552  -999.250000 0.8050208688
 1166.7069092  -999.250000 17.833999634 0.0379967950  -999.250000 2.0010063648 62.540184021 148.07661438 147.27832031 1.4580352306 110.82911682  -999.250000 0.8180240393
 1166.8593750  -999.250000 17.857000351 0.0339967981  -999.250000 2.0090129375 62.880001068 148.49334717 147.75453186 1.4800312519 110.28001404  -999.250000 0.8330208659
 1167.0117188  -999.250000 17.896999359 0.0320008025  -999.250000 2.0170030594 62.779079437 148.76678467 147.91102600 1.4930096865 110.90978241  -999.250000 0.8460192084
 1167.1641846  -999.250000 17.922000885 0.0330080055  -999.250000 2.0210046768 63.578998566 147.83033752 147.04885864 1.4989928007 110.15080261  -999.250000 0.8580111861
 1167.3165283  -999.250000 17.909999847 0.0380040035  -999.250000 2.0239982605 64.220489502 146.19924927 145.38380432 1.4959871769 110.64952087  -999.250000 0.8650063872
 1167.4689941  -999.250000 17.875000000 0.0430080071  -999.250000 2.0219905376 63.311000824 144.88299561 144.02738953 1.4879664183 110.96952057  -999.250000 0.8689967990
 1167.6213379  -999.250000 17.857000351 0.0480040051  -999.250000 2.0159943104 61.482463837 144.56761169 143.75190735 1.4739791155 110.05136108  -999.250000 0.8669967651
 1167.7736816  -999.250000 17.877000809 0.0530040041  -999.250000 2.0089969635 60.301944733 145.15428162 144.28105164 1.4609726667 112.15004730  -999.250000 0.8649984002
 1167.9261475  -999.250000 17.919000626 0.0580040030  -999.250000 2.0049993992 59.360752106 145.72003174 144.87773132 1.4439687729 110.96113586  -999.250000 0.8629967570
 1168.0784912  -999.250000 17.954999924 0.0630007982  -999.250000 2.0039982796 59.079223633 146.34471130 145.54623413 1.4309743643 112.29022980  -999.250000 0.8610000014
 1168.2309570  -999.250000 17.961000443 0.0639935955  -999.250000 2.0019969940 60.027999878 147.29483032 146.45297241 1.4149687290 111.33048248  -999.250000 0.8610032201
 1168.3833008  -999.250000 17.931999207 0.0559847914  -999.250000 1.9979991913 62.346141815 147.25416565 146.49058533 1.4019855261 111.63028717  -999.250000 0.8630031943
 1168.5357666  -999.250000 17.875000000 0.0369855762  -999.250000 1.9970096350 64.759002686 144.93096924 144.19381714 1.3929831982 111.80971527  -999.250000 0.8650000095
 1168.6881104  -999.250000 17.819000244 0.0189967938  -999.250000 2.0090129375 66.297767639 141.98759460 141.10447693 1.3859968185 111.01004791  -999.250000 0.8649936318
 1168.8405762  -999.250000 17.798000336 0.0150176138  -999.250000 2.0250129700 67.289001465 140.73359680 139.87965393 1.3840070963 111.03932953  -999.250000 0.8609920144
 1168.9929199  -999.250000 17.822000504 0.0260104164  -999.250000 2.0329992771 68.188285828 141.68496704 140.90747070 1.3870111704 110.62046814  -999.250000 0.8559839725
 1169.1453857  -999.250000 17.871000290 0.0390080065  -999.250000 2.0319919586 68.959999084 144.26005554 143.47709656 1.3940240145 111.52764893  -999.250000 0.8459855914
 1169.2977295  -999.250000 17.910999298 0.0440008007  -999.250000 2.0269918442 68.501365662 146.62153625 145.81402588 1.4040209055 110.13954163  -999.250000 0.8369839787
 1169.4501953  -999.250000 17.930000305 0.0450000018  -999.250000 2.0169646740 67.669998169 147.09519958 146.25428772 1.4170240164 111.09584045  -999.250000 0.8269855976
 1169.6025391  -999.250000 17.948999405 0.0449983999  -999.250000 1.9949815273 68.557289124 146.45272827 145.59934998 1.4270144701 108.54121399  -999.250000 0.8179904222
 1169.7548828  -999.250000 17.981000900 0.0429967977  -999.250000 1.9719928503 71.096961975 146.12068176 145.26330566 1.4360096455 109.92079163  -999.250000 0.8119975924
 1169.9073486  -999.250000 18.010000229 0.0389983989  -999.250000 1.9630112648 72.918540955 146.37872314 145.60830688 1.4420096874 111.04077148  -999.250000 0.8089967966
 1170.0596924  -999.250000 18.014999390 0.0370040052  -999.250000 1.9770191908 73.069877625 147.03089905 146.27047729 1.4460047483 111.35947418  -999.250000 0.8069983721
 1170.2121582  -999.250000 17.997999191 0.0420040041  -999.250000 2.0010175705 72.721000671 147.45133972 146.64241028 1.4490000010 111.03098297  -999.250000 0.8050000072
 1170.3645020  -999.250000 17.979000092 0.0470016003  -999.250000 2.0230119228 71.732795715 147.66316223 146.87785339 1.4490064383 111.44045258  -999.250000 0.8050000072
 1170.5169678  -999.250000 17.965999603 0.0489983968  -999.250000 2.0380089283 68.833000183 147.66659546 146.83758545 1.4530167580 112.33547211  -999.250000 0.8049967885
 1170.6693115  -999.250000 17.954999924 0.0469991975  -999.250000 2.0490057468 64.345596313 147.19750977 146.33068848 1.4600160122 109.21055603  -999.250000 0.8029967546
 1170.8217773  -999.250000 17.940000534 0.0459967963  -999.250000 2.0559999943 62.109001160 146.33695984 145.51860046 1.4700239897 110.17980194  -999.250000 0.8009951711
 1170.9741211  -999.250000 17.923000336 0.0439991988  -999.250000 2.0559968948 63.308036804 145.41378784 144.58934021 1.4800096750 110.10047150  -999.250000 0.7979967594
 1171.1265869  -999.250000 17.908000946 0.0430016033  -999.250000 2.0520000458 65.230003357 144.75479126 143.93040466 1.4860070944 111.02011871  -999.250000 0.7960000038
 1171.2789307  -999.250000 17.899999619 0.0440016016  -999.250000 2.0520048141 65.381881714 144.80178833 144.00346375 1.4889887571 111.07009125  -999.250000 0.7960032225
 1171.4313965  -999.250000 17.895999908 0.0459967963  -999.250000 2.0580112934 64.349998474 145.42236328 144.63822937 1.4819735289 109.87989807  -999.250000 0.7980031967
 1171.5837402  -999.250000 17.896999359 0.0439975969  -999.250000 2.0650024414 65.077423096 146.16404724 145.40153503 1.4709711075 109.84081268  -999.250000 0.8000000119
 1171.7360840  -999.250000 17.905000687 0.0409983993  -999.250000 2.0679984093 67.955696106 146.99800110 146.16308594 1.4529631138 110.96891785  -999.250000 0.7999984026
 1171.8885498  -999.250000 17.923999786 0.0389991999  -999.250000 2.0659959316 71.197402954 147.80305481 146.97285461 1.4299695492 109.66947174  -999.250000 0.7979967594
 1172.0408936  -999.250000 17.962999344 0.0379983969  -999.250000 2.0609984398 70.862266541 148.37362671 147.53378296 1.4109696150 108.72201538  -999.250000 0.7959951758
 1172.1933594  -999.250000 18.027999878 0.0359999985  -999.250000 2.0590000153 67.501998901 148.46931458 147.66558838 1.3919615746 110.59928894  -999.250000 0.7899951935
 1172.3457031  -999.250000 18.104000092 0.0359999985  -999.250000 2.0589969158 64.822143555 148.52883911 147.68852234 1.3759759665 109.89154816  -999.250000 0.7869967818
 1172.4981689  -999.250000 18.166000366 0.0359975956  -999.250000 2.0549912453 65.119003296 148.64848328 147.79460144 1.3609783649 111.47873688  -999.250000 0.7830016017
