# LAS format log file from PETREL
# Project units are specified as depth units
#==================================================================
~Version information
VERS.   2.0:
WRAP.   NO:
#==================================================================
~Well
STRT .m      895.02691650 :
STOP .m      2933.5300293 :
STEP .m     0.00000000 :
NULL .        -999.250000 :
COMP.           : COMPANY
WELL.  31/4-5   : WELL
FLD.            : FIELD
LOC.            : LOCATION
SRVC.           : SERVICE COMPANY
DATE.  2018-09-11 14:48:38   : Log Export Date {yyyy-MM-dd HH:mm:ss}
PROV.           : PROVINCE
UWI.   31/4-5   : UNIQUE WELL ID
API.            : API NUMBER
#==================================================================
~Curve
DEPT .m                   : DEPTH
Lithology_geolink ._      : Lithology_geolink
CALI .in                  : CALI
DRHO .g/cm3               : DRHO
SGR .gAPI                 : SGR
NPHI .m3/m3               : NPHI
RHOB .g/cm3               : RHOB
PEF .b/e                  : PEF
GR .gAPI                  : GR
DTC .us/ft                : DTC
DTE .us/ft                : DTE
RDEP .ohm.m               : RDEP
SP .mV                    : SP
RSHA .ohm.m               : RSHA
RMIC .ohm.m               : RMIC
RMED .ohm.m               : RMED
~Parameter
#==================================================================
~Ascii
# ...
 2927.7387695  -999.250000 7.4770002365 0.0729887784  -999.250000 0.1754999906 2.5192997456  -999.250000 46.562999725  -999.250000  -999.250000 3.6774232388 129.34417725 5.2771921158  -999.250000 5.2736687660
 2927.8911133  -999.250000 7.4340000153 0.0659791678  -999.250000 0.1743800044 2.5027241707  -999.250000 46.562999725  -999.250000  -999.250000 3.6476154327 128.89479065 5.2067308426  -999.250000 5.2049360275
 2928.0434570  -999.250000 7.4260001183 0.0530192293  -999.250000 0.1745200008 2.4648158550  -999.250000 46.562999725  -999.250000  -999.250000 3.2355384827 130.16557312 5.1857309341  -999.250000 5.1836314201
 2928.1960449  -999.250000 7.3859996796 0.0649039969  -999.250000 0.1777199954 2.4032397270  -999.250000 46.562999725  -999.250000  -999.250000 2.2706558704 129.47250366 4.7725677490  -999.250000 4.7451391220
 2928.3483887  -999.250000 7.2220001221 0.0350032039  -999.250000 0.1869399995 2.3400633335  -999.250000 46.562999725  -999.250000  -999.250000 1.6106153727 128.89653015 2.1713075638  -999.250000 2.0815024376
 2928.5007324  -999.250000 6.7919998169 0.0369855762  -999.250000 0.1958000064 2.2988860607  -999.250000 46.562999725  -999.250000  -999.250000 1.2755000591 127.79296112 1.7735384703  -999.250000 1.7722916603
 2928.6530762  -999.250000 6.1879997253 0.0279919878  -999.250000 0.2040200084 2.2827355862  -999.250000 46.562999725  -999.250000  -999.250000 1.1587307453 126.47988129 2.1595385075  -999.250000 2.1740546227
 2928.8056641  -999.250000 5.8379998207 0.0230128001  -999.250000 0.2051799893 2.2841718197  -999.250000 46.562999725  -999.250000  -999.250000 1.1276170015 125.83119202 2.1915030479  -999.250000 2.1908462048
 2928.9580078  -999.250000 5.6760001183 0.0270080138  -999.250000 0.2070299983 2.2944097519  -999.250000 46.562999725  -999.250000  -999.250000 1.1205760241 125.98508453 2.1598014832  -999.250000 2.1589374542
 2929.1103516  -999.250000 5.4790005684 0.0320096165  -999.250000 0.2089200020 2.3069725037  -999.250000 46.562999725  -999.250000  -999.250000 1.1155769825 127.20933533 2.1462693214  -999.250000 2.1459839344
 2929.2626953  -999.250000 5.3330001831 0.0380112156  -999.250000 0.2099599987 2.3176658154  -999.250000 46.562999725  -999.250000  -999.250000 1.1141153574 127.37412262 2.1414616108  -999.250000 2.1409935951
 2929.4150391  -999.250000 5.2290000916 0.0449871831  -999.250000 0.2109000087 2.3251051903  -999.250000 46.562999725  -999.250000  -999.250000 1.1122307777 126.87787628 2.1392307281  -999.250000 2.1389999390
 2929.5676270  -999.250000 5.1689996719 0.0370256007  -999.250000 0.2113900036 2.3310046196  -999.250000 46.562999725  -999.250000  -999.250000 1.1137695313 125.30789948 2.1389999390  -999.250000 2.1389904022
 2929.7199707  -999.250000 5.1599998474 0.0449871831  -999.250000 0.2113900036 2.3350980282  -999.250000 46.562999725  -999.250000  -999.250000 1.1131154299 125.09702301 2.1372308731  -999.250000 2.1370000839
 2929.8723145  -999.250000 5.1840000153 0.0370288454  -999.250000 0.2109699994 2.3387286663  -999.250000 46.562999725  -999.250000  -999.250000 1.1138845682 125.13457489 2.1370000839  -999.250000 2.1369936466
 2930.0246582  -999.250000 5.1760001183 0.0549791679  -999.250000 0.2110099941 2.3396365643  -999.250000 46.562999725  -999.250000  -999.250000 1.1157692671 125.47317505 2.1352307796  -999.250000 2.1350095272
 2930.1772461  -999.250000 5.1259999275 0.0420255996  -999.250000 0.2118499875 2.3340520859  -999.250000 46.562999725  -999.250000  -999.250000 1.1257327795 126.41186523 2.1385390759  -999.250000 2.1379759312
 2930.3295898  -999.250000 5.0989999771 0.0499775633  -999.250000 0.2119099945 2.3244998455  -999.250000 46.562999725  -999.250000  -999.250000 1.1384999752 127.26886749 2.1336922646  -999.250000 2.1329998970
 2930.4819336  -999.250000 5.0980000496 0.0360208303  -999.250000 0.2119099945 2.3200395107  -999.250000 46.562999725  -999.250000  -999.250000 1.1470769644 127.69314575 2.1329998970  -999.250000 2.1329998970
 2930.6342773  -999.250000 5.0960001945 0.0490128174  -999.250000 0.2119099945 2.3263988495  -999.250000 46.562999725  -999.250000  -999.250000 1.1586153507 128.73016357 2.1329998970  -999.250000 2.1329934597
 2930.7868652  -999.250000 5.0920000076 0.0570096001  -999.250000 0.2119099945 2.3372251987  -999.250000 46.562999725  -999.250000  -999.250000 1.1608861685 129.43840027 2.1312274933  -999.250000 2.1310095787
 2930.9392090  -999.250000 5.0900001526 0.0600080118  -999.250000 0.2119099945 2.3444705009  -999.250000 46.562999725  -999.250000  -999.250000 1.1618847847 129.44148254 2.1327695847  -999.250000 2.1329998970
 2931.0915527  -999.250000 5.0900001526 0.0649903789  -999.250000 0.2119099945 2.3430602551  -999.250000 46.562999725  -999.250000  -999.250000 1.1611154079 129.88603210 2.1329998970  -999.250000 2.1329998970
 2931.2438965  -999.250000 5.0889997482 0.0589951910  -999.250000 0.2119099945 2.3335134983  -999.250000 46.562999725  -999.250000  -999.250000 1.1627691984 130.37664795 2.1329998970  -999.250000 2.1329998970
 2931.3962402  -999.250000 5.0819997787 0.0559807718  -999.250000 0.2119500041 2.3232183456  -999.250000 46.562999725  -999.250000  -999.250000 1.1612308025 129.77464294 2.1329998970  -999.250000 2.1329998970
 2931.5488281  -999.250000 5.0689997673 0.0440095998  -999.250000 0.2123699933 2.3191556931  -999.250000 46.562999725  -999.250000  -999.250000 1.1618847847 128.75570679 2.1329998970  -999.250000 2.1329998970
 2931.7011719  -999.250000 5.0630002022 0.0469983965  -999.250000 0.2124000043 2.3206357956  -999.250000 46.562999725  -999.250000  -999.250000 1.1619999409 128.81695557 2.1329998970  -999.250000 2.1329998970
 2931.8535156  -999.250000 5.0630002022 0.0459951907  -999.250000 0.2124000043 2.3204951286  -999.250000 46.562999725  -999.250000  -999.250000 1.1611154079 128.91839600 2.1329998970  -999.250000 2.1329998970
 2932.0058594  -999.250000 5.0630002022 0.0429823734  -999.250000 0.2124000043 2.3152678013  -999.250000 46.562999725  -999.250000  -999.250000 1.1618845463 128.76791382 2.1329998970  -999.250000 2.1329998970
 2932.1584473  -999.250000 5.0609998703 0.0320000015  -999.250000 0.2124000043 2.3105909824  -999.250000 46.562999725  -999.250000  -999.250000 1.1611151695 129.39710999 2.1329998970  -999.250000 2.1329998970
 2932.3107910  -999.250000 5.0570001602 0.0320176296  -999.250000 0.2124000043 2.3111624718  -999.250000 46.562999725  -999.250000  -999.250000 1.1627691984 130.11592102 2.1329998970  -999.250000 2.1329998970
 2932.4631348  -999.250000 5.0550003052 0.0430000015  -999.250000 0.2124000043 2.3135874271  -999.250000 46.562999725  -999.250000  -999.250000 1.1638846397 130.36128235 2.1329998970  -999.250000 2.1330094337
 2932.6154785  -999.250000 5.0550003052 0.0429102592  -999.250000 0.2124000043 2.3156826496  -999.250000 46.562999725  -999.250000  -999.250000 1.0357308388 130.06149292 2.1365385056  -999.250000 2.1360030174
 2932.7680664  -999.250000 5.0460000038 -0.013169601  -999.250000 0.2124399990 2.3208048344  -999.250000 46.562999725  -999.250000  -999.250000 1.0190000534 130.00604248 2.1370000839  -999.250000 2.1370000839
 2932.9204102  -999.250000 5.0240006447 -0.066124998  -999.250000 0.2128599882 2.3289377689  -999.250000 46.562999725  -999.250000  -999.250000 1.0190000534 129.64297485 2.1370000839  -999.250000 2.1370000839
 2933.0727539  -999.250000 5.0120000839 -0.143999994  -999.250000 0.2128899992 2.3350956440  -999.250000 46.562999725  -999.250000  -999.250000 1.0190000534 129.99723816 2.1370000839  -999.250000 2.1370000839
 2933.2250977  -999.250000 5.0120000839 -0.143999994  -999.250000 0.2128899992 2.3374302387  -999.250000 46.562999725  -999.250000  -999.250000 1.0190000534 130.05039978 2.1370000839  -999.250000 2.1370000839
 2933.3774414  -999.250000 5.0120000839 -0.143999994  -999.250000 0.2128899992 2.3378682137  -999.250000 46.562999725  -999.250000  -999.250000 1.0190000534 129.54098511 2.1370000839  -999.250000 2.1370000839
 2933.5300293  -999.250000 5.0120000839 -0.143999994  -999.250000 0.2128899992  -999.250000  -999.250000 46.562999725  -999.250000  -999.250000 1.0190000534 129.17744446 2.1370000839  -999.250000 2.1370000839
