# LAS format log file from PETREL
# Project units are specified as depth units
#==================================================================
~Version information
VERS.   2.0:
WRAP.   NO:
#==================================================================
~Well
STRT .m      821.52105713 :
STOP .m      2574.1203613 :
STEP .m     0.00000000 :
NULL .        -999.250000 :
COMP.           : COMPANY
WELL.  31/4-8   : WELL
FLD.            : FIELD
LOC.            : LOCATION
SRVC.           : SERVICE COMPANY
DATE.  2018-09-11 14:48:38   : Log Export Date {yyyy-MM-dd HH:mm:ss}
PROV.           : PROVINCE
UWI.   31/4-8   : UNIQUE WELL ID
API.            : API NUMBER
#==================================================================
~Curve
DEPT .m                   : DEPTH
Lithology_geolink ._      : Lithology_geolink
CALI .in                  : CALI
DRHO .g/cm3               : DRHO
NPHI .m3/m3               : NPHI
RHOB .g/cm3               : RHOB
GR .gAPI                  : GR
DTC .us/ft                : DTC
DTE .us/ft                : DTE
RDEP .ohm.m               : RDEP
SP .mV                    : SP
RSHA .ohm.m               : RSHA
RMED .ohm.m               : RMED
~Parameter
#==================================================================
~Ascii
 821.52105713  -999.250000 19.045000076  -999.250000  -999.250000 1.4520220757 17.888006210 155.81680298 155.02499390 0.5569831729 117.47782898 0.5569971800 7.8889999390
 821.67346191  -999.250000 19.041999817  -999.250000  -999.250000 1.4630421400 17.903070450 155.86067200 155.02499390 0.5499832034 115.90438080 0.5499972105 7.8889999390
 821.82586670  -999.250000 19.045000076  -999.250000  -999.250000 1.4840459824 18.077997208 155.86189270 155.02499390 0.5429807305 119.58112335 0.5429967642 7.8889999390
 821.97827148  -999.250000 19.048999786  -999.250000  -999.250000 1.5070259571 18.073085785 155.86332703 155.02499390 0.5349856019 120.13805389 0.5349976420 7.8889999390
 822.13067627  -999.250000 19.049999237  -999.250000  -999.250000 1.5200020075 18.285051346 155.84667969 155.02499390 0.5289759636 118.66947937 0.5289959908 7.8889999390
 822.28308105  -999.250000 19.049999237  -999.250000  -999.250000 1.5209959745 18.415035248 155.81683350 155.02499390 0.5189735889 118.41014099 0.5189911723 7.8889999390
 822.43548584  -999.250000 19.049999237  -999.250000  -999.250000 1.5189960003 18.458034515 155.86137390 155.02499390 0.5079879761 118.48030090 0.5079960227 7.8889999390
 822.58789063  -999.250000 19.049999237  -999.250000  -999.250000 1.5169959068 18.500165939 155.86332703 155.02499390 0.5029860139 118.63403320 0.5029960275 7.8889999390
 822.74023438  -999.250000 19.049999237  -999.250000  -999.250000 1.5150047541 18.707052231 155.86128235 155.02499390 0.4979855716 121.64064026 0.4979975820 7.8889999390
 822.89263916  -999.250000 19.049999237  -999.250000  -999.250000 1.5180176497 18.836999893 155.84663391 155.02499390 0.4919855893 122.04078674 0.4919975996 7.8889999390
 823.04504395  -999.250000 19.049999237  -999.250000  -999.250000 1.5290280581 18.838998795 155.81680298 155.02499390 0.4859927893 122.53132629 0.4859988093 7.8889999390
 823.19744873  -999.250000 19.048999786  -999.250000  -999.250000 1.5430159569 18.834077835 155.86067200 155.02499390 0.4829783738 123.68997955 0.4829964042 7.8889999390
 823.34985352  -999.250000 19.045999527  -999.250000  -999.250000 1.5510059595 19.031118393 155.86120605 155.02499390 0.4739831984 123.68016815 0.4739972055 7.8889999390
 823.50225830  -999.250000 19.045999527  -999.250000  -999.250000 1.5540000200 19.324026108 155.86120605 155.02499390 0.4669855833 124.25863647 0.4669975936 7.8889999390
 823.65466309  -999.250000 19.048999786  -999.250000  -999.250000 1.5540020466 19.390008926 155.84663391 155.02499390 0.4609879851 123.08056641 0.4609979987 7.8889999390
 823.80706787  -999.250000 19.049999237  -999.250000  -999.250000 1.5550140142 19.414999008 155.81748962 155.02499390 0.4559855759 123.86144257 0.4559975863 7.8889999390
 823.95947266  -999.250000 19.048999786  -999.250000  -999.250000 1.5620200634 19.409997940 155.86280823 155.02499390 0.4499855638 124.58252716 0.4499975741 7.8889999390
 824.11187744  -999.250000 19.045000076  -999.250000  -999.250000 1.5720200539 19.406078339 155.86128235 155.02499390 0.4439831972 126.34164429 0.4439972043 7.8889999390
 824.26428223  -999.250000 19.041000366  -999.250000  -999.250000 1.5820220709 19.601037979 155.86120605 155.02499390 0.4369831979 128.17387390 0.4369972050 7.8889999390
 824.41668701  -999.250000 19.041000366  -999.250000  -999.250000 1.5930300951 19.696075439 155.84727478 155.02499390 0.4299903810 133.08760071 0.4299967885 7.8889999390
 824.56909180  -999.250000 19.045000076  -999.250000  -999.250000 1.6080400944 19.791028976 155.81886292 155.02499390 0.4259807765 131.39227295 0.4259935915 7.8889999390
 824.72149658  -999.250000 19.048999786  -999.250000  -999.250000 1.6280360222 19.827167511 155.86067200 155.02499390 0.4179804027 133.01974487 0.4179944098 7.8889999390
 824.87384033  -999.250000 19.048999786  -999.250000  -999.250000 1.6460176706 20.037054062 155.86120605 155.02499390 0.4109880030 132.40016174 0.4109980166 7.8889999390
 825.02624512  -999.250000 19.045999527  -999.250000  -999.250000 1.6570111513 20.168001175 155.86120605 155.02499390 0.4059927762 133.11920166 0.4059987962 7.8889999390
 825.17864990  -999.250000 19.045999527  -999.250000  -999.250000 1.6639940739 20.172048569 155.84663391 155.02499390 0.4029951990 132.00608826 0.4029991925 7.8889999390
 825.33105469  -999.250000 19.048999786  -999.250000  -999.250000 1.6609640121 20.292066574 155.81680298 155.02499390 0.4009927809 136.54096985 0.4009988010 7.8889999390
 825.48345947  -999.250000 19.048999786  -999.250000  -999.250000 1.6429539919 20.460039139 155.86067200 155.02499390 0.3980168104 137.03131104 0.3980028033 7.8889999390
 825.63586426  -999.250000 19.045000076  -999.250000  -999.250000 1.6199820042 20.557998657 155.86189270 155.02499390 0.4050144255 138.18011475 0.4050024152 7.8889999390
 825.78826904  -999.250000 19.041999817  -999.250000  -999.250000 1.6110700369 20.554077148 155.86332703 155.02499390 0.4110168219 138.24185181 0.4110028148 7.8889999390
 825.94067383  -999.250000 19.045000076  -999.250000  -999.250000 1.6462242603 20.745000839 155.84671021 155.02499390 0.4180336595 140.15843201 0.4180056155 7.8889999390
 826.09307861  -999.250000 19.048999786  -999.250000  -999.250000 1.7583504915 20.743997574 155.81680298 155.02499390 0.4320312440 138.38345337 0.4320052266 7.8889999390
 826.24548340  -999.250000 19.049999237  -999.250000  -999.250000 1.9332182407 20.740667343 155.86067200 155.02499390 0.4450360239 142.10263062 0.4450060129 7.8889999390
 826.39788818  -999.250000 19.048999786  -999.250000  -999.250000 2.0418717861 22.405820847 155.86189270 155.02499390 0.4601033330 144.91096497 0.4600344598 7.8889999390
 826.55029297  -999.250000 19.045000076  -999.250000  -999.250000 1.9776736498 24.682035446 155.86332703 155.02499390 0.5031466484 145.88980103 0.5030488968 7.8889999390
 826.70269775  -999.250000 19.041999817  -999.250000  -999.250000 1.8147437572 28.475841522 155.84666443 155.02499390 0.5641542077 145.78868103 0.5640440583 7.8889999390
 826.85504150  -999.250000 19.045000076  -999.250000  -999.250000 1.6869167089 38.262447357 155.81683350 155.02499390 0.6191514134 145.12577820 0.6190252304 7.8889999390
 827.00744629  -999.250000 19.048999786  -999.250000  -999.250000 1.6349887848 51.865638733 155.86067200 155.02499390 0.6821417809 139.99986267 0.6820235848 7.8889999390
 827.15985107  -999.250000 19.049999237  -999.250000  -999.250000 1.6280000210 63.444622040 155.86120605 155.02499390 0.7411658168 139.90907288 0.7410276532 7.8889999390
 827.31225586  -999.250000 19.049999237  -999.250000  -999.250000 1.6280000210 67.488197327 155.86120605 155.02499390 0.8101129532 138.94871521 0.8100188375 7.8889999390
 827.46466064  -999.250000 19.049999237  -999.250000  -999.250000 1.6280040741 67.987304688 155.86120605 155.02499390 0.8572042584 137.81364441 0.8570340276 7.8889999390
 827.61706543  -999.250000 19.049999237  -999.250000  -999.250000 1.6300120354 68.756248474 155.84727478 155.02499390 0.9421657920 139.62854004 0.9420276284 7.8889999390
 827.76947021  -999.250000 19.048999786  -999.250000  -999.250000 1.6360220909 69.387229919 155.81887817 155.02499390 1.0111658573 138.89883423 1.0110276937 7.8889999390
 827.92187500  -999.250000 19.045000076  -999.250000  -999.250000 1.6470279694 69.951171875 155.86067200 155.02499390 1.0802811384 137.81808472 1.0800468922 7.8889999390
 828.07427979  -999.250000 19.041000366  -999.250000  -999.250000 1.6610320807 70.393836975 155.86120605 155.02499390 1.1971201897 136.37055969 1.1970200539 7.8889999390
 828.22668457  -999.250000 19.041000366  -999.250000  -999.250000 1.6770280600 69.998672485 155.86120605 155.02499390 1.2469928265 137.64712524 1.2469987869 7.8889999390
 828.37908936  -999.250000 19.045000076  -999.250000  -999.250000 1.6910240650 69.181632996 155.84658813 155.02499390 1.2439928055 135.21810913 1.2439987659 7.8889999390
 828.53149414  -999.250000 19.048999786  -999.250000  -999.250000 1.7030159235 68.265251160 155.81684875 155.02499390 1.2409976721 133.78187561 1.2409992218 7.8889999390
 828.68389893  -999.250000 19.049999237  -999.250000  -999.250000 1.7109899521 67.335357666 155.86067200 155.02499390 1.2399952412 135.20797729 1.2399984598 7.8889999390
