# LAS format log file from PETREL
# Project units are specified as depth units
#==================================================================
~Version information
VERS.   2.0:
WRAP.   NO:
#==================================================================
~Well
STRT .m      996.03363037 :
STOP .m      2328.0097656 :
STEP .m     0.00000000 :
NULL .        -999.250000 :
COMP.           : COMPANY
WELL.  31/4-10   : WELL
FLD.            : FIELD
LOC.            : LOCATION
SRVC.           : SERVICE COMPANY
DATE.  2018-09-11 14:48:36   : Log Export Date {yyyy-MM-dd HH:mm:ss}
PROV.           : PROVINCE
UWI.   31/4-10   : UNIQUE WELL ID
API.            : API NUMBER
#==================================================================
~Curve
DEPT .m                   : DEPTH
Lithology_geolink ._      : Lithology_geolink
CALI .in                  : CALI
DRHO .g/cm3               : DRHO
NPHI .m3/m3               : NPHI
RHOB .g/cm3               : RHOB
GR .gAPI                  : GR
DTC .us/ft                : DTC
RDEP .ohm.m               : RDEP
SP .mV                    : SP
RSHA .ohm.m               : RSHA
RMED .ohm.m               : RMED
~Parameter
#==================================================================
~Ascii
# ...
 1610.0532227  -999.250000 11.891360283  -999.250000  -999.250000 2.1261157990 74.976387024 129.53326416 0.6473391056 171.45903015 0.9274169803 0.6371755004
 1610.2056885  -999.250000 12.008279800  -999.250000  -999.250000 2.1795923710 71.344223022 120.49795532 0.8325634003 170.87500000 0.8844437003 0.7417753935
 1610.3580322  -999.250000 12.086298943  -999.250000  -999.250000 2.0950636864 66.300827026 120.08161926 1.0447220802 170.83337402 0.9297252297 0.8693317175
 1610.5104980  -999.250000 12.148559570  -999.250000  -999.250000 2.0633497238 64.540481567 132.22970581 1.0470283031 170.58332825 4.6151380539 0.9360306859
 1610.6628418  -999.250000 12.172101974  -999.250000  -999.250000 1.9534740448 70.482200623 149.19757080 0.9434933066 170.12510681 6.6049618721 0.9248365164
 1610.8153076  -999.250000 12.203100204  -999.250000  -999.250000 1.9560356140 77.472953796 150.38711548 0.7095894217 170.00000000 1.4542369843 0.7295097709
 1610.9676514  -999.250000 12.203100204  -999.250000  -999.250000 1.9876643419 82.702110291 148.90179443 0.6496609449 170.54142761 0.9188470244 0.6292846799
 1611.1201172  -999.250000 12.203309059  -999.250000  -999.250000 1.9968439341 84.990783691 149.02128601 0.7427723408 171.16667175 1.0517619848 0.6896436214
 1611.2724609  -999.250000 12.234450340  -999.250000  -999.250000 1.9637387991 83.592918396 151.63027954 0.8114918470 171.25000000 0.9144545794 0.6374347210
 1611.4248047  -999.250000 12.242408752  -999.250000  -999.250000 1.9049642086 78.485923767 156.22979736 0.7817624211 171.29156494 1.0496929884 0.7222396731
 1611.5772705  -999.250000 12.273159981  -999.250000  -999.250000 1.9788590670 76.373458862 147.49435425 0.7098467946 171.49989319 0.8860083222 0.6537861824
 1611.7296143  -999.250000 12.234709740  -999.250000  -999.250000 1.9853094816 76.162322998 146.68920898 0.6457806826 171.95783997 0.9999359250 0.6836519241
 1611.8820801  -999.250000 12.280440331  -999.250000  -999.250000 2.0195996761 81.807510376 145.20634460 0.6706838608 172.74969482 0.9905586839 0.6761100888
 1612.0344238  -999.250000 12.140600204  -999.250000  -999.250000 2.0068714619 80.989822388 146.15206909 0.7548220754 173.74940491 1.0476469994 0.6294655204
 1612.1868896  -999.250000 12.140600204  -999.250000  -999.250000 1.9313095808 79.397277832 153.59259033 0.7985134125 174.41653442 0.8734350801 0.6700323224
 1612.3392334  -999.250000 12.140700340  -999.250000  -999.250000 1.9283440113 72.820960999 152.69543457 0.7564252019 174.95783997 0.9438115954 0.6423711181
 1612.4916992  -999.250000 12.155689240  -999.250000  -999.250000 1.9357252121 74.139266968 151.99737549 0.6504274607 175.62500000 0.7924615145 0.6073989272
 1612.6440430  -999.250000 12.054599762  -999.250000  -999.250000 1.9434022903 76.517517090 151.58724976 0.5961565971 176.16662598 0.7859070897 0.6562330723
 1612.7965088  -999.250000 12.039360046  -999.250000  -999.250000 1.9661996365 79.228088379 149.78543091 0.6046279669 176.33332825 0.7558202147 0.5535297990
 1612.9488525  -999.250000 12.078499794  -999.250000  -999.250000 1.9734996557 75.996841431 147.99324036 0.6921098232 176.25019836 0.7437819242 0.6319500208
 1613.1013184  -999.250000 12.140230179  -999.250000  -999.250000 1.9822124243 75.497512817 146.77432251 0.7352019548 175.79167175 0.6945437193 0.5775715113
 1613.2536621  -999.250000 12.086001396  -999.250000  -999.250000 2.0996475220 75.135536194 132.76284790 0.6991372705 175.95826721 0.8057007194 0.6629860997
 1613.4061279  -999.250000 12.101759911  -999.250000  -999.250000 2.0417373180 76.798423767 140.43916321 0.6201962829 176.00000000 0.7262428999 0.6133447886
 1613.5584717  -999.250000 12.125479698  -999.250000  -999.250000 1.9896565676 74.661186218 145.64375305 0.6322938204 175.45857239 0.6726614237 0.6354218721
 1613.7108154  -999.250000 12.202898979  -999.250000  -999.250000 2.0389554501 70.405532837 137.97888184 0.7179827690 174.70874023 0.6363850236 0.6875749230
 1613.8632813  -999.250000 12.171899796  -999.250000  -999.250000 2.0482182503 65.537216187 134.70448303 0.8798983097 174.41662598 0.9586107731 0.7450031042
 1614.0156250  -999.250000 12.171899796  -999.250000  -999.250000 2.0572628975 61.404838562 135.31195068 0.9946427345 174.70783997 0.8970186114 0.8112646937
 1614.1680908  -999.250000 12.171620369  -999.250000  -999.250000 2.0533044338 56.415210724 137.01795959 0.9860671759 175.16662598 1.1342630386 0.9284356833
 1614.3204346  -999.250000 12.124898911  -999.250000  -999.250000 2.0028855801 57.913211823 139.72251892 0.8508354425 175.12530518 1.5390199423 0.8193082809
 1614.4729004  -999.250000 12.110059738  -999.250000  -999.250000 1.9884842634 63.871761322 143.12384033 0.7733587623 174.70832825 1.3851679564 0.7433869839
 1614.6252441  -999.250000 12.219099998  -999.250000  -999.250000 1.9776502848 73.718948364 146.79760742 0.7384530902 174.54153442 0.8041781187 0.6912044287
 1614.7777100  -999.250000 12.265439987  -999.250000  -999.250000 1.9917775393 78.633827209 146.78912354 0.7874289155 174.79167175 0.8002508283 0.6298202872
 1614.9300537  -999.250000 12.241950035  -999.250000  -999.250000 2.0089387894 79.931182861 145.49874878 0.7788490057 174.41683960 0.7204694152 0.6476008296
 1615.0825195  -999.250000 12.203100204  -999.250000  -999.250000 2.0073661804 78.903404236 145.19094849 0.7574751377 173.75000000 0.8437243104 0.6482037902
 1615.2348633  -999.250000 12.203100204  -999.250000  -999.250000 2.0030958652 74.804969788 144.09165955 0.7186051607 173.12510681 1.0590859652 0.7238845229
 1615.3873291  -999.250000 12.203100204  -999.250000  -999.250000 2.0104327202 73.700752258 142.79798889 0.7196481228 173.00000000 1.1366809607 0.7531304955
 1615.5396729  -999.250000 12.203100204  -999.250000  -999.250000 1.9984045029 67.727760315 142.48445129 0.7623801231 173.74960327 1.1339329481 0.7277688384
 1615.6920166  -999.250000 12.203100204  -999.250000  -999.250000 2.0077741146 64.560676575 140.30178833 0.8598984480 175.12409973 1.1549340487 0.7380205989
 1615.8444824  -999.250000 12.203148842  -999.250000  -999.250000 2.0065169334 64.327201843 140.42698669 0.9271665812 176.08316040 1.0996840000 0.8082460761
 1615.9968262  -999.250000 12.211099625  -999.250000  -999.250000 1.9827824831 66.448417664 144.40577698 0.8643203378 176.54156494 1.1132860184 0.7285150290
 1616.1492920  -999.250000 12.242630005  -999.250000  -999.250000 1.9771751165 67.934104919 145.49777222 0.7582315803 176.79153442 1.1103830338 0.6765478849
 1616.3016357  -999.250000 12.312450409  -999.250000  -999.250000 1.9785591364 67.474502563 145.20726013 0.6905788183 176.95874023 0.9753798842 0.7411554456
 1616.4541016  -999.250000 12.304511070  -999.250000  -999.250000 1.9801310301 72.570564270 146.16041565 0.7157738805 176.62500000 0.6222341657 0.6803244352
 1616.6064453  -999.250000 12.272951126  -999.250000  -999.250000 2.0287854671 73.748153687 140.56378174 0.8148821592 176.25030518 0.7174956799 0.6987314820
 1616.7589111  -999.250000 12.203100204  -999.250000  -999.250000 2.0718588829 73.443283081 135.18139648 0.8821823001 175.33332825 1.0971859694 0.7309319973
 1616.9112549  -999.250000 12.202898979  -999.250000  -999.250000 2.0648787022 66.664642334 132.81161499 0.9159411192 175.00000000 1.1551749706 0.7351429462
 1617.0637207  -999.250000 12.171738625  -999.250000  -999.250000 2.0457653999 63.446422577 134.21179199 0.9210614562 175.04167175 1.1375354528 0.8117086291
 1617.2160645  -999.250000 12.148349762  -999.250000  -999.250000 2.0298624039 60.782993317 135.70797729 0.8323730826 175.04173279 1.1193063259 0.8604684472
 1617.3685303  -999.250000 12.140600204  -999.250000  -999.250000 2.0314140320 65.472869873 137.07894897 0.7578446865 174.66667175 1.4158858061 0.7711926699
 1617.5208740  -999.250000 12.140430450  -999.250000  -999.250000 1.9671570063 69.756454468 147.21102905 0.7146711349 173.87530518 1.0552258492 0.7213647366
 1617.6732178  -999.250000 12.116848946  -999.250000  -999.250000 1.9572134018 70.551574707 148.61820984 0.6612254977 173.12500000 0.8841754198 0.6049636602
