# LAS format log file from PETREL
# Project units are specified as depth units
#==================================================================
~Version information
VERS.   2.0:
WRAP.   NO:
#==================================================================
~Well
STRT .m      860.54608154 :
STOP .m      3158.4321289 :
STEP .m     0.00000000 :
NULL .        -999.250000 :
COMP.           : COMPANY
WELL.  31/4-4   : WELL
FLD.            : FIELD
LOC.            : LOCATION
SRVC.           : SERVICE COMPANY
DATE.  2018-09-11 14:48:37   : Log Export Date {yyyy-MM-dd HH:mm:ss}
PROV.           : PROVINCE
UWI.   31/4-4   : UNIQUE WELL ID
API.            : API NUMBER
#==================================================================
~Curve
DEPT .m                   : DEPTH
Lithology_geolink ._      : Lithology_geolink
CALI .in                  : CALI
DRHO .g/cm3               : DRHO
NPHI .m3/m3               : NPHI
RHOB .g/cm3               : RHOB
GR .gAPI                  : GR
DTC .us/ft                : DTC
DTE .us/ft                : DTE
RDEP .ohm.m               : RDEP
SP .mV                    : SP
RSHA .ohm.m               : RSHA
RMED .ohm.m               : RMED
~Parameter
#==================================================================
~Ascii
 860.54608154  -999.250000 18.906000137 -1.273000002  -999.250000 1.9437305927 46.953289032 133.49795532 131.31057739 1.9497605562 23.627460480 1.6509687901 1.6509687901
 860.69848633  -999.250000 18.906000137 -1.220999956  -999.250000 1.9461869001 49.884922028 132.95919800 130.71199036 1.9038177729 25.247575760 1.6449218988 1.6449218988
 860.85089111  -999.250000 18.906999588 -1.149000049  -999.250000 1.9472410679 51.777912140 132.70254517 130.45890808 1.8688906431 25.931650162 1.6296824217 1.6296824217
 861.00329590  -999.250000 18.937999725 -1.202000022  -999.250000 1.9452964067 51.182956696 133.14852905 130.93481445 1.8479532003 26.061534882 1.5688489676 1.5688489676
 861.15570068  -999.250000 18.952999115 -1.185999990  -999.250000 1.9412235022 50.208587646 134.14544678 131.93179321 1.8388438225 27.112085342 1.5397396088 1.5397396088
 861.30810547  -999.250000 18.954000473 -1.187999964  -999.250000 1.9291431904 48.196876526 137.17312622 134.95463562 1.8088229895 25.792625427 1.4899271727 1.4899271727
 861.46051025  -999.250000 18.968000412 -1.161999941  -999.250000 1.9143090248 43.949630737 140.97117615 138.75927734 1.7748801708 26.099744797 1.4759426117 1.4759426117
 861.61291504  -999.250000 18.952999115 -1.226999998  -999.250000 1.9025610685 40.261386871 144.05813599 141.86996460 1.7518317699 25.472393036 1.4649440050 1.4649440050
 861.76531982  -999.250000 18.952999115 -1.263000011  -999.250000 1.8977135420 42.319545746 145.36718750 143.17672729 1.7219383717 24.484218597 1.4550840855 1.4550840855
 861.91772461  -999.250000 18.937000275 -1.312999964  -999.250000 1.9019349813 49.182807922 144.26647949 142.04505920 1.7111625671 25.581747055 1.4699608088 1.4699608088
 862.07012939  -999.250000 18.923000336 -1.286999941  -999.250000 1.9154673815 53.935543060 140.71162415 138.47908020 1.7401401997 24.648597717 1.4633700848 1.4633700848
 862.22253418  -999.250000 18.968999863 -1.208999991  -999.250000 1.9184170961 53.505779266 139.89697266 137.68074036 1.7651121616 24.401664734 1.5288430452 1.5288430452
 862.37493896  -999.250000 18.968000412 -1.233999968  -999.250000 1.9180401564 54.533279419 139.99679565 137.77410889 1.7851737738 24.690692902 1.5012410879 1.5012410879
 862.52728271  -999.250000 18.952999115 -1.228999972  -999.250000 1.9237695932 54.926769257 138.51667786 136.30776978 1.8161405325 23.573219299 1.5439635515 1.5439635515
 862.67968750  -999.250000 18.951999664 -1.213999987  -999.250000 1.9208714962 52.789134979 139.26930237 137.05699158 1.8430416584 23.804046631 1.5370415449 1.5370415449
 862.83209229  -999.250000 18.922000885 -1.131999969  -999.250000 1.9194797277 54.355552673 139.60603333 137.40579224 1.8511822224 23.428642273 1.5452706814 1.5452706814
 862.98449707  -999.250000 18.922000885 -1.179000020  -999.250000 1.9247004986 56.572761536 138.27420044 136.06831360 1.8861718178 22.979791641 1.5970833302 1.5970833302
 863.13690186  -999.250000 18.937999725 -1.220999956  -999.250000 1.9229958057 58.413921356 138.76571655 136.50840759 1.9189428091 23.320615768 1.6132967472 1.6132967472
 863.28930664  -999.250000 18.968999863 -1.263000011  -999.250000 1.9265493155 53.801937103 137.81774902 135.59776306 1.9079687595 23.060394287 1.6699271202 1.6699271202
 863.44171143  -999.250000 18.968999863 -1.164999962  -999.250000 1.9281098843 51.687347412 137.37832642 135.19575500 1.9019322395 23.901546478 1.6559740305 1.6559740305
 863.59411621  -999.250000 18.966999054 -1.146999955  -999.250000 1.9268208742 51.582691193 137.71113586 135.52665710 1.8886615038 24.196672440 1.6509687901 1.6509687901
 863.74652100  -999.250000 18.906999588 -1.152999997  -999.250000 1.9269309044 55.353641510 137.70297241 135.50025940 1.8235346079 24.139787674 1.6449663639 1.6449663639
 863.89892578  -999.250000 18.922000885 -1.194000006  -999.250000 1.9218490124 57.057212830 139.02517700 136.79844666 1.7408486605 25.164855957 1.6387028694 1.6387028694
 864.05133057  -999.250000 18.937999725 -1.184000015  -999.250000 1.9103448391 56.004718781 142.01954651 139.80451965 1.7139551640 24.966205597 1.5851813555 1.5851813555
 864.20373535  -999.250000 18.952999115 -1.115000010  -999.250000 1.8950953484 51.339797974 146.14527893 143.90345764 1.7058821917 25.718307495 1.4398094416 1.4398094416
 864.35614014  -999.250000 18.952999115 -1.080999970  -999.250000 1.8895146847 50.610996246 147.64396667 145.42794800 1.6850839853 26.834022522 1.4056580067 1.4056580067
 864.50848389  -999.250000 18.951999664 -1.120000005  -999.250000 1.8861372471 53.665187836 148.58573914 146.38470459 1.6998646259 26.311206818 1.3457549810 1.3457549810
 864.66088867  -999.250000 18.922000885 -1.203999996  -999.250000 1.8917599916 61.311134338 147.04786682 144.82769775 1.6738959551 27.304046631 1.4902186394 1.4902186394
 864.81329346  -999.250000 18.937999725 -1.187000036  -999.250000 1.9088810682 55.042060852 142.43576050 140.20715332 1.6540937424 26.926120758 1.5323487520 1.5323487520
 864.96569824  -999.250000 18.937999725 -1.197000027  -999.250000 1.9103093147 57.123458862 142.04191589 139.81871033 1.6721458435 25.996274948 1.5987864733 1.5987864733
 865.11810303  -999.250000 18.954000473 -1.101999998  -999.250000 1.9114285707 50.953022003 141.72280884 139.51411438 1.7001302242 26.422866821 1.5579583645 1.5579583645
 865.27050781  -999.250000 18.968000412 -1.184000015  -999.250000 1.9111785889 59.932144165 141.78076172 139.56697083 1.7252238989 24.871603012 1.5500051975 1.5500051975
 865.42291260  -999.250000 18.952999115 -1.121000051  -999.250000 1.9095485210 58.826175690 142.25531006 139.99768066 1.7680312395 25.368349075 1.5510728359 1.5510728359
 865.57531738  -999.250000 18.952999115 -1.181964397  -999.250000 1.9107931852 61.326583862 141.89363098 139.66908264 1.7739219666 25.238140106 1.5650469065 1.5650469065
 865.72766113  -999.250000 18.952999115 -1.093000054  -999.250000 1.9176793098 57.994792938 140.08386230 137.88505554 1.7589062452 24.121274948 1.5740468502 1.5740468502
 865.88006592  -999.250000 18.952999115 -1.141000032  -999.250000 1.9140768051 56.983570099 141.04045105 138.83004761 1.7409740686 24.554374695 1.5829271078 1.5829271078
 866.03247070  -999.250000 18.937000275 -1.131999969  -999.250000 1.9089622498 53.839118958 142.35861206 140.15161133 1.7358697653 24.241718292 1.5687605143 1.5687605143
 866.18481445  -999.250000 18.906999588 -1.179999948  -999.250000 1.9091484547 52.933933258 142.31588745 140.09695435 1.7109614611 23.806600571 1.5229759216 1.5229759216
 866.33721924  -999.250000 18.922000885 -1.172999978  -999.250000 1.9070250988 58.731914520 142.87992859 140.66210938 1.7029855251 23.925895691 1.5180191994 1.5180191994
 866.48962402  -999.250000 18.937999725 -1.207999945  -999.250000 1.9051140547 61.393383026 143.40010071 141.17999268 1.6999952793 22.871402740 1.5220960379 1.5220960379
 866.64202881  -999.250000 18.937000275 -1.144999981  -999.250000 1.9085084200 58.753818512 142.54568481 140.28073120 1.6990288496 23.370201111 1.5421346426 1.5421346426
 866.79443359  -999.250000 18.906000137 -1.146999955  -999.250000 1.9076845646 53.133262634 142.72764587 140.49122620 1.7050000429 23.620801926 1.5698846579 1.5698846579
 866.94683838  -999.250000 18.906000137 -1.100000024  -999.250000 1.8980519772 54.859916687 145.30026245 143.08694458 1.7049567699 24.000905991 1.5460288525 1.5460288525
 867.09924316  -999.250000 18.908000946 -1.126000047  -999.250000 1.8949921131 58.169967651 146.12368774 143.91207886 1.6958173513 25.426496506 1.5517934561 1.5517934561
 867.25164795  -999.250000 18.951999664 -1.041000009  -999.250000 1.8950524330 61.055488586 146.11291504 143.90174866 1.6577934027 24.498502731 1.5090912580 1.5090912580
 867.40405273  -999.250000 18.922000885 -1.083999991  -999.250000 1.8920493126 59.496543884 146.94311523 144.72833252 1.6147501469 25.429798126 1.5278990269 1.5278990269
 867.55645752  -999.250000 18.922000885 -1.131000042  -999.250000 1.8904242516 58.774692535 147.37292480 145.17164612 1.5627981424 25.178899765 1.5069183111 1.5069183111
 867.70886230  -999.250000 18.937999725 -1.248999953  -999.250000 1.8859642744 57.491088867 148.65483093 146.41508484 1.5210241079 24.753913879 1.4898990393 1.4898990393
