# LAS format log file from PETREL
# Project units are specified as depth units
#==================================================================
~Version information
VERS.   2.0:
WRAP.   NO:
#==================================================================
~Well
STRT .m      821.52105713 :
STOP .m      2574.1203613 :
STEP .m     0.00000000 :
NULL .        -999.250000 :
COMP.           : COMPANY
WELL.  31/4-8   : WELL
FLD.            : FIELD
LOC.            : LOCATION
SRVC.           : SERVICE COMPANY
DATE.  2018-09-11 14:48:38   : Log Export Date {yyyy-MM-dd HH:mm:ss}
PROV.           : PROVINCE
UWI.   31/4-8   : UNIQUE WELL ID
API.            : API NUMBER
#==================================================================
~Curve
DEPT .m                   : DEPTH
Lithology_geolink ._      : Lithology_geolink
CALI .in                  : CALI
DRHO .g/cm3               : DRHO
NPHI .m3/m3               : NPHI
RHOB .g/cm3               : RHOB
GR .gAPI                  : GR
DTC .us/ft                : DTC
DTE .us/ft                : DTE
RDEP .ohm.m               : RDEP
SP .mV                    : SP
RSHA .ohm.m               : RSHA
RMED .ohm.m               : RMED
~Parameter
#==================================================================
~Ascii
# ...
 2452.8100586 3.0000000000 12.333999634 0.0599358976 0.1400342733 2.5479006767 67.614303589 59.961669922 59.855743408 6.9000000954 59.511001587  -999.250000 5.1939997673
 2452.9624023 3.0000000000 12.387999535 0.0899038464 0.1591386795 2.5719230175 75.009254456 62.376010895 62.211704254 12.447999954 58.581001282  -999.250000 9.9969997406
 2453.1147461 3.0000000000 12.454999924 0.1198559999 0.1791239083 2.5948896408 83.136917114 67.460838318 67.461105347 11.420000076 57.390998840  -999.250000 10.119000435
 2453.2670898 6.0000000000 12.501000404 0.1329375058 0.1998403817 2.6069424152 88.611740112 74.499275208 74.466171265 7.1909999847 56.409999847  -999.250000 6.8400001526
 2453.4196777 6.0000000000 12.512998581 0.1190448776 0.2242019922 2.5960352421 90.871818542 81.938667297 81.914596558 4.5590000153 56.340999603  -999.250000 4.4710001945
 2453.5720215 6.0000000000 12.510000229 0.0880993605 0.2539744973 2.5650994778 91.587715149 88.385086060 88.271240234 3.1600000858 54.860000610  -999.250000 3.2090001106
 2453.7243652 6.0000000000 12.506999969 0.0581439994 0.2782832086 2.5311632156 91.428779602 91.542404175 91.608993530 2.3020000458 54.550998688  -999.250000 2.4900000095
 2453.8767090 6.0000000000 12.505000114 0.0390913486 0.2875657082 2.5101008415 90.833869934 92.028137207 92.057891846 2.0659999847 54.979999542  -999.250000 2.1010000706
 2454.0292969 6.0000000000 12.503999710 0.0300288461 0.2821575403 2.5040192604 91.079200745 90.728340149 90.695243835 2.0409998894 54.740001678  -999.250000 2.0599999428
 2454.1816406 6.0000000000 12.503000259 0.0230224356 0.2684141397 2.5049970150 90.722152710 88.643524170 88.369445801 2.0680000782 54.308998108  -999.250000 2.0539999008
 2454.3339844 5.0000000000 12.503000259 0.0190128200 0.2556807995 2.5089871883 88.808151245 86.493118286 86.445747375 2.0729999542 55.070999146  -999.250000 2.2620000839
 2454.4863281 5.0000000000 12.505000114 0.0170096010 0.2499872744 2.5129806995 85.984588623 84.969100952 85.010215759 2.2560000420 52.930000305  -999.250000 2.5580000877
 2454.6386719 5.0000000000 12.505000114 0.0170000009 0.2510348260 2.5209615231 85.072341919 83.273941040 83.285636902 2.5050001144 52.449001312  -999.250000 2.7469999790
 2454.7912598 5.0000000000 12.505000114 0.0199903846 0.2542297542 2.5309679508 87.839088440 81.679504395 81.594863892 2.8359999657 53.620998383  -999.250000 3.0360000134
 2454.9436035 6.0000000000 12.505998611 0.0239871796 0.2569911480 2.5399711132 91.098548889 79.811294556 79.868698120 3.1440000534 51.951000214  -999.250000 3.2850000858
 2455.0959473 6.0000000000 12.503999710 0.0289759990 0.2608414590 2.5439805984 92.044494629 78.778831482 78.739379883 3.2599999905 51.571998596  -999.250000 3.4760000706
 2455.2482910 6.0000000000 12.492000580 0.0329807699 0.2680452764 2.5459904671 91.703674316 79.488609314 79.457710266 3.5309998989 52.241001129  -999.250000 3.5539999008
 2455.4008789 6.0000000000 12.472999573 0.0369871818 0.2790547311 2.5460000038 92.844329834 81.672203064 81.467811584 3.5680000782 52.560001373  -999.250000 3.5050001144
 2455.5532227 6.0000000000 12.465999603 0.0439775623 0.2933740616 2.5450031757 95.171531677 83.680946350 83.671424866 3.5009999275 52.379001617  -999.250000 3.4479999542
 2455.7055664 6.0000000000 12.482000351 0.0589280017 0.3095920086 2.5410192013 95.798019409 85.648803711 85.722251892 3.3510000706 53.930000305  -999.250000 3.3440001011
 2455.8579102 6.0000000000 12.526000977 0.0789038464 0.3235827982 2.5320432186 94.914283752 87.989555359 87.915054321 2.9609999657 53.319999695  -999.250000 3.0120000839
 2456.0104980 6.0000000000 12.579999924 0.1039198712 0.3284944296 2.5180447102 95.178138733 90.833084106 90.596275330 2.7490000725 53.520000458  -999.250000 2.7300000191
 2456.1628418 6.0000000000 12.592000008 0.1349006444 0.3236157298 2.5030481815 96.853614807 93.331848145 93.390296936 2.5450000763 53.630001068  -999.250000 2.4140000343
 2456.3151855 6.0000000000 12.543999672 0.1639070511 0.3155558705 2.4880480766 97.112182617 95.371925354 95.468437195 2.1860001087 52.949001312  -999.250000 2.0580000877
 2456.4675293 6.0000000000 12.487999916 0.1779327989 0.3100066483 2.4760577679 94.337387085 95.993263245 96.023803711 1.9839999676 52.550998688  -999.250000 1.9700000286
 2456.6198730 6.0000000000 12.468999863 0.1650625020 0.3070541322 2.4700288773 92.049987793 95.262924194 95.171371460 1.8819999695 52.979999542  -999.250000 1.8140000105
 2456.7724609 6.0000000000 12.467999458 0.1291153729 0.3046775758 2.4700000286 93.681716919 93.533821106 93.520401001 1.9220000505 52.790000916  -999.250000 1.8250000477
 2456.9248047 6.0000000000 12.456000328 0.0851410255 0.3015300930 2.4749839306 97.198707581 91.096176147 91.102218628 1.9620000124 52.819000244  -999.250000 1.9769999981
 2457.0771484 6.0000000000 12.421999931 0.0571344011 0.2949815392 2.4879374504 96.726333618 88.291862488 88.283462524 2.1259999275 53.860000610  -999.250000 2.1219999790
 2457.2294922 6.0000000000 12.375999451 0.0530192293 0.2810272574 2.5098941326 90.922027588 86.741447449 86.482032776 2.3870000839 53.450000763  -999.250000 2.4059998989
 2457.3820801 5.0000000000 12.345001221 0.0629679486 0.2620806992 2.5329263210 85.269088745 86.592002869 86.502593994 2.6489999294 53.020000458  -999.250000 2.6440000534
 2457.5344238 5.0000000000 12.342000961 0.0689807683 0.2491812706 2.5469551086 84.052856445 86.933479309 86.868698120 2.6889998913 53.209999084  -999.250000 2.7390000820
 2457.6867676 5.0000000000 12.340000153 0.0660144016 0.2478761077 2.5499856472 85.454223633 86.293373108 86.153579712 2.6700000763 53.249000549  -999.250000 2.6270000935
 2457.8391113 5.0000000000 12.322999954 0.0580384582 0.2520099878 2.5470142365 85.946647644 84.902046204 84.707489014 2.5230000019 52.749000549  -999.250000 2.3399999142
 2457.9916992 5.0000000000 12.340000153 0.0500256419 0.2507541180 2.5420160294 85.541313171 83.049438477 83.108711243 2.4509999752 52.379001617  -999.250000 2.5230000019
 2458.1440430 5.0000000000 12.413998604 0.0370416678 0.2432242036 2.5370159149 85.977592468 82.174285889 82.131568909 2.4189999104 53.040000916  -999.250000 2.4560000896
 2458.2963867 5.0000000000 12.484999657 0.0230448712 0.2348767668 2.5320160389 86.627914429 82.922798157 82.839286804 2.4219999313 52.439998627  -999.250000 2.2960000038
 2458.4487305 5.0000000000 12.510999680 0.0130480006 0.2259429544 2.5230431557 85.766166687 84.151519775 84.065483093 2.5409998894 51.988998413  -999.250000 2.4200000763
 2458.6010742 5.0000000000 12.513999939 0.0110096149 0.2139676511 2.5050866604 83.224258423 83.564590454 83.603164673 2.5009999275 52.701000214  -999.250000 2.3559999466
 2458.7536621 5.0000000000 12.512000084 0.0119967954 0.2001044005 2.4850640297 79.235786438 81.390457153 81.470504761 2.5360000134 52.008998871  -999.250000 2.3759999275
 2458.9060059 5.0000000000 12.505998611 0.0139935901 0.1874505430 2.4740352631 74.557998657 79.278923035 79.235641479 2.9920001030 53.800998688  -999.250000 2.8099999428
 2459.0583496 5.0000000000 12.499000549 0.0169856008 0.1788811535 2.4730048180 71.254859924 77.545249939 77.321586609 3.2630000114 52.981998444  -999.250000 3.0350000858
 2459.2106934 5.0000000000 12.492000580 0.0189903844 0.1750582606 2.4809615612 70.895652771 75.955261230 75.942901611 3.4070000648 53.761001587  -999.250000 3.2230000496
 2459.3632813 5.0000000000 12.487000465 0.0180032048 0.1751795560 2.4929616451 72.762985229 75.405227661 75.321922302 3.5940001011 54.221000671  -999.250000 3.4419999123
 2459.5156250 5.0000000000 12.482999802 0.0150096146 0.1790575236 2.5039646626 74.324996948 75.132995605 75.067626953 3.7100000381 53.421001434  -999.250000 3.4179999828
 2459.6679688 5.0000000000 12.480999947 0.0130096003 0.1861856729 2.5089759827 74.677322388 75.013938904 74.854492188 3.9360001087 52.828998566  -999.250000 3.5000000000
 2459.8203125 5.0000000000 12.480999947 0.0130000003 0.1945497692 2.5060143471 75.742858887 74.800376892 74.793922424 4.2340002060 53.820999146  -999.250000 3.7780001163
 2459.9729004 5.0000000000 12.473999977 0.0139967958 0.2029032558 2.5000193119 79.425170898 75.732788086 75.680923462 3.9769999981 52.398998260  -999.250000 3.7739999294
