# LAS format log file from PETREL
# Project units are specified as depth units
#==================================================================
~Version information
VERS.   2.0:
WRAP.   NO:
#==================================================================
~Well
STRT .m      860.54608154 :
STOP .m      3158.4321289 :
STEP .m     0.00000000 :
NULL .        -999.250000 :
COMP.           : COMPANY
WELL.  31/4-4   : WELL
FLD.            : FIELD
LOC.            : LOCATION
SRVC.           : SERVICE COMPANY
DATE.  2018-09-11 14:48:37   : Log Export Date {yyyy-MM-dd HH:mm:ss}
PROV.           : PROVINCE
UWI.   31/4-4   : UNIQUE WELL ID
API.            : API NUMBER
#==================================================================
~Curve
DEPT .m                   : DEPTH
Lithology_geolink ._      : Lithology_geolink
CALI .in                  : CALI
DRHO .g/cm3               : DRHO
NPHI .m3/m3               : NPHI
RHOB .g/cm3               : RHOB
GR .gAPI                  : GR
DTC .us/ft                : DTC
DTE .us/ft                : DTE
RDEP .ohm.m               : RDEP
SP .mV                    : SP
RSHA .ohm.m               : RSHA
RMED .ohm.m               : RMED
~Parameter
#==================================================================
~Ascii
# ...
 1621.3265381  -999.250000 17.976999283 -0.007927885  -999.250000 2.3725645542 73.695259094 155.20358276 154.14881897 0.6410079598 15.098246574 0.6070119739 0.6070119739
 1621.4790039  -999.250000 18.242000580 0.0819423571  -999.250000 2.3866701126 75.468704224 156.58836365 155.58300781 0.6430120468 14.661250114 0.6100080013 0.6100080013
 1621.6313477  -999.250000 18.916000366 0.0459615402  -999.250000 2.2422893047 67.703765869 156.06208801 155.04197693 0.6460000277 14.480752945 0.6120440364 0.6120440364
 1621.7838135  -999.250000 18.229999542 -0.001995196  -999.250000 2.0944426060 71.621498108 156.28286743 155.20272827 0.6460080147 15.913253784 0.6230240464 0.6230240464
 1621.9361572  -999.250000 18.100999832 0.0010000000  -999.250000 2.0407757759 70.748748779 156.01835632 154.93826294 0.6479559541 16.228002548 0.6289799809 0.6289799809
 1622.0886230  -999.250000 18.336000443 0.0010240192  -999.250000 2.0447387695 70.411964417 155.97225952 154.95054626 0.6369760036 16.979507446 0.6239599586 0.6239599586
 1622.2409668  -999.250000 18.568000793 0.0159983989  -999.250000 2.0535042286 63.940750122 157.33352661 156.32344055 0.6310480237 18.101001740 0.6139479876 0.6139479876
 1622.3933105  -999.250000 18.267999649 0.0140064051  -999.250000 2.0607702732 64.629608154 157.42974854 156.34870911 0.6430096030 18.354808807 0.6009839773 0.6009839773
 1622.5457764  -999.250000 18.826000214 0.0219959933  -999.250000 2.0590581894 66.082015991 155.74865723 154.73275757 0.6459920406 19.851501465 0.5959920287 0.5959920287
 1622.6981201  -999.250000 19.208000183 0.0170000009  -999.250000 2.0592963696 70.829429626 155.81410217 154.79705811 0.6440128088 20.228404999 0.5940448642 0.5940448642
 1622.8505859  -999.250000 18.437999725 0.0170208346  -999.250000 2.0655043125 75.943511963 156.31733704 155.21838379 0.6479920149 21.289003372 0.6080480814 0.6080480814
 1623.0029297  -999.250000 18.944999695 0.0429919958  -999.250000 2.0847275257 77.313255310 155.52180481 154.43399048 0.6460040212 21.783498764 0.6200079918 0.6200079918
 1623.1553955  -999.250000 19.614999771 0.0330016017  -999.250000 2.0842776299 77.350212097 155.79353333 154.78871155 0.6470360756 20.913002014 0.6219999790 0.6219999790
 1623.3077393  -999.250000 18.402000427 0.0349919945  -999.250000 2.0730338097 71.190254211 155.98980713 154.97682190 0.6560119987 21.164001465 0.6220160127 0.6220160127
 1623.4602051  -999.250000 19.232999802 0.0249967948  -999.250000 2.0612845421 71.745742798 154.76770020 153.72386169 0.6589719057 21.655742645 0.6260200143 0.6260200143
 1623.6125488  -999.250000 19.173000336 0.0209959932  -999.250000 2.0515336990 70.689506531 155.81530762 154.83239746 0.6519640088 20.095996857 0.6309880018 0.6309880018
 1623.7650146  -999.250000 18.254999161 0.0159983989  -999.250000 2.0399601460 71.069259644 156.56527710 155.52879333 0.6429559588 19.093990326 0.6279920340 0.6279920340
 1623.9173584  -999.250000 18.408000946 0.0150008006  -999.250000 2.0317962170 72.629257202 155.80012512 154.73240662 0.6319239736 17.598747253 0.6259439588 0.6259439588
 1624.0698242  -999.250000 18.454000473 0.0159951970  -999.250000 2.0119543076 73.689750671 156.13224792 155.17402649 0.6129759550 17.281492233 0.6118838191 0.6118838191
 1624.2220459  -999.250000 18.018999100 0.0130000003  -999.250000 1.9875597954 74.113792419 155.46226501 154.45265198 0.6070224047 15.911599159 0.5829135180 0.5829135180
 1624.3743896  -999.250000 18.142999649 0.0000000000  -999.250000 1.9754976034 70.618240356 155.36563110 154.26141357 0.6140024066 15.786250114 0.5560168028 0.5560168028
 1624.5268555  -999.250000 18.679000854 -0.001000000  -999.250000 1.9952812195 67.811004639 155.44317627 154.37423706 0.6149967909 15.472198486 0.5630993247 0.5630993247
 1624.6791992  -999.250000 18.386999130 0.0120000001  -999.250000 2.0399830341 67.187553406 154.45039368 153.46656799 0.6140120625 14.599699974 0.5940648913 0.5940648913
 1624.8316650  -999.250000 17.801000595 0.0160000008  -999.250000 2.0735015869 66.995796204 152.14390564 151.14799500 0.6190353036 14.473798752 0.6210320592 0.6210320592
 1624.9840088  -999.250000 17.931999207 0.0189999994  -999.250000 2.0887367725 65.700416565 151.55076599 150.47627258 0.6300320029 14.105605125 0.6309967637 0.6309967637
 1625.1364746  -999.250000 17.778999329 0.0060000001  -999.250000 2.0864160061 69.573020935 152.53367615 151.51724243 0.6400320530 15.854006767 0.6299999952 0.6299999952
 1625.2888184  -999.250000 17.704999924 0.0080000004  -999.250000 2.0801644325 72.693611145 153.29931641 152.29158020 0.6499871612 17.100599289 0.6299935579 0.6299935579
 1625.4412842  -999.250000 17.778999329 0.0199999996  -999.250000 2.0852537155 74.438255310 153.94923401 152.88301086 0.6459399462 17.289205551 0.6280000210 0.6280000210
 1625.5936279  -999.250000 18.184999466 0.0179999992  -999.250000 2.0883564949 74.496246338 153.70654297 152.67720032 0.6309239268 17.977802277 0.6279880404 0.6279880404
 1625.7459717  -999.250000 18.086000443 0.0250000004  -999.250000 2.0828473568 73.581230164 152.94059753 151.89817810 0.6119518876 18.852403641 0.6249839664 0.6249839664
 1625.8984375  -999.250000 17.849000931 0.0049999999  -999.250000 2.0613167286 79.236991882 153.26885986 152.17607117 0.5969799757 19.854804993 0.6198638678 0.6198638678
 1626.0507813  -999.250000 18.000999451 0.0010000000  -999.250000 2.0453815460 76.000404358 154.75991821 153.70030212 0.5919807553 21.350000381 0.5859038830 0.5859038830
 1626.2032471  -999.250000 17.572000504 0.0089999996  -999.250000 2.0607655048 76.119239807 154.87670898 153.86691284 0.5859879851 21.351202011 0.5559920073 0.5559920073
 1626.3555908  -999.250000 17.868000031 0.0109999999  -999.250000 2.0800287724 74.687751770 154.91838074 153.85098267 0.5830039978 21.720342636 0.5540440679 0.5540440679
 1626.5080566  -999.250000 17.666000366 0.0040000002  -999.250000 2.0762548447 74.628257751 155.19519043 154.10659790 0.5840039849 19.780996323 0.5650320649 0.5650320649
 1626.6604004  -999.250000 17.952999115 -0.008000000  -999.250000 2.0541076660 75.430244446 154.17198181 153.14627075 0.5850279927 17.916208267 0.5730560422 0.5730560422
 1626.8128662  -999.250000 17.936000824 -0.004000000  -999.250000 2.0401299000 73.498748779 154.59049988 153.54087830 0.5920400620 19.664402008 0.5870841742 0.5870841742
 1626.9652100  -999.250000 17.892999649 0.0049999999  -999.250000 2.0330469608 73.182998657 153.99279785 152.94616699 0.6020359993 20.403886795 0.6080480218 0.6080480218
 1627.1176758  -999.250000 17.964000702 0.0120000001  -999.250000 2.0291831493 71.937500000 154.18330383 153.11904907 0.6110240221 17.033796310 0.6199759841 0.6199759841
 1627.2700195  -999.250000 18.266000748 0.0109999999  -999.250000 2.0283405781 71.816009521 155.16654968 154.15834045 0.6170359850 16.036600113 0.6139760017 0.6139760017
 1627.4224854  -999.250000 17.808000565 0.0109999999  -999.250000 2.0466198921 72.564750671 152.68888855 151.65893555 0.6260240078 15.911599159 0.6079999804 0.6079999804
 1627.5748291  -999.250000 18.135000229 0.0120000001  -999.250000 2.0709817410 72.999000549 150.64564514 149.59672546 0.6319920421 15.784799576 0.6080119610 0.6080119610
 1627.7271729  -999.250000 17.966999054 0.0080000004  -999.250000 2.0844614506 72.740585327 149.87066650 148.85758972 0.6299839616 15.102553368 0.6110064387 0.6110064387
 1627.8796387  -999.250000 17.923000336 0.0160000008  -999.250000 2.0930562019 69.817253113 149.70249939 148.64102173 0.6250119805 16.161600113 0.6130039692 0.6130039692
 1628.0319824  -999.250000 17.951999664 0.0160000008  -999.250000 2.1009109020 70.865989685 150.24906921 149.16903687 0.6279872060 16.038354874 0.6140096188 0.6140096188
 1628.1844482  -999.250000 17.909000397 0.0199999996  -999.250000 2.1089313030 68.065254211 150.84490967 149.81695557 0.6239318848 16.604404449 0.6169999838 0.6169999838
 1628.3367920  -999.250000 17.992000580 0.0109999999  -999.250000 2.1047122478 68.601982117 150.04908752 149.01000977 0.6069479585 17.974849701 0.6169679761 0.6169679761
 1628.4892578  -999.250000 17.754999161 0.0240000002  -999.250000 2.0958535671 62.892028809 141.99079895 140.92880249 0.5939759612 17.919809341 0.6089519262 0.6089519262
