# LAS format log file from PETREL
# Project units are specified as depth units
#==================================================================
~Version information
VERS.   2.0:
WRAP.   NO:
#==================================================================
~Well
STRT .m      996.03363037 :
STOP .m      2328.0097656 :
STEP .m     0.00000000 :
NULL .        -999.250000 :
COMP.           : COMPANY
WELL.  31/4-10   : WELL
FLD.            : FIELD
LOC.            : LOCATION
SRVC.           : SERVICE COMPANY
DATE.  2018-09-11 14:48:36   : Log Export Date {yyyy-MM-dd HH:mm:ss}
PROV.           : PROVINCE
UWI.   31/4-10   : UNIQUE WELL ID
API.            : API NUMBER
#==================================================================
~Curve
DEPT .m                   : DEPTH
Lithology_geolink ._      : Lithology_geolink
CALI .in                  : CALI
DRHO .g/cm3               : DRHO
NPHI .m3/m3               : NPHI
RHOB .g/cm3               : RHOB
GR .gAPI                  : GR
DTC .us/ft                : DTC
RDEP .ohm.m               : RDEP
SP .mV                    : SP
RSHA .ohm.m               : RSHA
RMED .ohm.m               : RMED
~Parameter
#==================================================================
~Ascii
# ...
 1174.7988281  -999.250000 12.202939987  -999.250000  -999.250000 2.0596079826 83.885963440 145.89900208 1.3199299574 173.20806885 1.4180129766 1.2238789797
 1174.9512939  -999.250000 12.172040939  -999.250000  -999.250000 2.0713491440 86.069580078 146.00529480 1.2269753218 172.66616821 1.2431372404 1.1798077822
 1175.1036377  -999.250000 12.203249931  -999.250000  -999.250000 2.0700650215 87.405296326 146.99330139 1.2223160267 172.25000000 1.2323149443 1.1445989609
 1175.2561035  -999.250000 12.234470367  -999.250000  -999.250000 2.1307594776 93.507637024 145.69335938 1.2258988619 172.45883179 1.4168000221 1.2045471668
 1175.4084473  -999.250000 12.249810219  -999.250000  -999.250000 2.1462359428 94.933822632 144.40739441 1.3192780018 172.95846558 1.1935529709 1.1386289597
 1175.5609131  -999.250000 12.211039543  -999.250000  -999.250000 2.1304748058 94.150741577 145.89640808 1.3145366907 173.04147339 1.4304330349 1.1850619316
 1175.7132568  -999.250000 12.242090225  -999.250000  -999.250000 2.0852119923 87.185386658 145.29370117 1.2643120289 172.66633606 1.3792810440 1.1213140488
 1175.8657227  -999.250000 12.218640327  -999.250000  -999.250000 2.0948505402 86.745903015 144.00408936 1.1639707088 172.20823669 1.2530083656 1.1858694553
 1176.0180664  -999.250000 12.187279701  -999.250000  -999.250000 2.0845398903 86.077079773 144.60429382 1.1760389805 172.20846558 1.4220010042 1.1315430403
 1176.1704102  -999.250000 12.140919685  -999.250000  -999.250000 2.0967140198 89.141647339 145.49440002 1.2475589514 172.25000000 1.4405159950 1.2241619825
 1176.3227539  -999.250000 12.203169823  -999.250000  -999.250000 2.1325728893 92.371482849 144.50329590 1.3567260504 171.83346558 0.9016808867 1.1783460379
 1176.4752197  -999.250000 12.218960762  -999.250000  -999.250000 2.1194059849 91.635421753 145.19400024 1.3408269882 171.50000000 1.2840880156 1.2303580046
 1176.6275635  -999.250000 12.249959946  -999.250000  -999.250000 2.1482460499 93.653617859 144.10110474 1.2871730328 171.58326721 1.4598460197 1.1831099987
 1176.7800293  -999.250000 12.242238998  -999.250000  -999.250000 2.0893781185 86.383117676 144.29939270 1.2384860516 171.95832825 1.4267849922 1.2067610025
 1176.9323730  -999.250000 12.250000954  -999.250000  -999.250000 2.1012670994 87.990577698 144.20500183 1.2558710575 172.62500000 1.4240720272 1.2190029621
 1177.0848389  -999.250000 12.250149727  -999.250000  -999.250000 2.0769588947 85.952003479 145.30200195 1.3154519796 173.16673279 1.4836020470 1.2193919420
 1177.2371826  -999.250000 12.281299591  -999.250000  -999.250000 2.0922379494 88.871337891 145.69760132 1.4069080353 173.54167175 1.5245369673 1.1781070232
 1177.3896484  -999.250000 12.281299591  -999.250000  -999.250000 2.0915169716 88.076210022 145.20889282 1.4084299803 174.16673279 1.5549520254 1.3121579885
 1177.5419922  -999.250000 12.281299591  -999.250000  -999.250000 2.0936279297 90.871391296 147.00469971 1.3734960556 174.50000000 1.6063220501 1.2626219988
 1177.6944580  -999.250000 12.281299591  -999.250000  -999.250000 2.0751938820 90.068130493 148.18550110 1.2829669714 174.74960327 1.5892930031 1.2231949568
 1177.8468018  -999.250000 12.281299591  -999.250000  -999.250000 2.1110489368 91.110473633 145.50100708 1.2768590450 174.08332825 1.6631499529 1.2783999443
 1177.9992676  -999.250000 12.281299591  -999.250000  -999.250000 2.0922350883 88.553329468 145.49099731 1.3053259850 173.24920654 1.6716229916 1.2433489561
 1178.1516113  -999.250000 12.281389236  -999.250000  -999.250000 2.0968179703 86.804786682 143.81350708 1.4055800438 171.95832825 1.6193619967 1.2528380156
 1178.3039551  -999.250000 12.296820641  -999.250000  -999.250000 2.0653190613 85.427146912 146.09410095 1.4374760389 171.54153442 1.6660259962 1.2771329880
 1178.4564209  -999.250000 12.281299591  -999.250000  -999.250000 2.0651619434 83.467300415 145.00059509 1.4132770300 172.08332825 1.6711210012 1.2451790571
 1178.6087646  -999.250000 12.281258583  -999.250000  -999.250000 2.0987150669 88.824012756 145.00000000 1.3373130560 172.41673279 1.7107549906 1.2774139643
 1178.7612305  -999.250000 12.273269653  -999.250000  -999.250000 2.1155738831 91.070030212 145.00000000 1.2620279789 172.37500000 1.6823910475 1.2798629999
 1178.9135742  -999.250000 12.250000954  -999.250000  -999.250000 2.1273488998 92.422348022 145.00000000 1.2489910126 172.50000000 1.6438980103 1.2370810509
 1179.0660400  -999.250000 12.249920845  -999.250000  -999.250000 2.1029310226 89.429702759 145.00000000 1.2671719790 172.45866394 1.5258159637 1.2728010416
 1179.2183838  -999.250000 12.234560013  -999.250000  -999.250000 2.0928199291 87.989707947 145.00000000 1.3358010054 172.91667175 1.6017489433 1.2727669477
 1179.3708496  -999.250000 12.265520096  -999.250000  -999.250000 2.0789899826 85.940849304 145.00000000 1.3755730391 172.70787048 1.4520269632 1.2263569832
 1179.5231934  -999.250000 12.250000954  -999.250000  -999.250000 2.0831580162 86.574508667 145.00000000 1.3329859972 171.87500000 1.4390820265 1.2180210352
 1179.6756592  -999.250000 12.250120163  -999.250000  -999.250000 2.1001060009 89.007278442 145.00000000 1.2288370132 171.33326721 1.5563980341 1.1417939663
 1179.8280029  -999.250000 12.273589134  -999.250000  -999.250000 2.1103649139 90.384132385 145.00000000 1.1422150135 171.41667175 1.5176130533 1.1966530085
 1179.9804688  -999.250000 12.312170029  -999.250000  -999.250000 2.1251850128 92.245086670 145.00000000 1.1657010317 171.83346558 1.3158890009 1.1058830023
 1180.1328125  -999.250000 12.250000954  -999.250000  -999.250000 2.1176149845 91.300582886 145.00000000 1.2237319946 172.12500000 1.2202739716 1.1409029961
 1180.2852783  -999.250000 12.250000954  -999.250000  -999.250000 2.1006309986 89.160682678 145.00000000 1.3548270464 172.62539673 1.4856619835 1.1596800089
 1180.4376221  -999.250000 12.250000954  -999.250000  -999.250000 2.0674688816 83.977172852 145.00000000 1.3984099627 173.25000000 1.5361649990 1.2715959549
 1180.5899658  -999.250000 12.250080109  -999.250000  -999.250000 2.0466330051 79.875312805 145.00000000 1.3820409775 173.79142761 1.5474900007 1.2709170580
 1180.7424316  -999.250000 12.265509605  -999.250000  -999.250000 2.0465459824 79.916297913 145.00000000 1.3316429853 174.45832825 1.4680340290 1.2745139599
 1180.8947754  -999.250000 12.250080109  -999.250000  -999.250000 2.0310590267 76.071006775 145.00000000 1.3395559788 174.58332825 1.5172820091 1.3314640522
 1181.0472412  -999.250000 12.265520096  -999.250000  -999.250000 2.0377769470 77.760490417 145.00000000 1.3708339930 174.50000000 2.9995830059 1.2845460176
 1181.1995850  -999.250000 12.250000954  -999.250000  -999.250000 2.0455598831 79.704620361 145.00000000 1.4504380226 174.54167175 1.5418250561 1.2018810511
 1181.3520508  -999.250000 12.249920845  -999.250000  -999.250000 2.0623390675 83.108276367 145.00000000 1.3579260111 174.91712952 1.5064179897 1.2975039482
 1181.5043945  -999.250000 12.234399796  -999.250000  -999.250000 2.0465910435 79.990783691 145.00000000 1.3067289591 175.58332825 1.4356590509 1.2055790424
 1181.6568604  -999.250000 12.234479904  -999.250000  -999.250000 2.0388410091 78.135902405 145.00000000 1.2317390442 175.66653442 1.4681040049 1.2218149900
 1181.8092041  -999.250000 12.249959946  -999.250000  -999.250000 2.0478019714 80.193862915 145.00000000 1.2394030094 175.12500000 1.5256609917 1.2622410059
 1181.9616699  -999.250000 12.242238998  -999.250000  -999.250000 2.0537819862 81.510437012 145.00000000 1.3018319607 174.12460327 1.5789519548 1.2502180338
 1182.1140137  -999.250000 12.249830246  -999.250000  -999.250000 2.0643610954 83.503150940 145.00000000 1.4031959772 173.66667175 1.5503449440 1.1969859600
 1182.2664795  -999.250000 12.218880653  -999.250000  -999.250000 2.0675981045 84.067337036 145.00000000 1.3667659760 173.91693115 1.4692100286 1.2656639814
 1182.4188232  -999.250000 12.234399796  -999.250000  -999.250000 2.0728600025 85.001037598 145.00000000 1.3022129536 174.16667175 1.3747340441 1.2009899616
