# LAS format log file from PETREL
# Project units are specified as depth units
#==================================================================
~Version information
VERS.   2.0:
WRAP.   NO:
#==================================================================
~Well
STRT .m      950.21093750 :
STOP .m      2894.8349609 :
STEP .m     0.00000000 :
NULL .        -999.250000 :
COMP.           : COMPANY
WELL.  31/4-2   : WELL
FLD.            : FIELD
LOC.            : LOCATION
SRVC.           : SERVICE COMPANY
DATE.  2018-09-11 14:48:36   : Log Export Date {yyyy-MM-dd HH:mm:ss}
PROV.           : PROVINCE
UWI.   31/4-2   : UNIQUE WELL ID
API.            : API NUMBER
#==================================================================
~Curve
DEPT .m                   : DEPTH
Lithology_geolink ._      : Lithology_geolink
CALI .in                  : CALI
DRHO .g/cm3               : DRHO
NPHI .m3/m3               : NPHI
RHOB .g/cm3               : RHOB
GR .gAPI                  : GR
DTC .us/ft                : DTC
DTE .us/ft                : DTE
RDEP .ohm.m               : RDEP
SP .mV                    : SP
RSHA .ohm.m               : RSHA
RMED .ohm.m               : RMED
~Parameter
#==================================================================
~Ascii
# ...
 1857.2956543 5.0000000000 12.696998596 -0.003019231 0.3786841631 2.1574249268 58.228355408 130.06143188 127.85758972 0.9269743562 48.393203735 1.0259935856 1.0259935856
 1857.4481201 5.0000000000 12.623999596 -0.014987990 0.3838901818 2.1526622772 57.825634003 130.00677490 127.59945679 0.9109640121 48.518299103 1.0219783783 1.0219783783
 1857.6004639 5.0000000000 12.553999901 -0.009985576 0.3902359009 2.1625249386 57.675273895 129.07777405 126.92500305 0.8959743977 48.642200470 1.0129679441 1.0129679441
 1857.7529297 5.0000000000 12.555999756 -0.000987990 0.3975917697 2.1806383133 58.473583221 128.80740356 126.69482422 0.8799831867 48.767200470 0.9929543138 0.9929543138
 1857.9052734 6.0000000000 12.581999779 0.0040048077 0.4049459100 2.1945500374 59.966354370 129.44984436 127.07127380 0.8729888201 48.851104736 0.9739518762 0.9739518762
 1858.0576172 6.0000000000 12.604000092 0.0069919876 0.4122965336 2.2078685760 62.680007935 129.74597168 127.42672729 0.8659887910 48.916103363 0.9439519048 0.9439519048
 1858.2100830 6.0000000000 12.621998787 0.0019879905 0.4204497933 2.2158253193 64.556686401 129.95799255 127.74186707 0.8589760065 48.981155396 0.9139639735 0.9139639735
 1858.3624268 6.0000000000 12.638999939 -0.003006410 0.4202166200 2.2163937092 65.673324585 130.11096191 128.00045776 0.8489823341 49.046104431 0.8990224004 0.8990224004
 1858.5148926 6.0000000000 12.656999588 -0.007007206 0.4160028696 2.2148060799 66.507865906 129.08515930 126.89762115 0.8379759789 49.110157013 0.9131441116 0.9131441116
 1858.6672363 6.0000000000 12.638999939 -0.010003204 0.4196116328 2.2107625008 69.357414246 127.35411072 124.93075562 0.8279855847 49.175106049 0.9729663134 0.9729663134
 1858.8197021 5.0000000000 12.619000435 -0.011997598 0.4216390252 2.2061872482 68.360282898 126.23703003 124.08990479 0.8190000057 49.241252899 0.9518727064 0.9518727064
 1858.9720459 5.0000000000 12.467999458 -0.010995192 0.4204259217 2.2056188583 63.899261475 127.04805756 124.76764679 0.8189888000 49.346168518 0.8989583254 0.8989583254
 1859.1245117 5.0000000000 12.378000259 -0.008007206 0.4153172076 2.2062563896 57.821201324 129.02362061 126.85507965 0.8119831681 49.451251984 0.8730384707 0.8730384707
 1859.2768555 5.0000000000 12.635001183 -0.011003205 0.4010873437 2.2038626671 53.335063934 131.61093140 129.23274231 0.8049775958 49.556159973 0.8889390826 0.8889390826
 1859.4293213 5.0000000000 12.694999695 -0.013002402 0.3852809072 2.2014498711 52.753398895 132.78117371 130.63888550 0.7909615636 49.654880524 0.8509183526 0.8509183526
 1859.5816650 5.0000000000 12.720999718 -0.013995193 0.3796230257 2.2012999058 52.922046661 133.40713501 131.31237793 0.7749759555 49.604919434 0.8170111775 0.8170111775
 1859.7341309 5.0000000000 12.743000031 -0.010990392 0.3834064901 2.2018625736 54.824531555 134.11521912 131.84111023 0.7599735856 49.554882050 0.8240264058 0.8240264058
 1859.8864746 5.0000000000 12.777999878 -0.007003205 0.3936889172 2.1990873814 55.874740601 134.59649658 132.31030273 0.7489871979 49.506080627 0.8349823356 0.8349823356
 1860.0388184 5.0000000000 12.812001228 -0.009000000 0.4048220217 2.1948688030 55.088088989 134.75863647 132.45462036 0.7409887910 49.555339813 0.8239839673 0.8239839673
 1860.1912842 5.0000000000 12.838999748 -0.008987990 0.4198564291 2.1941311359 53.893466949 134.29872131 132.13265991 0.7339904308 49.767505646 0.8140072227 0.8140072227
 1860.3436279 5.0000000000 12.859000206 -0.004003205 0.4278794825 2.1960687637 52.425045013 133.71952820 131.50057983 0.7299904227 49.979339600 0.8170047998 0.8170047998
 1860.4960938 5.0000000000 12.854999542 -0.006012009 0.4272263050 2.1987314224 51.835487366 133.00018311 130.86764526 0.7239735723 50.191509247 0.8199808002 0.8199808002
 1860.6484375 5.0000000000 12.850000381 -0.010998397 0.4226212800 2.2045252323 53.284210205 133.31367493 130.99142456 0.7129823565 50.402423859 0.8119855523 0.8119855523
 1860.8009033 5.0000000000 12.845999718 -0.009983187 0.4117089212 2.2120254040 54.038539886 134.43321228 132.19430542 0.7019760013 50.665336609 0.8029615283 0.8029615283
 1860.9532471 5.0000000000 12.840999603 -0.002996795 0.3978794217 2.2168123722 54.266094208 135.84889221 133.56547546 0.6919839382 50.388442993 0.7869775891 0.7869775891
 1861.1057129 5.0000000000 12.840999603 -0.001000000 0.3972052038 2.2158811092 55.573238373 136.51640320 134.39546204 0.6819807887 50.040229797 0.7730288506 0.7730288506
 1861.2580566 5.0000000000 12.840999603 -0.001003205 0.4066983759 2.2108311653 56.918533325 136.64826965 134.48727417 0.6739920378 49.720142365 0.7850064635 0.7850064635
 1861.4105225 5.0000000000 12.838000298 -0.003007206 0.4171583951 2.2061872482 57.249034882 136.32823181 133.92906189 0.6689904332 49.808208466 0.7890143991 0.7890143991
 1861.5628662 5.0000000000 12.829999924 -0.005990385 0.4223867357 2.2049627304 56.430755615 135.30027771 133.08432007 0.6649920344 49.896141052 0.7950208783 0.7950208783
 1861.7153320 5.0000000000 12.821000099 0.0000096077 0.4183439910 2.2071499825 55.030418396 134.67422485 132.45606995 0.6599880457 49.983211517 0.8080096245 0.8080096245
 1861.8676758 5.0000000000 12.803000450 0.0039967950 0.4270705581 2.2115187645 53.536766052 134.51437378 132.40487671 0.6550111771 50.071109772 0.8119550943 0.8119550943
 1862.0200195 5.0000000000 12.785000801 0.0020016013 0.4402135015 2.2173268795 50.273944855 135.19741821 132.97148132 0.6620191932 50.139007568 0.7839646935 0.7839646935
 1862.1724854 5.0000000000 12.789999962 0.0030080129 0.4320940375 2.2278249264 49.616641998 136.00694275 133.83546448 0.6740176678 50.144008636 0.7619839907 0.7619839907
 1862.3248291 5.0000000000 12.800000191 0.0080064107 0.4122241437 2.2391877174 50.638328552 136.96174622 134.58322144 0.6850192547 50.149005890 0.7570000291 0.7570000291
 1862.4772949 5.0000000000 12.793000221 0.0119615691 0.4049265981 2.2337121964 50.840930939 137.02200317 134.80180359 0.6970360279 50.152793884 0.7570160627 0.7570160627
 1862.6296387 5.0000000000 12.781998634 -0.004011218 0.4006957710 2.2114562988 50.392753601 136.46305847 134.40229797 0.7120336890 50.067756653 0.7620409131 0.7620409131
 1862.7821045 5.0000000000 12.781998634 -0.010987991 0.4079068303 2.1984682083 47.117862701 135.96884155 133.56213379 0.7330504060 49.915637970 0.7790576220 0.7790576220
 1862.9344482 5.0000000000 12.781998634 -0.005995193 0.4039508700 2.2016375065 43.735774994 134.59570313 132.39143372 0.7540304661 49.764755249 0.7970504761 0.7970504761
 1863.0869141 5.0000000000 12.769000053 -0.002997598 0.3925676644 2.2101504803 41.724094391 133.63398743 131.23141479 0.7730312347 49.613105774 0.8180320263 0.8180320263
 1863.2392578 5.0000000000 12.753000259 -0.001998398 0.3896665573 2.2132310867 40.099441528 132.76974487 130.71472168 0.7860096097 49.658180237 0.8279711604 0.8279711604
 1863.3917236 5.0000000000 12.736000061 -0.001009608 0.3978562355 2.2119936943 38.503849030 133.62260437 131.21809387 0.7919471264 49.769268036 0.8159230351 0.8159230351
 1863.5440674 5.0000000000 12.725999832 -0.005004807 0.4079957008 2.2105875015 38.027446747 134.57736206 132.27819824 0.7699711323 49.880180359 0.7919423580 0.7919423580
 1863.6965332 5.0000000000 12.743999481 -0.008004804 0.4150991142 2.2060935497 38.931552887 135.19596863 132.99528503 0.7519495487 49.991264343 0.7740224004 0.7740224004
 1863.8488770 5.0000000000 12.819001198 -0.010000000 0.4207957387 2.2009248734 40.826580048 135.12144470 132.95375061 0.7309679389 50.101154327 0.7810384631 0.7810384631
 1864.0013428 5.0000000000 12.807999611 -0.009990392 0.4279731214 2.2008812428 42.437866211 134.66677856 132.35247803 0.7109783888 50.195838928 0.7930064201 0.7930064201
 1864.1536865 5.0000000000 12.795001030 -0.005996795 0.4299019277 2.2042748928 44.876960754 134.06680298 131.76885986 0.7019872069 50.129894257 0.7949423790 0.7949423790
 1864.3060303 5.0000000000 12.960000038 -0.004000000 0.4198237062 2.2057187557 46.727024078 134.38618469 132.16487122 0.6940144300 50.063892365 0.7769182920 0.7769182920
 1864.4584961 5.0000000000 12.716999054 -0.004007206 0.4119299054 2.2030811310 51.107185364 135.84295654 133.61999512 0.7030288577 49.997844696 0.7429551482 0.7429551482
