# LAS format log file from PETREL
# Project units are specified as depth units
#==================================================================
~Version information
VERS.   2.0:
WRAP.   NO:
#==================================================================
~Well
STRT .m      821.52105713 :
STOP .m      2574.1203613 :
STEP .m     0.00000000 :
NULL .        -999.250000 :
COMP.           : COMPANY
WELL.  31/4-8   : WELL
FLD.            : FIELD
LOC.            : LOCATION
SRVC.           : SERVICE COMPANY
DATE.  2018-09-11 14:48:38   : Log Export Date {yyyy-MM-dd HH:mm:ss}
PROV.           : PROVINCE
UWI.   31/4-8   : UNIQUE WELL ID
API.            : API NUMBER
#==================================================================
~Curve
DEPT .m                   : DEPTH
Lithology_geolink ._      : Lithology_geolink
CALI .in                  : CALI
DRHO .g/cm3               : DRHO
NPHI .m3/m3               : NPHI
RHOB .g/cm3               : RHOB
GR .gAPI                  : GR
DTC .us/ft                : DTC
DTE .us/ft                : DTE
RDEP .ohm.m               : RDEP
SP .mV                    : SP
RSHA .ohm.m               : RSHA
RMED .ohm.m               : RMED
~Parameter
#==================================================================
~Ascii
# ...
 1048.2922363  -999.250000 18.202999115 0.0339951925  -999.250000 1.9610191584 66.038002014 136.11585999 135.33682251 2.2218532562 126.14169312  -999.250000 0.9049903750
 1048.4445801  -999.250000 18.260999680 0.0310032014  -999.250000 1.9730176926 69.337997437 136.62818909 135.84931946 2.1608974934 127.25886536  -999.250000 0.9009855986
 1048.5970459  -999.250000 18.270999908 0.0330080129  -999.250000 1.9840031862 71.609001160 136.40237427 135.59031677 2.0968413353 125.92855072  -999.250000 0.8919687867
 1048.7493896  -999.250000 18.277999878 0.0380096063  -999.250000 1.9859902859 72.540000916 135.99143982 135.12713623 2.0309052467 125.33049774  -999.250000 0.8789727688
 1048.9018555  -999.250000 18.351999283 0.0440064110  -999.250000 1.9799903631 71.654998779 136.42016602 135.61567688 1.9718726873 125.63973236  -999.250000 0.8619663715
 1049.0541992  -999.250000 18.527000427 0.0480064042  -999.250000 1.9740047455 68.152000427 137.81372070 136.95233154 1.9189294577 125.93932343  -999.250000 0.8479823470
 1049.2065430  -999.250000 18.783000946 0.0520048104  -999.250000 1.9770088196 64.890998840 138.91754150 138.05735779 1.8749407530 125.52021027  -999.250000 0.8369888067
 1049.3590088  -999.250000 19.010999680 0.0580096059  -999.250000 1.9880112410 64.049003601 139.23048401 138.40333557 1.8379328251 126.27523041  -999.250000 0.8299999833
 1049.5113525  -999.250000 19.055000305 0.0640024096  -999.250000 1.9949944019 65.539001465 138.73094177 137.89248657 1.8099743128 123.46991730  -999.250000 0.8300111890
 1049.6638184  -999.250000 18.870000839 0.0669983998  -999.250000 1.9879840612 66.700996399 137.34082031 136.61631775 1.7939832211 124.03846741  -999.250000 0.8370384574
 1049.8161621  -999.250000 18.586999893 0.0659935921  -999.250000 1.9780048132 65.849998474 135.73611450 134.95196533 1.7870159149 123.39917755  -999.250000 0.8530368209
 1049.9686279  -999.250000 18.368000031 0.0619951896  -999.250000 1.9810352325 66.597999573 134.71765137 133.93713379 1.7970528603 122.25711823  -999.250000 0.8760696650
 1050.1209717  -999.250000 18.252000809 0.0590016022  -999.250000 2.0030479431 69.538002014 135.25466919 134.45266724 1.8190561533 120.23138428  -999.250000 0.9050496221
 1050.2734375  -999.250000 18.172000885 0.0600032024  -999.250000 2.0330336094 71.819000244 136.68141174 135.85142517 1.8541008234 121.72494507  -999.250000 0.9360744357
 1050.4257813  -999.250000 18.090000153 0.0619935952  -999.250000 2.0540015697 72.900001526 137.40106201 136.58064270 1.8960561752 124.61014557  -999.250000 0.9670496583
 1050.5782471  -999.250000 18.031000137 0.0579871796  -999.250000 2.0549759865 73.009002686 136.97149658 136.15534973 1.9310719967 124.69915771  -999.250000 0.9980648756
 1050.7305908  -999.250000 18.014999390 0.0499871895  -999.250000 2.0399615765 74.088996887 136.35229492 135.51495361 1.9610335827 124.34718323  -999.250000 1.0250288248
 1050.8830566  -999.250000 18.028999329 0.0419919863  -999.250000 2.0159616470 74.731002808 135.98616028 135.14250183 1.9820096493 121.35253143  -999.250000 1.0430215597
 1051.0354004  -999.250000 18.054000854 0.0369903930  -999.250000 1.9919760227 72.952003479 135.86773682 135.04910278 1.9859999418 122.82083130  -999.250000 1.0520080328
 1051.1877441  -999.250000 18.082000732 0.0309959929  -999.250000 1.9769991636 70.461997986 136.94444275 136.13749695 1.9859919548 123.96080017  -999.250000 1.0570096970
 1051.3402100  -999.250000 18.104000092 0.0259935949  -999.250000 1.9760175943 68.041999817 139.46633911 138.70574951 1.9809783697 124.45886993  -999.250000 1.0630239248
 1051.4925537  -999.250000 18.111999512 0.0219999999  -999.250000 1.9870128632 65.352996826 141.00062561 140.19134521 1.9719920158 123.98901367  -999.250000 1.0730191469
 1051.6450195  -999.250000 18.108999252 0.0220064092  -999.250000 2.0030288696 61.861999512 139.90245056 139.02577209 1.9669903517 122.74730682  -999.250000 1.0850384235
 1051.7973633  -999.250000 18.114999771 0.0260080062  -999.250000 2.0210318565 58.819999695 137.62387085 136.76341248 1.9630024433 120.80256653  -999.250000 1.1010272503
 1051.9498291  -999.250000 18.141000748 0.0310032051  -999.250000 2.0410270691 59.466999054 135.91986084 135.05055237 1.9640215635 123.65215302  -999.250000 1.1180312634
 1052.1021729  -999.250000 18.181999207 0.0329951942  -999.250000 2.0580160618 64.316001892 135.44949341 134.63098145 1.9730240107 124.95934296  -999.250000 1.1310096979
 1052.2546387  -999.250000 18.228000641 0.0299951918  -999.250000 2.0680065155 70.376998901 135.77308655 134.97360229 1.9830312729 124.54904175  -999.250000 1.1369928122
 1052.4069824  -999.250000 18.281000137 0.0270016026  -999.250000 2.0720031261 74.869003296 135.91728210 135.11022949 1.9960072041 124.15059662  -999.250000 1.1339870691
 1052.5594482  -999.250000 18.350000381 0.0280080140  -999.250000 2.0740015507 76.291999817 135.71621704 134.88995361 1.9989734888 124.51955414  -999.250000 1.1259832382
 1052.7116699  -999.250000 18.423999786 0.0330040045  -999.250000 2.0749959946 75.151916504 135.33595276 134.55158997 1.9879631996 123.91974640  -999.250000 1.1189959049
 1052.8641357  -999.250000 18.485000610 0.0380016007  -999.250000 2.0699927807 73.622230530 135.38272095 134.60397339 1.9649552107 124.84907532  -999.250000 1.1139919758
 1053.0164795  -999.250000 18.547000885 0.0400008000  -999.250000 2.0609960556 71.713523865 135.88986206 135.05403137 1.9369455576 123.65005493  -999.250000 1.1089959145
 1053.1689453  -999.250000 18.649999619 0.0410032049  -999.250000 2.0560040474 69.069999695 135.95198059 135.12023926 1.9029422998 124.95912170  -999.250000 1.1039919853
 1053.3212891  -999.250000 18.801000595 0.0450056046  -999.250000 2.0610105991 69.029029846 135.39949036 134.58911133 1.8789951801 124.40969849  -999.250000 1.0989984274
 1053.4737549  -999.250000 18.954999924 0.0520064123  -999.250000 2.0740087032 71.307998657 134.67642212 133.83343506 1.8760360479 122.77993011  -999.250000 1.0970047712
 1053.6260986  -999.250000 19.059999466 0.0599991977  -999.250000 2.0849983692 73.109558105 134.48931885 133.63044739 1.8910512924 123.35903168  -999.250000 1.1000176668
 1053.7785645  -999.250000 19.082000732 0.0589879826  -999.250000 2.0829918385 72.031997681 134.95960999 134.17990112 1.9231081009 122.13072968  -999.250000 1.1110352278
 1053.9309082  -999.250000 18.988000870 0.0439823717  -999.250000 2.0729999542 69.641914368 135.79475403 135.01499939 1.9680706263 122.59110260  -999.250000 1.1330512762
 1054.0833740  -999.250000 18.773000717 0.0219823867  -999.250000 2.0730288029 70.098999023 136.65324402 135.85803223 2.0120744705 123.89739990  -999.250000 1.1650561094
 1054.2357178  -999.250000 18.506999969 0.0110032046  -999.250000 2.0910177231 70.959312439 137.58129883 136.78462219 2.0430207253 120.41085052  -999.250000 1.2000433207
 1054.3881836  -999.250000 18.298999786 0.0150016006  -999.250000 2.1130030155 70.500999451 138.35246277 137.65475464 2.0560119152 121.57135773  -999.250000 1.2270272970
 1054.5405273  -999.250000 18.195999146 0.0159911867  -999.250000 2.1149857044 69.452842712 138.71998596 137.90049744 2.0610001087 123.03990936  -999.250000 1.2439887524
 1054.6929932  -999.250000 18.152999878 0.0049711769  -999.250000 2.0969693661 68.129997253 138.31652832 137.47631836 2.0610144138 122.35874176  -999.250000 1.2369599342
 1054.8453369  -999.250000 18.110000610 -0.013012020  -999.250000 2.0779912472 68.478713989 137.83532715 136.98988342 2.0670223236 120.94916534  -999.250000 1.2119392157
 1054.9976807  -999.250000 18.059999466 -0.028008807  -999.250000 2.0669982433 69.209411621 137.74537659 136.91102600 2.0810241699 119.81047058  -999.250000 1.1739711761
 1055.1501465  -999.250000 18.025999069 -0.039004005  -999.250000 2.0650031567 69.201004028 137.85632324 137.04318237 2.0960311890 121.64949036  -999.250000 1.1379599571
 1055.3024902  -999.250000 18.024999619 -0.043991193  -999.250000 2.0690047741 68.002960205 138.33285522 137.46932983 2.1089982986 121.32988739  -999.250000 1.1129903793
 1055.4549561  -999.250000 18.054000854 -0.032979969  -999.250000 2.0750000477 64.952003479 138.68731689 137.83955383 2.1079735756 122.42972565  -999.250000 1.1009967327
