# LAS format log file from PETREL
# Project units are specified as depth units
#==================================================================
~Version information
VERS.   2.0:
WRAP.   NO:
#==================================================================
~Well
STRT .m      821.52105713 :
STOP .m      2574.1203613 :
STEP .m     0.00000000 :
NULL .        -999.250000 :
COMP.           : COMPANY
WELL.  31/4-8   : WELL
FLD.            : FIELD
LOC.            : LOCATION
SRVC.           : SERVICE COMPANY
DATE.  2018-09-11 14:48:38   : Log Export Date {yyyy-MM-dd HH:mm:ss}
PROV.           : PROVINCE
UWI.   31/4-8   : UNIQUE WELL ID
API.            : API NUMBER
#==================================================================
~Curve
DEPT .m                   : DEPTH
Lithology_geolink ._      : Lithology_geolink
CALI .in                  : CALI
DRHO .g/cm3               : DRHO
NPHI .m3/m3               : NPHI
RHOB .g/cm3               : RHOB
GR .gAPI                  : GR
DTC .us/ft                : DTC
DTE .us/ft                : DTE
RDEP .ohm.m               : RDEP
SP .mV                    : SP
RSHA .ohm.m               : RSHA
RMED .ohm.m               : RMED
~Parameter
#==================================================================
~Ascii
# ...
 1282.3784180  -999.250000 18.386999130 0.0650007948  -999.250000 2.0810000896 65.856010437 142.12121582 141.25839233 1.3209999800 109.90005493  -999.250000 0.7270048261
 1282.5308838  -999.250000 18.451000214 0.0659975931  -999.250000 2.0859999657 67.348800659 141.97622681 141.18394470 1.3210023642 112.46009064  -999.250000 0.7330048084
 1282.6832275  -999.250000 18.437000275 0.0629943982  -999.250000 2.0869998932 67.878150940 141.79153442 141.07827759 1.3220032454 111.32976532  -999.250000 0.7390048504
 1282.8356934  -999.250000 18.343000412 0.0559983999  -999.250000 2.0810000896 68.659378052 141.70890808 140.89434814 1.3240000010 112.27969360  -999.250000 0.7450023890
 1282.9880371  -999.250000 18.211999893 0.0540064126  -999.250000 2.0720000267 69.199562073 141.32302856 140.49163818 1.3239952326 110.65924835  -999.250000 0.7480000257
 1283.1405029  -999.250000 18.089000702 0.0620176122  -999.250000 2.0650000572 68.991165161 140.96667480 140.10122681 1.3209999800 113.45682526  -999.250000 0.7479968071
 1283.2928467  -999.250000 17.971000671 0.0730016008  -999.250000 2.0580000877 66.873703003 141.19126892 140.33781433 1.3209952116 109.60980988  -999.250000 0.7459983826
 1283.4453125  -999.250000 17.856000900 0.0749871954  -999.250000 2.0510001183 64.811645508 142.11026001 141.28031921 1.3179928064 110.62039948  -999.250000 0.7439951897
 1283.5976563  -999.250000 17.792999268 0.0669919923  -999.250000 2.0469999313 65.127746582 142.70913696 141.88928223 1.3149952888 110.86937714  -999.250000 0.7409976125
 1283.7501221  -999.250000 17.833000183 0.0569983982  -999.250000 2.0490000248 67.417167664 142.45465088 141.63067627 1.3119928837 111.32870483  -999.250000 0.7379967570
 1283.9024658  -999.250000 17.968000412 0.0560056120  -999.250000 2.0510001183 69.497337341 141.71896362 140.92605591 1.3089903593 109.89986420  -999.250000 0.7359992266
 1284.0548096  -999.250000 18.118999481 0.0630080104  -999.250000 2.0429999828 70.477424622 141.05679321 140.28096008 1.3029935360 110.97824860  -999.250000 0.7350000143
 1284.2072754  -999.250000 18.211000443 0.0730048046  -999.250000 2.0290000439 71.169441223 141.25399780 140.54641724 1.2989856005 112.53964996  -999.250000 0.7350023985
 1284.3596191  -999.250000 18.229000092 0.0789967999  -999.250000 2.0260000229 70.870483398 142.31469727 141.49356079 1.2899855375 112.09976959  -999.250000 0.7380039692
 1284.5120850  -999.250000 18.211999893 0.0749919936  -999.250000 2.0350000858 70.660171509 142.89010620 142.02726746 1.2809567451 113.06033325  -999.250000 0.7430015802
 1284.6644287  -999.250000 18.209999084 0.0649911910  -999.250000 2.0460000038 71.446739197 143.03936768 142.19476318 1.2629711628 113.48002625  -999.250000 0.7449992299
 1284.8168945  -999.250000 18.238000870 0.0539967977  -999.250000 2.0450000763 73.995956421 143.42823792 142.60273743 1.2449471951 112.26008606  -999.250000 0.7439960241
 1284.9692383  -999.250000 18.268999100 0.0500008017  -999.250000 2.0380001068 76.776771545 144.37074280 143.50956726 1.2229744196 111.11976624  -999.250000 0.7389944196
 1285.1217041  -999.250000 18.259000778 0.0510048084  -999.250000 2.0350000858 77.449462891 145.82556152 144.99067688 1.2069808245 112.07006836  -999.250000 0.7319903970
 1285.2740479  -999.250000 18.201999664 0.0570048094  -999.250000 2.0339999199 76.712593079 147.72534180 146.87794495 1.1990032196 110.91020203  -999.250000 0.7199912071
 1285.4265137  -999.250000 18.141000748 0.0630000010  -999.250000 2.0290000439 73.714401245 149.51673889 148.65757751 1.2010288239 111.16103363  -999.250000 0.7089903951
 1285.5788574  -999.250000 18.113000870 0.0629927889  -999.250000 2.0199999809 69.945022583 150.66125488 149.81848145 1.2130465508 112.42985535  -999.250000 0.7030023932
 1285.7313232  -999.250000 18.110000610 0.0539855883  -999.250000 2.0169999599 67.631851196 150.38719177 149.56983948 1.2420864105 111.00042725  -999.250000 0.7060160041
 1285.8836670  -999.250000 18.100000381 0.0449951924  -999.250000 2.0280001163 68.038673401 148.18060303 147.44172668 1.2780785561 111.88957977  -999.250000 0.7160152197
 1286.0361328  -999.250000 18.066999435 0.0389935970  -999.250000 2.0450000763 69.250030518 144.79687500 143.97042847 1.3271368742 111.35997772  -999.250000 0.7350384593
 1286.1884766  -999.250000 18.027999878 0.0349959955  -999.250000 2.0539999008 68.601516724 141.07829285 140.19627380 1.3841041327 107.61040497  -999.250000 0.7590200305
 1286.3408203  -999.250000 18.003000259 0.0299991984  -999.250000 2.0539999008 66.704040527 138.40231323 137.52676392 1.4491106272 109.35995483  -999.250000 0.7840183973
 1286.4932861  -999.250000 18.003000259 0.0290040057  -999.250000 2.0550000668 65.899642944 137.57202148 136.72100830 1.5181777477 108.05982208  -999.250000 0.8070144057
 1286.6456299  -999.250000 18.018999100 0.0340040065  -999.250000 2.0610001087 66.838493347 138.46195984 137.57929993 1.5921121836 107.84002686  -999.250000 0.8250088096
 1286.7980957  -999.250000 18.042999268 0.0389991999  -999.250000 2.0659999847 67.229690552 139.81095886 138.94921875 1.6621440649 109.12999725  -999.250000 0.8360040188
 1286.9504395  -999.250000 18.063999176 0.0379967950  -999.250000 2.0639998913 67.499565125 140.32733154 139.51445007 1.7220673561 109.12783813  -999.250000 0.8410000205
 1287.1029053  -999.250000 18.068000793 0.0339967981  -999.250000 2.0580000877 67.391082764 140.07325745 139.22877502 1.7640433311 106.52851105  -999.250000 0.8409984112
 1287.2552490  -999.250000 18.048000336 0.0299975947  -999.250000 2.0510001183 66.211944580 139.27340698 138.49722290 1.7819983959 105.50325012  -999.250000 0.8389967680
 1287.4077148  -999.250000 18.009000778 0.0269951969  -999.250000 2.0480000973 64.342498779 138.49873352 137.76553345 1.7809591293 110.02024078  -999.250000 0.8349903822
 1287.5600586  -999.250000 17.972000122 0.0239975955  -999.250000 2.0460000038 62.970100403 138.80387878 137.95248413 1.7639664412 110.11960602  -999.250000 0.8289920092
 1287.7125244  -999.250000 17.951999664 0.0210064054  -999.250000 2.0429999828 63.768360138 139.89787292 139.10057068 1.7429423332 109.24825287  -999.250000 0.8189792037
 1287.8648682  -999.250000 17.954000473 0.0250104163  -999.250000 2.0460000038 65.556564331 141.41525269 140.57760620 1.7189551592 108.11083221  -999.250000 0.8059895635
 1288.0173340  -999.250000 17.975999832 0.0380192138  -999.250000 2.0610001087 68.094970703 142.64158630 141.77478027 1.6909254789 109.86971283  -999.250000 0.7929775715
 1288.1696777  -999.250000 18.013999939 0.0500040054  -999.250000 2.0780000687 69.908554077 143.07260132 142.25390625 1.6599390507 108.92209625  -999.250000 0.7789895535
 1288.3220215  -999.250000 18.059000015 0.0550008006  -999.250000 2.0869998932 69.762237549 142.81277466 142.00468445 1.6219407320 110.84887695  -999.250000 0.7659919858
 1288.4744873  -999.250000 18.096000671 0.0560024045  -999.250000 2.0889999866 67.274002075 141.89945984 141.10278320 1.5849039555 110.14673615  -999.250000 0.7559927702
 1288.6268311  -999.250000 18.111000061 0.0590056032  -999.250000 2.0899999142 64.234870911 140.38134766 139.57969666 1.5449374914 107.96088409  -999.250000 0.7469919920
 1288.7792969  -999.250000 18.111999512 0.0660040081  -999.250000 2.0940001011 63.829319000 139.36555481 138.53218079 1.5059111118 108.50985718  -999.250000 0.7369927764
 1288.9316406  -999.250000 18.115999222 0.0710007995  -999.250000 2.0999999046 66.184226990 139.84542847 139.08267212 1.4689470530 108.44938660  -999.250000 0.7279919982
 1289.0841064  -999.250000 18.121999741 0.0719967932  -999.250000 2.1029999256 68.946784973 141.12171936 140.27853394 1.4359375238 107.45507050  -999.250000 0.7179911733
 1289.2364502  -999.250000 18.121000290 0.0679967999  -999.250000 2.0999999046 70.377853394 142.31156921 141.50466919 1.4099646807 110.38803101  -999.250000 0.7069920301
 1289.3889160  -999.250000 18.106000900 0.0639967993  -999.250000 2.0909872055 71.208335876 143.41896057 142.62840271 1.3879567385 108.54053497  -999.250000 0.6969856024
 1289.5412598  -999.250000 18.083999634 0.0619999990  -999.250000 2.0829951763 72.129257202 144.16625977 143.33135986 1.3699808121 108.75947571  -999.250000 0.6879951954
