# LAS format log file from PETREL
# Project units are specified as depth units
#==================================================================
~Version information
VERS.   2.0:
WRAP.   NO:
#==================================================================
~Well
STRT .m      950.21093750 :
STOP .m      2894.8349609 :
STEP .m     0.00000000 :
NULL .        -999.250000 :
COMP.           : COMPANY
WELL.  31/4-2   : WELL
FLD.            : FIELD
LOC.            : LOCATION
SRVC.           : SERVICE COMPANY
DATE.  2018-09-11 14:48:36   : Log Export Date {yyyy-MM-dd HH:mm:ss}
PROV.           : PROVINCE
UWI.   31/4-2   : UNIQUE WELL ID
API.            : API NUMBER
#==================================================================
~Curve
DEPT .m                   : DEPTH
Lithology_geolink ._      : Lithology_geolink
CALI .in                  : CALI
DRHO .g/cm3               : DRHO
NPHI .m3/m3               : NPHI
RHOB .g/cm3               : RHOB
GR .gAPI                  : GR
DTC .us/ft                : DTC
DTE .us/ft                : DTE
RDEP .ohm.m               : RDEP
SP .mV                    : SP
RSHA .ohm.m               : RSHA
RMED .ohm.m               : RMED
~Parameter
#==================================================================
~Ascii
# ...
 1469.5902100  -999.250000 18.705999374 -0.011996797  -999.250000 2.0188157558 54.831851959 146.64640808 144.28865051 0.9948597550 38.530601501 0.7509679198 0.7509679198
 1469.7425537  -999.250000 18.906999588 -0.010985577  -999.250000 2.0256371498 54.161693573 145.68188477 143.44732666 0.9598478675 38.181434631 0.7429719567 0.7429719567
 1469.8950195  -999.250000 18.500000000 -0.004993595  -999.250000 2.0372664928 53.619812012 143.92602539 141.67434692 0.9218878150 37.790500641 0.7359719276 0.7359719276
 1470.0473633  -999.250000 18.136999130 -0.003007211  -999.250000 2.0456001759 53.252777100 142.47644043 140.34756470 0.8939599395 37.417446136 0.7289719582 0.7289719582
 1470.1998291  -999.250000 18.167999268 -0.006003205  -999.250000 2.0476965904 54.408527374 142.50044250 140.25915527 0.8839839697 37.281604767 0.7219719291 0.7219719291
 1470.3521729  -999.250000 18.302999496 -0.006993595  -999.250000 2.0480813980 55.505802155 143.40289307 141.22952271 0.8799999952 37.682472229 0.7149759531 0.7149759531
 1470.5046387  -999.250000 18.235000610 -0.004993590  -999.250000 2.0513868332 55.442230225 144.46963501 142.28753662 0.8799839616 38.050201416 0.7089959979 0.7089959979
 1470.6569824  -999.250000 18.441999435 -0.003006405  -999.250000 2.0561041832 54.891017914 144.97967529 142.62092590 0.8759639859 38.350204468 0.7079960108 0.7079960108
 1470.8094482  -999.250000 18.506999969 -0.005006410  -999.250000 2.0594053268 54.583827972 144.34326172 142.12791443 0.8669639230 38.649677277 0.7069920301 0.7069920301
 1470.9617920  -999.250000 18.524999619 -0.006983988  -999.250000 2.0635411739 53.907966614 143.39741516 141.19107056 0.8579719663 38.567966461 0.7049959898 0.7049959898
 1471.1141357  -999.250000 18.739000320 -0.001992789  -999.250000 2.0700864792 53.586860657 142.56372070 140.28074646 0.8510096073 38.310348511 0.7039967775 0.7039967775
 1471.2666016  -999.250000 18.867000580 0.0009967975  -999.250000 2.0735967159 53.946502686 141.71932983 139.51399231 0.8540400267 38.106185913 0.7030079961 0.7030079961
 1471.4189453  -999.250000 18.922000885 0.0000024038  -999.250000 2.0718295574 54.726684570 140.88925171 138.64572144 0.8640921116 37.903347015 0.7050079703 0.7050079703
 1471.5714111  -999.250000 18.753999710 0.0010128103  -999.250000 2.0699169636 55.423282623 138.93579102 136.62164307 0.8870961666 37.740993500 0.7070040107 0.7070040107
 1471.7237549  -999.250000 18.381999969 0.0050048074  -999.250000 2.0743038654 54.574066162 134.22306824 132.10902405 0.9111040831 37.738990784 0.7080480456 0.7080480456
 1471.8762207  -999.250000 18.294000626 0.0069935950  -999.250000 2.0913026333 52.939098358 127.75070953 125.41345978 0.9370681047 37.736995697 0.7201161981 0.7201161981
 1472.0285645  -999.250000 18.767000198 0.0049903844  -999.250000 2.1282432079 52.033779144 120.53585815 118.24301910 0.9540240169 37.736732483 0.7490800619 0.7490800619
 1472.1810303  -999.250000 18.849000931 0.0010096155  -999.250000 2.1736109257 51.526092529 115.49645233 113.31451416 0.9599999785 37.920307159 0.7689158320 0.7689158320
 1472.3333740  -999.250000 19.031999588 0.0040256209  -999.250000 2.1895368099 51.247619629 115.62133026 113.35691071 0.9599759579 38.246784210 0.7479279637 0.7479279637
 1472.4858398  -999.250000 18.513999939 0.0119615383  -999.250000 2.1456987858 52.380409241 121.07025909 118.80427551 0.9539719224 38.442153931 0.7299679518 0.7299679518
 1472.6381836  -999.250000 18.339000702 -0.000019215  -999.250000 2.0686705112 54.378448486 129.77987671 127.73178101 0.9469640255 38.479530334 0.7219719887 0.7219719887
 1472.7906494  -999.250000 18.349000931 -0.006009615  -999.250000 2.0192866325 55.763839722 138.40631104 135.99038696 0.9379078746 38.362529755 0.7149679065 0.7149679065
 1472.9429932  -999.250000 19.149000168 -0.009019215  -999.250000 2.0027000904 56.026473999 142.17041016 139.84906006 0.9148719311 38.245532990 0.7069559693 0.7069559693
 1473.0953369  -999.250000 18.811000824 -0.014987980  -999.250000 1.9934490919 56.396476746 142.84014893 140.62002563 0.8829295039 38.129730225 0.6960095763 0.6960095763
 1473.2478027  -999.250000 19.056999207 -0.009996797  -999.250000 1.9918677807 57.477840424 142.97322083 140.91001892 0.8609799743 38.044670105 0.6990079880 0.6990079880
 1473.4001465  -999.250000 19.188999176 -0.008985576  -999.250000 1.9953655005 57.684288025 143.65576172 141.40466309 0.8560064435 37.962734222 0.7010160089 0.7010160089
 1473.5526123  -999.250000 19.025999069 -0.002983987  -999.250000 1.9980397224 56.840095520 144.59539795 142.26794434 0.8581001163 37.879673004 0.7060199976 0.7060199976
 1473.7049561  -999.250000 19.038999557 0.0020072116  -999.250000 2.0036420822 56.614997864 145.54943848 143.23265076 0.8831080794 37.797668457 0.7110200524 0.7110200524
 1473.8574219  -999.250000 18.028999329 0.0049743792  -999.250000 2.0120697021 56.612182617 145.94395447 143.74900818 0.9100641012 37.716564178 0.7160200477 0.7160200477
 1474.0097656  -999.250000 17.929000854 -0.003000000  -999.250000 2.0163531303 56.159370422 145.51589966 143.39025879 0.9260400534 38.106208801 0.7210400701 0.7210400701
 1474.1622314  -999.250000 17.989999771 -0.002996797  -999.250000 2.0181951523 55.751972198 144.70550537 142.36759949 0.9360160232 38.408470154 0.7310360670 0.7310360670
 1474.3145752  -999.250000 18.111999512 -0.001985577  -999.250000 2.0213027000 55.243766785 143.53123474 141.45921326 0.9399960041 38.773319244 0.7399839759 0.7399839759
 1474.4670410  -999.250000 18.207000732 0.0040288465  -999.250000 2.0240354538 54.434963226 143.35362244 141.10140991 0.9389759898 38.602245331 0.7359799743 0.7359799743
 1474.6193848  -999.250000 18.239000320 0.0129775824  -999.250000 2.0274841785 53.434093475 143.33865356 141.08396912 0.9329519868 38.164379120 0.7309640050 0.7309640050
 1474.7718506  -999.250000 18.229000092 0.0059903846  -999.250000 2.0298600197 53.961017609 143.45417786 141.21754456 0.9209278822 37.759761810 0.7219559550 0.7219559550
 1474.9241943  -999.250000 18.070999146 0.0030032026  -999.250000 2.0290617943 55.459815979 143.68165588 141.41442871 0.9029279351 37.451454163 0.7109640241 0.7109640241
 1475.0765381  -999.250000 17.988000870 0.0039927885  -999.250000 2.0285308361 56.160438538 143.36843872 141.23960876 0.8849422932 37.316032410 0.7019807696 0.7019807696
 1475.2290039  -999.250000 18.087999344 0.0009871898  -999.250000 2.0255911350 56.296550751 142.89067078 140.53929138 0.8669759631 37.328624725 0.6959799528 0.6959799528
 1475.3813477  -999.250000 18.149000168 -0.003009615  -999.250000 2.0183627605 56.189418793 141.96997070 139.76541138 0.8610000014 37.983779907 0.6909999847 0.6909999847
 1475.5338135  -999.250000 17.888999939 -0.006977582  -999.250000 2.0103933811 57.568275452 141.35195923 139.21145630 0.8610440493 38.538715363 0.6910200119 0.6910200119
 1475.6861572  -999.250000 17.763999939 0.0000072115  -999.250000 2.0023934841 58.882781982 141.31520081 139.09309387 0.8720600009 38.717430115 0.6960200071 0.6960200071
 1475.8386230  -999.250000 17.628999710 0.0030064052  -999.250000 1.9965513945 59.574810028 141.98658752 139.62245178 0.8871042132 38.825130463 0.7010200024 0.7010200024
 1475.9909668  -999.250000 17.301000595 0.0049975961  -999.250000 1.9991087914 59.521102905 142.47348022 140.28561401 0.9131121039 38.856689453 0.7060199976 0.7060199976
 1476.1434326  -999.250000 17.351999283 0.0040192157  -999.250000 2.0132813454 58.046195984 141.38839722 139.25906372 0.9411161542 38.779689789 0.7110521197 0.7110521197
 1476.2957764  -999.250000 17.544000626 0.0100072110  -999.250000 2.0358748436 56.094921112 137.28688049 134.87327576 0.9700600505 38.702686310 0.7242481709 0.7242481709
 1476.4482422  -999.250000 17.719999313 0.0129871797  -999.250000 2.0613410473 53.332607269 131.08650208 128.87580872 0.9849920273 38.624691010 0.7861562371 0.7861562371
 1476.6005859  -999.250000 17.761999130 0.0090032024  -999.250000 2.0883293152 51.750587463 127.23270416 124.96499634 0.9829519391 38.547760010 0.8248558640 0.8248558640
 1476.7530518  -999.250000 17.559000015 0.0100032045  -999.250000 2.1090638638 53.648029327 127.90070343 125.60726929 0.9709559679 38.488327026 0.7887716293 0.7887716293
