# LAS format log file from PETREL
# Project units are specified as depth units
#==================================================================
~Version information
VERS.   2.0:
WRAP.   NO:
#==================================================================
~Well
STRT .m      860.54608154 :
STOP .m      3158.4321289 :
STEP .m     0.00000000 :
NULL .        -999.250000 :
COMP.           : COMPANY
WELL.  31/4-4   : WELL
FLD.            : FIELD
LOC.            : LOCATION
SRVC.           : SERVICE COMPANY
DATE.  2018-09-11 14:48:37   : Log Export Date {yyyy-MM-dd HH:mm:ss}
PROV.           : PROVINCE
UWI.   31/4-4   : UNIQUE WELL ID
API.            : API NUMBER
#==================================================================
~Curve
DEPT .m                   : DEPTH
Lithology_geolink ._      : Lithology_geolink
CALI .in                  : CALI
DRHO .g/cm3               : DRHO
NPHI .m3/m3               : NPHI
RHOB .g/cm3               : RHOB
GR .gAPI                  : GR
DTC .us/ft                : DTC
DTE .us/ft                : DTE
RDEP .ohm.m               : RDEP
SP .mV                    : SP
RSHA .ohm.m               : RSHA
RMED .ohm.m               : RMED
~Parameter
#==================================================================
~Ascii
# ...
 2543.0412598 2.0000000000 12.555000305 -0.008980769 0.2759300172 2.4747600555 94.458038330 85.524139404 84.187500000 3.7708203793 50.398349762 4.1240992546 4.1240992546
 2543.1938477 2.0000000000 12.555000305 0.0029776001 0.2843900025 2.4852490425 100.70690155 85.485000610 84.182960510 3.7142510414 49.364299774 3.8445231915 3.8445231915
 2543.3461914 2.0000000000 12.557000160 -0.003983974 0.2941200137 2.4908313751 104.61978912 85.385398865 84.055442810 3.5578525066 47.905410767 3.9554679394 3.9554679394
 2543.4985352 2.0000000000 12.616999626 0.0059903846 0.3057999909 2.4942610264 102.99939728 84.830368042 83.513168335 3.2003812790 51.275901794 4.7241764069 4.7241764069
 2543.6508789 2.0000000000 12.663000107 0.0000304487 0.3037900031 2.4842875004 102.80899811 84.570037842 83.207160950 3.0077979565 51.842811584 5.0874967575 5.0874967575
 2543.8034668 2.0000000000 12.663999557 0.0190607999 0.3037100136 2.4680352211 101.57802582 84.947654724 83.679351807 2.9448220730 55.461200714 4.3059568405 4.3059568405
 2543.9558105 2.0000000000 12.663000107 0.0380240381 0.3155300021 2.4643306732 104.69129944 85.424385071 84.131996155 2.9080960751 55.206192017 3.6741425991 3.6741425991
 2544.1081543 2.0000000000 12.640000343 0.0529567301 0.3211299777 2.4661633968 105.36798859 85.959732056 84.674293518 2.9282307625 51.589157104 3.2882981300 3.2882981300
 2544.2604980 2.0000000000 12.593999863 0.0259615388 0.3288499713 2.4541437626 103.18038940 86.142852783 84.989410400 3.0006954670 52.930900574 3.0699806213 3.0699806213
 2544.4130859 2.0000000000 12.555999756 0.0020032001 0.3447000086 2.4374334812 100.80548859 85.961769104 84.703781128 3.2185864449 52.864498138 3.0679085255 3.0679085255
 2544.5654297 2.0000000000 12.555000305 0.0030240384 0.3504100144 2.4479994774 99.259902954 85.028923035 83.708946228 3.5493423939 51.460800171 3.8847713470 3.8847713470
 2544.7177734 2.0000000000 12.553999901 0.0180304479 0.3434999883 2.4850542545 101.33804321 83.798667908 82.430381775 4.0358781815 50.711502075 5.4971151352 5.4971151352
 2544.8701172 2.0000000000 12.548999786 0.0369759612 0.3115400076 2.5245587826 109.09996033 82.172721863 80.832717896 4.3091602325 50.397697449 5.8455767632 5.8455767632
 2545.0224609 2.0000000000 12.614998817 0.0219967999 0.3124400079 2.5245749950 101.29196930 79.527046204 78.110481262 4.3588528633 48.964603424 6.3382148743 6.3382148743
 2545.1750488 2.0000000000 12.614000320 0.0199871790 0.3295100033 2.5061869621 94.708602905 74.063011169 72.801612854 4.3129234314 50.585300446 7.0298895836 7.0298895836
 2545.3273926 2.0000000000 12.526000977 0.0119775645 0.3400000036 2.4885253906 86.143630981 68.716316223 67.426986694 4.2967500687 49.523696899 7.6291379929 7.6291379929
 2545.4797363 2.0000000000 12.508000374 -0.002012821 0.3356000185 2.4685888290 91.964843750 67.297882080 65.980117798 4.2188491821 48.713504791 7.6697468758 7.6697468758
 2545.6320801 2.0000000000 12.510999680 -0.009990385 0.3368700147 2.4539101124 100.34986115 71.104774475 69.803642273 4.1718363762 49.651252747 6.9657049179 6.9657049179
 2545.7846680 2.0000000000 12.614998817 -0.003968000 0.3189499974 2.4602239132 111.83824158 75.782096863 74.575843811 4.1213364601 50.427299500 5.9392161369 5.9392161369
 2545.9370117 5.0000000000 12.647000313 0.0060272436 0.3419900239 2.4838485718 117.04500580 79.634788513 78.513519287 4.1909666061 49.270793915 5.5713872910 5.5713872910
 2546.0893555 5.0000000000 12.624999046 0.0229791664 0.3228900135 2.5086543560 113.29677582 81.670608521 80.304550171 4.1835479736 46.650203705 5.8600544930 5.8600544930
 2546.2416992 5.0000000000 12.600000381 0.0100016026 0.3265300095 2.5163638592 108.24238586 81.852638245 80.478385925 4.0426988602 46.776103973 6.1877341270 6.1877341270
 2546.3937988 5.0000000000 12.532999039 0.0109999999 0.3228916526 2.5228478909 105.87109375 81.669441223 80.347450256 3.9488315582 47.462001801 6.1046185493 6.1046185493
 2546.5463867 2.0000000000 12.509000778 0.0000000000 0.3152023256 2.5279030800 103.42920685 81.707817078 80.436058044 3.8437922001 47.900001526 5.8671631813 5.8671631813
 2546.6987305 2.0000000000 12.508000374 0.0170000009 0.3140019178 2.5411491394 100.68620300 82.422561646 81.120925903 3.7789664268 48.712001801 5.9178366661 5.9178366661
 2546.8510742 2.0000000000 12.508000374 0.0179999992 0.2808831632 2.5455887318 99.573318481 81.837600708 80.621398926 3.7580029964 49.275001526 5.8151745796 5.8151745796
 2547.0034180 2.0000000000 12.509000778 0.0299999993 0.2887445986 2.5422961712 105.99769592 81.092208862 79.845909119 3.7600688934 52.400001526 5.2999982834 5.2999982834
 2547.1560059 2.0000000000 12.529000282 0.0199999996 0.2895387709 2.5278153419 104.56580353 80.953674316 79.628768921 3.8029999733 56.025001526 4.6748385429 4.6748385429
 2547.3083496 2.0000000000 12.477000237 0.0289999992 0.2994640470 2.5204226971 105.42478180 80.715332031 79.279464722 3.8030657768 55.587001801 4.3131747246 4.3131747246
 2547.4606934 2.0000000000 12.437999725 0.0250000004 0.2917723656 2.5211017132 97.184700012 78.954811096 77.655593872 3.8441185951 51.962001801 4.4239711761 4.4239711761
 2547.6130371 2.0000000000 12.420998573 0.0140000004 0.2976405323 2.5213081837 95.120391846 76.092773438 74.864585876 3.9182195663 50.962001801 5.6579165459 5.6579165459
 2547.7653809 2.0000000000 12.376999855 0.0000000000 0.2954969108 2.5308561325 92.246093750 72.818954468 71.381027222 4.0555062294 50.525001526 9.3529758453 9.3529758453
 2547.9179688 2.0000000000 12.397000313 -0.004000000 0.2576607168 2.5550420284 89.793205261 67.992729187 66.688453674 4.3725996017 49.462001801 14.968324661 14.968324661
 2548.0703125 2.0000000000 12.375999451 -0.005000000 0.2057731897 2.5883464813 83.607574463 64.285118103 63.015415192 4.8724775314 49.087001801 22.241561890 22.241561890
 2548.2226563 2.0000000000 12.373999596 -0.006000000 0.1426611543 2.6084532738 72.751304626 62.846641541 61.631362915 5.7953543663 48.400001526 26.960134506 26.960134506
 2548.3750000 2.0000000000 12.329000473 -0.006000000 0.1227236763 2.6227097511 73.556396484 62.764976501 61.427829742 7.2640209198 47.275001526 31.418722153 31.418722153
 2548.5275879 2.0000000000 12.298000336 -0.005000000 0.1211324483 2.6453413963 69.430801392 60.945579529 59.655807495 8.5241994858 46.212001801 39.443504333 39.443504333
 2548.6799316 16.000000000 12.298000336 0.0179999992 0.1267609596 2.6783449650 67.180740356 59.234916687 57.995086670 8.8974742889 46.587001801 70.610977173 70.610977173
 2548.8322754 16.000000000 12.328000069 0.0610000007 0.1293159127 2.7088031769 62.652042389 58.418075562 57.128108978 8.5684919357 47.087001801 178.62640381 178.62640381
 2548.9846191 16.000000000 12.350000381 0.0619999990 0.1279843003 2.7008519173 60.189552307 56.988574982 55.559394836 7.6270465851 46.962001801 335.17587280 335.17587280
 2549.1372070 16.000000000 12.321998596 0.0529999994 0.1326525062 2.6784396172 61.162399292 58.226890564 56.840595245 6.4073758125 48.025001526 288.19128418 288.19128418
 2549.2895508 16.000000000 12.345001221 0.0250000004 0.1516894549 2.6533358097 63.170169830 61.840484619 60.670188904 5.5889296532 49.712001801 36.242588043 36.242588043
 2549.4418945 5.0000000000 12.414999962 0.0299999993 0.1906275451 2.6255128384 72.019935608 65.870460510 64.570899963 4.9212112427 52.150001526 12.304780006 12.304780006
 2549.5942383 5.0000000000 12.496999741 0.0329999998 0.2584312558 2.5929970741 84.449119568 69.904212952 68.621559143 4.4295673370 53.275001526 7.1811137199 7.1811137199
 2549.7465820 5.0000000000 12.500000000 0.0390000008 0.2951225638 2.5588712692 91.393127441 74.452980042 73.193527222 4.1595721245 51.650001526 5.3817100525 5.3817100525
 2549.8991699 5.0000000000 12.484999657 0.0299999993 0.3294151127 2.5287604332 102.70200348 79.604652405 78.353004456 3.8920047283 51.150001526 4.5767264366 4.5767264366
 2550.0515137 5.0000000000 12.499000549 0.0080000004 0.3050392270 2.5011265278 107.06189728 82.560691833 81.292556763 3.5815994740 50.150001526 4.1800494194 4.1800494194
 2550.2038574 5.0000000000 12.477000237 0.0000000000 0.2971126437 2.4818782806 106.36437988 83.459594727 82.236099243 3.3318252563 50.400001526 4.2114887238 4.2114887238
