# LAS format log file from PETREL
# Project units are specified as depth units
#==================================================================
~Version information
VERS.   2.0:
WRAP.   NO:
#==================================================================
~Well
STRT .m      996.03363037 :
STOP .m      2328.0097656 :
STEP .m     0.00000000 :
NULL .        -999.250000 :
COMP.           : COMPANY
WELL.  31/4-10   : WELL
FLD.            : FIELD
LOC.            : LOCATION
SRVC.           : SERVICE COMPANY
DATE.  2018-09-11 14:48:36   : Log Export Date {yyyy-MM-dd HH:mm:ss}
PROV.           : PROVINCE
UWI.   31/4-10   : UNIQUE WELL ID
API.            : API NUMBER
#==================================================================
~Curve
DEPT .m                   : DEPTH
Lithology_geolink ._      : Lithology_geolink
CALI .in                  : CALI
DRHO .g/cm3               : DRHO
NPHI .m3/m3               : NPHI
RHOB .g/cm3               : RHOB
GR .gAPI                  : GR
DTC .us/ft                : DTC
RDEP .ohm.m               : RDEP
SP .mV                    : SP
RSHA .ohm.m               : RSHA
RMED .ohm.m               : RMED
~Parameter
#==================================================================
~Ascii
# ...
 1260.2952881  -999.250000 12.125120163  -999.250000  -999.250000 2.0606062412 83.620201111 143.39283752 1.2337157726 175.16673279 1.3516868353 1.2123854160
 1260.4477539  -999.250000 12.148610115  -999.250000  -999.250000 2.0672287941 82.816909790 142.20135498 1.3544837236 175.29176331 1.3664417267 1.2264945507
 1260.6000977  -999.250000 12.187580109  -999.250000  -999.250000 2.0690758228 83.433120728 142.29943848 1.3661341667 175.62539673 1.4005541801 1.1701425314
 1260.7525635  -999.250000 12.203100204  -999.250000  -999.250000 2.0663335323 82.680503845 142.22482300 1.3374073505 176.33383179 1.4270658493 1.2790346146
 1260.9049072  -999.250000 12.203100204  -999.250000  -999.250000 2.0303452015 81.693283081 145.78913879 1.2533531189 176.79176331 1.4649753571 1.1853162050
 1261.0572510  -999.250000 12.203020096  -999.250000  -999.250000 2.0493516922 82.698280334 144.10310364 1.2111198902 176.83326721 1.4952495098 1.2739632130
 1261.2097168  -999.250000 12.187500000  -999.250000  -999.250000 2.0527136326 84.458930969 144.60154724 1.2471523285 176.79176331 1.5197067261 1.2355098724
 1261.3620605  -999.250000 12.187500000  -999.250000  -999.250000 2.0697827339 88.192070007 144.89942932 1.3261175156 176.79153442 1.5554502010 1.1854982376
 1261.5145264  -999.250000 12.187500000  -999.250000  -999.250000 2.0746030807 88.947784424 144.79721069 1.3778252602 176.58323669 1.5144461393 1.2669150829
 1261.6668701  -999.250000 12.187580109  -999.250000  -999.250000 2.0906250477 90.769538879 144.30184937 1.3294523954 176.08267212 1.4872645140 1.2345781326
 1261.8193359  -999.250000 12.203020096  -999.250000  -999.250000 2.1105952263 93.978393555 144.60327148 1.2387834787 174.91586304 1.4816117287 1.1485931873
 1261.9716797  -999.250000 12.187500000  -999.250000  -999.250000 2.0784463882 90.231369019 145.19990540 1.1646077633 174.29173279 1.5186749697 1.1638259888
 1262.1241455  -999.250000 12.187500000  -999.250000  -999.250000 2.0603621006 87.107200623 145.20141602 1.1830992699 174.41676331 1.5311748981 1.2012382746
 1262.2764893  -999.250000 12.187500000  -999.250000  -999.250000 2.0460252762 84.623550415 145.39816284 1.2531930208 174.24960327 1.5136308670 1.1372005939
 1262.4289551  -999.250000 12.187589645  -999.250000  -999.250000 2.0476574898 84.402297974 145.09169006 1.3193005323 173.66647339 1.5022479296 1.1878294945
 1262.5812988  -999.250000 12.203100204  -999.250000  -999.250000 2.0791938305 88.229240417 143.90319824 1.2909615040 173.41653442 1.5371000767 1.1638196707
 1262.7337646  -999.250000 12.203020096  -999.250000  -999.250000 2.0552945137 84.711509705 144.39970398 1.2329499722 173.37530518 1.5372568369 1.1670988798
 1262.8861084  -999.250000 12.187580109  -999.250000  -999.250000 2.0730898380 88.103385925 144.40289307 1.1693197489 173.79193115 1.5596394539 1.1527144909
 1263.0384521  -999.250000 12.203020096  -999.250000  -999.250000 2.0494594574 84.404502869 144.90434265 1.1902313232 174.08332825 1.5664298534 1.1558779478
 1263.1909180  -999.250000 12.187620163  -999.250000  -999.250000 2.0674648285 89.165756226 145.59921265 1.2281326056 173.91647339 1.5712559223 1.2655805349
 1263.3432617  -999.250000 12.210860252  -999.250000  -999.250000 2.0484571457 85.378761292 145.49021912 1.3211967945 173.70826721 1.5636415482 1.1578843594
 1263.4957275  -999.250000 12.203100204  -999.250000  -999.250000 2.0660855770 85.968017578 143.88685608 1.3532428741 173.79206848 1.5869269371 1.1882570982
 1263.6480713  -999.250000 12.203100204  -999.250000  -999.250000 2.0620064735 80.359207153 141.47663879 1.3255611658 174.12500000 1.5919173956 1.2331998348
 1263.8005371  -999.250000 12.203100204  -999.250000  -999.250000 2.0825405121 77.726814270 137.65052795 1.2534132004 174.20852661 1.6111034155 1.2006580830
 1263.9528809  -999.250000 12.203020096  -999.250000  -999.250000 2.1319608688 73.601577759 129.08880615 1.3072952032 174.33326721 1.5767167807 1.2980010509
 1264.1053467  -999.250000 12.187580109  -999.250000  -999.250000 2.1290035248 69.690979004 127.10818481 1.3736127615 174.33352661 1.5126659870 1.3317710161
 1264.2576904  -999.250000 12.203020096  -999.250000  -999.250000 2.1222012043 70.205940247 128.33979797 1.4132933617 174.79212952 1.5052525997 1.3629754782
 1264.4101563  -999.250000 12.187580109  -999.250000  -999.250000 2.0826079845 73.378166199 135.44544983 1.5135370493 175.58383179 1.5678601265 1.4256386757
 1264.5625000  -999.250000 12.203020096  -999.250000  -999.250000 2.0607678890 82.637008667 142.71047974 1.5041866302 176.16693115 2.0438685417 1.2907342911
 1264.7149658  -999.250000 12.187459946  -999.250000  -999.250000 2.0506157875 84.684425354 144.80216980 1.3987590075 176.54176331 1.5283347368 1.2959680557
 1264.8673096  -999.250000 12.179699898  -999.250000  -999.250000 2.0461819172 84.243537903 145.09931946 1.2653055191 176.62500000 1.5331939459 1.2062076330
 1265.0197754  -999.250000 12.179660797  -999.250000  -999.250000 2.0422823429 83.142288208 144.99717712 1.1974366903 176.70852661 1.5317393541 1.1557676792
 1265.1721191  -999.250000 12.171939850  -999.250000  -999.250000 2.0568306446 85.612518311 144.60357666 1.2172783613 176.79147339 1.4658837318 1.1656384468
 1265.3244629  -999.250000 12.179739952  -999.250000  -999.250000 2.0414443016 83.421951294 145.19081116 1.2663722038 176.54153442 1.4804999828 1.2074553967
 1265.4769287  -999.250000 12.187500000  -999.250000  -999.250000 2.0443778038 80.861648560 143.69837952 1.3602677584 176.12440491 1.4804558754 1.2328892946
 1265.6292725  -999.250000 12.187500000  -999.250000  -999.250000 2.0389437675 78.537536621 143.30484009 1.3374778032 175.33287048 1.4728924036 1.2131677866
 1265.7817383  -999.250000 12.187459946  -999.250000  -999.250000 2.0572938919 84.769584656 144.09671021 1.2672647238 174.79176331 1.5046130419 1.1256241798
 1265.9340820  -999.250000 12.179739952  -999.250000  -999.250000 2.0807669163 88.333297729 143.61006165 1.1721129417 175.00019836 1.4548215866 1.1981716156
 1266.0865479  -999.250000 12.187459946  -999.250000  -999.250000 2.0854079723 91.809082031 145.30731201 1.1408495903 175.12469482 1.4080973864 1.1602591276
 1266.2388916  -999.250000 12.179660797  -999.250000  -999.250000 2.0665490627 91.321327209 146.80326843 1.1490108967 174.66633606 1.3885840178 1.2040506601
 1266.3913574  -999.250000 12.172069550  -999.250000  -999.250000 2.0705823898 92.828323364 147.39817810 1.2188154459 174.04116821 1.3685653210 1.1113678217
 1266.5437012  -999.250000 12.202789307  -999.250000  -999.250000 2.0882170200 95.054504395 147.19709778 1.2489602566 173.66673279 1.2918063402 1.1205154657
 1266.6961670  -999.250000 12.140680313  -999.250000  -999.250000 2.0833213329 93.685714722 146.69421387 1.1905976534 173.83352661 0.9373217225 1.0375781059
 1266.8485107  -999.250000 12.156380653  -999.250000  -999.250000 2.0896866322 93.417350769 145.89624023 1.1472612619 173.87480164 1.2563058138 1.0064842701
 1267.0009766  -999.250000 12.171899796  -999.250000  -999.250000 2.0743095875 89.923629761 145.20141602 1.0715028048 173.54147339 1.1714675426 1.1079791784
 1267.1533203  -999.250000 12.171899796  -999.250000  -999.250000 2.0603063107 87.918640137 145.39758301 1.0720944405 173.33323669 1.2535282373 1.1909255981
 1267.3056641  -999.250000 12.171899796  -999.250000  -999.250000 2.0481181145 84.620086670 144.99079895 1.1238852739 173.58386230 1.3635545969 1.1080611944
 1267.4581299  -999.250000 12.171899796  -999.250000  -999.250000 2.0581374168 83.824943542 143.49443054 1.2041383982 174.20823669 1.4055143595 1.1022757292
 1267.6104736  -999.250000 12.171899796  -999.250000  -999.250000 2.0786149502 85.975624084 142.40299988 1.3168940544 174.04153442 1.4434404373 1.2378096581
 1267.7629395  -999.250000 12.171899796  -999.250000  -999.250000 2.0546629429 81.923065186 142.90367126 1.3656541109 173.87500000 1.4503371716 1.1899397373
 1267.9152832  -999.250000 12.171899796  -999.250000  -999.250000 2.0384330750 79.322914124 143.60879517 1.3408150673 174.16712952 1.4742122889 1.2480769157
