# LAS format log file from PETREL
# Project units are specified as depth units
#==================================================================
~Version information
VERS.   2.0:
WRAP.   NO:
#==================================================================
~Well
STRT .m      898.43609619 :
STOP .m      2454.1354980 :
STEP .m     0.00000000 :
NULL .        -999.250000 :
COMP.           : COMPANY
WELL.  31/4-6   : WELL
FLD.            : FIELD
LOC.            : LOCATION
SRVC.           : SERVICE COMPANY
DATE.  2018-09-11 14:48:38   : Log Export Date {yyyy-MM-dd HH:mm:ss}
PROV.           : PROVINCE
UWI.   31/4-6   : UNIQUE WELL ID
API.            : API NUMBER
#==================================================================
~Curve
DEPT .m                   : DEPTH
Lithology_geolink ._      : Lithology_geolink
CALI .in                  : CALI
DRHO .g/cm3               : DRHO
NPHI .m3/m3               : NPHI
RHOB .g/cm3               : RHOB
GR .gAPI                  : GR
DTC .us/ft                : DTC
DTE .us/ft                : DTE
RDEP .ohm.m               : RDEP
SP .mV                    : SP
RSHA .ohm.m               : RSHA
RMED .ohm.m               : RMED
~Parameter
#==================================================================
~Ascii
# ...
 1410.5001221  -999.250000 17.702999115 -0.000014423  -999.250000 2.0627419949 53.375000000 145.16586304 146.43801880 0.9160000086 35.549999237  -999.250000 0.9499999881
 1410.6524658  -999.250000 17.812999725 0.0139551647  -999.250000 2.0570569038 48.312999725 146.64999390 147.92895508 0.9200000167 38.174999237  -999.250000 0.8980000019
 1410.8049316  -999.250000 18.047000885 0.0249735583  -999.250000 2.0347709656 50.030998230 148.79801941 150.07562256 0.9240000248 37.174999237  -999.250000 0.8600000143
 1410.9572754  -999.250000 17.875000000 0.0100480383  -999.250000 2.0015544891 51.280998230 150.54624939 151.81657410 0.9219999909 36.299999237  -999.250000 0.8610000014
 1411.1097412  -999.250000 18.343999863 -0.010949519  -999.250000 1.9783250093 51.750000000 150.56210327 151.84494019 0.9110000134 37.299999237  -999.250000 0.8949999809
 1411.2620850  -999.250000 18.233999252 -0.010003203  -999.250000 1.9740782976 51.219001770 149.65245056 150.95658875 0.9110000134 38.299999237  -999.250000 0.9219999909
 1411.4145508  -999.250000 17.672000885 -0.009002403  -999.250000 1.9783416986 47.437999725 148.26130676 149.43130493 0.9190000296 37.674999237  -999.250000 0.9380000234
 1411.5668945  -999.250000 17.593999863 -0.004016013  -999.250000 1.9798587561 47.344001770 146.23878479 147.55291748 0.9279999733 37.049999237  -999.250000 0.9470000267
 1411.7192383  -999.250000 18.031000137 -0.007987180  -999.250000 1.9776132107 42.500000000 144.89062500 146.20089722 0.9330000281 36.799999237  -999.250000 0.9589999914
 1411.8717041  -999.250000 18.562999725 -0.006006405  -999.250000 1.9777951241 44.094001770 144.46604919 145.66751099 0.9340000153 36.674999237  -999.250000 0.9649999738
 1412.0240479  -999.250000 18.312999725 -0.000019231  -999.250000 1.9824452400 47.780998230 144.95388794 146.25811768 0.9330000281 36.424999237  -999.250000 0.9539999962
 1412.1765137  -999.250000 18.266000748 -0.000996797  -999.250000 1.9878661633 51.937999725 146.43301392 147.70074463 0.9269999862 35.174999237  -999.250000 0.9380000234
 1412.3288574  -999.250000 18.297000885 -0.001000000  -999.250000 1.9897565842 52.530998230 148.02775574 149.31327820 0.9229999781 35.549999237  -999.250000 0.9200000167
 1412.4813232  -999.250000 17.750000000 -0.003992788  -999.250000 1.9858012199 49.437999725 149.24038696 150.52082825 0.9169999957 36.674999237  -999.250000 0.9100000262
 1412.6336670  -999.250000 17.750000000 -0.006990393  -999.250000 1.9780660868 51.719001770 150.07464600 151.41950989 0.9129999876 36.674999237  -999.250000 0.9070000052
 1412.7861328  -999.250000 18.375000000 -0.009992789  -999.250000 1.9679874182 47.469001770 150.73587036 152.06936646 0.9169999957 35.674999237  -999.250000 0.8980000019
 1412.9384766  -999.250000 18.687999725 -0.016977582  -999.250000 1.9572640657 50.687999725 150.53633118 151.85879517 0.9169999957 36.549999237  -999.250000 0.9029999971
 1413.0909424  -999.250000 17.687999725 -0.023983173  -999.250000 1.9495458603 45.844001770 149.55853271 150.91004944 0.9219999909 37.174999237  -999.250000 0.8980000019
 1413.2432861  -999.250000 17.922000885 -0.026990393  -999.250000 1.9494073391 52.094001770 148.51037598 149.81504822 0.9279999733 39.299999237  -999.250000 0.9179999828
 1413.3957520  -999.250000 17.827999115 -0.014031250  -999.250000 1.9557708502 48.219001770 147.45626831 148.64633179 0.9419999719 37.549999237  -999.250000 0.9200000167
 1413.5480957  -999.250000 18.156000137 -0.009016013  -999.250000 1.9646857977 48.187999725 146.09939575 147.38142395 0.9649999738 35.174999237  -999.250000 0.9380000234
 1413.7004395  -999.250000 17.937999725 -0.007006411  -999.250000 1.9753451347 42.969001770 145.07954407 146.35659790 0.9900000095 35.549999237  -999.250000 0.9509999752
 1413.8529053  -999.250000 17.531000137 -0.007000000  -999.250000 1.9859445095 41.500000000 143.92034912 145.17002869 1.0110000372 35.174999237  -999.250000 0.9980000257
 1414.0052490  -999.250000 17.593999863 -0.003012821  -999.250000 1.9920132160 39.000000000 141.46574402 142.77722168 1.0279999971 35.674999237  -999.250000 1.0410000086
 1414.1577148  -999.250000 17.968999863 0.0029807847  -999.250000 1.9892807007 36.500000000 138.91732788 140.09056091 1.0269999504 37.674999237  -999.250000 1.0650000572
 1414.3100586  -999.250000 18.077999115 -0.005971154  -999.250000 1.9795869589 38.530998230 137.70422363 138.87612915 1.0119999647 37.174999237  -999.250000 1.1000000238
 1414.4625244  -999.250000 18.108999252 -0.008992788  -999.250000 1.9704844952 40.625000000 139.37158203 140.61264038 0.9929999709 36.424999237  -999.250000 1.0670000315
 1414.6148682  -999.250000 17.593999863 -0.007006405  -999.250000 1.9635642767 45.687999725 144.05335999 145.34732056 0.9639999866 34.549999237  -999.250000 1.0160000324
 1414.7673340  -999.250000 17.625000000 -0.000016827  -999.250000 1.9554518461 42.030998230 149.63143921 150.93824768 0.9459999800 34.424999237  -999.250000 0.9300000072
 1414.9196777  -999.250000 17.687999725 -0.000996797  -999.250000 1.9446171522 43.000000000 154.13967896 155.47268677 0.9290000200 34.049999237  -999.250000 0.8780000210
 1415.0721436  -999.250000 17.766000748 -0.008980769  -999.250000 1.9357124567 44.562999725 156.14608765 157.46501160 0.9179999828 34.049999237  -999.250000 0.8420000076
 1415.2244873  -999.250000 17.577999115 -0.014980785  -999.250000 1.9374771118 47.687999725 155.33825684 156.75801086 0.9049999714 35.174999237  -999.250000 0.8439999819
 1415.3769531  -999.250000 18.047000885 -0.013004808  -999.250000 1.9507124424 46.094001770 152.29138184 153.58969116 0.9060000181 36.424999237  -999.250000 0.8600000143
 1415.5292969  -999.250000 18.141000748 -0.010009607  -999.250000 1.9684889317 43.655998230 147.13952637 148.46186829 0.9079999924 36.174999237  -999.250000 0.8949999809
 1415.6817627  -999.250000 18.047000885 -0.011995193  -999.250000 1.9823124409 42.125000000 142.43811035 143.66732788 0.9089999795 35.799999237  -999.250000 0.9539999962
 1415.8341064  -999.250000 18.108999252 -0.009009607  -999.250000 1.9859052896 42.780998230 140.41212463 141.70095825 0.9129999876 37.674999237  -999.250000 1.0060000420
 1415.9864502  -999.250000 17.983999252 -0.009000000  -999.250000 1.9773417711 42.280998230 141.05032349 142.28486633 0.9160000086 37.799999237  -999.250000 1.0290000439
 1416.1389160  -999.250000 17.766000748 -0.010993595  -999.250000 1.9621522427 43.905998230 143.56578064 144.80632019 0.9129999876 37.424999237  -999.250000 0.9950000048
 1416.2912598  -999.250000 17.531000137 -0.017977564  -999.250000 1.9513679743 45.875000000 147.49964905 148.79911804 0.9070000052 36.549999237  -999.250000 0.9399999976
 1416.4437256  -999.250000 17.500000000 -0.014009615  -999.250000 1.9509117603 46.312999725 151.16304016 152.48138428 0.8980000019 36.424999237  -999.250000 0.8840000033
 1416.5960693  -999.250000 17.608999252 -0.013003203  -999.250000 1.9539585114 46.280998230 153.56224060 154.88046265 0.8899999857 36.049999237  -999.250000 0.8560000062
 1416.7485352  -999.250000 17.625000000 -0.010007211  -999.250000 1.9529256821 45.250000000 154.91383362 156.34729004 0.8859999776 35.299999237  -999.250000 0.8289999962
 1416.9008789  -999.250000 17.250000000 -0.021961570  -999.250000 1.9500980377 43.719001770 154.91265869 156.19404602 0.8909999728 35.424999237  -999.250000 0.8270000219
 1417.0533447  -999.250000 17.327999115 -0.015016827  -999.250000 1.9541457891 41.655998230 152.10267639 153.39909363 0.8999999762 35.924999237  -999.250000 0.8479999900
 1417.2056885  -999.250000 17.875000000 -0.011012810  -999.250000 1.9642983675 35.469001770 147.13992310 148.46455383 0.9089999795 36.299999237  -999.250000 0.8949999809
 1417.3581543  -999.250000 18.687999725 0.0039639426  -999.250000 1.9720875025 37.625000000 142.43811035 143.74664307 0.9240000248 37.174999237  -999.250000 0.9729999900
 1417.5104980  -999.250000 17.733999252 0.0040000002  -999.250000 1.9724044800 37.594001770 140.51007080 141.65911865 0.9350000024 36.424999237  -999.250000 1.0349999666
 1417.6629639  -999.250000 18.358999252 0.0099855764  -999.250000 1.9705876112 42.250000000 141.79718018 143.00492859 0.9430000186 36.424999237  -999.250000 1.0319999456
