# LAS format log file from PETREL
# Project units are specified as depth units
#==================================================================
~Version information
VERS.   2.0:
WRAP.   NO:
#==================================================================
~Well
STRT .m      895.02691650 :
STOP .m      2933.5300293 :
STEP .m     0.00000000 :
NULL .        -999.250000 :
COMP.           : COMPANY
WELL.  31/4-5   : WELL
FLD.            : FIELD
LOC.            : LOCATION
SRVC.           : SERVICE COMPANY
DATE.  2018-09-11 14:48:38   : Log Export Date {yyyy-MM-dd HH:mm:ss}
PROV.           : PROVINCE
UWI.   31/4-5   : UNIQUE WELL ID
API.            : API NUMBER
#==================================================================
~Curve
DEPT .m                   : DEPTH
Lithology_geolink ._      : Lithology_geolink
CALI .in                  : CALI
DRHO .g/cm3               : DRHO
SGR .gAPI                 : SGR
NPHI .m3/m3               : NPHI
RHOB .g/cm3               : RHOB
PEF .b/e                  : PEF
GR .gAPI                  : GR
DTC .us/ft                : DTC
DTE .us/ft                : DTE
RDEP .ohm.m               : RDEP
SP .mV                    : SP
RSHA .ohm.m               : RSHA
RMIC .ohm.m               : RMIC
RMED .ohm.m               : RMED
~Parameter
#==================================================================
~Ascii
# ...
 1435.8946533  -999.250000 18.520999908 -0.004003203  -999.250000  -999.250000 2.0617389679  -999.250000 92.083000183 145.83659363 144.97932434 0.9886168838 116.69570160 0.9992606640  -999.250000 0.9999207258
 1436.0471191  -999.250000 18.533000946 -0.008987980  -999.250000  -999.250000 2.0597183704  -999.250000 85.469001770 145.60997009 144.67437744 0.9862784147 115.88053131 1.0717499256  -999.250000 1.0748798847
 1436.1994629  -999.250000 18.562000275 -0.005012810  -999.250000  -999.250000 2.0625717640  -999.250000 87.680000305 145.60652161 144.60533142 1.0281965733 116.18935394 1.0510560274  -999.250000 1.0500600338
 1436.3519287  -999.250000 18.611999512 -0.003004808  -999.250000  -999.250000 2.0736043453  -999.250000 89.427001953 145.90802002 145.04335022 1.0401698351 116.88252258 1.0232019424  -999.250000 1.0220447779
 1436.5042725  -999.250000 18.686000824 -0.003000000  -999.250000  -999.250000 2.0862545967  -999.250000 88.246002197 145.66592407 144.68313599 1.0410000086 116.80050659 0.9804546237  -999.250000 0.9791032672
 1436.6567383  -999.250000 18.367000580 -0.010980769  -999.250000  -999.250000 2.0961034298  -999.250000 89.155998230 144.00726318 143.12568665 0.9953940511 116.74385834 0.9583132863  -999.250000 0.9580336809
 1436.8090820  -999.250000 18.190000534 -0.008009608  -999.250000  -999.250000 2.1016268730  -999.250000 86.388000488 142.79985046 141.85453796 0.9604457617 116.64719391 0.9659453034  -999.250000 0.9659872055
 1436.9615479  -999.250000 18.461999893 0.0069639427  -999.250000  -999.250000 2.0997149944  -999.250000 92.370002747 142.42251587 141.46818542 0.9178094268 116.51580048 0.9522216916  -999.250000 0.9520224333
 1437.1138916  -999.250000 18.672000885 0.0149743790  -999.250000  -999.250000 2.0904748440  -999.250000 93.510002136 143.18801880 142.30819702 0.9048575163 116.51569366 0.9738472104  -999.250000 0.9749631882
 1437.2662354  -999.250000 18.853000641 0.0000480769  -999.250000  -999.250000 2.0818421841  -999.250000 93.046997070 144.24212646 143.31890869 0.9227280021 116.67765808 0.9800609350  -999.250000 0.9799880385
 1437.4187012  -999.250000 18.959999084 -0.003987190  -999.250000  -999.250000 2.0817584991  -999.250000 89.504997253 145.21612549 144.30390930 0.8994909525 116.39754486 0.9787489772  -999.250000 0.9790015817
 1437.5710449  -999.250000 18.913000107 -0.003003205  -999.250000  -999.250000 2.0873649120  -999.250000 82.828002930 145.46745300 144.66708374 0.8994356394 116.05718231 0.9746456742  -999.250000 0.9740119576
 1437.7235107  -999.250000 18.903999329 -0.003000000  -999.250000  -999.250000 2.0946080685  -999.250000 84.083000183 144.38804626 143.43730164 0.9059224725 115.81296539 0.9672409296  -999.250000 0.9670112133
 1437.8758545  -999.250000 19.090999603 -0.001006405  -999.250000  -999.250000 2.1042733192  -999.250000 81.786003113 143.07273865 142.08149719 0.9080280662 115.72511292 0.9641585350  -999.250000 0.9640071988
 1438.0283203  -999.250000 19.030000687 0.0109711541  -999.250000  -999.250000 2.1144585609  -999.250000 81.333000183 141.86883545 140.97044373 0.9116430283 115.65617371 0.9668772221  -999.250000 0.9669951797
 1438.1806641  -999.250000 18.781999588 0.0119967973  -999.250000  -999.250000 2.1218886375  -999.250000 78.966003418 141.26852417 140.27841187 0.8923296332 115.47854614 0.9767444730  -999.250000 0.9769759774
 1438.3331299  -999.250000 18.941999435 0.0050168270  -999.250000  -999.250000 2.1284539700  -999.250000 82.245002747 140.40014648 139.58035278 0.9012684822 116.12316895 0.9831920862  -999.250000 0.9829903841
 1438.4854736  -999.250000 18.982999802 0.0040032025  -999.250000  -999.250000 2.1370503902  -999.250000 85.252998352 139.43618774 138.50627136 0.9006822109 116.52678680 0.9989585280  -999.250000 0.9999591708
 1438.6379395  -999.250000 18.868000031 0.0109831728  -999.250000  -999.250000 2.1421918869  -999.250000 93.578002930 138.88633728 137.95315552 0.8702644110 115.61193848 0.9781697392  -999.250000 0.9770368338
 1438.7902832  -999.250000 19.058000565 0.0139903929  -999.250000  -999.250000 2.1369433403  -999.250000 96.831001282 141.01185608 140.14636230 0.8915832043 115.00218964 0.9750980139  -999.250000 0.9750048518
 1438.9427490  -999.250000 19.013999939 0.0179903843  -999.250000  -999.250000 2.1228783131  -999.250000 99.411003113 144.13327026 143.18261719 0.9397789240 115.96910095 0.9634774923  -999.250000 0.9630192518
 1439.0950928  -999.250000 18.875000000 0.0120192152  -999.250000  -999.250000 2.1099970341  -999.250000 90.916999817 146.15444946 145.23489380 0.9746132493 115.96592712 0.9619140029  -999.250000 0.9620016217
 1439.2474365  -999.250000 18.798999786 0.0189775638  -999.250000  -999.250000 2.1123590469  -999.250000 88.864997864 145.44337463 144.57696533 0.9952854514 115.52627563 0.9537445903  -999.250000 0.9530216455
 1439.3999023  -999.250000 18.718000412 -0.006916733  -999.250000  -999.250000 2.1510362625  -999.250000 82.504997253 138.34725952 137.37550354 1.1282917261 115.04489136 0.9268350005  -999.250000 0.9260432720
 1439.5522461  -999.250000 19.162000656 -0.044878207  -999.250000  -999.250000 2.2500066757  -999.250000 78.786003113 123.30772400 122.36869812 1.2032395601 114.71025848 1.0102208853  -999.250000 1.0137887001
 1439.7047119  -999.250000 19.274000168 -0.045996796  -999.250000  -999.250000 2.3842291832  -999.250000 69.791999817 112.37682343 111.47827911 1.1000312567 114.45692444 1.2430568933  -999.250000 1.2526170015
 1439.8570557  -999.250000 18.488000870 0.0267660264  -999.250000  -999.250000 2.4472887516  -999.250000 72.094001770 108.68533325 107.71964264 1.0524173975 114.51539612 1.8101714849  -999.250000 1.8306093216
 1440.0095215  -999.250000 18.267000198 0.1018197089  -999.250000  -999.250000 2.3675007820  -999.250000 78.963996887 111.88421631 110.97290802 1.0999615192 114.76826477 1.7790768147  -999.250000 1.7740930319
 1440.1618652  -999.250000 18.916999817 0.0501665324  -999.250000  -999.250000 2.2152948380  -999.250000 86.718002319 124.56593323 123.72898865 1.0929101706 115.07423401 1.3202924728  -999.250000 1.3031337261
 1440.3143311  -999.250000 19.266000748 -0.003870192  -999.250000  -999.250000 2.1048893929  -999.250000 85.370002747 140.89491272 139.93487549 1.1623942852 114.94728851 0.9710111618  -999.250000 0.9595496655
 1440.4666748  -999.250000 19.413000107 -0.010977582  -999.250000  -999.250000 2.0680620670  -999.250000 89.595001221 148.38420105 147.48027039 1.1834491491 114.77252960 0.8659044504  -999.250000 0.8632305861
 1440.6191406  -999.250000 19.731000900 -0.006012019  -999.250000  -999.250000 2.0719871521  -999.250000 90.000000000 147.40400696 146.48651123 1.0545512438 114.72508240 0.8702750206  -999.250000 0.8709871769
 1440.7714844  -999.250000 19.534000397 0.0009775821  -999.250000  -999.250000 2.0880975723  -999.250000 94.808998108 144.83824158 143.87101746 0.9644211531 114.52574921 0.9258238077  -999.250000 0.9278630614
 1440.9239502  -999.250000 19.326999664 0.0029951923  -999.250000  -999.250000 2.1055839062  -999.250000 91.870002747 139.90637207 139.04066467 0.9369441867 114.56227875 0.9692568779  -999.250000 0.9709311128
 1441.0762939  -999.250000 19.777000427 0.0209423527  -999.250000  -999.250000 2.1132659912  -999.250000 91.563003540 136.75547791 135.79367065 0.9126387239 114.53442383 1.0136461258  -999.250000 1.0149294138
 1441.2286377  -999.250000 20.058000565 0.0249871798  -999.250000  -999.250000 2.1017096043  -999.250000 90.188003540 141.80232239 140.84150696 0.8950481415 114.31637573 1.0295673609  -999.250000 1.0299639702
 1441.3811035  -999.250000 19.718999863 0.0030704564  -999.250000  -999.250000 2.0772356987  -999.250000 92.010002136 144.16525269 143.32431030 0.8969367146 113.76718140 1.0318806171  -999.250000 1.0319967270
 1441.5334473  -999.250000 19.384000778 -0.008971130  -999.250000  -999.250000 2.0583302975  -999.250000 94.078002930 145.91519165 144.98323059 0.9284197092 114.24530029 0.9750113487  -999.250000 0.9731417298
 1441.6859131  -999.250000 19.658000946 -0.013991987  -999.250000  -999.250000 2.0578491688  -999.250000 95.625000000 148.40554810 147.46583557 0.9412179589 114.70808411 0.9229917526  -999.250000 0.9210833311
