# LAS format log file from PETREL
# Project units are specified as depth units
#==================================================================
~Version information
VERS.   2.0:
WRAP.   NO:
#==================================================================
~Well
STRT .m      950.21093750 :
STOP .m      2894.8349609 :
STEP .m     0.00000000 :
NULL .        -999.250000 :
COMP.           : COMPANY
WELL.  31/4-2   : WELL
FLD.            : FIELD
LOC.            : LOCATION
SRVC.           : SERVICE COMPANY
DATE.  2018-09-11 14:48:36   : Log Export Date {yyyy-MM-dd HH:mm:ss}
PROV.           : PROVINCE
UWI.   31/4-2   : UNIQUE WELL ID
API.            : API NUMBER
#==================================================================
~Curve
DEPT .m                   : DEPTH
Lithology_geolink ._      : Lithology_geolink
CALI .in                  : CALI
DRHO .g/cm3               : DRHO
NPHI .m3/m3               : NPHI
RHOB .g/cm3               : RHOB
GR .gAPI                  : GR
DTC .us/ft                : DTC
DTE .us/ft                : DTE
RDEP .ohm.m               : RDEP
SP .mV                    : SP
RSHA .ohm.m               : RSHA
RMED .ohm.m               : RMED
~Parameter
#==================================================================
~Ascii
# ...
 2757.0651855 5.0000000000 11.965999603 -0.004000000 0.2462415397 2.4114623070 51.277999878 83.411773682 83.494125366 2.0989983082 48.593132019 2.6935048103 2.6935048103
 2757.2177734 5.0000000000 11.968000412 -0.009000000 0.2347397655 2.4272203445 50.674999237 82.127265930 82.226768494 2.0977313519 48.050659180 3.0090751648 3.0090751648
 2757.3701172 5.0000000000 11.968999863 0.0010000000 0.2315456122 2.4348564148 51.390998840 80.257453918 80.505958557 2.0137898922 47.632621765 3.3441298008 3.3441298008
 2757.5224609 5.0000000000 11.970998764 -0.008000000 0.2288092822 2.4296751022 51.763000488 79.243812561 79.010597229 1.8828493357 47.398151398 3.4243173599 3.4243173599
 2757.6748047 5.0000000000 11.972000122 -0.013000000 0.2283529639 2.4233937263 49.648998260 79.184188843 79.066322327 1.7888542414 47.493484497 2.9977517128 2.9977517128
 2757.8273926 5.0000000000 11.972999573 -0.012000000 0.2302232236 2.4137177467 47.657001495 80.851531982 80.742691040 1.6977119446 47.794994354 2.2184960842 2.2184960842
 2757.9797363 5.0000000000 11.975000381 -0.015000000 0.2343516499 2.3891000748 46.476001740 82.872932434 82.818969727 1.6078317165 47.793449402 1.7497788668 1.7497788668
 2758.1320801 5.0000000000 11.975999832 -0.012000000 0.2416144311 2.3591876030 43.898998260 84.341857910 84.333656311 1.5028542280 47.451225281 1.6120496988 1.6120496988
 2758.2844238 5.0000000000 11.977999687 -0.017999999 0.2443739325 2.3441751003 40.541000366 84.431297302 84.334403992 1.4118669033 46.968185425 1.6431875229 1.6431875229
 2758.4367676 5.0000000000 11.979000092 -0.017999999 0.2406054437 2.3469562531 39.518001556 82.965240479 83.233207703 1.3289214373 46.458580017 1.7600705624 1.7600705624
 2758.5893555 3.0000000000 11.980998993 -0.018999999 0.2439686805 2.3506691456 38.497001648 82.668914795 82.413497925 1.2799488306 46.198001862 1.8040000200 1.8040000200
 2758.7416992 3.0000000000 11.982000351 -0.028000001 0.2342046350 2.3493998051 38.824001312 82.084388733 82.017669678 1.2640177011 46.198131561 1.8040000200 1.8040000200
 2758.8940430 3.0000000000 11.984001160 -0.029999999 0.2308610827 2.3511750698 39.410999298 81.599113464 81.678939819 1.2750111818 46.280319214 1.8040000200 1.8040000200
 2759.0463867 3.0000000000 11.986000061 -0.030999999 0.2315174043 2.3603937626 39.418998718 81.446952820 81.686401367 1.2819663286 46.480064392 1.8040080070 1.8040080070
 2759.1989746 3.0000000000 11.987000465 -0.026000001 0.2236400247 2.3717823029 38.483001709 81.561157227 81.686523438 1.2609040737 46.520084381 1.8090192080 1.8090192080
 2759.3513184 3.0000000000 11.989000320 -0.022000000 0.2142899930 2.3709063530 37.276000977 81.569297791 81.439178467 1.2309262753 46.234035492 1.8149840832 1.8149840832
 2759.5036621 3.0000000000 11.989999771 -0.022000000 0.2080524713 2.3573937416 36.018001556 81.122024536 81.370384216 1.1848717928 45.632556915 1.8048444986 1.8048444986
 2759.6560059 3.0000000000 11.991999626 -0.028999999 0.2095997334 2.3479685783 36.393001556 81.986671448 81.670455933 1.1048493385 45.357448578 1.7078541517 1.7078541517
 2759.8085938 3.0000000000 11.994001389 -0.035999998 0.2156897634 2.3401803970 36.220001221 82.369766235 82.345703125 1.0107887983 45.013950348 1.6164752245 1.6164752245
 2759.9609375 3.0000000000 11.994999886 -0.039999999 0.2249811590 2.3214187622 35.209999084 82.962234497 83.223205566 0.9449054599 44.998287201 1.4526858330 1.4526858330
 2760.1132813 3.0000000000 11.996999741 -0.044000000 0.2381665558 2.3038873672 34.111000061 84.789146423 84.480117798 0.8859406710 45.176765442 1.2568268776 1.2568268776
 2760.2656250 3.0000000000 11.997999191 -0.037000000 0.2422521412 2.3038313389 33.631000519 86.249961853 86.287734985 0.8489599228 45.654697418 1.1488878727 1.1488878727
 2760.4179688 3.0000000000 12.000000000 -0.035999998 0.2435819805 2.3072695732 32.227001190 87.547393799 87.700386047 0.8239343762 45.466308594 1.0789583921 1.0789583921
 2760.5705566 3.0000000000 12.000000000 -0.039000001 0.2448190600 2.2978436947 32.639999390 88.341651917 88.263946533 0.7829326987 44.410976410 1.0529807806 1.0529807806
 2760.7229004 3.0000000000 12.000000000 -0.037000000 0.2442254722 2.2845437527 33.223999023 88.703536987 88.533912659 0.7409679294 44.396999359 1.0409823656 1.0409823656
 2760.8752441 3.0000000000 12.000000000 -0.039000001 0.2413976490 2.2757310867 33.388000488 88.724502563 88.920669556 0.7209984064 44.396247864 1.0299599171 1.0299599171
 2761.0275879 3.0000000000 12.001001358 -0.039999999 0.2399499267 2.2712624073 33.794998169 89.484352112 89.238365173 0.7200224400 44.550292969 1.0049808025 1.0049808025
 2761.1801758 3.0000000000 12.001001358 -0.041000001 0.2461504042 2.2720313072 34.228000641 89.222312927 89.229591370 0.7341024280 44.735706329 0.9929999709 0.9929999709
 2761.3325195 3.0000000000 12.001001358 -0.037000000 0.2493818849 2.2776312828 34.555000305 89.201499939 89.401138306 0.7660816908 45.268115997 0.9930320382 0.9930320382
 2761.4848633 3.0000000000 12.001001358 -0.034000002 0.2443292439 2.2808125019 35.898998260 90.095878601 89.930290222 0.8170769215 45.965667725 1.0130577087 1.0130577087
 2761.6372070 3.0000000000 12.001999855 -0.033000000 0.2438632101 2.2833437920 37.640998840 89.708312988 89.977645874 0.8650512695 46.380676270 1.0491987467 1.0491987467
 2761.7897949 3.0000000000 12.001999855 -0.032000002 0.2458864748 2.2939074039 38.705001831 89.097366333 88.958953857 0.8970544338 46.178230286 1.1737424135 1.1737424135
 2761.9421387 3.0000000000 12.001999855 -0.035999998 0.2510169446 2.3145687580 40.160999298 87.403732300 87.326881409 0.9140143991 45.937900543 1.4052419662 1.4052419662
 2762.0944824 3.0000000000 12.001999855 -0.034000002 0.2491176575 2.3377437592 39.162998199 85.951835632 85.835945129 0.9229983687 45.874862671 1.5559823513 1.5559823513
 2762.2468262 3.0000000000 12.003000259 -0.027000001 0.2414207160 2.3496999741 37.751998901 84.968025208 84.912216187 0.9219711423 45.788421631 1.5448044538 1.5448044538
 2762.3994141 3.0000000000 12.003000259 -0.024000000 0.2356400490 2.3454306126 37.370998383 84.334403992 84.598213196 0.9038879871 45.426868439 1.4225968122 1.4225968122
 2762.5517578 3.0000000000 12.003000259 -0.021000000 0.2356763035 2.3300998211 36.918998718 84.870140076 84.986007690 0.8689215183 45.385951996 1.2968013287 1.2968013287
 2762.7041016 3.0000000000 12.003000259 -0.023000000 0.2458422333 2.3095061779 34.855998993 86.697143555 86.423751831 0.8199214935 45.353786469 1.1728141308 1.1728141308
 2762.8564453 3.0000000000 12.003000259 -0.027000001 0.2534742057 2.2847626209 33.015998840 88.157958984 88.379951477 0.7709407210 45.219741821 1.0568237305 1.0568237305
 2763.0087891 3.0000000000 12.000000000 -0.027000001 0.2623222172 2.2609813213 34.291000366 89.900962830 89.653755188 0.7340064645 45.058441162 0.9469615817 0.9469615817
 2763.1613770 3.0000000000 11.991999626 -0.023000000 0.2699333727 2.2477800846 33.084999084 89.699256897 89.940238953 0.7381951809 45.334712982 0.9232111573 0.9232111573
 2763.3137207 3.0000000000 11.984001160 -0.032000002 0.2709611356 2.2500000000 33.499000549 90.125686646 89.876571655 0.7991394401 45.868499756 0.9890272617 0.9890272617
 2763.4660645 3.0000000000 11.975999832 -0.022000000 0.2591804266 2.2660439014 35.077999115 89.708312988 89.727493286 0.8861618638 46.179000854 1.0058878660 1.0058878660
 2763.6184082 3.0000000000 11.968000412 -0.013000000 0.2407361716 2.2881937027 36.472000122 88.469688416 88.782928467 0.9872163534 46.178501129 0.9359695315 0.9359695315
 2763.7709961 3.0000000000 11.960000038 -0.005000000 0.2258557081 2.3118209839 37.560001373 85.891235352 85.664398193 1.1224319935 46.492301941 0.9172207713 0.9172207713
 2763.9233398 3.0000000000 11.951999664 -0.004000000 0.2151418179 2.3457374573 38.733001709 80.040191650 80.279525757 1.2578140497 47.210250854 0.9867563844 0.9867563844
 2764.0756836 3.0000000000 11.963000298 -0.010000000 0.1975436658 2.4057438374 39.929000854 74.742042542 74.609382629 1.7658252716 47.990283966 1.4602836370 1.4602836370
 2764.2280273 3.0000000000 12.032000542 -0.003000000 0.1686517149 2.4785060883 41.498001099 69.942031860 69.913772583 2.2809295654 48.792072296 2.8867595196 2.8867595196
