# LAS format log file from PETREL
# Project units are specified as depth units
#==================================================================
~Version information
VERS.   2.0:
WRAP.   NO:
#==================================================================
~Well
STRT .m      898.43609619 :
STOP .m      2454.1354980 :
STEP .m     0.00000000 :
NULL .        -999.250000 :
COMP.           : COMPANY
WELL.  31/4-6   : WELL
FLD.            : FIELD
LOC.            : LOCATION
SRVC.           : SERVICE COMPANY
DATE.  2018-09-11 14:48:38   : Log Export Date {yyyy-MM-dd HH:mm:ss}
PROV.           : PROVINCE
UWI.   31/4-6   : UNIQUE WELL ID
API.            : API NUMBER
#==================================================================
~Curve
DEPT .m                   : DEPTH
Lithology_geolink ._      : Lithology_geolink
CALI .in                  : CALI
DRHO .g/cm3               : DRHO
NPHI .m3/m3               : NPHI
RHOB .g/cm3               : RHOB
GR .gAPI                  : GR
DTC .us/ft                : DTC
DTE .us/ft                : DTE
RDEP .ohm.m               : RDEP
SP .mV                    : SP
RSHA .ohm.m               : RSHA
RMED .ohm.m               : RMED
~Parameter
#==================================================================
~Ascii
# ...
 2237.1179199 5.0000000000 12.602000237 -0.005000000 0.3027299941 2.3073706627 74.314308167 101.23149109 96.792694092 1.6530047655 42.275001526  -999.250000 1.7550561428
 2237.2702637 5.0000000000 12.538999557 -0.005998400 0.3099284470 2.3116707802 75.128601074 100.56177521 96.090820313 1.6560592651 42.150001526  -999.250000 1.7900784016
 2237.4226074 6.0000000000 12.421999931 -0.007996796 0.3097502887 2.3175041676 77.375000000 99.669097900 95.037620544 1.6929999590 42.275001526  -999.250000 1.8389999866
 2237.5749512 6.0000000000 12.421999931 -0.012991987 0.3014633060 2.3156208992 78.438003540 98.578674316 94.022163391 1.7810000181 42.775001526  -999.250000 1.9789999723
 2237.7275391 6.0000000000 12.500000000 -0.017000001 0.2887600064 2.3241081238 76.997894287 98.331672668 93.831550598 1.9051746130 42.400001526  -999.250000 2.1350030899
 2237.8798828 6.0000000000 12.516000748 -0.016001601 0.2892492115 2.3365845680 75.688606262 98.466842651 93.859298706 2.0142095089 42.900001526  -999.250000 2.1369409561
 2238.0322266 6.0000000000 12.516000748 -0.014003205 0.2959492505 2.3466999531 76.063003540 97.529304504 93.021835327 2.1449999809 42.900001526  -999.250000 2.0999999046
 2238.1845703 6.0000000000 12.516000748 -0.010006410 0.2908981442 2.3576707840 76.813003540 94.547950745 90.017150879 2.2599999905 43.275001526  -999.250000 2.2049999237
 2238.3371582 6.0000000000 12.516000748 -0.012000000 0.2609900236 2.3854677677 75.181190491 90.243789673 85.700607300 2.3300657272 43.275001526  -999.250000 2.6546459198
 2238.4895020 6.0000000000 12.516000748 -0.010000000 0.2401700020 2.4200866222 70.933898926 89.997802734 85.490409851 2.3710625172 43.025001526  -999.250000 3.0562386513
 2238.6418457 5.0000000000 12.562999725 -0.006006400 0.2565737069 2.4369833469 68.378501892 92.126731873 87.591308594 2.4100975990 43.650001526  -999.250000 2.5815775394
 2238.7941895 5.0000000000 12.616999626 -0.001008013 0.2908450365 2.4187917709 70.563003540 96.287055969 91.736488342 2.4709999561 43.212001801  -999.250000 2.3180000782
 2238.9467773 5.0000000000 12.616999626 0.0000000000 0.3125000000 2.3967325687 72.753608704 98.942001343 94.502113342 2.4979567528 45.337001801  -999.250000 2.2601554394
 2239.0991211 5.0000000000 12.711000443 0.0010000000 0.3128100038 2.3915956020 75.000297546 99.612442017 94.978584290 2.4709053040 45.587001801  -999.250000 2.3572101593
 2239.2514648 5.0000000000 12.711000443 0.0029968000 0.3201782107 2.4070458412 75.188499451 99.331245422 94.722129822 2.4119598866 44.837001801  -999.250000 2.4883406162
 2239.4038086 5.0000000000 12.758000374 0.0049967947 0.3153078556 2.4175581932 75.500000000 99.457199097 94.925575256 2.3870000839 44.837001801  -999.250000 2.7009999752
 2239.5561523 5.0000000000 12.796999931 -0.000990385 0.3131734133 2.4187791348 76.250000000 99.606285095 95.065696716 2.4040000439 45.212001801  -999.250000 2.7929999828
 2239.7087402 5.0000000000 12.796999931 -0.006000000 0.3040200174 2.4174928665 74.624595642 100.23912048 95.788314819 2.4340529442 45.837001801  -999.250000 2.7699358463
 2239.8610840 5.0000000000 12.796999931 -0.008995200 0.3227799237 2.4205191135 74.373703003 100.32250977 95.839622498 2.4670624733 45.587001801  -999.250000 2.7299408913
 2240.0134277 5.0000000000 12.796999931 -0.003009615 0.3320851028 2.4203083515 73.563003540 99.347969055 94.781906128 2.5060000420 45.587001801  -999.250000 2.6930000782
 2240.1657715 5.0000000000 12.805000305 -0.004996795 0.3240429461 2.4148960114 74.438003540 97.082115173 92.567687988 2.5590000153 45.962001801  -999.250000 2.6519999504
 2240.3183594 5.0000000000 12.897998810 -0.002000000 0.3022499979 2.4277787209 73.875404358 92.993881226 88.574295044 2.6090784073 46.462001801  -999.250000 2.7363381386
 2240.4707031 5.0000000000 12.897998810 0.0000000000 0.2843600214 2.4658367634 74.126907349 91.228675842 86.785362244 2.6580560207 46.775001526  -999.250000 2.9470353127
 2240.6230469 5.0000000000 12.944999695 0.0019968001 0.2975887954 2.5044875145 75.314605713 92.205596924 87.753936768 2.6930384636 47.150001526  -999.250000 2.9689521790
 2240.7753906 5.0000000000 13.008000374 0.0010016026 0.3053475618 2.5094082355 76.313003540 94.905746460 90.461082458 2.7170000076 47.525001526  -999.250000 2.9389998913
 2240.9279785 5.0000000000 13.086000443 -0.003000000 0.3232400119 2.4840726852 75.872093201 97.899719238 93.639877319 2.7680656910 47.650001526  -999.250000 2.9280369282
 2241.0803223 5.0000000000 13.086000443 0.0020000001 0.3124400079 2.4628071785 74.062805176 99.185516357 94.648574829 2.8089969158 47.775001526  -999.250000 2.9511873722
 2241.2326660 5.0000000000 13.147999763 0.0069920002 0.3126796186 2.4556334019 73.936302185 98.894309998 94.455917358 2.8069839478 47.587001801  -999.250000 3.0680353642
 2241.3850098 5.0000000000 13.187999725 0.0050032050 0.2967755198 2.4500958920 72.875000000 98.264701843 93.770446777 2.7969999313 48.150001526  -999.250000 3.0899999142
 2241.5373535 5.0000000000 13.187999725 0.0030032052 0.3115063012 2.4436707497 74.375000000 98.314392090 93.693458557 2.7850000858 48.400001526  -999.250000 3.0639998913
 2241.6899414 5.0000000000 13.187999725 -0.005000000 0.3259299994 2.4355149269 74.689407349 98.470108032 93.914978027 2.7749631405 48.150001526  -999.250000 3.0429871082
 2241.8422852 5.0000000000 13.187999725 -0.005998400 0.3404267430 2.4363229275 75.557006836 98.478607178 93.951454163 2.7519936562 48.212001801  -999.250000 3.0350193977
 2241.9946289 5.0000000000 13.187999725 -0.007996796 0.3358773589 2.4361290932 71.813003540 98.980201721 94.387908936 2.7479999065 47.837001801  -999.250000 3.0469999313
 2242.1469727 5.0000000000 13.265998840 -0.005004807 0.3298397064 2.4408833981 72.438003540 98.980201721 94.545211792 2.7339999676 47.775001526  -999.250000 3.0610001087
 2242.2995605 5.0000000000 13.272999763 -0.005000000 0.3431999981 2.4406123161 74.192207336 98.980201721 94.517601013 2.7129807472 48.025001526  -999.250000 3.0699934959
 2242.4519043 5.0000000000 13.272999763 -0.008000000 0.3443599939 2.4368908405 76.812500000 99.046836853 94.502197266 2.7009806633 46.337001801  -999.250000 3.0660030842
 2242.6042480 6.0000000000 13.272999763 -0.012992000 0.3429622352 2.4320125580 76.500198364 99.331245422 94.787178040 2.6889758110 51.087001801  -999.250000 3.0679600239
 2242.7565918 6.0000000000 13.272999763 -0.009006410 0.3252784014 2.4351418018 76.625000000 99.357826233 94.857337952 2.6740000248 48.337001801  -999.250000 3.0429999828
 2242.9091797 6.0000000000 13.319999695 -0.004000000 0.3265999854 2.4349851608 76.186798096 98.980201721 94.585021973 2.6539440155 47.712001801  -999.250000 3.0209004879
 2243.0615234 6.0000000000 13.374999046 -0.001000000 0.3250100017 2.4337160587 75.437705994 98.947021484 94.491867065 2.6189758778 47.462001801  -999.250000 2.9589054585
 2243.2138672 6.0000000000 13.374999046 -0.001998400 0.3349540830 2.4330666065 75.252899170 98.705818176 94.187416077 2.6039872169 47.775001526  -999.250000 2.8999440670
 2243.3662109 5.0000000000 13.305000305 -0.005993590 0.3381349146 2.4312164783 77.063003540 98.115638733 93.578514099 2.5959999561 47.962001801  -999.250000 2.8650000095
 2243.5185547 5.0000000000 13.288999557 -0.006000000 0.3311212659 2.4252290726 77.375000000 97.549209595 93.086448669 2.6070001125 48.025001526  -999.250000 2.8359999657
 2243.6711426 5.0000000000 13.281000137 -0.012000000 0.3138400018 2.4092836380 76.682594299 97.466445923 92.994842529 2.6270849705 47.587001801  -999.250000 2.8300158978
 2243.8234863 5.0000000000 13.272999763 -0.012000000 0.2927537858 2.4035563469 73.314804077 97.187629700 92.638557434 2.6801087856 47.837001801  -999.250000 2.8400783539
 2243.9758301 5.0000000000 13.272999763 -0.011001603 0.3024144471 2.4059417248 74.438003540 97.559135437 92.995643616 2.7479999065 48.087001801  -999.250000 2.8889999390
 2244.1281738 5.0000000000 13.374999046 -0.011998397 0.3157186508 2.4102749825 74.188003540 98.652282715 94.145927429 2.8159999847 48.212001801  -999.250000 2.9260001183
 2244.2807617 5.0000000000 13.374999046 -0.012000000 0.3323400021 2.4117000103 76.747795105 99.369010925 94.943923950 2.9001636505 49.712001801  -999.250000 2.9841473103
