# LAS format log file from PETREL
# Project units are specified as depth units
#==================================================================
~Version information
VERS.   2.0:
WRAP.   NO:
#==================================================================
~Well
STRT .m      996.03363037 :
STOP .m      2328.0097656 :
STEP .m     0.00000000 :
NULL .        -999.250000 :
COMP.           : COMPANY
WELL.  31/4-10   : WELL
FLD.            : FIELD
LOC.            : LOCATION
SRVC.           : SERVICE COMPANY
DATE.  2018-09-11 14:48:36   : Log Export Date {yyyy-MM-dd HH:mm:ss}
PROV.           : PROVINCE
UWI.   31/4-10   : UNIQUE WELL ID
API.            : API NUMBER
#==================================================================
~Curve
DEPT .m                   : DEPTH
Lithology_geolink ._      : Lithology_geolink
CALI .in                  : CALI
DRHO .g/cm3               : DRHO
NPHI .m3/m3               : NPHI
RHOB .g/cm3               : RHOB
GR .gAPI                  : GR
DTC .us/ft                : DTC
RDEP .ohm.m               : RDEP
SP .mV                    : SP
RSHA .ohm.m               : RSHA
RMED .ohm.m               : RMED
~Parameter
#==================================================================
~Ascii
# ...
 1874.3149414  -999.250000 12.328101158  -999.250000  -999.250000 2.1923544407 82.260375977 126.19385529 0.9982948899 146.16653442 1.3960490227 0.7581469417
 1874.4672852  -999.250000 12.328101158  -999.250000  -999.250000 2.2078664303 83.508628845 125.51552582 0.9618868232 145.70832825 1.5818837881 0.8713364601
 1874.6197510  -999.250000 12.328101158  -999.250000  -999.250000 2.1984269619 84.476310730 127.29538727 0.9603219628 144.87440491 1.5692242384 0.7969710231
 1874.7720947  -999.250000 12.328281403  -999.250000  -999.250000 2.1834943295 81.883605957 126.89746094 0.9512672424 144.12460327 1.6592732668 0.9490401745
 1874.9245605  -999.250000 12.351469040  -999.250000  -999.250000 2.1930828094 82.874458313 126.60646057 0.8786380887 143.70852661 1.5535168648 0.8968216181
 1875.0769043  -999.250000 12.335900307  -999.250000  -999.250000 2.1864299774 82.825294495 127.30234528 0.8718025088 143.95846558 1.6429821253 0.9764503837
 1875.2293701  -999.250000 12.335970879  -999.250000  -999.250000 2.1939916611 84.299049377 127.60420227 0.8720940351 144.12500000 1.4685549736 0.8907710314
 1875.3817139  -999.250000 12.343799591  -999.250000  -999.250000 2.1783821583 82.763160706 128.09649658 0.8715478182 144.04153442 1.5533108711 1.0106002092
 1875.5341797  -999.250000 12.343799591  -999.250000  -999.250000 2.1447050571 76.966896057 127.70892334 0.8890296817 144.00030518 1.6241488457 0.9521439075
 1875.6865234  -999.250000 12.343799591  -999.250000  -999.250000 2.1186048985 73.570930481 128.59715271 0.9131363034 144.41693115 1.5367213488 0.9364652038
 1875.8389893  -999.250000 12.343549728  -999.250000  -999.250000 2.1261420250 74.569709778 128.30212402 0.9888191819 144.58293152 1.4922369719 0.9908360243
 1875.9913330  -999.250000 12.312499046  -999.250000  -999.250000 2.1286239624 75.329750061 128.49729919 1.0426058769 144.37519836 1.4959528446 0.9221290350
 1876.1437988  -999.250000 12.312129021  -999.250000  -999.250000 2.1437618732 77.385803223 128.10705566 1.0310850143 144.79206848 1.4782856703 0.8675026894
 1876.2961426  -999.250000 12.265130997  -999.250000  -999.250000 2.2321317196 78.543075562 118.98380280 0.9880263805 145.25019836 1.4555284977 1.0036998987
 1876.4484863  -999.250000 12.202488899  -999.250000  -999.250000 2.1755807400 83.730773926 129.09254456 0.9911242127 145.54167175 1.3848057985 0.9200114608
 1876.6009521  -999.250000 12.125638962  -999.250000  -999.250000 2.2203197479 88.684913635 128.41102600 0.9822719693 145.95913696 1.0602158308 0.8868635297
 1876.7532959  -999.250000 12.211330414  -999.250000  -999.250000 2.2054891586 88.363121033 129.69287109 0.9543232322 146.49980164 1.2571678162 0.8590251207
 1876.9057617  -999.250000 12.265661240  -999.250000  -999.250000 2.2018654346 86.960250854 128.90676880 0.8879902959 146.12469482 1.4040817022 0.9420534372
 1877.0581055  -999.250000 12.273219109  -999.250000  -999.250000 2.1627674103 82.573722839 129.60661316 0.8757750988 146.04193115 1.3799912930 0.8060762882
 1877.2105713  -999.250000 12.250000954  -999.250000  -999.250000 2.1644797325 83.888923645 130.36761475 0.8611903787 146.45852661 1.3903135061 0.8389509916
 1877.3629150  -999.250000 12.249520302  -999.250000  -999.250000 2.2094690800 85.446975708 126.87435150 0.8493367434 146.70846558 1.3585563898 0.9350848794
 1877.5153809  -999.250000 12.187999725  -999.250000  -999.250000 2.2469644547 86.520484924 123.80580902 0.9010961056 146.79147339 1.3764969110 1.0277748108
 1877.6677246  -999.250000 12.250180244  -999.250000  -999.250000 2.2077326775 81.790908813 124.20070648 0.9681943059 146.33287048 1.3203065395 1.0798062086
 1877.8201904  -999.250000 12.273649216  -999.250000  -999.250000 2.1885087490 79.214782715 124.34827423 0.9553783536 145.58293152 1.3194289207 0.8705455065
 1877.9725342  -999.250000 12.304639816  -999.250000  -999.250000 2.1210031509 75.594337463 129.51496887 0.9114803076 145.12480164 1.1322882175 0.8757172227
 1878.1250000  -999.250000 12.296779633  -999.250000  -999.250000 2.1236932278 79.382202148 131.59530640 0.8501922488 144.70793152 1.8898632526 0.9479404688
 1878.2773438  -999.250000 12.281299591  -999.250000  -999.250000 2.1313126087 80.155532837 131.29180908 0.8806849122 144.12460327 1.3151247501 0.7878956795
 1878.4298096  -999.250000 12.281240463  -999.250000  -999.250000 2.1646754742 83.795974731 130.29158020 0.8794283867 143.41616821 1.2825224400 0.8951288462
 1878.5821533  -999.250000 12.273229599  -999.250000  -999.250000 2.1612567902 82.063575745 129.40702820 0.9458787441 143.16706848 1.3165036440 0.8356679082
 1878.7344971  -999.250000 12.250120163  -999.250000  -999.250000 2.1547663212 82.218666077 130.19461060 0.9918617606 143.70866394 1.3284958601 0.8675643206
 1878.8869629  -999.250000 12.265600204  -999.250000  -999.250000 2.1864192486 85.841056824 129.59228516 1.0222942829 144.08323669 1.2596783638 0.8073357344
 1879.0393066  -999.250000 12.265600204  -999.250000  -999.250000 2.2204060555 89.008506775 128.69767761 1.0438109636 143.83306885 1.3573415279 0.9900476933
 1879.1917725  -999.250000 12.265409470  -999.250000  -999.250000 2.2316293716 89.983329773 128.40371704 1.0449866056 143.58352661 1.3504958153 0.8469533324
 1879.3441162  -999.250000 12.242259979  -999.250000  -999.250000 2.2119433880 88.126037598 128.79811096 1.0320620537 143.75000000 1.3390733004 1.0218002796
 1879.4965820  -999.250000 12.249430656  -999.250000  -999.250000 2.2150201797 88.225730896 128.57136536 0.9920703769 143.70823669 1.3595194817 0.9397862554
 1879.6489258  -999.250000 12.179400444  -999.250000  -999.250000 2.2238242626 85.502609253 125.41944885 0.9216132760 143.70846558 1.3726106882 0.8830468059
 1879.8013916  -999.250000 12.140480995  -999.250000  -999.250000 2.2053799629 85.792762756 127.59531403 0.8996048570 144.20913696 1.3244880438 0.9820502400
 1879.9537354  -999.250000 12.124939919  -999.250000  -999.250000 2.1929383278 83.742691040 127.28928375 0.9001160264 145.08366394 1.0576820374 0.8138434291
 1880.1062012  -999.250000 12.117199898  -999.250000  -999.250000 2.1981613636 82.861976624 126.02454376 0.9021566510 145.70883179 1.0677076578 0.9273788333
 1880.2585449  -999.250000 12.117079735  -999.250000  -999.250000 2.1659805775 81.512954712 128.48280334 0.9184900522 146.16673279 1.1006857157 1.0181926489
 1880.4110107  -999.250000 12.101600647  -999.250000  -999.250000 2.1941833496 83.070716858 126.62717438 0.9173098207 146.29176331 1.2311975956 0.8157518506
 1880.5633545  -999.250000 12.101480484  -999.250000  -999.250000 2.1732490063 83.920501709 129.48667908 0.9184681177 146.04113770 1.2096960545 0.8536334634
 1880.7156982  -999.250000 12.085840225  -999.250000  -999.250000 2.1719212532 81.832145691 128.10714722 0.9386767149 145.45832825 1.1735922098 0.9916842580
 1880.8681641  -999.250000 12.078359604  -999.250000  -999.250000 2.1335361004 76.911346436 128.91014099 0.9246825576 145.66676331 1.2537205219 1.0580819845
 1881.0205078  -999.250000 12.109699249  -999.250000  -999.250000 2.1474654675 80.935935974 130.09199524 0.9563260674 145.87519836 1.2316833735 0.8822627664
 1881.1729736  -999.250000 12.148340225  -999.250000  -999.250000 2.1542246342 80.768302917 129.20861816 0.9946710467 145.95793152 0.9230070114 1.0180189610
 1881.3253174  -999.250000 12.140720367  -999.250000  -999.250000 2.1597282887 82.798248291 130.09375000 1.0361095667 145.33287048 1.2775729895 0.9432222247
 1881.4777832  -999.250000 12.156299591  -999.250000  -999.250000 2.1550834179 81.128364563 129.40138245 1.0255329609 144.66647339 1.3101233244 1.0499023199
 1881.6301270  -999.250000 12.156299591  -999.250000  -999.250000 2.1567878723 81.537246704 129.48808289 1.0292119980 144.33306885 1.3692237139 0.7874780297
 1881.7825928  -999.250000 12.156299591  -999.250000  -999.250000 2.2012884617 85.927375793 128.09736633 1.0303026438 144.00000000 1.3837066889 1.0103780031
 1881.9349365  -999.250000 12.156239510  -999.250000  -999.250000 2.1972498894 84.885368347 127.69766235 0.9888672233 144.00000000 1.3742276430 0.8445842862
