# LAS format log file from PETREL
# Project units are specified as depth units
#==================================================================
~Version information
VERS.   2.0:
WRAP.   NO:
#==================================================================
~Well
STRT .m      898.43609619 :
STOP .m      2454.1354980 :
STEP .m     0.00000000 :
NULL .        -999.250000 :
COMP.           : COMPANY
WELL.  31/4-6   : WELL
FLD.            : FIELD
LOC.            : LOCATION
SRVC.           : SERVICE COMPANY
DATE.  2018-09-11 14:48:38   : Log Export Date {yyyy-MM-dd HH:mm:ss}
PROV.           : PROVINCE
UWI.   31/4-6   : UNIQUE WELL ID
API.            : API NUMBER
#==================================================================
~Curve
DEPT .m                   : DEPTH
Lithology_geolink ._      : Lithology_geolink
CALI .in                  : CALI
DRHO .g/cm3               : DRHO
NPHI .m3/m3               : NPHI
RHOB .g/cm3               : RHOB
GR .gAPI                  : GR
DTC .us/ft                : DTC
DTE .us/ft                : DTE
RDEP .ohm.m               : RDEP
SP .mV                    : SP
RSHA .ohm.m               : RSHA
RMED .ohm.m               : RMED
~Parameter
#==================================================================
~Ascii
# ...
 2441.9436035  -999.250000 12.234000206 -0.002000000 0.3456999958 2.4804611206 80.000000000  -999.250000  -999.250000 2.8088893890 93.775001526  -999.250000 3.1539471149
 2442.0959473  -999.250000 12.218999863 0.0040000002 0.3507618904 2.4912126064 80.000000000  -999.250000  -999.250000 2.7399535179 93.775802612  -999.250000 3.1210913658
 2442.2482910  -999.250000 12.234000206 0.0089999996 0.3690506518 2.4946441650 80.000000000  -999.250000  -999.250000 2.7109999657 94.275001526  -999.250000 3.1779999733
 2442.4006348  -999.250000 12.234000206 0.0040080003 0.3621910512 2.4904167652 80.000000000  -999.250000  -999.250000 2.6800000668 94.150001526  -999.250000 3.1879999638
 2442.5529785  -999.250000 12.187999725 0.0030016026 0.3540131152 2.4823040962 80.000000000  -999.250000  -999.250000 2.6619999409 94.275001526  -999.250000 3.0799999237
 2442.7053223  -999.250000 12.141000748 0.0000048077 0.3117157519 2.4705915451 80.000000000  -999.250000  -999.250000 2.6819999218 95.025001526  -999.250000 2.8929998875
 2442.8579102  -999.250000 12.163999557 0.0060000001 0.3082353771 2.4663674831 80.000000000  -999.250000  -999.250000 2.6909999847 94.650001526  -999.250000 2.8069999218
 2443.0102539  -999.250000 12.305000305 0.0020000001 0.3218181729 2.4626331329 80.000000000  -999.250000  -999.250000 2.7300000191 94.525001526  -999.250000 2.7709999084
 2443.1625977  -999.250000 12.328000069 -0.000995200 0.3237269819 2.4710083008 80.000000000  -999.250000  -999.250000 2.7829999924 94.525001526  -999.250000 2.9670000076
 2443.3149414  -999.250000 12.328000069 -0.009985576 0.3101037443 2.4757626057 80.000000000  -999.250000  -999.250000 2.8420000076 94.275001526  -999.250000 3.2090001106
 2443.4675293  -999.250000 12.328000069 -0.009000000 0.2889139354 2.4833269119 80.000000000  -999.250000  -999.250000 2.8929998875 94.400001526  -999.250000 3.4159998894
 2443.6198730  -999.250000 12.319999695 -0.011000000 0.2925441265 2.4819438457 80.000000000  -999.250000  -999.250000 2.9379999638 94.025001526  -999.250000 3.5490000248
 2443.7722168  -999.250000 12.203000069 -0.011998400 0.2985803187 2.4806208611 80.000000000  -999.250000  -999.250000 3.0099999905 93.775001526  -999.250000 3.6389999390
 2443.9245605  -999.250000 12.141000748 -0.012000000 0.3172300756 2.4810333252 80.000000000  -999.250000  -999.250000 3.0450000763 94.275001526  -999.250000 3.7190001011
 2444.0769043  -999.250000 12.141000748 -0.012998397 0.3249253631 2.4822583199 80.000000000  -999.250000  -999.250000 3.0450000763 94.150001526  -999.250000 3.5199999809
 2444.2294922  -999.250000 12.078000069 -0.010000000 0.3252595067 2.4814713001 80.000000000  -999.250000  -999.250000 3.0209999084 94.525001526  -999.250000 3.2790000439
 2444.3818359  -999.250000 12.328000069 -0.014000000 0.3034350276 2.4797875881 80.000000000  -999.250000  -999.250000 2.9749999046 94.900001526  -999.250000 3.2070000172
 2444.5341797  -999.250000 12.328000069 -0.009000000 0.2836616933 2.4828374386 80.000000000  -999.250000  -999.250000 2.8239998817 94.775001526  -999.250000 3.1860001087
 2444.6865234  -999.250000 12.258000374 -0.010000000 0.2727449536 2.4850416183 80.000000000  -999.250000  -999.250000 2.6429998875 94.900001526  -999.250000 3.1540000439
 2444.8391113  -999.250000 12.218999863 -0.012000000 0.2706333399 2.4892411232 80.000000000  -999.250000  -999.250000 2.6270000935 94.650001526  -999.250000 2.7990000248
 2444.9914551  -999.250000 12.234000206 -0.012000000 0.2837599814 2.5009260178 80.000000000  -999.250000  -999.250000 2.5920000076 94.150001526  -999.250000 2.7049999237
 2445.1437988  -999.250000 12.234000206 -0.006000000 0.3056948185 2.5183708668 80.000000000  -999.250000  -999.250000 2.5629999638 94.400001526  -999.250000 2.7439999580
 2445.2961426  -999.250000 12.211000443 0.0020000001 0.3179703653 2.5336585045 80.000000000  -999.250000  -999.250000 2.6089999676 94.525001526  -999.250000 2.8459999561
 2445.4487305  -999.250000 12.218999863 0.0040000002 0.3180499971 2.5344870090 80.000000000  -999.250000  -999.250000 2.5840001106 94.150001526  -999.250000 3.0099999905
 2445.6010742  -999.250000 12.234000206 0.0049999999 0.3118799925 2.5229988098 80.000000000  -999.250000  -999.250000 2.5629999638 94.650001526  -999.250000 2.9079999924
 2445.7534180  -999.250000 12.109000206 0.0109999999 0.3161531389 2.5194749832 80.000000000  -999.250000  -999.250000 2.5629999638 94.775001526  -999.250000 2.8299999237
 2445.9057617  -999.250000 12.086001396 0.0199999996 0.3203033507 2.5213334560 80.000000000  -999.250000  -999.250000 2.5759999752 94.150001526  -999.250000 2.8129999638
 2446.0583496  -999.250000 12.046999931 0.0340000018 0.3148199916 2.5297591686 80.000000000  -999.250000  -999.250000 2.5720000267 94.650001526  -999.250000 2.8670001030
 2446.2106934  -999.250000 11.991999626 0.0489999987 0.3096899986 2.5287916660 80.000000000  -999.250000  -999.250000 2.5899999142 94.400001526  -999.250000 2.9670000076
 2446.3630371  -999.250000 11.766000748 0.0680000037 0.3154807389 2.5283792019 80.000000000  -999.250000  -999.250000 2.5759999752 94.900001526  -999.250000 3.0060000420
 2446.5153809  -999.250000 11.515999794 0.0790000036 0.3236568868 2.5136501789 80.000000000  -999.250000  -999.250000 2.5450000763 94.775001526  -999.250000 3.0759999752
 2446.6677246  -999.250000 11.430000305 0.0900000036 0.3238496780 2.4983417988 80.000000000  -999.250000  -999.250000 2.5290000439 94.775001526  -999.250000 3.0020000935
 2446.8203125  -999.250000 11.179999352 0.1099999994 0.3130500019 2.4866590500 80.000000000  -999.250000  -999.250000 2.4960000515 94.525001526  -999.250000 2.8380000591
 2446.9726563  -999.250000 10.968998909 0.1350000054 0.3123810887 2.4822123051 80.000000000  -999.250000  -999.250000 2.4219999313 94.650001526  -999.250000 2.7400000095
 2447.1250000  -999.250000 11.125000000 0.1330000013 0.3120705187 2.4677832127 80.000000000  -999.250000  -999.250000 2.3670001030 95.150001526  -999.250000 2.6370000839
 2447.2773438  -999.250000 11.116999626 0.1230000034 0.3120100796 2.4470665455 80.000000000  -999.250000  -999.250000 2.3110001087 94.025001526  -999.250000 2.5590000153
 2447.4299316  -999.250000 11.179999352 0.0979999974 0.3120099902 2.4269783497 80.000000000  -999.250000  -999.250000 2.2950000763 94.525001526  -999.250000 2.4920001030
 2447.5822754  -999.250000 11.375000000 0.1049999967 0.3111599982 2.4351563454 80.000000000  -999.250000  -999.250000 2.3320000172 93.900001526  -999.250000 2.5290000439
 2447.7346191  -999.250000 11.343999863 0.1000000015 0.3110401928 2.4378542900 80.000000000  -999.250000  -999.250000 2.3340001106 94.525001526  -999.250000 2.7850000858
 2447.8869629  -999.250000 11.319998741 0.1040000021 0.3110400140 2.4400000572 80.000000000  -999.250000  -999.250000 2.3710000515 94.275001526  -999.250000 2.8359999657
 2448.0395508  -999.250000 11.289000511 0.0949999988 0.3114599884  -999.250000 80.000000000  -999.250000  -999.250000 2.3459999561 94.275001526  -999.250000 2.7290000916
 2448.1918945  -999.250000 11.179999352 0.1080000028 0.3119499981  -999.250000 80.000000000  -999.250000  -999.250000 2.3440001011 93.650001526  -999.250000 2.8139998913
 2448.3442383  -999.250000 10.546999931 0.1120000035 0.3154244125  -999.250000 80.000000000  -999.250000  -999.250000 2.3399999142 93.775001526  -999.250000 2.8889999390
 2448.4965820  -999.250000 9.7270002365 0.1080000028 0.3244455159  -999.250000 80.000000000  -999.250000  -999.250000 2.3750000000 93.775001526  -999.250000 2.8929998875
 2448.6489258  -999.250000 7.9489998817 0.0649999976 0.3453065455  -999.250000 80.000000000  -999.250000  -999.250000 2.3889999390 93.525001526  -999.250000 2.8949999809
 2448.8015137  -999.250000 8.1479997635 0.0199999996 0.3460100293  -999.250000 80.000000000  -999.250000  -999.250000 2.3910000324 94.150001526  -999.250000 2.8589999676
 2448.9538574  -999.250000 8.3280000687 -0.005000000 0.3435738981  -999.250000 80.000000000  -999.250000  -999.250000 2.3929998875 93.900001526  -999.250000 2.8650000095
 2449.1062012  -999.250000 8.2419996262 -0.013000000 0.3445384502  -999.250000 80.000000000  -999.250000  -999.250000 2.3959999084 93.650001526  -999.250000 2.8650000095
