# LAS format log file from PETREL
# Project units are specified as depth units
#==================================================================
~Version information
VERS.   2.0:
WRAP.   NO:
#==================================================================
~Well
STRT .m      996.03363037 :
STOP .m      2328.0097656 :
STEP .m     0.00000000 :
NULL .        -999.250000 :
COMP.           : COMPANY
WELL.  31/4-10   : WELL
FLD.            : FIELD
LOC.            : LOCATION
SRVC.           : SERVICE COMPANY
DATE.  2018-09-11 14:48:36   : Log Export Date {yyyy-MM-dd HH:mm:ss}
PROV.           : PROVINCE
UWI.   31/4-10   : UNIQUE WELL ID
API.            : API NUMBER
#==================================================================
~Curve
DEPT .m                   : DEPTH
Lithology_geolink ._      : Lithology_geolink
CALI .in                  : CALI
DRHO .g/cm3               : DRHO
NPHI .m3/m3               : NPHI
RHOB .g/cm3               : RHOB
GR .gAPI                  : GR
DTC .us/ft                : DTC
RDEP .ohm.m               : RDEP
SP .mV                    : SP
RSHA .ohm.m               : RSHA
RMED .ohm.m               : RMED
~Parameter
#==================================================================
~Ascii
# ...
 1081.5300293  -999.250000 12.218760490  -999.250000  -999.250000 1.9667940140 78.553642273 155.09828186 1.2953020334 183.41667175 1.0692050457 1.0613310337
 1081.6824951  -999.250000 12.210940361  -999.250000  -999.250000 1.9639990330 76.424751282 154.70372009 1.1806451082 183.45866394 1.0478422642 1.0427739620
 1081.8348389  -999.250000 12.218760490  -999.250000  -999.250000 1.9522320032 74.066810608 155.49429321 1.1521048546 183.87500000 1.0369479656 1.0751298666
 1081.9873047  -999.250000 12.210901260  -999.250000  -999.250000 1.9630910158 74.818466187 154.40119934 1.1881297827 183.91673279 1.0107103586 1.0973774195
 1082.1396484  -999.250000 12.210940361  -999.250000  -999.250000 1.9637930393 75.928268433 154.60101318 1.2876510620 183.83332825 1.0123556852 1.0181109905
 1082.2919922  -999.250000 12.218770027  -999.250000  -999.250000 1.9584180117 74.301666260 154.80130005 1.3140209913 183.33346558 0.9520416856 1.0030850172
 1082.4444580  -999.250000 12.210901260  -999.250000  -999.250000 1.9522639513 71.881324768 155.10188293 1.2961981297 183.00000000 0.9391669631 1.1779744625
 1082.5968018  -999.250000 12.210901260  -999.250000  -999.250000 1.9502580166 73.014541626 155.49980164 1.2601289749 183.12500000 0.9688764811 0.9976782799
 1082.7492676  -999.250000 12.210940361  -999.250000  -999.250000 1.9566270113 76.318397522 155.50239563 1.1533195972 183.24980164 0.9860124588 1.1048046350
 1082.9016113  -999.250000 12.218770027  -999.250000  -999.250000 1.9544889927 77.375747681 156.00149536 1.1389939785 183.00000000 0.9343975782 0.9632729888
 1083.0540771  -999.250000 12.210901260  -999.250000  -999.250000 1.9516500235 77.549156189 156.39898682 1.1605314016 182.91653442 0.8876516223 1.0676354170
 1083.2064209  -999.250000 12.211010933  -999.250000  -999.250000 1.9481829405 75.149551392 156.19920349 1.2570500374 183.04167175 0.8787993193 0.9658650160
 1083.3588867  -999.250000 12.234439850  -999.250000  -999.250000 1.9641339779 80.491729736 155.99949646 1.2457957268 183.95886230 0.8567882776 1.0455207825
 1083.5112305  -999.250000 12.242199898  -999.250000  -999.250000 1.9603339434 79.044479370 155.90231323 1.1930509806 184.70832825 0.8375226855 0.9803637862
 1083.6636963  -999.250000 12.242238998  -999.250000  -999.250000 1.9464919567 75.064971924 156.40089417 1.1162804365 184.62460327 0.8646560907 1.0385978222
 1083.8160400  -999.250000 12.250000954  -999.250000  -999.250000 1.9454690218 75.491508484 156.60089111 1.1306575537 184.08332825 0.8571222425 0.9859451652
 1083.9685059  -999.250000 12.250000954  -999.250000  -999.250000 1.9408979416 73.891418457 156.80140686 1.1988677979 184.37559509 0.8994572759 1.0133285522
 1084.1208496  -999.250000 12.250140190  -999.250000  -999.250000 1.9436589479 76.774322510 157.10270691 1.2285130024 185.37500000 0.9093825221 0.9653860927
 1084.2731934  -999.250000 12.281299591  -999.250000  -999.250000 1.9309140444 69.440780640 157.69981384 1.1923780441 185.95826721 0.8485280275 0.9817141891
 1084.4256592  -999.250000 12.281100273  -999.250000  -999.250000 1.9313709736 70.149940491 157.69349670 1.1248435974 186.20832825 0.8333101273 0.9224170446
 1084.5780029  -999.250000 12.234330177  -999.250000  -999.250000 1.9478520155 75.004096985 156.20152283 1.0557140112 186.49989319 0.7965344787 0.9844028950
 1084.7304688  -999.250000 12.218799591  -999.250000  -999.250000 1.9476519823 75.871810913 156.39788818 1.0801675320 186.75000000 0.8251212239 1.0274233818
 1084.8828125  -999.250000 12.218799591  -999.250000  -999.250000 1.9506900311 75.225448608 155.90069580 1.1332509518 186.79167175 0.8096156716 0.9730116725
 1085.0352783  -999.250000 12.218799591  -999.250000  -999.250000 1.9431899786 69.941246033 155.99870300 1.2308186293 187.00019836 0.8129439950 0.9757105112
 1085.1876221  -999.250000 12.218770027  -999.250000  -999.250000 1.9463109970 70.695190430 155.70060730 1.2141989470 187.20832825 0.8017305732 1.0174959898
 1085.3400879  -999.250000 12.210940361  -999.250000  -999.250000 1.9473160505 72.364250183 155.80200195 1.1268132925 187.12500000 0.7866950035 0.9518918991
 1085.4924316  -999.250000 12.218799591  -999.250000  -999.250000 1.9421559572 70.489883423 156.19749451 1.0772409439 187.33332825 0.8032593727 1.0376989841
 1085.6448975  -999.250000 12.218799591  -999.250000  -999.250000 1.9447699785 68.247535706 155.70300293 1.1089069843 188.08386230 0.8165186048 0.9495624900
 1085.7972412  -999.250000 12.218799591  -999.250000  -999.250000 1.9407039881 67.824943542 156.30050659 1.1987440586 188.66667175 0.8373460770 0.9783931971
 1085.9497070  -999.250000 12.218799591  -999.250000  -999.250000 1.9404410124 70.211311340 156.40190125 1.2450141907 188.20787048 0.8271029592 1.0339202881
 1086.1020508  -999.250000 12.218799591  -999.250000  -999.250000 1.9413379431 74.449119568 156.79870605 1.1940966845 187.25000000 0.8277013898 0.9494528770
 1086.2543945  -999.250000 12.218799591  -999.250000  -999.250000 1.9482229948 76.685417175 156.50111389 1.0975990295 186.37510681 0.8472458720 0.9983453751
 1086.4068604  -999.250000 12.218799591  -999.250000  -999.250000 1.9451069832 76.240097046 156.70170593 1.0764391422 186.20832825 0.8569576740 1.0286744833
 1086.5592041  -999.250000 12.218760490  -999.250000  -999.250000 1.9387500286 74.295829773 157.09989929 1.1040430069 186.33337402 0.8682206273 0.9656041265
 1086.7116699  -999.250000 12.210929871  -999.250000  -999.250000 1.9357320070 70.739913940 157.09530640 1.2423698902 186.00000000 0.8725921512 1.0092343092
 1086.8640137  -999.250000 12.218799591  -999.250000  -999.250000 1.9429049492 68.750579834 156.00141907 1.2559369802 185.50000000 0.8708056211 1.0159250498
 1087.0164795  -999.250000 12.218799591  -999.250000  -999.250000 1.9411449432 68.878128052 156.20040894 1.1778906584 185.33306885 0.8081333041 1.0000820160
 1087.1688232  -999.250000 12.218729973  -999.250000  -999.250000 1.9408260584 69.513656616 156.30090332 1.1361939907 185.04167175 0.9149646163 1.0762250423
 1087.3212891  -999.250000 12.203169823  -999.250000  -999.250000 1.9416990280 72.511070251 156.49830627 1.1790367365 185.08326721 0.9072456360 1.0163525343
 1087.4736328  -999.250000 12.218799591  -999.250000  -999.250000 1.9473869801 74.748596191 156.10330200 1.2672959566 184.75000000 0.9165285230 1.0470299721
 1087.6260986  -999.250000 12.218799591  -999.250000  -999.250000 1.9413207769 74.442077637 156.79640198 1.2216349840 184.08306885 0.9225861430 0.9873622656
 1087.7784424  -999.250000 12.218799591  -999.250000  -999.250000 1.9485249519 75.241699219 156.09999084 1.1055229902 183.83332825 0.8676242232 0.9984090924
 1087.9309082  -999.250000 12.218799591  -999.250000  -999.250000 1.9455827475 73.374290466 156.09999084 1.0884850025 184.04173279 0.8505422473 1.0226241350
 1088.0832520  -999.250000 12.218799591  -999.250000  -999.250000 1.9453310966 73.239677429 156.09869385 1.1397504807 183.95832825 0.8402702212 0.9569899440
 1088.2357178  -999.250000 12.218799591  -999.250000  -999.250000 1.9454517365 71.253837585 155.80149841 1.2464298010 183.62500000 0.8345861435 1.1679555178
 1088.3880615  -999.250000 12.218799591  -999.250000  -999.250000 1.9437948465 71.956947327 156.09649658 1.2698370218 183.45832825 0.8501228094 0.9654685855
 1088.5404053  -999.250000 12.218799591  -999.250000  -999.250000 1.9561929703 75.758750916 155.30169678 1.2573779821 183.12500000 0.8548734784 1.0375139713
 1088.6928711  -999.250000 12.218799591  -999.250000  -999.250000 1.9577585459 77.617752075 155.60130310 1.2098333836 183.20832825 0.9349838495 1.0191946030
 1088.8452148  -999.250000 12.218799591  -999.250000  -999.250000 1.9523060322 76.186637878 155.89610291 1.1179480553 183.45832825 0.9118790030 0.9986053705
 1088.9976807  -999.250000 12.218870163  -999.250000  -999.250000 1.9585870504 76.001274109 155.09970093 1.1286182404 183.49969482 0.8645403981 1.0650466681
 1089.1500244  -999.250000 12.234330177  -999.250000  -999.250000 1.9599750042 76.274139404 154.99729919 1.1926649809 183.16653442 0.9130957127 1.0946689844
