# LAS format log file from PETREL
# Project units are specified as depth units
#==================================================================
~Version information
VERS.   2.0:
WRAP.   NO:
#==================================================================
~Well
STRT .m      860.54608154 :
STOP .m      3158.4321289 :
STEP .m     0.00000000 :
NULL .        -999.250000 :
COMP.           : COMPANY
WELL.  31/4-4   : WELL
FLD.            : FIELD
LOC.            : LOCATION
SRVC.           : SERVICE COMPANY
DATE.  2018-09-11 14:48:37   : Log Export Date {yyyy-MM-dd HH:mm:ss}
PROV.           : PROVINCE
UWI.   31/4-4   : UNIQUE WELL ID
API.            : API NUMBER
#==================================================================
~Curve
DEPT .m                   : DEPTH
Lithology_geolink ._      : Lithology_geolink
CALI .in                  : CALI
DRHO .g/cm3               : DRHO
NPHI .m3/m3               : NPHI
RHOB .g/cm3               : RHOB
GR .gAPI                  : GR
DTC .us/ft                : DTC
DTE .us/ft                : DTE
RDEP .ohm.m               : RDEP
SP .mV                    : SP
RSHA .ohm.m               : RSHA
RMED .ohm.m               : RMED
~Parameter
#==================================================================
~Ascii
# ...
 1774.9456787  -999.250000 19.101999283 0.0140000004  -999.250000 2.0972294807 68.125503540 160.83920288 159.75306702 0.7069158554 20.973999023 0.6820200086 0.6820200086
 1775.0980225  -999.250000 18.885999680 0.0120000001  -999.250000 2.0851621628 68.244499207 161.48341370 160.46653748 0.6859599352 20.727251053 0.6869639754 0.6869639754
 1775.2504883  -999.250000 19.257999420 0.0209999997  -999.250000 2.0973112583 66.864738464 161.47981262 160.44548035 0.6759479046 21.287502289 0.6778637767 0.6778637767
 1775.4028320  -999.250000 19.968999863 0.0379999988  -999.250000 2.1119768620 64.311126709 161.75099182 160.69566345 0.6629479527 21.409250259 0.6439479589 0.6439479589
 1775.5551758  -999.250000 19.516000748 0.0520000011  -999.250000 2.1171250343 63.850711823 163.86087036 162.89399719 0.6499615312 20.728004456 0.6309807301 0.6309807301
 1775.7076416  -999.250000 19.973999023 0.0280000009  -999.250000 2.1008780003 65.922348022 166.99746704 165.96621704 0.6379278898 21.655990601 0.6249479055 0.6249479055
 1775.8599854  -999.250000 19.174999237 0.0289999992  -999.250000 2.0854895115 62.020240784 168.34953308 167.23983765 0.6199679971 20.163002014 0.6119679809 0.6119679809
 1776.0124512  -999.250000 19.290000916 0.0170000009  -999.250000 2.0739378929 59.342498779 167.10362244 166.00871277 0.6119639277 20.407993317 0.6039919853 0.6039919853
 1776.1647949  -999.250000 20.025999069 0.0250000004  -999.250000 2.0783810616 58.996898651 166.32289124 165.31278992 0.6029919982 19.408248901 0.6020760536 0.6020760536
 1776.3172607  -999.250000 19.395000458 0.0320000015  -999.250000 2.1011290550 65.947517395 166.81738281 165.80380249 0.6010320783 18.476249695 0.6210681200 0.6210681200
 1776.4696045  -999.250000 19.521999359 0.0240000002  -999.250000 2.1160440445 68.322509766 167.14602661 166.09681702 0.6090200543 18.781248093 0.6380240321 0.6380240321
 1776.6220703  -999.250000 19.214000702 0.0130000003  -999.250000 2.1177148819 70.673477173 167.67788696 166.66082764 0.6139960289 17.350000381 0.6440039873 0.6440039873
 1776.7744141  -999.250000 18.607999802 0.0000000000  -999.250000 2.1150491238 67.073013306 168.23031616 167.21621704 0.6130039692 17.352001190 0.6450160146 0.6450160146
 1776.9268799  -999.250000 19.031999588 0.0140000004  -999.250000 2.1324923038 69.527442932 168.09812927 167.04389954 0.6139960289 17.847244263 0.6490079761 0.6490079761
 1777.0792236  -999.250000 19.027000427 0.0240000002  -999.250000 2.1556718349 60.697879791 165.46421814 164.47642517 0.6129639745 17.165756226 0.6509239674 0.6509239674
 1777.2316895  -999.250000 18.426000595 0.0219999999  -999.250000 2.1673758030 63.147861481 164.50151062 163.50177002 0.6039919853 18.096742630 0.6319639683 0.6319639683
 1777.3840332  -999.250000 18.548999786 0.0140000004  -999.250000 2.1772422791 61.155025482 163.22929382 162.14004517 0.6019920111 17.291503906 0.6230080128 0.6230080128
 1777.5363770  -999.250000 18.617000580 0.0340000018  -999.250000 2.1983010769 68.630409241 159.50544739 158.43823242 0.5999615788 18.413602829 0.6249904037 0.6249904037
 1777.6888428  -999.250000 18.870000839 0.0399999991  -999.250000 2.2017636299 70.327514648 157.62867737 156.63059998 0.5879839659 18.911500931 0.6220160127 0.6220160127
 1777.8411865  -999.250000 19.211000443 0.0460000001  -999.250000 2.1682925224 73.939605713 158.29634094 157.26986694 0.5840160251 18.790605545 0.6259839535 0.6259839535
 1777.9936523  -999.250000 19.886999130 0.0340000018  -999.250000 2.1042642593 74.426483154 159.32794189 158.24131775 0.5890160203 19.911499023 0.6209599376 0.6209599376
 1778.1459961  -999.250000 18.794000626 0.0209999997  -999.250000 2.0467267036 71.542984009 160.51179504 159.50755310 0.5930079818 19.791503906 0.6109920144 0.6109920144
 1778.2984619  -999.250000 18.714000702 0.0199999996  -999.250000 2.0362610817 66.552360535 161.87109375 160.87063599 0.5950281024 20.908996582 0.6090281010 0.6090281010
 1778.4508057  -999.250000 19.076999664 0.0250000004  -999.250000 2.0647046566 63.904624939 162.21582031 161.18130493 0.6020640731 20.158998489 0.6161561012 0.6161561012
 1778.6032715  -999.250000 19.506999969 0.0329999998  -999.250000 2.0866830349 63.572513580 161.01939392 160.05633545 0.6180160046 19.414257050 0.6550881267 0.6550881267
 1778.7556152  -999.250000 19.208000183 0.0359999985  -999.250000 2.0830373764 65.926620483 159.99418640 158.98367310 0.6221080422 19.970996857 0.6770359874 0.6770359874
 1778.9080811  -999.250000 18.409000397 0.0280000009  -999.250000 2.0735278130 63.110153198 159.51585388 158.42039490 0.6491242051 18.974748611 0.6859639287 0.6859639287
 1779.0604248  -999.250000 18.483999252 0.0280000009  -999.250000 2.0886328220 67.112365723 160.29411316 159.18209839 0.6799839735 18.910251617 0.6769559383 0.6769559383
 1779.2128906  -999.250000 17.985000610 0.0030000000  -999.250000 2.1154856682 63.976638794 159.04035950 158.04673767 0.6759479046 18.474748611 0.6661201715 0.6661201715
 1779.3652344  -999.250000 18.003999710 -0.007000000  -999.250000 2.1456527710 65.863243103 152.56765747 151.54991150 0.6630319953 18.409999847 0.6961480975 0.6961480975
 1779.5175781  -999.250000 18.148000717 0.0329999998  -999.250000 2.1860899925 62.944610596 146.99844360 145.88624573 0.6709679365 17.910200119 0.7329839468 0.7329839468
 1779.6700439  -999.250000 18.371000290 0.0379999988  -999.250000 2.1716964245 65.019012451 145.26173401 144.25588989 0.6609960198 17.352502823 0.7278038263 0.7278038263
 1779.8223877  -999.250000 18.726999283 0.0540000014  -999.250000 2.1295225620 69.760215759 144.10838318 143.08123779 0.6600929499 17.974199295 0.6788942218 0.6788942218
 1779.9748535  -999.250000 18.524000168 0.0120000001  -999.250000 2.0796916485 72.944763184 129.75218201 128.64929199 0.6892003417 17.725000381 0.6459800005 0.6459800005
 1780.1271973  -999.250000 18.809000015 0.0189999994  -999.250000 2.0614044666 74.619247437 118.37753296 117.27558136 0.7390480638 17.722745895 0.6410400271 0.6410400271
 1780.2796631  -999.250000 19.195999146 0.0089999996  -999.250000 2.0712225437 73.152442932 113.76056671 112.71195221 0.7511442304 17.157993317 0.6511161923 0.6511161923
 1780.4320068  -999.250000 19.438999176 0.0309999995  -999.250000 2.0901758671 64.313751221 110.30140686 109.25302887 0.7871641517 16.164754868 0.6801040769 0.6801040769
 1780.5844727  -999.250000 18.541999817 0.0089999996  -999.250000 2.1168627739 64.469955444 114.05203247 112.95713806 0.8278197050 16.848999023 0.7064446807 0.7064446807
 1780.7368164  -999.250000 18.885999680 0.0049999999  -999.250000 2.1514968872 57.014762878 118.40927124 117.37664032 0.7828198671 16.600748062 0.8175844550 0.8175844550
 1780.8892822  -999.250000 19.684000015 0.0149999997  -999.250000 2.2144298553 60.676105499 113.28116608 112.26566315 0.7380320430 16.793010712 0.9631842971 0.9631842971
 1781.0416260  -999.250000 19.110000610 0.0430000015  -999.250000 2.2369191647 57.734390259 114.79253387 113.71522522 0.7459359169 18.286252975 1.0080431700 1.0080431700
 1781.1940918  -999.250000 19.600999832 0.0390000008  -999.250000 2.1603989601 61.562370300 122.03199005 121.02512360 0.7300601006 18.101751328 0.7694711089 0.7694711089
 1781.3464355  -999.250000 19.312999725 0.0109999999  -999.250000 2.0356714725 61.413879395 128.65844727 127.66132355 0.7449239492 18.550010681 0.6379159689 0.6379159689
 1781.4989014  -999.250000 18.351999283 -0.008000000  -999.250000 1.9563587904 63.369113922 131.85021973 130.76823425 0.7256354094 21.799520493 0.6171642542 0.6171642542
 1781.6512451  -999.250000 18.624000549 -0.005000000  -999.250000 1.9508173466 61.902622223 132.31970215 131.25067139 0.6348478794 24.898488998 0.6580720544 0.6580720544
 1781.8035889  -999.250000 19.534999847 -0.008000000  -999.250000 1.9586327076 61.050979614 133.65917969 132.67530823 0.5970288515 21.532993317 0.6760481000 0.6760481000
 1781.9560547  -999.250000 19.195999146 -0.006000000  -999.250000 1.9569238424 57.335784912 133.77879333 132.76446533 0.6059719324 20.287754059 0.6909799576 0.6909799576
 1782.1083984  -999.250000 19.502000809 -0.010000000  -999.250000 1.9674479961 63.013263702 132.00788879 130.94682312 0.5990039706 20.475748062 0.6860560179 0.6860560179
