# LAS format log file from PETREL
# Project units are specified as depth units
#==================================================================
~Version information
VERS.   2.0:
WRAP.   NO:
#==================================================================
~Well
STRT .m      898.43609619 :
STOP .m      2454.1354980 :
STEP .m     0.00000000 :
NULL .        -999.250000 :
COMP.           : COMPANY
WELL.  31/4-6   : WELL
FLD.            : FIELD
LOC.            : LOCATION
SRVC.           : SERVICE COMPANY
DATE.  2018-09-11 14:48:38   : Log Export Date {yyyy-MM-dd HH:mm:ss}
PROV.           : PROVINCE
UWI.   31/4-6   : UNIQUE WELL ID
API.            : API NUMBER
#==================================================================
~Curve
DEPT .m                   : DEPTH
Lithology_geolink ._      : Lithology_geolink
CALI .in                  : CALI
DRHO .g/cm3               : DRHO
NPHI .m3/m3               : NPHI
RHOB .g/cm3               : RHOB
GR .gAPI                  : GR
DTC .us/ft                : DTC
DTE .us/ft                : DTE
RDEP .ohm.m               : RDEP
SP .mV                    : SP
RSHA .ohm.m               : RSHA
RMED .ohm.m               : RMED
~Parameter
#==================================================================
~Ascii
# ...
 1308.0874023  -999.250000 17.202999115 -0.000016013  -999.250000 1.9792387486 43.123771667 136.87068176 138.06759644 1.4089856148 37.049999237  -999.250000 1.2330129147
 1308.2397461  -999.250000 17.641000748 -0.001993590  -999.250000 1.9720132351 41.592250824 134.88488770 136.07994080 1.3909823895 35.299999237  -999.250000 1.2490015030
 1308.3922119  -999.250000 17.422000885 -0.002997596  -999.250000 1.9657886028 39.405548096 132.87326050 134.00556946 1.3689863682 33.924999237  -999.250000 1.2510008812
 1308.5445557  -999.250000 17.672000885 -0.006987190  -999.250000 1.9589322805 38.841350555 132.38462830 133.58732605 1.3519935608 34.799999237  -999.250000 1.2519943714
 1308.6970215  -999.250000 17.437999725 -0.005004807  -999.250000 1.9498208761 35.528846741 134.57426453 135.81669617 1.3440015316 34.674999237  -999.250000 1.2449759245
 1308.8493652  -999.250000 17.062999725 -0.008987189  -999.250000 1.9414465427 32.845203400 138.30061340 139.54013062 1.3460023403 33.424999237  -999.250000 1.2149711847
 1309.0018311  -999.250000 17.016000748 -0.007004808  -999.250000 1.9392000437 34.348403931 141.83776855 143.08439636 1.3490047455 34.424999237  -999.250000 1.1789647341
 1309.1541748  -999.250000 17.187999725 -0.013977583  -999.250000 1.9457894564 37.094001770 143.67370605 144.93664551 1.3519943953 35.049999237  -999.250000 1.1570063829
 1309.3066406  -999.250000 17.375000000 -0.005021635  -999.250000 1.9587125778 37.089847565 142.43460083 143.66462708 1.3449599743 36.049999237  -999.250000 1.1650592089
 1309.4589844  -999.250000 17.343999863 -0.010980785  -999.250000 1.9698314667 34.504356384 139.56707764 140.88444519 1.3199896812 35.424999237  -999.250000 1.2020184994
 1309.6113281  -999.250000 17.406000137 -0.003025641  -999.250000 1.9812111855 39.941852570 138.48393250 139.71945190 1.3070024252 36.549999237  -999.250000 1.2249920368
 1309.7637939  -999.250000 17.797000885 -0.002003203  -999.250000 1.9934437275 44.750377655 139.27899170 140.49803162 1.3100055456 37.424999237  -999.250000 1.2149711847
 1309.9161377  -999.250000 17.750000000 0.0069711539  -999.250000 2.0042057037 45.214649200 140.34661865 141.56083679 1.3170056343 37.549999237  -999.250000 1.1789855957
 1310.0686035  -999.250000 17.327999115 0.0050064051  -999.250000 2.0059840679 39.777542114 141.32485962 142.64060974 1.3240000010 34.799999237  -999.250000 1.1610040665
 1310.2209473  -999.250000 17.093999863 0.0000160256  -999.250000 2.0015246868 35.468151093 141.74391174 142.99334717 1.3239928484 34.049999237  -999.250000 1.1660088301
 1310.3734131  -999.250000 17.625000000 -0.003990385  -999.250000 1.9965907335 34.410205841 141.55827332 142.83970642 1.3149992228 35.299999237  -999.250000 1.1770032644
 1310.5257568  -999.250000 17.812999725 -0.004000000  -999.250000 1.9898476601 39.656848907 141.85166931 143.07603455 1.3140056133 36.799999237  -999.250000 1.1809896231
 1310.6782227  -999.250000 17.358999252 -0.005995193  -999.250000 1.9799432755 40.722957611 143.30590820 144.49647522 1.3210023642 36.174999237  -999.250000 1.1679919958
 1310.8305664  -999.250000 17.375000000 -0.003009608  -999.250000 1.9734462500 45.653018951 144.58753967 145.88362122 1.3240008354 35.424999237  -999.250000 1.1580128670
 1310.9830322  -999.250000 17.406000137 0.0059783654  -999.250000 1.9747110605 41.938198090 144.45022583 145.69250488 1.3249984980 33.924999237  -999.250000 1.1740208864
 1311.1353760  -999.250000 18.062999725 0.0239423532  -999.250000 1.9759998322 42.062099457 143.00248718 144.19996643 1.3240008354 32.799999237  -999.250000 1.1869952679
 1311.2878418  -999.250000 17.422000885 0.0190120190  -999.250000 1.9684832096 40.936397552 142.45007324 143.71260071 1.3250080347 34.674999237  -999.250000 1.1809519529
 1311.4401855  -999.250000 17.000000000 0.0000608487  -999.250000 1.9590760469 39.937099457 144.15705872 145.33467102 1.3300064802 34.924999237  -999.250000 1.1509776115
 1311.5926514  -999.250000 17.187999725 -0.009975961  -999.250000 1.9549280405 38.808696747 147.04531860 148.35426331 1.3379936218 34.299999237  -999.250000 1.1229823828
 1311.7449951  -999.250000 17.952999115 -0.008006405  -999.250000 1.9536492825 36.125827789 149.85630798 151.14610291 1.3339887857 34.424999237  -999.250000 1.1120088100
 1311.8973389  -999.250000 17.422000885 -0.010990385  -999.250000 1.9543458223 37.156349182 149.66799927 150.94091797 1.3199880123 35.299999237  -999.250000 1.1230432987
 1312.0498047  -999.250000 16.843999863 -0.011000000  -999.250000 1.9648035765 37.595230103 147.22621155 148.50491333 1.3049951792 33.799999237  -999.250000 1.1770129204
 1312.2021484  -999.250000 17.312999725 -0.013990385  -999.250000 1.9849629402 39.122848511 144.20147705 145.44393921 1.2990056276 35.049999237  -999.250000 1.1930103302
 1312.3546143  -999.250000 17.375000000 -0.005021635  -999.250000 2.0016438961 36.436771393 141.61099243 142.92472839 1.3060008287 35.424999237  -999.250000 1.2059855461
 1312.5069580  -999.250000 17.702999115 -0.002009608  -999.250000 2.0009417534 34.903507233 139.52990723 140.68002319 1.3069880009 36.049999237  -999.250000 1.1880159378
 1312.6594238  -999.250000 17.422000885 -0.000004808  -999.250000 1.9863172770 31.799192429 137.73936462 138.94387817 1.2919880152 35.924999237  -999.250000 1.2080111504
 1312.8117676  -999.250000 17.593999863 -0.002990392  -999.250000 1.9670311213 34.532276154 138.41738892 139.65670776 1.2769790888 36.424999237  -999.250000 1.2219655514
 1312.9642334  -999.250000 17.187999725 -0.006990385  -999.250000 1.9517250061 36.124198914 141.68139648 142.92037964 1.2509728670 36.424999237  -999.250000 1.1789087057
 1313.1165771  -999.250000 17.672000885 -0.006003202  -999.250000 1.9424760342 35.627479553 144.84220886 146.12171936 1.2339903116 36.299999237  -999.250000 1.1219903231
 1313.2690430  -999.250000 17.858999252 -0.002009616  -999.250000 1.9384326935 38.726707458 146.51823425 147.79800415 1.2219696045 36.549999237  -999.250000 1.1100159883
 1313.4213867  -999.250000 17.766000748 -0.004990392  -999.250000 1.9386986494 43.535179138 146.77713013 148.07017517 1.2029902935 36.799999237  -999.250000 1.1199911833
 1313.5738525  -999.250000 17.375000000 -0.013978366  -999.250000 1.9448188543 48.740642548 146.80648804 148.04450989 1.1910208464 35.924999237  -999.250000 1.1089534760
 1313.7261963  -999.250000 17.406000137 -0.011009607  -999.250000 1.9581718445 42.901664734 147.57788086 148.91979980 1.2040096521 35.799999237  -999.250000 1.0799711943
 1313.8785400  -999.250000 17.406000137 -0.005019231  -999.250000 1.9719250202 37.497398376 148.68408203 149.95635986 1.2159999609 36.299999237  -999.250000 1.0440144539
 1314.0310059  -999.250000 16.952999115 0.0029743796  -999.250000 1.9809201956 34.252178192 147.94131470 149.24484253 1.2159959078 35.424999237  -999.250000 1.0620417595
 1314.1833496  -999.250000 17.141000748 0.0000096154  -999.250000 1.9845880270 36.971702576 144.61680603 145.86979675 1.2109967470 34.924999237  -999.250000 1.1140415668
 1314.3358154  -999.250000 17.422000885 -0.005980785  -999.250000 1.9850908518 40.344978333 140.74328613 141.89410400 1.2070040703 34.549999237  -999.250000 1.1660088301
 1314.4881592  -999.250000 17.437999725 -0.003009615  -999.250000 1.9842791557 41.564826965 138.77659607 139.95384216 1.2120152712 33.924999237  -999.250000 1.1769824028
 1314.6406250  -999.250000 17.452999115 -0.004995192  -999.250000 1.9850993156 43.840923309 140.24470520 141.46443176 1.2310184240 34.674999237  -999.250000 1.1549711227
 1314.7929688  -999.250000 17.577999115 0.0109487586  -999.250000 1.9893567562 40.001300812 143.56156921 144.85540771 1.2540135384 36.299999237  -999.250000 1.1189870834
 1314.9454346  -999.250000 17.922000885 0.0040168273  -999.250000 1.9934782982 41.617145538 145.80278015 147.13793945 1.2710015774 35.674999237  -999.250000 1.1030000448
 1315.0977783  -999.250000 17.687999725 0.0079871900  -999.250000 1.9971343279 36.719001770 145.46401978 146.69747925 1.2719943523 35.924999237  -999.250000 1.1030088663
 1315.2502441  -999.250000 17.718999863 0.0060048075  -999.250000 1.9976470470 36.714447021 142.35726929 143.65647888 1.2649840117 34.924999237  -999.250000 1.1140320301
