# LAS format log file from PETREL
# Project units are specified as depth units
#==================================================================
~Version information
VERS.   2.0:
WRAP.   NO:
#==================================================================
~Well
STRT .m      821.52105713 :
STOP .m      2574.1203613 :
STEP .m     0.00000000 :
NULL .        -999.250000 :
COMP.           : COMPANY
WELL.  31/4-8   : WELL
FLD.            : FIELD
LOC.            : LOCATION
SRVC.           : SERVICE COMPANY
DATE.  2018-09-11 14:48:38   : Log Export Date {yyyy-MM-dd HH:mm:ss}
PROV.           : PROVINCE
UWI.   31/4-8   : UNIQUE WELL ID
API.            : API NUMBER
#==================================================================
~Curve
DEPT .m                   : DEPTH
Lithology_geolink ._      : Lithology_geolink
CALI .in                  : CALI
DRHO .g/cm3               : DRHO
NPHI .m3/m3               : NPHI
RHOB .g/cm3               : RHOB
GR .gAPI                  : GR
DTC .us/ft                : DTC
DTE .us/ft                : DTE
RDEP .ohm.m               : RDEP
SP .mV                    : SP
RSHA .ohm.m               : RSHA
RMED .ohm.m               : RMED
~Parameter
#==================================================================
~Ascii
# ...
 1970.0069580 6.0000000000 18.643999100 0.1119759828 0.6255067587 2.2319352627 71.929183960 116.53756714 112.60160065 1.1040223837 -66.28995514  -999.250000 0.6140000224
 1970.1594238 6.0000000000 18.534000397 0.1179903820 0.5855181217 2.2539646626 72.352630615 115.47890472 111.47103119 1.1320184469 -68.72979736  -999.250000 0.6340000033
 1970.3117676 6.0000000000 18.502000809 0.1209927946 0.5768374801 2.2679662704 72.910217285 114.45218658 110.52226257 1.1550143957 -67.23036194  -999.250000 0.6499999762
 1970.4642334 6.0000000000 18.652999878 0.1269903928 0.6099700928 2.2759871483 73.705093384 114.61726379 110.64835358 1.1730055809 -67.68020630  -999.250000 0.6620000005
 1970.6165771 6.0000000000 18.997999191 0.1309903860 0.6610062122 2.2660241127 75.113479614 116.06839752 112.12531281 1.1799975634 -69.18119049  -999.250000 0.6700000167
 1970.7690430 6.0000000000 19.372999191 0.1230128258 0.6801143289 2.2250657082 76.181434631 119.18589783 115.16833496 1.1769872904 -68.17088318  -999.250000 0.6740000248
 1970.9213867 6.0000000000 19.523000717 0.1020504385 0.6567651629 2.1761178970 75.793258667 122.11921692 118.20099640 1.1689959764 -68.72038269  -999.250000 0.6710000038
 1971.0738525 6.0000000000 19.363000870 0.0820320547 0.6250362992 2.1520383358 74.552986145 124.01136780 120.02839661 1.1640015841 -67.94889832  -999.250000 0.6609839797
 1971.2261963 6.0000000000 19.079999924 0.0720240176 0.6068481803 2.1579856873 73.592071533 124.87526703 120.84197998 1.1650096178 -67.26047516  -999.250000 0.6509912014
 1971.3786621 6.0000000000 18.917999268 0.0670080110 0.5988690853 2.1689822674 73.427391052 125.67813873 121.72290039 1.1770416498 -65.36141968  -999.250000 0.6399871707
 1971.5310059 6.0000000000 18.936000824 0.0630064085 0.5927595496 2.1699984074 73.810760498 127.04697418 123.12213898 1.2030264139 -67.48935699  -999.250000 0.6319968104
 1971.6833496 6.0000000000 19.017000198 0.0669903904 0.5898293257 2.1719951630 73.930618286 126.82535553 122.79988098 1.2360191345 -65.44023132  -999.250000 0.6279976368
 1971.8358154 6.0000000000 19.045999527 0.0879663453 0.5894013643 2.1769919395 73.279098511 122.26922607 118.32594299 1.2600103617 -64.48033142  -999.250000 0.6249992251
 1971.9881592 6.0000000000 19.024000168 0.1159327403 0.5840172768 2.1789951324 72.364929199 120.57635498 116.68044281 1.2729935646 -68.63987732  -999.250000 0.6239992380
 1972.1406250 6.0000000000 19.034000397 0.1349695623 0.5738625526 2.1750063896 71.943344116 126.46206665 122.50726318 1.2649759054 -67.24044800  -999.250000 0.6229935884
 1972.2929688 6.0000000000 19.131999969 0.1399879903 0.5636826158 2.1700119972 72.379592896 129.00299072 125.02336884 1.2349663973 -67.80038452  -999.250000 0.6149848104
 1972.4454346 6.0000000000 19.318000793 0.1380032003 0.5517586470 2.1690015793 73.658920288 126.96544647 123.04782104 1.1929687262 -69.52038574  -999.250000 0.5959799886
 1972.5977783 6.0000000000 19.590999603 0.1360048056 0.5378147364 2.1680023670 75.793159485 124.54066467 120.58918762 1.1539791822 -68.75074768  -999.250000 0.5709791780
 1972.7502441 6.0000000000 19.944999695 0.1240192279 0.5321036577 2.1360511780 77.888961792 123.39307404 119.38055420 1.1279888153 -68.44004822  -999.250000 0.5449848175
 1972.9025879 6.0000000000 20.306999207 0.0950696543 0.5431146026 2.0601825714 78.824012756 123.15170288 119.20195770 1.1139959097 -69.74018860  -999.250000 0.5259968042
 1973.0550537 6.0000000000 20.527000427 0.0550641008 0.5661146641 1.9881154299 78.788093567 123.11479950 119.19999695 1.1090047359 -69.97943115  -999.250000 0.5220112205
 1973.2073975 6.0000000000 20.455999374 0.0200840663 0.5931533575 1.9949831963 77.910812378 123.21675110 119.19999695 1.1120064259 -68.99976349  -999.250000 0.5290184021
 1973.3598633 6.0000000000 20.056997299 0.0040256414 0.6194967628 2.1068205833 76.298873901 123.27771759 119.19999695 1.1200191975 -69.95079803  -999.250000 0.5520528555
 1973.5122070 6.0000000000 19.458999634 0.0069951927 0.6294282675 2.2767274380 74.527679443 123.16579437 119.19999695 1.1320199966 -70.45030975  -999.250000 0.5850528479
 1973.6646729 6.0000000000 18.882999420 0.0239727776 0.6069641709 2.4157772064 73.095443726 123.13909149 119.19999695 1.1570527554 -70.83913422  -999.250000 0.6513651013
 1973.8170166 6.0000000000 18.500000000 0.0429695509 0.5636888742 2.4659199715 71.475196838 123.23774719 119.19999695 1.1900360584 -70.29999542  -999.250000 0.8788525462
 1973.9693604 5.0000000000 18.326999664 0.0559687763 0.5243859291 2.4380671978 69.277046204 123.11589813 119.19999695 1.2350392342 -70.28993225  -999.250000 0.6950119734
 1974.1218262 5.0000000000 18.274000168 0.0550016016 0.4970574081 2.3850848675 68.257247925 123.18772125 119.19999695 1.2840368748 -70.20013428  -999.250000 0.7100015879
 1974.2741699 5.0000000000 18.249000549 0.0440264195 0.4755588472 2.3460936546 69.821960449 123.21762848 119.19999695 1.3300209045 -70.37024689  -999.250000 0.7119967937
 1974.4266357 5.0000000000 18.208999634 0.0410048105 0.4594586492 2.3300256729 72.298049927 123.27778625 119.19999695 1.3560031652 -71.92011261  -999.250000 0.7079976201
 1974.5789795 6.0000000000 18.166999817 0.0509759784 0.4558614492 2.3280048370 73.100440979 123.16581726 119.19999695 1.3599832058 -72.05966949  -999.250000 0.7049983740
 1974.7314453 6.0000000000 18.150999069 0.0619823709 0.4664744139 2.3289983273 72.065505981 123.13897705 119.19999695 1.3389735222 -71.64952087  -999.250000 0.7029983997
 1974.8837891 6.0000000000 18.156999588 0.0619999990 0.4844423831 2.3280024529 70.864852905 123.23774719 119.19999695 1.3059767485 -71.05013275  -999.250000 0.7009975910
 1975.0362549 6.0000000000 18.159000397 0.0540128201 0.5010102391 2.3250048161 70.147720337 123.11599731 119.19999695 1.2769646645 -69.97200775  -999.250000 0.6979984045
 1975.1885986 6.0000000000 18.142000198 0.0490120091 0.5137292743 2.3190143108 68.957817078 123.18779755 119.19999695 1.2549935579 -72.46938324  -999.250000 0.6970032454
 1975.3410645 6.0000000000 18.107999802 0.0470032021 0.5234866142 2.3090159893 66.662521362 123.21775055 119.19999695 1.2469952106 -72.93885040  -999.250000 0.7010015845
 1975.4934082 5.0000000000 18.072000504 0.0410144143 0.5298296809 2.2980265617 64.513885498 123.25392914 119.19999695 1.2439975739 -71.59981537  -999.250000 0.7020072341
 1975.6458740 5.0000000000 18.051000595 0.0310160257 0.5279246569 2.2900128365 63.870532990 123.11112213 119.19999695 1.2409968376 -72.62051392  -999.250000 0.7110176682
 1975.7982178 5.0000000000 18.052000046 0.0230128206 0.5117917657 2.2840094566 64.562774658 123.17730713 119.19999695 1.2389975786 -73.56021881  -999.250000 0.7220095992
 1975.9505615 5.0000000000 18.099000931 0.0259927940 0.4869098365 2.2780144215 65.282264709 123.20375824 119.19999695 1.2359999418 -72.59006500  -999.250000 0.7340080142
 1976.1030273 5.0000000000 18.243000031 0.0399775617 0.4692664444 2.2720096111 65.103286743 123.18885040 119.19999695 1.2360031605 -75.16973877  -999.250000 0.7440096140
 1976.2553711 5.0000000000 18.506999969 0.0589543656 0.4682829678 2.2700047493 64.195182800 123.18869781 119.19999695 1.2400071621 -74.85067749  -999.250000 0.7560079694
 1976.4078369 5.0000000000 18.781999588 0.0719791651 0.4776374400 2.2739934921 62.740329742 123.21767426 119.19999695 1.2490087748 -74.45035553  -999.250000 0.7660055757
 1976.5601807 5.0000000000 18.858999252 0.0759903863 0.4816571474 2.2839758396 61.111915588 123.25397491 119.19999695 1.2600071430 -74.90003967  -999.250000 0.7730063796
 1976.7126465 5.0000000000 18.646999359 0.0740032047 0.4726318121 2.2959806919 60.386157990 123.05307007 119.15486145 1.2690064907 -74.95037079  -999.250000 0.7810056210
 1976.8649902 5.0000000000 18.288000107 0.0720048025 0.4614857435 2.3079712391 60.837909698 122.85408020 118.91090393 1.2770071030 -75.42008972  -999.250000 0.7880071998
 1977.0174561 5.0000000000 18.003000259 0.0729983971 0.4601630867 2.3149888515 61.045669556 122.46601868 118.46969604 1.2860047817 -75.52934265  -999.250000 0.7970144153
 1977.1697998 5.0000000000 17.878000259 0.0739976019 0.4663501382 2.3110096455 60.026454926 121.82793427 117.93683624 1.2890015841 -75.11964417  -999.250000 0.8060023785
