# LAS format log file from PETREL
# Project units are specified as depth units
#==================================================================
~Version information
VERS.   2.0:
WRAP.   NO:
#==================================================================
~Well
STRT .m      821.52105713 :
STOP .m      2574.1203613 :
STEP .m     0.00000000 :
NULL .        -999.250000 :
COMP.           : COMPANY
WELL.  31/4-8   : WELL
FLD.            : FIELD
LOC.            : LOCATION
SRVC.           : SERVICE COMPANY
DATE.  2018-09-11 14:48:38   : Log Export Date {yyyy-MM-dd HH:mm:ss}
PROV.           : PROVINCE
UWI.   31/4-8   : UNIQUE WELL ID
API.            : API NUMBER
#==================================================================
~Curve
DEPT .m                   : DEPTH
Lithology_geolink ._      : Lithology_geolink
CALI .in                  : CALI
DRHO .g/cm3               : DRHO
NPHI .m3/m3               : NPHI
RHOB .g/cm3               : RHOB
GR .gAPI                  : GR
DTC .us/ft                : DTC
DTE .us/ft                : DTE
RDEP .ohm.m               : RDEP
SP .mV                    : SP
RSHA .ohm.m               : RSHA
RMED .ohm.m               : RMED
~Parameter
#==================================================================
~Ascii
# ...
 938.56420898  -999.250000 17.693000793 -0.046993591  -999.250000 1.9860079288 64.199996948 140.92477417 140.12069702 1.8829840422 132.99958801  -999.250000 1.0550099611
 938.71661377  -999.250000 17.663000107 -0.042990390  -999.250000 1.9910048246 64.021003723 141.45986938 140.61170959 1.8750000000 132.78755188  -999.250000 1.0600140095
 938.86901855  -999.250000 17.631000519 -0.036995195  -999.250000 1.9939919710 62.162998199 141.68824768 140.85791016 1.8749899864 131.07092285  -999.250000 1.0670160055
 939.02142334  -999.250000 17.610000610 -0.033991992  -999.250000 1.9889855385 59.890998840 141.42671204 140.58813477 1.8699899912 132.52984619  -999.250000 1.0750141144
 939.17382813  -999.250000 17.604000092 -0.028988786  -999.250000 1.9799855947 58.970001221 140.83428955 140.04045105 1.8649719954 131.95089722  -999.250000 1.0820159912
 939.32617188  -999.250000 17.617000580 -0.021991590  -999.250000 1.9709914923 59.699001312 140.13322449 139.36334229 1.8509646654 132.39996338  -999.250000 1.0900112391
 939.47857666  -999.250000 17.639999390 -0.014996395  -999.250000 1.9639952183 60.619998932 139.71458435 138.89492798 1.8289419413 132.37966919  -999.250000 1.0970100164
 939.63098145  -999.250000 17.652999878 -0.012006007  -999.250000 1.9599988461 60.979000092 139.63449097 138.79837036 1.7999339104 132.21008301  -999.250000 1.1019979715
 939.78338623  -999.250000 17.639999390 -0.017010817  -999.250000 1.9590023756 62.917999268 140.23446655 139.40362549 1.7669339180 132.24949646  -999.250000 1.1009839773
 939.93579102  -999.250000 17.603000641 -0.026009612  -999.250000 1.9610079527 66.099998474 141.35939026 140.50273132 1.7339198589 132.00357056  -999.250000 1.0929740667
 940.08819580  -999.250000 17.565000534 -0.032001603  -999.250000 1.9660079479 68.908996582 142.11322021 141.28721619 1.6939159632 133.77972412  -999.250000 1.0799740553
 940.24060059  -999.250000 17.547000885 -0.032996796  -999.250000 1.9710047245 69.669998169 142.12286377 141.33819580 1.6519178152 133.64038086  -999.250000 1.0669659376
 940.39300537  -999.250000 17.559999466 -0.030996796  -999.250000 1.9739935398 67.380996704 141.70927429 140.87298584 1.6109257936 133.82763672  -999.250000 1.0499658585
 940.54541016  -999.250000 17.599000931 -0.029004805  -999.250000 1.9699808359 65.379997253 141.20343018 140.34681702 1.5739299059 132.14881897  -999.250000 1.0329619646
 940.69781494  -999.250000 17.648000717 -0.032006413  -999.250000 1.9579775333 65.299003601 141.10934448 140.27000427 1.5389459133 131.06297302  -999.250000 1.0139640570
 940.85021973  -999.250000 17.687999725 -0.035997994  -999.250000 1.9439967871 66.268997192 141.48913574 140.67794800 1.5119658709 133.54130554  -999.250000 0.9959679246
 941.00262451  -999.250000 17.711000443 -0.034979977  -999.250000 1.9420208931 66.801002502 141.96701050 141.15232849 1.4949820042 134.68814087  -999.250000 0.9799739718
 941.15502930  -999.250000 17.724000931 -0.024973970  -999.250000 1.9550256729 65.691001892 142.44389343 141.59982300 1.4859939814 133.25570679  -999.250000 0.9669839740
 941.30737305  -999.250000 17.733999252 -0.011987185  -999.250000 1.9710071087 63.551998138 143.00805664 142.19171143 1.4830112457 129.62266541  -999.250000 0.9590016007
 941.45977783  -999.250000 17.742000580 -0.004003205  -999.250000 1.9769928455 61.180999756 143.82414246 142.99389648 1.4900176525 132.53031921  -999.250000 0.9600079656
 941.61218262  -999.250000 17.743000031 -0.006010012  -999.250000 1.9709903002 60.298999786 144.36523438 143.53131104 1.5010200739 132.72898865  -999.250000 0.9650220275
 941.76458740  -999.250000 17.735000610 -0.011008009  -999.250000 1.9629940987 62.377998352 144.12362671 143.34606934 1.5110280514 132.23118591  -999.250000 0.9760260582
 941.91699219  -999.250000 17.718999863 -0.015010011  -999.250000 1.9579951763 64.879997253 143.56205750 142.72024536 1.5250300169 133.31887817  -999.250000 0.9890180230
 942.06939697  -999.250000 17.694999695 -0.020014016  -999.250000 1.9539903402 64.450996399 142.74560547 141.90214539 1.5400359631 132.76150513  -999.250000 0.9980040193
 942.22180176  -999.250000 17.660999298 -0.027020024  -999.250000 1.9479870796 61.950000763 142.14547729 141.31150818 1.5580340624 134.00645447  -999.250000 0.9999939799
 942.37420654  -999.250000 17.618000031 -0.037012015  -999.250000 1.9399936199 59.720001221 142.13673401 141.30386353 1.5750300884 132.23944092  -999.250000 0.9969799519
 942.52661133  -999.250000 17.576999664 -0.043004006  -999.250000 1.9359984398 60.237998962 142.26754761 141.49150085 1.5900300741 131.96260071  -999.250000 0.9869739413
 942.67901611  -999.250000 17.545999527 -0.045004006  -999.250000 1.9349967241 63.735000610 142.22599792 141.37550354 1.6050280333 134.25958252  -999.250000 0.9739719629
 942.83142090  -999.250000 17.533000946 -0.047012012  -999.250000 1.9329967499 68.096000671 142.12387085 141.27708435 1.6190240383 134.06205750  -999.250000 0.9599699378
 942.98382568  -999.250000 17.528999329 -0.053018022  -999.250000 1.9310047626 71.819000244 142.19647217 141.34405518 1.6310380697 136.09564209  -999.250000 0.9449779391
 943.13623047  -999.250000 17.524999619 -0.062008008  -999.250000 1.9340208769 72.592002869 142.09405518 141.25297546 1.6500400305 140.89346313  -999.250000 0.9339799881
 943.28863525  -999.250000 17.521999359 -0.066004008  -999.250000 1.9470288754 69.322998047 141.85588074 141.03744507 1.6700459719 136.13737488  -999.250000 0.9239920378
 943.44097900  -999.250000 17.525999069 -0.068009615  -999.250000 1.9650132656 64.612998962 141.59042358 140.73379517 1.6930432320 133.82986450  -999.250000 0.9199935794
 943.59338379  -999.250000 17.535999298 -0.074014425  -999.250000 1.9760047197 61.110000610 141.32148743 140.48210144 1.7200368643 133.73742676  -999.250000 0.9159967899
 943.74578857  -999.250000 17.555000305 -0.083006002  -999.250000 1.9800035954 61.467998505 141.37576294 140.54719543 1.7430320978 130.89424133  -999.250000 0.9140039682
 943.89819336  -999.250000 17.580999374 -0.085979976  -999.250000 1.9830048084 64.000000000 141.59591675 140.76251221 1.7590140104 134.51171875  -999.250000 0.9160000086
 944.05059814  -999.250000 17.600999832 -0.075963952  -999.250000 1.9870023727 64.780998230 141.83576965 141.07015991 1.7660000324 135.36653137  -999.250000 0.9160000086
 944.20300293  -999.250000 17.613000870 -0.057967961  -999.250000 1.9889935255 63.509998322 142.19236755 141.37710571 1.7659879923 133.63002014  -999.250000 0.9159960151
 944.35540771  -999.250000 17.618999481 -0.041983981  -999.250000 1.9849855900 61.710998535 142.35823059 141.51324463 1.7599679232 128.66206360  -999.250000 0.9139899611
 944.50781250  -999.250000 17.620000839 -0.033991992  -999.250000 1.9759919643 60.880001068 142.44697571 141.59104919 1.7439578772 129.69570923  -999.250000 0.9089919925
 944.66021729  -999.250000 17.620000839 -0.029993992  -999.250000 1.9710047245 60.749000549 142.47790527 141.66108704 1.7229520082 134.03945923  -999.250000 0.9049919844
 944.81262207  -999.250000 17.620000839 -0.026997998  -999.250000 1.9740096331 61.437000275 142.68559265 141.89324951 1.6989479065 133.26799011  -999.250000 0.9009979963
 944.96502686  -999.250000 17.620000839 -0.026000001  -999.250000 1.9800015688 63.897998810 143.18833923 142.32893372 1.6729539633 131.27035522  -999.250000 0.9000039697
 945.11743164  -999.250000 17.621000290 -0.026002003  -999.250000 1.9809887409 66.569999695 143.85635376 142.99798584 1.6499639750 131.95051575  -999.250000 0.9020100236
 945.26983643  -999.250000 17.625999451 -0.026991991  -999.250000 1.9739840031 66.121002197 144.63027954 143.77244568 1.6319779158 132.20812988  -999.250000 0.9070160389
 945.42224121  -999.250000 17.632999420 -0.022985984  -999.250000 1.9639855623 64.430000305 144.89042664 144.06336975 1.6209940910 130.78326416  -999.250000 0.9150220752
 945.57458496  -999.250000 17.638000488 -0.015991988  -999.250000 1.9549891949 63.849998474 144.67398071 143.88226318 1.6180000305 133.41082764  -999.250000 0.9260208607
 945.72698975  -999.250000 17.632999420 -0.011004005  -999.250000 1.9459952116 64.378997803 144.50872803 143.69313049 1.6179920435 134.55195618  -999.250000 0.9390260577
