# LAS format log file from PETREL
# Project units are specified as depth units
#==================================================================
~Version information
VERS.   2.0:
WRAP.   NO:
#==================================================================
~Well
STRT .m      950.21093750 :
STOP .m      2894.8349609 :
STEP .m     0.00000000 :
NULL .        -999.250000 :
COMP.           : COMPANY
WELL.  31/4-2   : WELL
FLD.            : FIELD
LOC.            : LOCATION
SRVC.           : SERVICE COMPANY
DATE.  2018-09-11 14:48:36   : Log Export Date {yyyy-MM-dd HH:mm:ss}
PROV.           : PROVINCE
UWI.   31/4-2   : UNIQUE WELL ID
API.            : API NUMBER
#==================================================================
~Curve
DEPT .m                   : DEPTH
Lithology_geolink ._      : Lithology_geolink
CALI .in                  : CALI
DRHO .g/cm3               : DRHO
NPHI .m3/m3               : NPHI
RHOB .g/cm3               : RHOB
GR .gAPI                  : GR
DTC .us/ft                : DTC
DTE .us/ft                : DTE
RDEP .ohm.m               : RDEP
SP .mV                    : SP
RSHA .ohm.m               : RSHA
RMED .ohm.m               : RMED
~Parameter
#==================================================================
~Ascii
# ...
 2369.3598633 6.0000000000 13.288000107 0.0549791679 0.2815131247 2.5097956657 73.551589966 90.856475830 88.712318420 3.0389742851 53.805946350 3.6349005699 3.6349005699
 2369.5122070 6.0000000000 13.288999557 0.0419839732 0.2834602296 2.5052680969 73.918029785 91.318954468 89.022209167 3.0309839249 53.789146423 3.6039872169 3.6039872169
 2369.6645508 6.0000000000 13.288999557 0.0320096165 0.2773763537 2.5032184124 75.180473328 91.571624756 89.325798035 3.0260000229 53.833656311 3.5999903679 3.5999903679
 2369.8168945 6.0000000000 13.288999557 0.0380176269 0.2813477814 2.5018813610 74.851226807 91.810089111 89.398056030 3.0260031223 53.726264954 3.5969805717 3.5969805717
 2369.9694824 6.0000000000 13.289999962 0.0489551984 0.2924574018 2.4998278618 73.118835449 91.601036072 89.260078430 3.0280194283 53.264457703 3.5849487782 3.5849487782
 2370.1218262 6.0000000000 13.289999962 0.0350160263 0.2978712022 2.4981033802 70.885314941 91.225318909 89.104217529 3.0340352058 52.474372864 3.5689454079 3.5689454079
 2370.2741699 6.0000000000 13.291000366 0.0450128205 0.2923728526 2.4987502098 69.208663940 90.891647339 89.027099609 3.0450160503 52.591167450 3.5519456863 3.5519456863
 2370.4265137 5.0000000000 13.291000366 0.0530064106 0.2817024887 2.4972999096 67.753898621 91.541793823 89.021102905 3.0499918461 52.642272949 3.5349857807 3.5349857807
 2370.5791016 5.0000000000 13.291000366 0.0569807999 0.2832509279 2.4896872044 68.319129944 91.051589966 89.010108948 3.0450031757 52.188358307 3.5260546207 3.5260546207
 2370.7314453 5.0000000000 13.291999817 0.0509999990 0.2866574228 2.4837532043 68.978393555 91.327835083 88.957183838 3.0460288525 52.300205231 3.5431184769 3.5431184769
 2370.8837891 5.0000000000 13.291999817 0.0510192290 0.2850445211 2.4837756157 66.726684570 90.987098694 88.913505554 3.0549936295 52.365055084 3.5801346302 3.5801346302
 2371.0361328 5.0000000000 13.296999931 0.0630032048 0.2878645360 2.4877378941 65.289543152 91.324020386 88.931701660 3.0529968739 52.695590973 3.6221344471 3.6221344471
 2371.1887207 5.0000000000 13.366999626 0.0650063977 0.2906623185 2.4918503761 66.253906250 90.900047302 88.997428894 3.0520546436 53.188316345 3.6640801430 3.6640801430
 2371.3410645 5.0000000000 13.383000374 0.0669727549 0.2851252258 2.4934146404 68.097213745 91.680976868 89.070816040 3.0690705776 52.352489471 3.6889004707 3.6889004707
 2371.4934082 5.0000000000 13.373000145 0.0500208326 0.2697012722 2.4936878681 70.102966309 91.234268188 89.200576782 3.0910289288 52.193313599 3.6578173637 3.6578173637
 2371.6457520 5.0000000000 13.373999596 0.0629887804 0.2704999745 2.4956688881 71.953926086 92.009826660 89.454162598 3.1000223160 52.291618347 3.6009008884 3.6009008884
 2371.7980957 6.0000000000 13.373999596 0.0560080148 0.2704732120 2.4988000393 71.902755737 91.978096008 89.734680176 3.1070401669 52.484176636 3.5699741840 3.5699741840
 2371.9506836 6.0000000000 13.373999596 0.0610288009 0.2662132978 2.5025684834 70.507362366 91.833976746 89.917488098 3.1321122646 52.592926025 3.5539646149 3.5539646149
 2372.1030273 5.0000000000 13.374999046 0.0699919909 0.2578957975 2.5054297447 70.932830811 92.357940674 89.987831116 3.1670994759 52.568752289 3.5430064201 3.5430064201
 2372.2553711 5.0000000000 13.374999046 0.0649807677 0.2552850544 2.4980993271 70.826026917 92.307647705 89.954383850 3.1981086731 52.180671692 3.5450863838 3.5450863838
 2372.4077148 5.0000000000 13.376000404 0.0529903844 0.2584550679 2.4841003418 69.592262268 91.854812622 89.855056763 3.2320721149 52.079547882 3.5721089840 3.5721089840
 2372.5603027 5.0000000000 13.376000404 0.0469967984 0.2616119385 2.4750297070 67.258506775 92.187782288 89.765586853 3.2771377563 52.423194885 3.6404359341 3.6404359341
 2372.7126465 5.0000000000 13.376000404 0.0460112169 0.2590916157 2.4733729362 66.481765747 91.848518372 89.659248352 3.3201057911 52.794624329 3.7763655186 3.7763655186
 2372.8649902 5.0000000000 13.376999855 0.0529711545 0.2538659275 2.4758355618 66.955223083 91.687049866 89.393974304 3.3530640602 52.677955627 3.8900673389 3.8900673389
 2373.0173340 5.0000000000 13.376999855 0.0350128189 0.2513428926 2.4775002003 67.095153809 91.144981384 88.950683594 3.3730254173 52.663990021 3.9108366966 3.9108366966
 2373.1699219 5.0000000000 13.377999306 0.0430160016 0.2531845570 2.4814503193 69.061576843 90.885528564 88.586006165 3.3809711933 52.660503387 3.8596441746 3.8596441746
 2373.3222656 5.0000000000 13.377999306 0.0480000004 0.2670865059 2.4864892960 70.178451538 90.783660889 88.663185120 3.3718845844 52.506000519 3.7487084866 3.7487084866
 2373.4746094 6.0000000000 13.377999306 0.0479967967 0.2836081684 2.4843583107 71.082130432 91.623283386 89.159339905 3.3358716965 52.506847382 3.6579039097 3.6579039097
 2373.6269531 6.0000000000 13.378999710 0.0459871814 0.2824775577 2.4784808159 72.410461426 91.815834045 89.566894531 3.2959072590 52.769889832 3.6279904842 3.6279904842
 2373.7792969 6.0000000000 13.378999710 0.0379855745 0.2809440792 2.4710686207 72.696594238 91.739219666 89.614395142 3.2669487000 52.736110687 3.6250400543 3.6250400543
 2373.9318848 6.0000000000 13.380000114 0.0290223993 0.2772440910 2.4627115726 73.694610596 91.819427490 89.381217957 3.2348780632 52.803356171 3.6501379013 3.6501379013
 2374.0842285 6.0000000000 13.380000114 0.0359967947 0.2722780108 2.4575045109 75.129455566 90.792549133 88.859169006 3.1968846321 52.598857880 3.6931314468 3.6931314468
 2374.2365723 5.0000000000 13.380000114 0.0339823738 0.2648027539 2.4538245201 74.165199280 90.638305664 88.215744019 3.1609423161 51.309658051 3.7341151237 3.7341151237
 2374.3889160 5.0000000000 13.380999565 0.0230000000 0.2603107691 2.4523813725 72.421386719 89.961723328 87.722373962 3.1430063248 51.200790405 3.7700576782 3.7700576782
 2374.5415039 5.0000000000 13.380999565 0.0230512004 0.2670070827 2.4612214565 72.042259216 89.603813171 87.510200500 3.1469871998 49.821823120 3.8060960770 3.8060960770
 2374.6938477 5.0000000000 13.381999969 0.0390192308 0.2629848719 2.4755108356 72.121620178 90.120666504 87.559814453 3.1429710388 49.152530670 3.8359904289 3.8359904289
 2374.8461914 5.0000000000 13.381999969 0.0510128178 0.2598072886 2.4876692295 71.883644104 89.796386719 87.724098206 3.1340065002 51.497383118 3.8328588009 3.8328588009
 2374.9985352 5.0000000000 13.381999969 0.0590208322 0.2643777430 2.4971196651 70.411102295 89.908027649 87.874481201 3.1360352039 52.234142303 3.7887887955 3.7887887955
 2375.1511230 5.0000000000 13.383000374 0.0719615966 0.2754203379 2.5013625622 67.358085632 90.140975952 87.980247498 3.1470096111 50.719593048 3.7229294777 3.7229294777
 2375.3034668 5.0000000000 13.383000374 0.0599807687 0.2755133510 2.4950263500 67.076797485 90.379470825 87.996826172 3.1499519348 50.282444000 3.7010416985 3.7010416985
 2375.4558105 5.0000000000 13.432998657 0.0479855761 0.2713696957 2.4813585281 69.447395325 90.034507751 87.896163940 3.1349134445 50.419639587 3.7140960693 3.7140960693
 2375.6081543 5.0000000000 13.453001022 0.0389871821 0.2711932361 2.4699988365 72.184730530 90.058181763 87.702835083 3.1079840660 50.303176880 3.7440702915 3.7440702915
 2375.7604980 5.0000000000 13.413999557 0.0310224351 0.2732055187 2.4679875374 73.263648987 89.478836060 87.540504456 3.1030623913 48.800689697 3.7660048008 3.7660048008
 2375.9128418 5.0000000000 13.404000282 0.0450368002 0.2704159915 2.4790563583 71.796714783 90.110786438 87.661376953 3.1420881748 48.612209320 3.7689919472 3.7689919472
 2376.0651855 5.0000000000 13.404999733 0.0680000037 0.2679199874 2.4954562187 70.366996765 90.379089355 88.048950195 3.1970658302 51.233280182 3.7640545368 3.7640545368
 2376.2177734 5.0000000000 13.404999733 0.0649583340 0.2870350480 2.5010006428 70.033416748 90.258422852 88.390922546 3.2380959988 51.406314850 3.7983136177 3.7983136177
 2376.3701172 5.0000000000 13.406000137 0.0389695503 0.2839439213 2.4934248924 69.673286438 91.192901611 88.545692444 3.2680239677 51.505382538 3.8961873055 3.8961873055
 2376.5224609 5.0000000000 13.406000137 0.0199983995 0.2739344239 2.4818375111 69.854995728 90.447860718 88.593414307 3.2829935551 51.744380951 4.0131587982 4.0131587982
