# LAS format log file from PETREL
# Project units are specified as depth units
#==================================================================
~Version information
VERS.   2.0:
WRAP.   NO:
#==================================================================
~Well
STRT .m      895.02691650 :
STOP .m      2933.5300293 :
STEP .m     0.00000000 :
NULL .        -999.250000 :
COMP.           : COMPANY
WELL.  31/4-5   : WELL
FLD.            : FIELD
LOC.            : LOCATION
SRVC.           : SERVICE COMPANY
DATE.  2018-09-11 14:48:38   : Log Export Date {yyyy-MM-dd HH:mm:ss}
PROV.           : PROVINCE
UWI.   31/4-5   : UNIQUE WELL ID
API.            : API NUMBER
#==================================================================
~Curve
DEPT .m                   : DEPTH
Lithology_geolink ._      : Lithology_geolink
CALI .in                  : CALI
DRHO .g/cm3               : DRHO
SGR .gAPI                 : SGR
NPHI .m3/m3               : NPHI
RHOB .g/cm3               : RHOB
PEF .b/e                  : PEF
GR .gAPI                  : GR
DTC .us/ft                : DTC
DTE .us/ft                : DTE
RDEP .ohm.m               : RDEP
SP .mV                    : SP
RSHA .ohm.m               : RSHA
RMIC .ohm.m               : RMIC
RMED .ohm.m               : RMED
~Parameter
#==================================================================
~Ascii
# ...
 1709.3004150  -999.250000 18.281999588 0.0179695506  -999.250000  -999.250000 2.2535374165  -999.250000 65.203002930 132.15179443 131.24496460 0.7192379832 114.30288696 0.7472450733  -999.250000 0.7470136285
 1709.4527588  -999.250000 18.434999466 0.0249831863  -999.250000  -999.250000 2.2503499985  -999.250000 67.280998230 132.18557739 131.30732727 0.7175164223 114.37471008 0.7395220995  -999.250000 0.7390000224
 1709.6052246  -999.250000 18.684999466 0.0030352564  -999.250000  -999.250000 2.2333943844  -999.250000 68.473999023 133.85224915 132.89558411 0.6935932040 114.30355072 0.7000002861  -999.250000 0.6980000138
 1709.7575684  -999.250000 18.663999557 -0.006975981  -999.250000  -999.250000 2.2121775150  -999.250000 67.530998230 138.16564941 137.24911499 0.6663261056 114.24971008 0.6793288589  -999.250000 0.6790000200
 1709.9100342  -999.250000 18.336999893 -0.000011218  -999.250000  -999.250000 2.1803123951  -999.250000 66.291999817 139.53102112 138.72456360 0.6342244148 113.80043793 0.6849997640  -999.250000 0.6850000024
 1710.0623779  -999.250000 18.115999222 0.0119711766  -999.250000  -999.250000 2.1429057121  -999.250000 63.867000580 141.94885254 141.02622986 0.5963678360 113.48519135 0.6744140983  -999.250000 0.6740000248
 1710.2148438  -999.250000 18.329999924 0.0120000001  -999.250000  -999.250000 2.1196665764  -999.250000 61.077999115 145.49331665 144.54081726 0.5805972815 113.31206512 0.6177137494  -999.250000 0.6159999967
 1710.3671875  -999.250000 18.639999390 0.0249791667  -999.250000  -999.250000 2.1184151173  -999.250000 62.446998596 146.38407898 145.57135010 0.5756579638 112.98841095 0.5836653113  -999.250000 0.5830000043
 1710.5195313  -999.250000 18.613000870 0.0210096072  -999.250000  -999.250000 2.1302204132  -999.250000 61.676998138 145.64384460 144.68109131 0.5691697001 113.03106689 0.5727614164  -999.250000 0.5720000267
 1710.6719971  -999.250000 18.556999207 0.0209999997  -999.250000  -999.250000 2.1458380222  -999.250000 68.892997742 143.68295288 142.72256470 0.5640520453 113.14691162 0.6088237166  -999.250000 0.6100000143
 1710.8243408  -999.250000 18.681999207 -0.002942354  -999.250000  -999.250000 2.1648590565  -999.250000 71.911003113 142.34484863 141.48875427 0.5673503280 113.20290375 0.6292651296  -999.250000 0.6299999952
 1710.9768066  -999.250000 18.813999176 -0.002001603  -999.250000  -999.250000 2.1857213974  -999.250000 76.017997742 141.24412537 140.31575012 0.5614096522 112.97258759 0.6322090030  -999.250000 0.6320000291
 1711.1291504  -999.250000 18.729999542 0.0139615694  -999.250000  -999.250000 2.1917030811  -999.250000 75.629997253 140.97021484 140.09631348 0.5678643584 113.06866455 0.6491104960  -999.250000 0.6499999762
 1711.2816162  -999.250000 18.610000610 0.0299743582  -999.250000  -999.250000 2.1682636738  -999.250000 70.405998230 142.26272583 141.30459595 0.5632477403 113.30555725 0.6660134792  -999.250000 0.6669999957
 1711.4339600  -999.250000 18.583999634 0.0220192149  -999.250000  -999.250000 2.1316218376  -999.250000 69.306999207 143.90734863 142.99824524 0.5616387725 113.35627747 0.6645258069  -999.250000 0.6639999747
 1711.5864258  -999.250000 18.427999496 0.0130144237  -999.250000  -999.250000 2.1127340794  -999.250000 66.098999023 144.98036194 144.10952759 0.5524777174 113.31205750 0.6360624433  -999.250000 0.6349999905
 1711.7387695  -999.250000 18.274999619 0.0279639717  -999.250000  -999.250000 2.1194531918  -999.250000 67.703002930 146.23165894 145.31335449 0.5426612496 113.23502350 0.6073597670  -999.250000 0.6060000062
 1711.8912354  -999.250000 18.305999756 0.0230080131  -999.250000  -999.250000 2.1317825317  -999.250000 67.931999207 147.44433594 146.45312500 0.5337502360 113.51173401 0.6018505096  -999.250000 0.6019999981
 1712.0435791  -999.250000 18.653999329 0.0100312252  -999.250000  -999.250000 2.1346397400  -999.250000 68.453002930 147.53541565 146.70924377 0.5305624008 113.58126831 0.5860670209  -999.250000 0.5849999785
 1712.1960449  -999.250000 19.169000626 -0.000982372  -999.250000  -999.250000 2.1351358891  -999.250000 67.010002136 147.51629639 146.58473206 0.5380276442 113.85317993 0.5822610259  -999.250000 0.5820000172
 1712.3483887  -999.250000 19.374000549 0.0019951924  -999.250000  -999.250000 2.1449410915  -999.250000 66.703002930 147.41619873 146.49084473 0.5653186440 114.06477356 0.5755748153  -999.250000 0.5749999881
 1712.5008545  -999.250000 19.214000702 0.0000032026  -999.250000  -999.250000 2.1663844585  -999.250000 66.629997253 145.39230347 144.57484436 0.5903863311 114.00056458 0.5755689144  -999.250000 0.5759999752
 1712.6531982  -999.250000 19.073999405 0.0049919873  -999.250000  -999.250000 2.1957159042  -999.250000 70.917999268 141.50645447 140.58924866 0.6148003340 114.24929047 0.6075600386  -999.250000 0.6090000272
 1712.8055420  -999.250000 18.923000336 0.0000120096  -999.250000  -999.250000 2.2311666012  -999.250000 73.030998230 137.04119873 136.20744324 0.6435014606 114.25622559 0.6737973094  -999.250000 0.6759999990
 1712.9580078  -999.250000 18.427999496 0.0079871798  -999.250000  -999.250000 2.2731144428  -999.250000 71.928001404 132.18997192 131.23696899 0.6801415086 114.09110260 0.7308058739  -999.250000 0.7329999804
 1713.1103516  -999.250000 18.118000031 0.0419183336  -999.250000  -999.250000 2.3076276779  -999.250000 64.764999390 126.69274139 125.72456360 0.7215870023 113.95330048 0.7790557742  -999.250000 0.7810000181
 1713.2628174  -999.250000 18.141000748 0.0569759607  -999.250000  -999.250000 2.3128159046  -999.250000 63.352001190 125.32439423 124.43617249 0.7735160589 113.75658417 0.8281751871  -999.250000 0.8299999833
 1713.4151611  -999.250000 18.170999527 0.0659783855  -999.250000  -999.250000 2.2904627323  -999.250000 63.339000702 127.30780792 126.36151886 0.7918369174 113.51598358 0.8817616105  -999.250000 0.8840000033
 1713.5676270  -999.250000 18.238000870 0.0460320525  -999.250000  -999.250000 2.2662951946  -999.250000 66.866996765 129.53314209 128.54908752 0.8335182071 113.26943970 0.8765529394  -999.250000 0.8759999871
 1713.7199707  -999.250000 18.107000351 0.0440048054  -999.250000  -999.250000 2.2613244057  -999.250000 64.552001953 132.46228027 131.65179443 0.8552232981 113.06577301 0.8431485891  -999.250000 0.8420000076
 1713.8724365  -999.250000 17.996999741 0.0479935892  -999.250000  -999.250000 2.2710106373  -999.250000 63.310001373 133.16567993 132.26655579 0.8647452593 113.04505920 0.8276672959  -999.250000 0.8270000219
 1714.0247803  -999.250000 18.065999985 0.0420144126  -999.250000  -999.250000 2.2770986557  -999.250000 62.444999695 131.00283813 130.06042480 0.8528097868 113.87357330 0.8210072517  -999.250000 0.8209999800
 1714.1772461  -999.250000 18.162000656 0.0419999994  -999.250000  -999.250000 2.2721047401  -999.250000 66.041999817 129.98139954 129.15765381 0.8652899265 114.50529480 0.8004976511  -999.250000 0.8000000119
 1714.3295898  -999.250000 18.281000137 0.0140672540  -999.250000  -999.250000 2.2639460564  -999.250000 68.550003052 129.56642151 128.62838745 0.8538446426 114.98700714 0.7814956903  -999.250000 0.7810000181
 1714.4820557  -999.250000 18.186000824 0.0120032048  -999.250000  -999.250000 2.2644493580  -999.250000 70.296997070 129.60928345 128.63044739 0.8094049096 115.27091980 0.7767121196  -999.250000 0.7770000100
 1714.6343994  -999.250000 18.121999741 0.0389567316  -999.250000  -999.250000 2.2680754662  -999.250000 67.517997742 130.91851807 130.06045532 0.8153327703 115.26940155 0.7957363129  -999.250000 0.7960000038
 1714.7867432  -999.250000 18.388999939 0.0669327453  -999.250000  -999.250000 2.2576994896  -999.250000 65.530998230 133.58976746 132.61233521 0.7790216804 115.07820892 0.8108207583  -999.250000 0.8109999895
 1714.9392090  -999.250000 18.441999435 0.0470320508  -999.250000  -999.250000 2.2346873283  -999.250000 64.458999634 135.93717957 135.12448120 0.7545411587 114.26486969 0.7668384910  -999.250000 0.7649999857
 1715.0915527  -999.250000 18.256000519 0.0250528418  -999.250000  -999.250000 2.2202031612  -999.250000 67.239997864 138.60813904 137.72010803 0.7510926127 113.96294403 0.7353476286  -999.250000 0.7340000272
