# LAS format log file from PETREL
# Project units are specified as depth units
#==================================================================
~Version information
VERS.   2.0:
WRAP.   NO:
#==================================================================
~Well
STRT .m      950.21093750 :
STOP .m      2894.8349609 :
STEP .m     0.00000000 :
NULL .        -999.250000 :
COMP.           : COMPANY
WELL.  31/4-2   : WELL
FLD.            : FIELD
LOC.            : LOCATION
SRVC.           : SERVICE COMPANY
DATE.  2018-09-11 14:48:36   : Log Export Date {yyyy-MM-dd HH:mm:ss}
PROV.           : PROVINCE
UWI.   31/4-2   : UNIQUE WELL ID
API.            : API NUMBER
#==================================================================
~Curve
DEPT .m                   : DEPTH
Lithology_geolink ._      : Lithology_geolink
CALI .in                  : CALI
DRHO .g/cm3               : DRHO
NPHI .m3/m3               : NPHI
RHOB .g/cm3               : RHOB
GR .gAPI                  : GR
DTC .us/ft                : DTC
DTE .us/ft                : DTE
RDEP .ohm.m               : RDEP
SP .mV                    : SP
RSHA .ohm.m               : RSHA
RMED .ohm.m               : RMED
~Parameter
#==================================================================
~Ascii
# ...
 2113.3276367 11.000000000 12.089999199 -0.019001601 0.2147532105 2.4469561577 14.864356041 71.030281067 68.402465820 3.0084729195 51.860420227 2.5639679432 2.5639679432
 2113.4802246 11.000000000 12.227000237 -0.019990399 0.2105343342 2.4406931400 16.967933655 70.745056152 68.872787476 2.6789696217 52.122470856 2.5434551239 2.5434551239
 2113.6325684 11.000000000 12.286000252 -0.016988782 0.2150182575 2.4391751289 21.007167816 73.847412109 71.392784119 2.3575737476 52.581470490 2.3729071617 2.3729071617
 2113.7849121 11.000000000 12.340000153 -0.009988782 0.2264270782 2.4410686493 27.356458664 79.981636047 77.832916260 2.0915930271 53.039466858 2.0318846703 2.0318846703
 2113.9372559 11.000000000 12.450999260 -0.002987179 0.2495792508 2.4371685982 36.383190155 90.215110779 87.750610352 1.8375914097 53.496952057 1.6839823723 1.6839823723
 2114.0898438 11.000000000 12.635001183 0.0050319997 0.2866331935 2.4219920635 47.733417511 100.93407440 98.652214050 1.5824527740 53.794391632 1.3667147160 1.3667147160
 2114.2421875 11.000000000 12.781000137 0.0150176277 0.3312911391 2.4011249542 53.787864685 109.42977142 107.32112885 1.4118573666 53.916393280 1.2779294252 1.2779294252
 2114.3945313 11.000000000 12.890000343 0.0260016024 0.3631710112 2.3833937645 57.441871643 113.97637177 111.87142944 1.3228909969 54.038391113 1.2559871674 1.2559871674
 2114.5468750 11.000000000 13.048000336 0.0269919876 0.3700318038 2.3718938828 58.610034943 115.36267090 113.19059753 1.2549134493 54.159908295 1.2520159483 1.2520159483
 2114.6992188 11.000000000 13.175999641 0.0219951924 0.3774186373 2.3690438271 59.256652832 115.21360779 113.15747833 1.2009775639 54.130714417 1.2570303679 1.2570303679
 2114.8518066 11.000000000 13.204999924 0.0189839993 0.3953022659 2.3745257854 60.288692474 115.19869995 112.88854218 1.1870864630 53.952400208 1.2759647369 1.2759647369
 2115.0041504 11.000000000 13.218999863 0.0139919873 0.4053486288 2.3803377151 61.433876038 114.97510529 112.69860077 1.2140400410 54.078361511 1.2649582624 1.2649582624
 2115.1564941 11.000000000 13.208999634 0.0089983968 0.3982560635 2.3818249702 58.241172791 114.73661041 112.62345123 1.2390064001 54.502815247 1.2519680262 1.2519680262
 2115.3088379 11.000000000 13.178000450 0.0080016032 0.3895616531 2.3781499863 57.101554871 114.67032623 112.59567261 1.2429871559 54.757160187 1.2419840097 1.2419840097
 2115.4614258 11.000000000 13.201999664 0.0089999996 0.3905932605 2.3715243340 56.820270538 114.99271393 112.56972504 1.2349711657 54.856315613 1.2319711447 1.2319711447
 2115.6137695 11.000000000 13.282999039 0.0090032043 0.3915969431 2.3673501015 55.658042908 114.73999786 112.52404022 1.2259855270 54.955318451 1.2229679823 1.2229679823
 2115.7661133 11.000000000 13.324000359 0.0110112177 0.3834471405 2.3681313992 55.686008453 114.67032623 112.45135498 1.2169903517 55.054317474 1.2129681110 1.2129681110
 2115.9184570 11.000000000 13.324999809 0.0180160254 0.3754372597 2.3740124702 56.314384460 114.71827698 112.36363983 1.2109999657 55.153087616 1.2029839754 1.2029839754
 2116.0710449 11.000000000 13.321000099 0.0280032009 0.3800021410 2.3834009171 56.555324554 114.27445984 112.22467804 1.2110255957 55.206943512 1.1929870844 1.1929870844
 2116.2233887 11.000000000 13.315999985 0.0289903842 0.3900276423 2.3916873932 56.655757904 114.29654694 112.00196075 1.2190303802 55.188941956 1.1890224218 1.1890224218
 2116.3757324 11.000000000 13.309000015 0.0229903851 0.4010113180 2.3951060772 56.504783630 113.80087280 111.74273682 1.2380256653 55.170948029 1.1960159540 1.1960159540
 2116.5280762 11.000000000 13.295000076 0.0169951934 0.4018230736 2.3942687511 55.744464874 113.49094391 111.47167969 1.2540223598 55.153942108 1.2010031939 1.2010031939
 2116.6804199 11.000000000 13.279999733 0.0139936004 0.4037424922 2.3912982941 54.164558411 113.52547455 111.18429565 1.2681039572 55.136039734 1.2020015717 1.2020015717
 2116.8330078 11.000000000 13.267999649 0.0099903848 0.4052587152 2.3885688782 54.514320374 113.13562775 110.79708099 1.3331153393 55.160495758 1.2030832767 1.2030832767
 2116.9853516 11.000000000 13.255998611 0.0039935899 0.3919734955 2.3857750893 55.958927155 112.38490295 110.16546631 1.4050785303 55.315498352 1.2292531729 1.2292531729
 2117.1376953 11.000000000 13.218999863 -0.000001603 0.3754295707 2.3811936378 55.288700104 111.21862793 109.16557312 1.4540529251 55.471496582 1.3083360195 1.3083360195
 2117.2900391 11.000000000 13.133999825 -0.001000000 0.3626883924 2.3784625530 53.853900909 110.19150543 107.81628418 1.4870529175 55.626251221 1.4131602049 1.4131602049
 2117.4426270 11.000000000 13.043999672 -0.001016000 0.3492004573 2.3832693100 52.543918610 108.39718628 106.33048248 1.5201023817 55.781890869 1.5132019520 1.5132019520
 2117.5949707 11.000000000 12.939999580 -0.006004808 0.3400034904 2.3946626186 51.895629883 107.44987488 105.13780212 1.5520368814 55.746707916 1.5759326220 1.5759326220
 2117.7473145 11.000000000 12.831999779 -0.009000000 0.3421713412 2.4067437649 52.286544800 106.82177734 104.65219116 1.5749984980 55.654705048 1.5547791719 1.5547791719
 2117.8996582 11.000000000 12.755000114 -0.008985576 0.3430183828 2.4184687138 51.378440857 106.84678650 104.78754425 1.5739855766 55.562850952 1.4858957529 1.4858957529
 2118.0522461 11.000000000 12.777000427 0.0000224000 0.3482717276 2.4305446148 50.404010773 107.52185059 105.43268585 1.5649456978 55.470706940 1.4208942652 1.4208942652
 2118.2045898 11.000000000 12.850000381 0.0069935899 0.3550508618 2.4354248047 49.785541534 108.74456024 106.42608643 1.5479695797 55.378921509 1.3879808187 1.3879808187
 2118.3569336 11.000000000 12.930999756 0.0030080129 0.3617954254 2.4279189110 50.121887207 109.82247162 107.45475006 1.5289696455 55.354183197 1.3820159435 1.3820159435
 2118.5092773 11.000000000 13.019000053 0.0080128210 0.3589340150 2.4176499844 50.052135468 110.39487457 108.27397919 1.5099679232 55.411182404 1.3870319128 1.3870319128
 2118.6618652 11.000000000 13.064998627 0.0160064008 0.3552021980 2.4133434296 51.386791229 110.87583923 108.78691864 1.4899040461 55.468177795 1.3969902992 1.3969902992
 2118.8142090 11.000000000 13.071998596 0.0179983974 0.3558928668 2.4130063057 52.257888794 111.12918854 109.08132172 1.4599518776 55.524181366 1.3940000534 1.3940000534
 2118.9665527 11.000000000 13.060000420 0.0169919878 0.3576766551 2.4137499332 52.812992096 111.36769104 109.15758514 1.4299037457 55.581184387 1.3940448761 1.3940448761
 2119.1188965 11.000000000 13.052000046 0.0119951926 0.3555587828 2.4156751633 54.054565430 111.60619354 109.00587463 1.3999423981 55.637306213 1.4080064297 1.4080064297
 2119.2712402 11.000000000 13.104000092 0.0090016024 0.3423617184 2.4144876003 54.407253265 110.95031738 108.72811890 1.3819839954 55.420551300 1.4099743366 1.4099743366
 2119.4238281 11.000000000 13.163000107 0.0099999998 0.3434238434 2.4091494083 54.565212250 110.45835876 108.50974274 1.3719102144 55.140102386 1.3939007521 1.3939007521
 2119.5761719 11.000000000 13.183999062 0.0100016026 0.3383755684 2.4046750069 54.630981445 111.09938049 108.71698761 1.3438942432 54.860107422 1.3628975153 1.3628975153
 2119.7285156 11.000000000 13.154000282 0.0109983971 0.3356158435 2.4020562172 53.998001099 111.81488037 109.35082245 1.3109583855 54.581066132 1.3308943510 1.3308943510
 2119.8808594 11.000000000 13.135999680 0.0100144232 0.3455013037 2.3989937305 55.245868683 111.85959625 109.96388245 1.2980272770 54.289421082 1.2979487181 1.2979487181
 2120.0334473 11.000000000 13.161000252 0.0190319996 0.3650563061 2.3939244747 55.785083771 112.97769165 110.32163239 1.3151090145 53.925830841 1.2659038305 1.2659038305
 2120.1857910 11.000000000 13.210000038 0.0290064085 0.3826103210 2.3891937733 55.181526184 112.21284485 110.01045990 1.3491121531 53.561836243 1.2358365059 1.2358365059
 2120.3381348 11.000000000 13.180001259 0.0329807699 0.3952925503 2.3857123852 50.517280579 110.25480652 108.43777466 1.3841280937 53.198837280 1.1848524809 1.1848524809
 2120.4904785 11.000000000 13.057000160 0.0209535249 0.4031070471 2.3685312271 45.697620392 107.05580902 104.75474548 1.4241983891 52.836387634 1.1394768953 1.1394768953
