# LAS format log file from PETREL
# Project units are specified as depth units
#==================================================================
~Version information
VERS.   2.0:
WRAP.   NO:
#==================================================================
~Well
STRT .m      996.03363037 :
STOP .m      2328.0097656 :
STEP .m     0.00000000 :
NULL .        -999.250000 :
COMP.           : COMPANY
WELL.  31/4-10   : WELL
FLD.            : FIELD
LOC.            : LOCATION
SRVC.           : SERVICE COMPANY
DATE.  2018-09-11 14:48:36   : Log Export Date {yyyy-MM-dd HH:mm:ss}
PROV.           : PROVINCE
UWI.   31/4-10   : UNIQUE WELL ID
API.            : API NUMBER
#==================================================================
~Curve
DEPT .m                   : DEPTH
Lithology_geolink ._      : Lithology_geolink
CALI .in                  : CALI
DRHO .g/cm3               : DRHO
NPHI .m3/m3               : NPHI
RHOB .g/cm3               : RHOB
GR .gAPI                  : GR
DTC .us/ft                : DTC
RDEP .ohm.m               : RDEP
SP .mV                    : SP
RSHA .ohm.m               : RSHA
RMED .ohm.m               : RMED
~Parameter
#==================================================================
~Ascii
# ...
 1345.7917480  -999.250000 12.125459671  -999.250000  -999.250000 2.0080850124 95.005241394 149.29458618 1.0625716448 176.66676331 0.9330526590 0.8490870595
 1345.9440918  -999.250000 12.203100204  -999.250000  -999.250000 2.0195019245 95.761993408 148.40089417 1.0446816683 176.62480164 0.9241324663 0.9190723300
 1346.0965576  -999.250000 12.203470230  -999.250000  -999.250000 2.0258169174 97.510406494 148.50785828 0.9693773985 176.24969482 1.0456554890 0.8860645890
 1346.2489014  -999.250000 12.264900208  -999.250000  -999.250000 2.0207717419 99.115242004 149.70445251 0.9188083410 175.95826721 1.1621567011 0.8800036907
 1346.4013672  -999.250000 12.148750305  -999.250000  -999.250000 2.0068418980 97.692451477 150.39787292 0.9351971149 175.91676331 1.0247626305 0.9388861656
 1346.5537109  -999.250000 12.202959061  -999.250000  -999.250000 2.0117599964 98.302833557 150.19874573 1.0101391077 176.00000000 1.0693566799 0.9120200872
 1346.7061768  -999.250000 12.179699898  -999.250000  -999.250000 2.0080270767 96.891265869 150.00474548 1.0601067543 175.74940491 0.9306813478 0.8706746101
 1346.8585205  -999.250000 12.179881096  -999.250000  -999.250000 2.0100204945 98.931282043 150.59777832 1.0356576443 175.04133606 0.9916940928 0.8677440882
 1347.0109863  -999.250000 12.211290359  -999.250000  -999.250000 2.0094072819 98.040611267 150.30624390 0.9990389943 174.45793152 1.0648045540 0.9183633924
 1347.1633301  -999.250000 12.273260117  -999.250000  -999.250000 2.0251591206 103.19094086 151.08883667 0.9279121161 174.12500000 0.9898107052 0.8257998228
 1347.3156738  -999.250000 12.250140190  -999.250000  -999.250000 2.0454754829 103.74298859 149.50282288 0.8996089697 174.04153442 1.0658830404 0.9299108982
 1347.4681396  -999.250000 12.273170471  -999.250000  -999.250000 2.0358109474 102.72724915 149.89845276 0.9441422224 174.04206848 1.1346023083 0.9880892038
 1347.6204834  -999.250000 12.234588623  -999.250000  -999.250000 2.0207123756 99.294372559 149.70214844 1.0262892246 174.37500000 1.1063399315 0.9128267169
 1347.7729492  -999.250000 12.264769554  -999.250000  -999.250000 2.0073833466 96.687538147 150.00639343 1.0965185165 174.58383179 1.0975844860 0.9022779465
 1347.9252930  -999.250000 12.125329018  -999.250000  -999.250000 1.9967519045 96.613449097 150.99980164 1.0708961487 175.08346558 1.0807938576 0.8988949060
 1348.0777588  -999.250000 12.179140091  -999.250000  -999.250000 1.9903838634 94.940818787 150.99728394 0.9973978996 175.41706848 1.1817427874 0.9271118045
 1348.2301025  -999.250000 12.086090088  -999.250000  -999.250000 1.9964717627 95.376693726 150.60145569 0.9197902679 175.83346558 1.2062834501 0.9148995280
 1348.3825684  -999.250000 12.117949486  -999.250000  -999.250000 1.9950064421 95.616561890 150.79516602 0.9039297104 176.00000000 1.1007615328 0.9001231790
 1348.5349121  -999.250000 12.234219551  -999.250000  -999.250000 1.9971507788 94.564613342 150.20349121 0.9331505895 176.04173279 0.9971483946 0.8906641006
 1348.6873779  -999.250000 12.203100204  -999.250000  -999.250000 1.9931600094 94.898628235 150.69610596 1.0297498703 176.41737366 1.1511807442 0.9149824381
 1348.8397217  -999.250000 12.203100204  -999.250000  -999.250000 2.0093414783 97.865417480 150.19952393 1.0864011049 176.83306885 1.0114942789 0.9255508184
 1348.9921875  -999.250000 12.202949524  -999.250000  -999.250000 2.0048968792 96.420349121 150.10151672 1.0715824366 176.62530518 1.1302884817 0.9626824260
 1349.1445313  -999.250000 12.179470062  -999.250000  -999.250000 1.9948128462 94.223526001 150.29727173 1.0561648607 176.87500000 1.1790853739 0.9224887490
 1349.2968750  -999.250000 12.141031265  -999.250000  -999.250000 1.9871325493 90.279594421 149.90136719 0.9611929655 176.87500000 1.0871844292 0.9350882769
 1349.4493408  -999.250000 12.211118698  -999.250000  -999.250000 1.9978985786 94.509887695 150.10319519 0.9460239410 176.87500000 0.9854182005 0.8910660148
 1349.6016846  -999.250000 12.249569893  -999.250000  -999.250000 1.9986163378 96.073684692 150.60058594 0.9645864964 176.74980164 0.9867103696 0.9599193335
 1349.7541504  -999.250000 12.179850578  -999.250000  -999.250000 2.0040187836 97.665580750 150.69253540 1.0206376314 176.24940491 1.0454143286 0.9770166874
 1349.9064941  -999.250000 12.203008652  -999.250000  -999.250000 2.0024650097 94.446464539 149.60766602 1.0874470472 175.49960327 0.9749067426 0.9646743536
 1350.0589600  -999.250000 12.187600136  -999.250000  -999.250000 1.9962122440 95.743034363 150.69570923 1.0649602413 174.83293152 1.0194108486 0.9029200673
 1350.2113037  -999.250000 12.203709602  -999.250000  -999.250000 1.9977661371 94.765663147 150.19805908 1.0128315687 174.41653442 1.0080648661 0.9036682844
 1350.3637695  -999.250000 12.304349899  -999.250000  -999.250000 2.0092861652 97.068031311 149.89689636 0.9149019122 174.41706848 1.0465233326 0.8991711140
 1350.5161133  -999.250000 12.249911308  -999.250000  -999.250000 2.0181300640 97.995803833 149.39611816 0.9110628963 174.83346558 0.9921276569 0.9245584011
 1350.6685791  -999.250000 12.233860016  -999.250000  -999.250000 2.0218966007 97.374969482 148.79525757 0.9506304264 174.95823669 0.9815872908 0.9332652092
 1350.8209229  -999.250000 12.148349762  -999.250000  -999.250000 2.0278584957 97.357116699 148.20088196 1.0432237387 175.12539673 1.0062377453 0.9417756200
 1350.9733887  -999.250000 12.140989304  -999.250000  -999.250000 2.0160994530 94.699211121 148.30464172 1.1064940691 175.79206848 1.2038626671 0.9973279238
 1351.1257324  -999.250000 12.202819824  -999.250000  -999.250000 2.0158126354 96.180770874 148.89765930 1.0928074121 176.04153442 0.9218891859 0.9248101115
 1351.2781982  -999.250000 12.156590462  -999.250000  -999.250000 2.0153405666 95.230636597 148.59535217 1.0334246159 175.74969482 0.9941144586 0.9255014658
 1351.4305420  -999.250000 12.202771187  -999.250000  -999.250000 2.0451357365 100.76589203 148.00961304 0.9471309185 175.33293152 1.2403967381 0.9131714106
 1351.5828857  -999.250000 12.148730278  -999.250000  -999.250000 2.0435538292 103.24478149 149.39630127 0.9503132701 174.87480164 1.2734532356 0.9679622054
 1351.7353516  -999.250000 12.203088760  -999.250000  -999.250000 2.0444095135 102.47225189 148.90107727 0.9813903570 174.75030518 0.9942198396 0.9052380323
 1351.8876953  -999.250000 12.203100204  -999.250000  -999.250000 2.0239689350 98.291175842 148.99592590 1.0409777164 175.41732788 1.0052782297 0.9540577531
 1352.0401611  -999.250000 12.202549934  -999.250000  -999.250000 2.0165543556 95.209503174 148.40185547 1.1103694439 176.66766357 1.0591087341 0.9771609306
 1352.1925049  -999.250000 12.109259605  -999.250000  -999.250000 2.0280807018 98.361892700 148.59727478 1.0934005976 177.62519836 0.8544064164 1.0019786358
 1352.3449707  -999.250000 12.086139679  -999.250000  -999.250000 2.0238232613 96.453498840 148.19465637 1.0491175652 178.08383179 0.9861831069 0.9841535687
 1352.4973145  -999.250000 12.125088692  -999.250000  -999.250000 2.0416095257 98.744132996 147.40563965 0.9749370813 178.62519836 0.7530307770 0.9762380719
 1352.6495361  -999.250000 12.140260696  -999.250000  -999.250000 2.0297410488 97.875389099 148.19999695 0.9657068253 178.75030518 0.9799876809 0.9518805742
 1352.8020020  -999.250000 12.086218834  -999.250000  -999.250000 2.0297520161 97.937866211 148.19760132 0.9829378128 178.41673279 0.9786270261 0.8861327767
 1352.9543457  -999.250000 12.140600204  -999.250000  -999.250000 2.0343120098 97.984466553 147.80560303 1.0406630039 177.95903015 1.0845129490 0.9762607813
 1353.1068115  -999.250000 12.140370369  -999.250000  -999.250000 2.0149540901 95.509353638 148.69960022 1.0986779928 177.25010681 1.0070580244 0.9542137980
 1353.2591553  -999.250000 12.101940155  -999.250000  -999.250000 2.0212769508 97.042121887 148.69689941 1.0785059929 177.20783997 1.0496979952 0.9896928072
 1353.4116211  -999.250000 12.156290054  -999.250000  -999.250000 2.0133850574 93.740570068 148.20089722 1.0466970205 177.91667175 1.0333449841 0.9081686139
