# LAS format log file from PETREL
# Project units are specified as depth units
#==================================================================
~Version information
VERS.   2.0:
WRAP.   NO:
#==================================================================
~Well
STRT .m      996.03363037 :
STOP .m      2328.0097656 :
STEP .m     0.00000000 :
NULL .        -999.250000 :
COMP.           : COMPANY
WELL.  31/4-10   : WELL
FLD.            : FIELD
LOC.            : LOCATION
SRVC.           : SERVICE COMPANY
DATE.  2018-09-11 14:48:36   : Log Export Date {yyyy-MM-dd HH:mm:ss}
PROV.           : PROVINCE
UWI.   31/4-10   : UNIQUE WELL ID
API.            : API NUMBER
#==================================================================
~Curve
DEPT .m                   : DEPTH
Lithology_geolink ._      : Lithology_geolink
CALI .in                  : CALI
DRHO .g/cm3               : DRHO
NPHI .m3/m3               : NPHI
RHOB .g/cm3               : RHOB
GR .gAPI                  : GR
DTC .us/ft                : DTC
RDEP .ohm.m               : RDEP
SP .mV                    : SP
RSHA .ohm.m               : RSHA
RMED .ohm.m               : RMED
~Parameter
#==================================================================
~Ascii
# ...
 2138.5764160 2.0000000000 8.4440269470 -0.024466665 0.5051354170 2.3780789375 92.338256836 96.093063354 1.2502219677 -68.24960327 0.9109439850 1.0543479919
 2138.7287598 2.0000000000 8.4019994736 -0.023433333 0.5094329715 2.3869299889 97.221946716 95.653739929 1.2067199945 -68.60486603 0.8870360851 1.0014280081
 2138.8813477 2.0000000000 8.3913259506 -0.019961217 0.5235538483 2.4013643265 92.805206299 90.788131714 1.3343178034 -68.70833588 1.1028707027 1.0383343697
 2139.0336914 2.0000000000 8.4363927841 -0.016763680 0.4832160771 2.4252824783 92.840530396 89.496871948 1.7885977030 -69.77083588 1.4143376350 1.1358177662
 2139.1860352 2.0000000000 8.4761905670 -0.015000000 0.4582374990 2.4411699772 85.234848022 89.225967407 2.7250609398 -70.49970245 3.0957570076 1.5949380398
 2139.3383789 2.0000000000 8.4762001038 -0.014433334 0.4165036082 2.4494340420 85.331451416 92.204872131 3.8042440414 -70.66767120 4.5670990944 2.7036840916
 2139.4909668 2.0000000000 8.4762001038 -0.011694231 0.3944958150 2.4420168400 82.654266357 93.090644836 4.3077759743 -70.02083588 4.8512816429 3.5477838516
 2139.6433105 2.0000000000 8.4762001038 -0.008698080 0.3760754466 2.4344325066 85.048240662 92.295730591 4.1656756401 -69.41666412 4.4255986214 3.5811028481
 2139.7956543 2.0000000000 8.4762001038 -0.006466667 0.3914895654 2.4285044670 90.552780151 91.898834229 3.7830390930 -69.25000000 3.7253584862 3.4124665260
 2139.9479980 2.0000000000 8.4762182236 -0.002866667 0.3905955851 2.4288320541 92.901649475 91.797485352 3.3780820370 -69.58319855 3.5664079189 3.1868999004
 2140.1005859 5.0000000000 8.4782810211 -0.000235417 0.3900239766 2.4210999012 91.678115845 91.502372742 3.0808868408 -69.87500000 3.1923234463 2.8697209358
 2140.2529297 5.0000000000 8.4762001038 -0.001835680 0.3831747472 2.4117763042 95.718574524 91.702133179 2.8581535816 -70.18750000 2.8831233978 2.6863448620
 2140.4052734 5.0000000000 8.4762001038 -0.004633334 0.3987804353 2.4008243084 95.922676086 91.898864746 2.7476122379 -70.37500000 2.9648988247 2.5218636990
 2140.5576172 5.0000000000 8.4762001038 -0.008600000 0.4057422876 2.4029729366 100.69599915 91.801887512 2.7664790154 -70.64559937 2.9204781055 2.5366649628
 2140.7099609 5.0000000000 8.4762001038 -0.011633333 0.4104101062 2.4112129211 99.162338257 92.007003784 2.8553171158 -70.48136902 2.7291610241 2.6464829445
 2140.8625488 6.0000000000 8.4762001038 -0.012667468 0.3897492588 2.4124679565 101.84953308 92.801795959 2.9342327118 -69.04166412 3.1112897396 2.7331066132
 2141.0148926 6.0000000000 8.4762201309 -0.014036641 0.4030452669 2.4005348682 105.73439789 93.011207581 2.9639704227 -67.87500000 3.3041000366 2.8058309555
 2141.1672363 6.0000000000 8.4782810211 -0.015966667 0.3894951940 2.3949129581 107.91369629 93.994346619 2.9436399937 -67.74980164 2.8468010426 2.8170270920
 2141.3195801 6.0000000000 8.4763069153 -0.015166666 0.3772126138 2.3962039948 107.23120117 93.409439087 2.8907380104 -68.37319946 2.9840300083 2.7853899002
 2141.4721680 6.0000000000 8.4882249832 -0.014066507 0.3673686087 2.3966519833 103.39119720 94.404731750 2.8390259743 -69.50000000 3.2077243328 2.6620891094
 2141.6245117 6.0000000000 8.5016613007 -0.014869440 0.3554819226 2.3923954964 100.52413940 94.891921997 2.8046174049 -70.81250000 3.0263636112 2.6607987881
 2141.7768555 6.0000000000 8.5079336166 -0.015066667 0.3626753986 2.4008359909 99.177940369 94.194030762 2.7617549896 -72.43750000 2.8320660591 2.6251370907
 2141.9291992 6.0000000000 8.5118646622 -0.012100000 0.3601692021 2.4053590298 102.92040253 93.485603333 2.6980779171 -73.52069855 3.1128020287 2.5710449219
 2142.0817871 6.0000000000 8.5078611374 -0.012467467 0.3568662107 2.4121873379 103.37802887 91.776054382 2.6514608860 -73.33333588 3.0098390579 2.5308592319
 2142.2341309 6.0000000000 8.5037403107 -0.014137600 0.3719922602 2.4299831390 103.44990540 89.454742432 2.7443010807 -72.12500000 2.8493318558 2.5194172859
 2142.3864746 16.000000000 8.5079002380 -0.015866667 0.3530837297 2.4825036526 98.089263916 85.424644470 3.2171208858 -70.37500000 3.0022971630 2.6898424625
 2142.5388184 16.000000000 8.5078306198 -0.013666667 0.3083080947 2.5521121025 94.883872986 79.266799927 4.0233001709 -68.33419800 2.8588230610 3.5830159187
 2142.6914063 16.000000000 8.4989624023 -0.011559776 0.2635156214 2.6106741428 91.415367126 74.848800659 4.5296902657 -66.95833588 3.5038940907 4.7122726440
 2142.8437500 16.000000000 8.3836088181 -0.008700000 0.2653406262 2.5981333256 89.032005310 79.254997253 4.3178400993 -66.33333588 24.764892578 4.4156627655
 2142.9960938 5.0000000000 8.2155942917 -0.010104480 0.3054827452 2.5103430748 85.529632568 84.745040894 3.6599078178 -66.10416412 2.5872554779 3.8311960697
 2143.1484375 5.0000000000 8.1850442886 -0.014700000 0.3563685119 2.4267060757 91.159416199 88.933326721 2.8554871082 -65.75009918 2.2193930149 3.0406188965
 2143.3007813 5.0000000000 8.2457447052 -0.019800000 0.3769995868 2.3799331188 97.649559021 92.889556885 2.2346649170 -65.56279755 2.1091120243 2.1639230251
 2143.4533691 5.0000000000 8.2728433609 -0.021828687 0.3990823925 2.3836703300 101.79126740 92.205871582 2.0424768925 -65.64583588 2.2917757034 1.9342163801
 2143.6057129 5.0000000000 8.2567768097 -0.019699359 0.3882673085 2.3900008202 101.51467896 92.702095032 2.1048583984 -66.00000000 2.5905611515 2.0368051529
 2143.7580566 5.0000000000 8.3368616104 -0.019133333 0.3765260875 2.3812880516 98.759506226 92.905158997 2.1806430817 -66.04166412 2.5687940121 2.1255478859
 2143.9104004 5.0000000000 8.3807210922 -0.018099999 0.3677052855 2.3796188831 98.971679688 93.504539490 2.1997408867 -66.35420227 2.4615299702 2.1349680424
 2144.0629883 5.0000000000 8.3493547440 -0.015460737 0.3683514893 2.3817915916 99.057220459 94.106987000 2.1703207493 -66.50000000 1.9960751534 2.1528654099
 2144.2153320 5.0000000000 8.3659582138 -0.012097120 0.3730842471 2.3809661865 98.852996826 94.794136047 2.1540873051 -66.70833588 2.4443783760 2.0584628582
 2144.3676758 5.0000000000 8.3509931564 -0.009866667 0.3716126680 2.3779606819 98.455467224 94.304580688 2.1798717976 -66.10416412 2.2109429836 2.1442735195
 2144.5200195 5.0000000000 8.3314113617 -0.008433333 0.3640385866 2.3833000660 97.945938110 94.688766479 2.2034800053 -65.41690063 2.1305000782 2.1420118809
 2144.6726074 5.0000000000 8.4677762985 -0.007869391 0.3570934236 2.3946821690 99.571418762 93.509529114 2.2242166996 -65.29166412 2.4124875069 2.1436147690
 2144.8249512 6.0000000000 8.4761199951 -0.009468910 0.3658380508 2.3928735256 103.16950989 94.297355652 2.2252230644 -65.70833588 2.5223171711 2.1727597713
 2144.9772949 6.0000000000 8.4672794342 -0.011871360 0.3690771163 2.3813419342 102.05365753 94.103462219 2.1634581089 -65.79166412 2.4231460094 2.1499457359
 2145.1296387 5.0000000000 8.4240427017 -0.016100001 0.3494887948 2.3675210476 102.15319824 94.407913208 2.0724730492 -65.45860291 2.2353940010 2.0231111050
 2145.2819824 5.0000000000 8.3603467941 -0.019700000 0.3249931931 2.3582720757 99.146217346 95.296386719 2.0217409134 -65.33232880 2.1272420883 1.9643479586
 2145.4345703 5.0000000000 8.4212770462 -0.020192789 0.3133621216 2.3664350510 97.827598572 94.985939026 2.0272541046 -66.08333588 2.0425491333 1.9586893320
 2145.5869141 5.0000000000 8.4294376373 -0.016664959 0.3374651968 2.3788874149 99.134346008 93.700393677 2.1160805225 -66.95833588 2.0116820335 1.9685790539
 2145.7392578 5.0000000000 8.4129486084 -0.013700000 0.3609808981 2.3954629898 97.661071777 93.696479797 2.3105130196 -67.45833588 2.1271870136 2.1539270878
 2145.8916016 5.0000000000 8.4406461716 -0.009400000 0.3826011121 2.4032731056 101.86959839 93.287086487 2.5479829311 -67.79139709 2.4586310387 2.3812921047
 2146.0441895 5.0000000000 8.4912996292 -0.008299519 0.4052549005 2.4116117954 98.185188293 91.818145752 2.7395060062 -68.27083588 2.5441961288 2.5736198425
 2146.1965332 5.0000000000 8.5238704681 -0.008735360 0.4010834396 2.4219722748 100.03382874 93.405937195 2.8706150055 -68.37500000 2.7957816124 2.6871509552
