# LAS format log file from PETREL
# Project units are specified as depth units
#==================================================================
~Version information
VERS.   2.0:
WRAP.   NO:
#==================================================================
~Well
STRT .m      996.03363037 :
STOP .m      2328.0097656 :
STEP .m     0.00000000 :
NULL .        -999.250000 :
COMP.           : COMPANY
WELL.  31/4-10   : WELL
FLD.            : FIELD
LOC.            : LOCATION
SRVC.           : SERVICE COMPANY
DATE.  2018-09-11 14:48:36   : Log Export Date {yyyy-MM-dd HH:mm:ss}
PROV.           : PROVINCE
UWI.   31/4-10   : UNIQUE WELL ID
API.            : API NUMBER
#==================================================================
~Curve
DEPT .m                   : DEPTH
Lithology_geolink ._      : Lithology_geolink
CALI .in                  : CALI
DRHO .g/cm3               : DRHO
NPHI .m3/m3               : NPHI
RHOB .g/cm3               : RHOB
GR .gAPI                  : GR
DTC .us/ft                : DTC
RDEP .ohm.m               : RDEP
SP .mV                    : SP
RSHA .ohm.m               : RSHA
RMED .ohm.m               : RMED
~Parameter
#==================================================================
~Ascii
# ...
 2317.3417969  -999.250000 8.5077085495 -0.021725802 0.3931531608 2.5601599216 100.51640320 62.407287598 4.7685737610  -999.250000 5.7467265129 5.0796623230
 2317.4941406  -999.250000 8.4867744446 -0.018164584 0.3889182806 2.5601599216 100.51640320 63.167453766 4.7659120560  -999.250000 5.7876720428 5.0579571724
 2317.6464844  -999.250000 8.4843339920 -0.016496154 0.3995204866 2.5601599216 100.51640320 60.348438263 4.7488389015  -999.250000 5.9456992149 5.0891461372
 2317.7988281  -999.250000 8.5079002380 -0.015435040 0.4014297128 2.5601599216 100.51640320 55.447658539 4.7223930359  -999.250000 5.8521080017 5.0027618408
 2317.9514160  -999.250000 8.5077333450 -0.016332531 0.3848707080 2.5601599216 100.51640320 50.143867493 4.7025461197  -999.250000 5.5326399803 4.9600672722
 2318.1037598  -999.250000 8.4919910431 -0.017038301 0.3824267089 2.5601599216 100.51640320 45.484912872 4.7231116295  -999.250000 5.4376344681 4.9417433739
 2318.2561035  -999.250000 8.4804744720 -0.018564101 0.3757534027 2.5601599216 100.51640320 43.909908295 4.7882537842  -999.250000 5.3544349670 5.0099458694
 2318.4084473  -999.250000 8.4880018234 -0.017533440 0.3709768057 2.5601599216 100.51640320 44.905105591 4.8759732246  -999.250000 5.8785791397 5.1278867722
 2318.5610352  -999.250000 8.4783668518 -0.015389423 0.3686172366 2.5601599216 100.51640320 45.459442139 4.9316244125  -999.250000 5.6360044479 5.2152938843
 2318.7133789  -999.250000 8.4849138260 -0.010464102 0.3618411422 2.5601599216 100.51640320 50.836711884 4.8579998016  -999.250000 5.1634807587 5.2210617065
 2318.8657227  -999.250000 8.5079002380 -0.008830609 0.3656680584 2.5601599216 100.51640320 54.819175720 4.6549887657  -999.250000 5.2888498306 4.9856548309
 2319.0180664  -999.250000 8.5079002380 -0.008537340 0.3716881871 2.5601599216 100.51640320 56.699001312 4.4765920639  -999.250000 5.1690158844 4.6456141472
 2319.1706543  -999.250000 8.5076379776 -0.010838401 0.3707174957 2.5601584911 100.51640320 56.588489532 4.4061675072  -999.250000 5.1279034615 4.5968241692
 2319.3229980  -999.250000 8.4824609756 -0.013506731 0.3887135983 2.5597553253 100.51640320 55.766284943 4.4036059380  -999.250000 4.8609066010 4.5576500893
 2319.4753418  -999.250000 8.4782409668 -0.016199520 0.3807286918 2.5220317841 100.51640320 75.330642700 4.4134354591  -999.250000 4.5902786255 4.5994052887
 2319.6276855  -999.250000 8.4825162888 -0.016368430 0.3832823038 2.4926419258 100.51640320 79.114921570 4.4166221619  -999.250000 5.2814478874 4.5997061729
 2319.7800293  -999.250000 8.4841489792 -0.016966240 0.3815000057 2.4828429222 100.51640320 80.694686890 4.4291172028  -999.250000 5.3381428719 4.5706300735
 2319.9326172  -999.250000 8.4888916016 -0.016499039 0.3814724088 2.4856989384 100.51640320 80.317863464  -999.250000  -999.250000 5.4971804619 4.6322021484
 2320.0849609  -999.250000 8.4880685806  -999.250000 0.3793164492 2.5323741436 100.51640320 73.998474121  -999.250000  -999.250000 5.4153609276 4.6645469666
 2320.2373047  -999.250000 8.4846582413  -999.250000 0.3897187114 2.5362489223 100.51640320 73.495246887  -999.250000  -999.250000 5.5463871956 4.6236171722
 2320.3896484  -999.250000 8.4804582596  -999.250000 0.3712777495 2.5401608944 100.51640320 72.990753174  -999.250000  -999.250000 5.3593440056 4.6350550652
 2320.5422363  -999.250000 8.4860858917  -999.250000 0.3777673542 2.5471346378 100.51640320 72.087585449  -999.250000  -999.250000 5.1299753189 4.5813508034
 2320.6945801  -999.250000 8.4847307205  -999.250000 0.3682434857 2.5555543900 100.51640320 70.978782654  -999.250000  -999.250000 5.2941222191 4.5689010620
 2320.8469238  -999.250000 8.4880065918  -999.250000 0.3813965023 2.5600478649 100.51640320 69.030036926  -999.250000  -999.250000 5.4497089386 4.5417618752
 2320.9992676  -999.250000 8.4783573151  -999.250000 0.3810234070 2.5499920845 100.51640320 71.719360352  -999.250000  -999.250000 5.2011818886 4.5741839409
 2321.1518555  -999.250000 8.4840831757  -999.250000 0.3742412925 2.5348081589 100.51640320 73.680633545  -999.250000  -999.250000 5.0146040916 4.6137032509
 2321.3041992  -999.250000 8.4824810028  -999.250000 0.3552636504 2.5455737114 100.51640320 72.287185669  -999.250000  -999.250000 5.3918347359 4.7220864296
 2321.4565430  -999.250000 8.4804000854  -999.250000 0.3518638015 2.5553431511 100.51640320 71.021041870  -999.250000  -999.250000 5.5142745972 4.7117266655
 2321.6088867  -999.250000 8.4804000854  -999.250000 0.3486991525 2.5410630703 100.51640320 72.828239441  -999.250000  -999.250000 5.3609690666 4.7314438820
 2321.7612305  -999.250000 8.4803781509  -999.250000 0.3572513759 2.5601599216 100.51640320 66.242210388  -999.250000  -999.250000 5.5194640160 4.6650280952
 2321.9138184  -999.250000 8.4782686234  -999.250000 0.3530129492 2.5601599216 100.51640320 69.589256287  -999.250000  -999.250000 5.5157809258 4.6371583939
 2322.0661621  -999.250000 8.4847192764  -999.250000  -999.250000 2.5601575375 100.51640320 68.978324890  -999.250000  -999.250000 5.4990072250 4.5121989250
 2322.2185059  -999.250000 8.4867172241  -999.250000  -999.250000 2.5592749119 100.51640320 67.125343323  -999.250000  -999.250000 5.6333360672 4.5596542358
 2322.3708496  -999.250000 8.4782009125  -999.250000  -999.250000 2.4686629772 100.51640320 82.531402588  -999.250000  -999.250000 6.4920678139 4.8450279236
 2322.5234375  -999.250000 8.4784021378  -999.250000  -999.250000 2.4442694187 100.51640320 85.670837402  -999.250000  -999.250000 7.7243828773 5.1772527695
 2322.6757813  -999.250000 8.4880285263  -999.250000  -999.250000 2.4601597786 100.51640320 83.614440918  -999.250000  -999.250000 6.9524664879 5.4624624252
 2322.8281250  -999.250000 8.4804000854  -999.250000  -999.250000 2.4506437778 100.51640320 84.843582153  -999.250000  -999.250000 5.6783633232 5.4476523399
 2322.9804688  -999.250000 8.4804763794  -999.250000  -999.250000 2.4192628860 100.51640320 88.891036987  -999.250000  -999.250000 5.5337839127 5.2103362083
 2323.1330566  -999.250000 8.4880208969  -999.250000  -999.250000 2.4258258343 100.51640320 88.038063049  -999.250000  -999.250000 5.5935454369 4.8532299995
 2323.2854004  -999.250000 8.4804391861  -999.250000  -999.250000 2.4015493393 100.51640320 91.175521851  -999.250000  -999.250000 5.7292776108 4.5574078560
 2323.4377441  -999.250000 8.4847002029  -999.250000  -999.250000 2.4167225361 100.51640320 89.215263367  -999.250000  -999.250000 5.5773983002 4.5393085480
 2323.5900879  -999.250000 8.4846563339  -999.250000  -999.250000 2.4064800739 100.51640320 90.535690308  -999.250000  -999.250000 5.4253129959 4.5042300224
 2323.7424316  -999.250000 8.4802455902  -999.250000  -999.250000 2.3773829937 100.51640320 94.299896240  -999.250000  -999.250000 5.4785799980 4.5073781013
 2323.8950195  -999.250000 8.4847002029  -999.250000  -999.250000 2.3733959198 100.51640320 94.812591553  -999.250000  -999.250000 5.6339826584 4.5151820183
 2324.0473633  -999.250000 8.4846591949  -999.250000  -999.250000 2.3652827740 100.51640320 95.855377197  -999.250000  -999.250000 5.7537407875 4.5300040245
 2324.1997070  -999.250000 8.4802637100  -999.250000  -999.250000 2.3950929642 100.51640320 92.000076294  -999.250000  -999.250000 5.6049590111 4.5213599205
 2324.3520508  -999.250000 8.4867143631  -999.250000  -999.250000 2.3958840370 100.51640320 91.902046204  -999.250000  -999.250000 5.8120779991 4.5268998146
 2324.5046387  -999.250000 8.4782609940  -999.250000  -999.250000 2.3940408230 100.51640320 92.137153625  -999.250000  -999.250000 5.4090113640 4.4579634666
 2324.6569824  -999.250000 8.4841060638  -999.250000  -999.250000 2.3697166443 100.51640320 95.287841797  -999.250000  -999.250000 5.5251293182 4.4548549652
 2324.8093262  -999.250000 8.4846935272  -999.250000  -999.250000 2.3763155937 100.51640320 94.428627014  -999.250000  -999.250000 5.4910149574 4.4504060745
 2324.9616699  -999.250000 8.4841070175  -999.250000  -999.250000 2.3568141460 100.51640320 96.952507019  -999.250000  -999.250000 5.4835000038 4.4155340195
