# LAS format log file from PETREL
# Project units are specified as depth units
#==================================================================
~Version information
VERS.   2.0:
WRAP.   NO:
#==================================================================
~Well
STRT .m      950.21093750 :
STOP .m      2894.8349609 :
STEP .m     0.00000000 :
NULL .        -999.250000 :
COMP.           : COMPANY
WELL.  31/4-2   : WELL
FLD.            : FIELD
LOC.            : LOCATION
SRVC.           : SERVICE COMPANY
DATE.  2018-09-11 14:48:36   : Log Export Date {yyyy-MM-dd HH:mm:ss}
PROV.           : PROVINCE
UWI.   31/4-2   : UNIQUE WELL ID
API.            : API NUMBER
#==================================================================
~Curve
DEPT .m                   : DEPTH
Lithology_geolink ._      : Lithology_geolink
CALI .in                  : CALI
DRHO .g/cm3               : DRHO
NPHI .m3/m3               : NPHI
RHOB .g/cm3               : RHOB
GR .gAPI                  : GR
DTC .us/ft                : DTC
DTE .us/ft                : DTE
RDEP .ohm.m               : RDEP
SP .mV                    : SP
RSHA .ohm.m               : RSHA
RMED .ohm.m               : RMED
~Parameter
#==================================================================
~Ascii
# ...
 1593.9484863  -999.250000 17.972000122 -0.002014423  -999.250000 2.0288751125 40.664730072 149.68576050 147.50419617 0.5180120468 46.920951843 0.5270048380 0.5270048380
 1594.1009521  -999.250000 17.815000534 -0.008003203  -999.250000 2.0248310566 40.138507843 149.55061340 147.45599365 0.5230224133 46.900196075 0.5290191770 0.5290191770
 1594.2532959  -999.250000 17.780000687 -0.009007211  -999.250000 2.0230064392 40.295814514 150.66304016 148.42628479 0.5300192237 46.961143494 0.5350192785 0.5350192785
 1594.4057617  -999.250000 17.870000839 -0.012006405  -999.250000 2.0207436085 40.218288422 152.75184631 150.49427795 0.5380128026 47.022193909 0.5430223942 0.5430223942
 1594.5581055  -999.250000 17.965999603 -0.014002404  -999.250000 2.0149750710 39.994758606 154.33209229 152.11006165 0.5420048237 47.083248138 0.5500168204 0.5500168204
 1594.7105713  -999.250000 17.750000000 -0.015000000  -999.250000 2.0057868958 39.480602264 154.10130310 151.93917847 0.5439968109 47.186370850 0.5570127964 0.5570127964
 1594.8629150  -999.250000 17.632999420 -0.014995192  -999.250000 1.9994812012 39.362323761 152.73100281 150.43450928 0.5429951549 47.301998138 0.5609999895 0.5609999895
 1595.0153809  -999.250000 17.799999237 -0.012980769  -999.250000 2.0071628094 41.577121735 151.08035278 148.85650635 0.5409967899 47.302001953 0.5609999895 0.5609999895
 1595.1677246  -999.250000 17.785999298 -0.006964772  -999.250000 2.0316998959 43.171405792 150.52761841 148.29956055 0.5400000215 47.303001404 0.5609999895 0.5609999895
 1595.3201904  -999.250000 17.596000671 0.0040064105  -999.250000 2.0540196896 43.605655670 150.83305359 148.61672974 0.5400064588 47.302970886 0.5609903932 0.5609903932
 1595.4725342  -999.250000 17.649999619 0.0059967977  -999.250000 2.0613062382 42.561840057 151.07899475 148.80790710 0.5420095921 47.293571472 0.5579936504 0.5579936504
 1595.6250000  -999.250000 17.853000641 0.0049935896  -999.250000 2.0620748997 41.579174042 150.42420959 148.35220337 0.5450160503 47.159992218 0.5560192466 0.5560192466
 1595.7773438  -999.250000 18.163000107 0.0030000000  -999.250000 2.0641624928 41.635585785 149.81878662 147.60841370 0.5500160456 47.158287048 0.5620127916 0.5620127916
 1595.9296875  -999.250000 17.809000015 0.0030000000  -999.250000 2.0702061653 42.130729675 149.55903625 147.19526672 0.5550240278 47.247215271 0.5659999847 0.5659999847
 1596.0821533  -999.250000 17.691999435 0.0029967974  -999.250000 2.0779128075 42.431331635 149.54316711 147.27806091 0.5650352240 47.336284637 0.5659999847 0.5659999847
 1596.2344971  -999.250000 17.934999466 0.0019951924  -999.250000 2.0799937248 41.908531189 149.43228149 147.39695740 0.5760288239 47.425212860 0.5659999847 0.5659999847
 1596.3869629  -999.250000 17.922000885 0.0000128102  -999.250000 2.0792562962 40.466217041 149.53675842 147.19635010 0.5880288482 47.514282227 0.5660032034 0.5660032034
 1596.5393066  -999.250000 17.641000748 0.0040000002  -999.250000 2.0797624588 39.287635803 148.87284851 146.74038696 0.5970144272 47.602214813 0.5670095682 0.5670095682
 1596.6917725  -999.250000 17.746000290 0.0039903927  -999.250000 2.0807375908 39.137359619 148.49244690 146.27503967 0.6030063629 47.691059113 0.5709999800 0.5709999800
 1596.8441162  -999.250000 17.847000122 0.0009975962  -999.250000 2.0813624859 39.249416351 148.13551331 145.86041260 0.6049951911 47.708934784 0.5709951520 0.5709951520
 1596.9965820  -999.250000 17.909999847 0.0000000000  -999.250000 2.0802748203 39.423236847 148.11207581 145.96446228 0.6029935479 47.681449890 0.5689775944 0.5689775944
 1597.1489258  -999.250000 17.958000183 -0.000003203  -999.250000 2.0750439167 39.809936523 149.34236145 147.10044861 0.6009839773 47.510452271 0.5619455576 0.5619455576
 1597.3013916  -999.250000 18.020999908 -0.001000000  -999.250000 2.0658869743 40.415523529 150.76762390 148.62232971 0.5959711671 47.338447571 0.5449583530 0.5449583530
 1597.4537354  -999.250000 17.968000412 -0.001000000  -999.250000 2.0566749573 41.201980591 152.08279419 149.77648926 0.5869551897 47.166297913 0.5320063829 0.5320063829
 1597.6062012  -999.250000 17.591999054 -0.001000000  -999.250000 2.0460681915 41.502708435 152.61714172 150.18563843 0.5729423165 46.947250366 0.5340223908 0.5340223908
 1597.7585449  -999.250000 17.388000488 -0.001000000  -999.250000 2.0374312401 40.165222168 151.75001526 149.58259583 0.5549423695 46.714004517 0.5409904122 0.5409904122
 1597.9108887  -999.250000 17.415000916 -0.001000000  -999.250000 2.0387749672 39.300209045 150.79722595 148.69003296 0.5369639397 46.715003967 0.5379831791 0.5379831791
 1598.0633545  -999.250000 17.382999420 -0.001000000  -999.250000 2.0470566750 38.970672607 150.28794861 148.08680725 0.5219680071 46.715953827 0.5310192108 0.5310192108
 1598.2156982  -999.250000 17.450000763 -0.000992788  -999.250000 2.0569751263 38.555259705 149.14125061 146.88246155 0.5119735599 46.701847076 0.5370288491 0.5370288491
 1598.3681641  -999.250000 17.666999817 0.0020000001  -999.250000 2.0676317215 37.830902100 148.05978394 145.85195923 0.5009647608 46.638801575 0.5489519835 0.5489519835
 1598.5205078  -999.250000 17.690000534 0.0019927886  -999.250000 2.0799248219 37.178974152 149.55851746 147.21838379 0.4899735749 46.576900482 0.5339062214 0.5339062214
 1598.6729736  -999.250000 17.674999237 -0.001054444  -999.250000 2.0975759029 37.584579468 152.79347229 150.53184509 0.4789647758 46.535682678 0.4950288236 0.4950288236
 1598.8253174  -999.250000 17.783000946 -0.017963942  -999.250000 2.1122937202 38.388191223 155.46153259 153.36312866 0.4679759443 46.748516083 0.5040528774 0.5040528774
 1598.9777832  -999.250000 17.957000732 -0.002977582  -999.250000 2.1025118828 38.882892609 156.52583313 154.36085510 0.4579743743 46.962474823 0.5260128379 0.5260128379
 1599.1301270  -999.250000 17.799999237 0.0039927885  -999.250000 2.0595188141 39.161235809 156.80358887 154.48835754 0.4499855638 47.109920502 0.5299807191 0.5299807191
 1599.2825928  -999.250000 17.568000793 0.0009807693  -999.250000 2.0102913380 39.259567261 156.81809998 154.53529358 0.4439807832 47.075889587 0.5219647288 0.5219647288
 1599.4349365  -999.250000 17.447000504 -0.005038430  -999.250000 1.9865750074 39.126647949 156.70626831 154.58029175 0.4379807711 47.041889191 0.5109839439 0.5109839439
 1599.5874023  -999.250000 17.371000290 -0.017000001  -999.250000 1.9824811220 39.330120087 157.03425598 154.62519836 0.4319839776 47.007888794 0.5059871674 0.5059871674
 1599.7397461  -999.250000 17.315000534 -0.016983988  -999.250000 1.9829562902 39.680999756 156.83300781 154.67019653 0.4269871712 46.973892212 0.5019871593 0.5019871593
 1599.8920898  -999.250000 17.322000504 -0.012000000  -999.250000 1.9830937386 40.304206848 156.93585205 154.71505737 0.4229903817 46.940994263 0.4979999959 0.4979999959
 1600.0445557  -999.250000 17.440999985 -0.011990393  -999.250000 1.9807562828 40.805889130 157.04336548 154.76008606 0.4189871848 46.938102722 0.4979999959 0.4979999959
 1600.1968994  -999.250000 17.611000061 -0.008985576  -999.250000 1.9793813229 41.082565308 156.95043945 154.80499268 0.4149999917 46.970077515 0.4980047941 0.4980047941
 1600.3493652  -999.250000 17.346000671 -0.002980785  -999.250000 1.9853941202 41.316696167 157.27316284 154.84999084 0.4149968028 47.002105713 0.5000160336 0.5000160336
 1600.5017090  -999.250000 17.472000122 0.0030048077  -999.250000 1.9919875860 41.220554352 156.95967102 154.89489746 0.4139975905 47.035076141 0.5049951673 0.5049951673
 1600.6541748  -999.250000 17.410999298 0.0049807844  -999.250000 1.9887435436 40.621677399 157.16717529 154.93991089 0.4129967988 47.067104340 0.5029711723 0.5029711723
 1600.8065186  -999.250000 17.374000549 -0.001024039  -999.250000 1.9809062481 40.834735870 157.39343262 154.98478699 0.4119975865 47.099075317 0.4939831495 0.4939831495
 1600.9589844  -999.250000 17.353000641 -0.010996797  -999.250000 1.9784311056 41.555141449 157.19654846 155.02978516 0.4109968245 47.131103516 0.4869903922 0.4869903922
 1601.1113281  -999.250000 17.365999222 -0.010002404  -999.250000 1.9783937931 41.597515106 157.28169250 155.07469177 0.4099975824 47.163074493 0.4839927852 0.4839927852
