# LAS format log file from PETREL
# Project units are specified as depth units
#==================================================================
~Version information
VERS.   2.0:
WRAP.   NO:
#==================================================================
~Well
STRT .m      821.52105713 :
STOP .m      2574.1203613 :
STEP .m     0.00000000 :
NULL .        -999.250000 :
COMP.           : COMPANY
WELL.  31/4-8   : WELL
FLD.            : FIELD
LOC.            : LOCATION
SRVC.           : SERVICE COMPANY
DATE.  2018-09-11 14:48:38   : Log Export Date {yyyy-MM-dd HH:mm:ss}
PROV.           : PROVINCE
UWI.   31/4-8   : UNIQUE WELL ID
API.            : API NUMBER
#==================================================================
~Curve
DEPT .m                   : DEPTH
Lithology_geolink ._      : Lithology_geolink
CALI .in                  : CALI
DRHO .g/cm3               : DRHO
NPHI .m3/m3               : NPHI
RHOB .g/cm3               : RHOB
GR .gAPI                  : GR
DTC .us/ft                : DTC
DTE .us/ft                : DTE
RDEP .ohm.m               : RDEP
SP .mV                    : SP
RSHA .ohm.m               : RSHA
RMED .ohm.m               : RMED
~Parameter
#==================================================================
~Ascii
# ...
 1626.1928711  -999.250000 18.253999710 0.0700000003  -999.250000 1.9930000305 61.504184723 155.18093872 151.25727844 0.5779976249 58.831882477  -999.250000 0.3949984014
 1626.3452148  -999.250000 18.305999756 0.0670000017  -999.250000 1.9969999790 58.822147369 155.29829407 151.33993530 0.5770016313 60.030448914  -999.250000 0.3939999938
 1626.4975586  -999.250000 18.398000717 0.0719999969  -999.250000 1.9989999533 59.148471832 155.23780823 151.19410706 0.5780048370 60.309764862  -999.250000 0.3940007985
 1626.6500244  -999.250000 18.485000610 0.0799999982  -999.250000 1.9989999533 60.558872223 154.68212891 150.78329468 0.5810143948 60.157234192  -999.250000 0.3950008154
 1626.8023682  -999.250000 18.527999878 0.0829999968  -999.250000 2.0009999275 61.049213409 154.22889709 150.27085876 0.5870112181 58.181488037  -999.250000 0.3960008025
 1626.9548340  -999.250000 18.525999069 0.0810000002  -999.250000 2.0090000629 60.550399780 153.96125793 149.96380615 0.5940167904 59.728103638  -999.250000 0.3970024288
 1627.1070557  -999.250000 18.493000031 0.0760040060  -999.250000 2.0149953365 60.179893494 154.07000732 150.07768250 0.6010064483 58.939769745  -999.250000 0.4000000060
 1627.2595215  -999.250000 18.440999985 0.0730023980  -999.250000 2.0120024681 61.017654419 154.63526917 150.67259216 0.6090128422 57.399559021  -999.250000 0.4040000141
 1627.4118652  -999.250000 18.395999908 0.0729999989  -999.250000 2.0010087490 62.286964417 155.40472412 151.41664124 0.6170071959 56.500080109  -999.250000 0.4070000052
 1627.5642090  -999.250000 18.395000458 0.0739983991  -999.250000 1.9920144081 64.094650269 155.85867310 151.83488464 0.6260055900 56.599689484  -999.250000 0.4110000134
 1627.7166748  -999.250000 18.454999924 0.0720015988  -999.250000 1.9919999838 64.899719238 155.86410522 151.90124512 0.6330048442 57.459743500  -999.250000 0.4140000045
 1627.8690186  -999.250000 18.545999527 0.0660096109  -999.250000 1.9979903698 63.784690857 155.86544800 151.91659546 0.6390048265 57.140018463  -999.250000 0.4160000086
 1628.0214844  -999.250000 18.642000198 0.0600048080  -999.250000 2.0059936047 61.535606384 155.78009033 151.82678223 0.6450031996 57.159877777  -999.250000 0.4169999957
 1628.1738281  -999.250000 18.792999268 0.0599999987  -999.250000 2.0109918118 59.075912476 155.18832397 151.17687988 0.6490023732 54.520080566  -999.250000 0.4180000126
 1628.3262939  -999.250000 19.037000656 0.0659951940  -999.250000 2.0050048828 58.958179474 154.00599670 150.06756592 0.6520023942 58.369567871  -999.250000 0.4169999957
 1628.4786377  -999.250000 19.246000290 0.0699967965  -999.250000 1.9920103550 60.595058441 153.36601257 149.41847229 0.6550007463 59.079727173  -999.250000 0.4160000086
 1628.6311035  -999.250000 19.208999634 0.0640048087  -999.250000 1.9850056171 62.457015991 153.50659180 149.50505066 0.6560000181 59.990653992  -999.250000 0.4160000086
 1628.7834473  -999.250000 18.902000427 0.0530088134  -999.250000 1.9939928055 62.820133209 154.12226868 150.14927673 0.6560016274 61.019306183  -999.250000 0.4160000086
 1628.9359131  -999.250000 18.559999466 0.0500024036  -999.250000 2.0169816017 61.182628632 154.66737366 150.75431824 0.6579999924 55.172386169  -999.250000 0.4169999957
 1629.0882568  -999.250000 18.406999588 0.0569943897  -999.250000 2.0429792404 61.109172821 154.40818787 150.46672058 0.6579999924 57.910007477  -999.250000 0.4169999957
 1629.2407227  -999.250000 18.445999146 0.0699895918  -999.250000 2.0589871407 62.217224121 153.17474365 149.11369324 0.6579967737 60.407928467  -999.250000 0.4169999957
 1629.3930664  -999.250000 18.541000366 0.0799919888  -999.250000 2.0629968643 63.368152618 151.50643921 147.56288147 0.6559984088 57.870449066  -999.250000 0.4169999957
 1629.5454102  -999.250000 18.611000061 0.0839935914  -999.250000 2.0530159473 64.008468628 150.39476013 146.41529846 0.6539967656 58.429527283  -999.250000 0.4160000086
 1629.6978760  -999.250000 18.653999329 0.0869975910  -999.250000 2.0360136032 64.119827271 150.02526855 145.97819519 0.6499959826 57.840240479  -999.250000 0.4140000045
 1629.8502197  -999.250000 18.680999756 0.0879983976  -999.250000 2.0190272331 64.140945435 150.25270081 146.35130310 0.6449951530 58.139465332  -999.250000 0.4120000005
 1630.0026855  -999.250000 18.701000214 0.0840032026  -999.250000 2.0030128956 62.622436523 151.25625610 147.30752563 0.6389951706 57.470142365  -999.250000 0.4099999964
 1630.1550293  -999.250000 18.719999313 0.0710208192  -999.250000 1.9940143824 62.020442963 152.38618469 148.38529968 0.6329944134 56.399696350  -999.250000 0.4079999924
 1630.3074951  -999.250000 18.721000671 0.0570112169  -999.250000 1.9949991703 63.147186279 153.11427307 149.09194946 0.6259943843 57.269466400  -999.250000 0.4059999883
 1630.4598389  -999.250000 18.672000885 0.0500056110  -999.250000 2.0059912205 63.390419006 152.94551086 149.03704834 0.6189951897 56.600502014  -999.250000 0.4040000141
 1630.6123047  -999.250000 18.575000763 0.0500000007  -999.250000 2.0179903507 61.265411377 152.32656860 148.37582397 0.6129919887 53.492637634  -999.250000 0.4020000100
 1630.7646484  -999.250000 18.471000671 0.0500000007  -999.250000 2.0229959488 59.293739319 151.93408203 147.88577271 0.6079967618 57.630241394  -999.250000 0.4000000060
 1630.9171143  -999.250000 18.385999680 0.0450040065  -999.250000 2.0200023651 61.224891663 151.57632446 147.65885925 0.6039951444 55.441619873  -999.250000 0.3980000019
 1631.0694580  -999.250000 18.306999207 0.0360072106  -999.250000 2.0150041580 63.176307678 151.80191040 147.90751648 0.6009976268 57.699604034  -999.250000 0.3959999979
 1631.2219238  -999.250000 18.216999054 0.0310040023  -999.250000 2.0140006542 61.874099731 153.01092529 149.06628418 0.5979999900 58.448310852  -999.250000 0.3939999938
 1631.3742676  -999.250000 18.127000809 0.0309999995  -999.250000 2.0199952126 59.843257904 154.93649292 150.91531372 0.5979999900 56.769657135  -999.250000 0.3929992020
 1631.5266113  -999.250000 18.061000824 0.0359919928  -999.250000 2.0349760056 60.605155945 156.29791260 152.33154297 0.5979999900 53.850589752  -999.250000 0.3919999897
 1631.6790771  -999.250000 18.038000107 0.0439935885  -999.250000 2.0569822788 64.551666260 156.14181519 152.19175720 0.5980007648 54.589935303  -999.250000 0.3920007944
 1631.8314209  -999.250000 18.062000275 0.0559807867  -999.250000 2.0759694576 66.745735168 153.70788574 149.68238831 0.5990015864 56.999580383  -999.250000 0.3930016160
 1631.9838867  -999.250000 18.110000610 0.0679903850  -999.250000 2.0799968243 64.925926208 149.28805542 145.35374451 0.6010023952 55.230224609  -999.250000 0.3950000107
 1632.1362305  -999.250000 18.142999649 0.0729919896  -999.250000 2.0660223961 60.184410095 145.92384338 141.99566650 0.6040023565 55.509998322  -999.250000 0.3950008154
 1632.2886963  -999.250000 18.142000198 0.0680040121  -999.250000 2.0460159779 56.375095367 145.86434937 141.90953064 0.6070032120 55.510471344  -999.250000 0.3959999979
 1632.4410400  -999.250000 18.118999481 0.0640032068  -999.250000 2.0380065441 57.177055359 148.51353455 144.52381897 0.6110023856 54.850128174  -999.250000 0.3959991932
 1632.5935059  -999.250000 18.099000931 0.0679967999  -999.250000 2.0419969559 58.747482300 151.46725464 147.57279968 0.6140000224 56.260501862  -999.250000 0.3950000107
 1632.7458496  -999.250000 18.083000183 0.0729959905  -999.250000 2.0449976921 58.152439117 153.21484375 149.29226685 0.6139992476 56.889434814  -999.250000 0.3950000107
 1632.8983154  -999.250000 18.062999725 0.0700023994  -999.250000 2.0440006256 56.812149048 153.36380005 149.38748169 0.6129967570 57.428516388  -999.250000 0.3950000107
 1633.0506592  -999.250000 18.052000046 0.0660032034  -999.250000 2.0499951839 57.137210846 152.33290100 148.32481384 0.6109960079 55.259773254  -999.250000 0.3949992061
 1633.2031250  -999.250000 18.076999664 0.0709960014  -999.250000 2.0639886856 59.455280304 151.34533691 147.43672180 0.6059936285 57.468967438  -999.250000 0.3939983845
 1633.3554688  -999.250000 18.138000488 0.0799927860  -999.250000 2.0699951649 60.937625885 151.53451538 147.61253357 0.6019992232 56.200332642  -999.250000 0.3929992020
