# LAS format log file from PETREL
# Project units are specified as depth units
#==================================================================
~Version information
VERS.   2.0:
WRAP.   NO:
#==================================================================
~Well
STRT .m      821.52105713 :
STOP .m      2574.1203613 :
STEP .m     0.00000000 :
NULL .        -999.250000 :
COMP.           : COMPANY
WELL.  31/4-8   : WELL
FLD.            : FIELD
LOC.            : LOCATION
SRVC.           : SERVICE COMPANY
DATE.  2018-09-11 14:48:38   : Log Export Date {yyyy-MM-dd HH:mm:ss}
PROV.           : PROVINCE
UWI.   31/4-8   : UNIQUE WELL ID
API.            : API NUMBER
#==================================================================
~Curve
DEPT .m                   : DEPTH
Lithology_geolink ._      : Lithology_geolink
CALI .in                  : CALI
DRHO .g/cm3               : DRHO
NPHI .m3/m3               : NPHI
RHOB .g/cm3               : RHOB
GR .gAPI                  : GR
DTC .us/ft                : DTC
DTE .us/ft                : DTE
RDEP .ohm.m               : RDEP
SP .mV                    : SP
RSHA .ohm.m               : RSHA
RMED .ohm.m               : RMED
~Parameter
#==================================================================
~Ascii
# ...
 1509.1495361  -999.250000 18.986000061 0.0559983999  -999.250000 2.0690016747 75.013328552 150.04644775 146.01484680 0.8569967747 83.889915466  -999.250000 0.4779999852
 1509.3018799  -999.250000 19.052000046 0.0579967946  -999.250000 2.0620112419 72.108985901 150.19747925 146.23098755 0.8529999852 83.790008545  -999.250000 0.4779999852
 1509.4543457  -999.250000 19.066999435 0.0579999983  -999.250000 2.0560047626 69.513160706 150.40512085 146.42932129 0.8529999852 83.799728394  -999.250000 0.4779999852
 1509.6066895  -999.250000 19.027999878 0.0550048053  -999.250000 2.0520064831 70.743034363 150.55442810 146.59202576 0.8529999852 84.700088501  -999.250000 0.4780007899
 1509.7591553  -999.250000 18.971000671 0.0510032028  -999.250000 2.0520000458 73.085243225 150.76322937 146.74755859 0.8529983759 84.819877625  -999.250000 0.4790016115
 1509.9114990  -999.250000 18.910999298 0.0480024032  -999.250000 2.0569958687 73.749412537 150.88410950 146.90303040 0.8509984016 85.910163879  -999.250000 0.4810008109
 1510.0639648  -999.250000 18.847000122 0.0460016020  -999.250000 2.0629951954 72.392181396 151.08900452 147.11567688 0.8489967585 86.110664368  -999.250000 0.4820016026
 1510.2163086  -999.250000 18.795000076 0.0440016016  -999.250000 2.0639991760 72.478782654 151.41946411 147.40550232 0.8469967842 87.150405884  -999.250000 0.4830000103
 1510.3687744  -999.250000 18.781000137 0.0439999998  -999.250000 2.0590040684 74.147323608 151.30303955 147.36080933 0.8429967761 87.650337219  -999.250000 0.4829984009
 1510.5211182  -999.250000 18.811000824 0.0439999998  -999.250000 2.0520057678 74.440299988 151.21424866 147.25418091 0.8409984112 87.860153198  -999.250000 0.4819967747
 1510.6735840  -999.250000 18.858999252 0.0459983982  -999.250000 2.0460047722 72.793647766 151.27130127 147.30807495 0.8389983773 85.558853149  -999.250000 0.4779951870
 1510.8259277  -999.250000 18.885999680 0.0469991975  -999.250000 2.0410039425 70.981903076 151.36262512 147.29954529 0.8379999995 84.220489502  -999.250000 0.4749983847
 1510.9782715  -999.250000 18.871999741 0.0479983985  -999.250000 2.0370063782 71.787055969 151.01057434 147.03219604 0.8380016088 83.579689026  -999.250000 0.4729991853
 1511.1307373  -999.250000 18.836000443 0.0519967973  -999.250000 2.0419960022 72.528808594 150.76904297 146.76359558 0.8400015831 84.440147400  -999.250000 0.4720000029
 1511.2830811  -999.250000 18.826000214 0.0609855875  -999.250000 2.0559775829 71.802757263 150.94190979 146.87745667 0.8420048356 85.869888306  -999.250000 0.4720008075
 1511.4355469  -999.250000 18.871999741 0.0699927881  -999.250000 2.0649929047 70.901443481 151.20877075 147.26423645 0.8480048180 86.969917297  -999.250000 0.4730007946
 1511.5878906  -999.250000 18.964000702 0.0749919936  -999.250000 2.0590095520 71.047637939 151.15634155 147.20025635 0.8540063500 83.130157471  -999.250000 0.4740016162
 1511.7403564  -999.250000 19.051000595 0.0730016008  -999.250000 2.0460104942 72.357894897 150.97608948 147.02386475 0.8620048165 83.329406738  -999.250000 0.4760016203
 1511.8927002  -999.250000 19.082000732 0.0680040121  -999.250000 2.0390057564 71.912078857 150.88868713 146.84611511 0.8680064082 82.590347290  -999.250000 0.4780007899
 1512.0451660  -999.250000 19.073999405 0.0660016015  -999.250000 2.0449953079 71.141235352 150.59025574 146.66835022 0.8760095835 81.771209717  -999.250000 0.4790000021
 1512.1975098  -999.250000 19.100000381 0.0669991970  -999.250000 2.0579895973 71.549018860 150.49874878 146.50607300 0.8820048571 83.150009155  -999.250000 0.4790000021
 1512.3499756  -999.250000 19.190000534 0.0679992065  -999.250000 2.0709896088 72.059181213 150.46862793 146.41461182 0.8880063891 81.910789490  -999.250000 0.4790016115
 1512.5023193  -999.250000 19.260999680 0.0650024042  -999.250000 2.0819911957 72.450057983 150.37916565 146.40025330 0.8920032382 83.029991150  -999.250000 0.4800007939
 1512.6547852  -999.250000 19.211999893 0.0590048060  -999.250000 2.0899934769 70.913467407 150.37780762 146.40013123 0.8960064054 84.270683289  -999.250000 0.4810016155
 1512.8071289  -999.250000 19.062999725 0.0530048087  -999.250000 2.0899999142 69.073944092 150.40794373 146.40020752 0.9000031948 84.699775696  -999.250000 0.4820016026
 1512.9594727  -999.250000 18.923999786 0.0520016029  -999.250000 2.0790176392 68.011550903 150.40869141 146.34237671 0.9040032029 83.180015564  -999.250000 0.4840008020
 1513.1119385  -999.250000 18.867000580 0.0559967980  -999.250000 2.0610144138 69.384796143 149.94049072 145.98574829 0.9080055952 85.689788818  -999.250000 0.4850016236
 1513.2642822  -999.250000 18.874000549 0.0589951947  -999.250000 2.0480208397 73.228752136 149.31271362 145.38444519 0.9150048494 85.419639587  -999.250000 0.4870015979
 1513.4167480  -999.250000 18.881000519 0.0599991977  -999.250000 2.0519969463 76.383949280 149.45001221 145.41293335 0.9210048318 83.720382690  -999.250000 0.4890016019
 1513.5690918  -999.250000 18.860000610 0.0590016022  -999.250000 2.0719680786 77.139190674 149.83793640 145.93080139 0.9270015955 82.950599670  -999.250000 0.4910016060
 1513.7215576  -999.250000 18.826999664 0.0550032035  -999.250000 2.0929830074 76.650787354 149.17176819 145.24346924 0.9289976358 82.459823608  -999.250000 0.4930024147
 1513.8739014  -999.250000 18.809000015 0.0490048081  -999.250000 2.1059894562 77.118873596 147.30621338 143.31565857 0.9259911776 82.239982605  -999.250000 0.4960016012
 1514.0263672  -999.250000 18.820999146 0.0440040044  -999.250000 2.1129941940 77.200866699 146.07460022 142.02183533 0.9149879813 83.469848633  -999.250000 0.4979999959
 1514.1787109  -999.250000 18.868000031 0.0430008024  -999.250000 2.1149983406 76.232337952 145.70054626 141.74974060 0.8999831676 83.279479980  -999.250000 0.4979975820
 1514.3311768  -999.250000 18.947000504 0.0439991988  -999.250000 2.1110031605 75.571060181 146.31127930 142.30659485 0.8789647818 83.879249573  -999.250000 0.4949904084
 1514.4835205  -999.250000 19.041000366 0.0459983982  -999.250000 2.0920152664 75.320602417 147.87643433 143.85794067 0.8569831848 82.790039063  -999.250000 0.4889935851
 1514.6359863  -999.250000 19.128999710 0.0489975959  -999.250000 2.0600254536 75.311012268 149.89872742 145.95909119 0.8359696269 82.840682983  -999.250000 0.4809888005
 1514.7883301  -999.250000 19.183000565 0.0529967956  -999.250000 2.0310230255 73.305221558 151.72291565 147.75968933 0.8169855475 83.889312744  -999.250000 0.4739952087
 1514.9407959  -999.250000 19.187000275 0.0599943958  -999.250000 2.0260040760 70.385673523 152.69082642 148.72155762 0.7989792228 81.788146973  -999.250000 0.4679935873
 1515.0931396  -999.250000 19.148000717 0.0669943914  -999.250000 2.0439856052 68.284362793 152.59060669 148.56274414 0.7859944105 80.009780884  -999.250000 0.4639999866
 1515.2454834  -999.250000 19.079999924 0.0660016015  -999.250000 2.0699582100 67.272422791 151.18011475 147.28436279 0.7789983749 80.979751587  -999.250000 0.4640024006
 1515.3979492  -999.250000 18.990999222 0.0560080148  -999.250000 2.0939807892 67.849067688 148.72386169 144.77949524 0.7770032287 80.659957886  -999.250000 0.4670056105
 1515.5502930  -999.250000 18.900999069 0.0440192148  -999.250000 2.1189599037 67.253433228 144.67153931 140.62371826 0.7810072303 79.360565186  -999.250000 0.4740072191
 1515.7027588  -999.250000 18.839000702 0.0360064097  -999.250000 2.1449792385 65.842262268 138.87846375 134.95599365 0.7900104523 78.819725037  -999.250000 0.4830056131
 1515.8551025  -999.250000 18.815999985 0.0330048054  -999.250000 2.1669647694 65.380104065 133.98966980 130.02134705 0.8030119538 77.230316162  -999.250000 0.4900056124
 1516.0075684  -999.250000 18.822000504 0.0310016014  -999.250000 2.1739943027 66.317497253 131.08288574 127.14449310 0.8180088401 77.619834900  -999.250000 0.4970056117
 1516.1599121  -999.250000 18.844999313 0.0290016010  -999.250000 2.1690039635 68.413955688 129.99682617 126.00488281 0.8290032148 78.659843445  -999.250000 0.5040032268
 1516.3123779  -999.250000 18.879999161 0.0299991984  -999.250000 2.1620056629 69.597106934 131.12368774 127.23097229 0.8329967856 78.461387634  -999.250000 0.5080016255
