# LAS format log file from PETREL
# Project units are specified as depth units
#==================================================================
~Version information
VERS.   2.0:
WRAP.   NO:
#==================================================================
~Well
STRT .m      950.21093750 :
STOP .m      2894.8349609 :
STEP .m     0.00000000 :
NULL .        -999.250000 :
COMP.           : COMPANY
WELL.  31/4-2   : WELL
FLD.            : FIELD
LOC.            : LOCATION
SRVC.           : SERVICE COMPANY
DATE.  2018-09-11 14:48:36   : Log Export Date {yyyy-MM-dd HH:mm:ss}
PROV.           : PROVINCE
UWI.   31/4-2   : UNIQUE WELL ID
API.            : API NUMBER
#==================================================================
~Curve
DEPT .m                   : DEPTH
Lithology_geolink ._      : Lithology_geolink
CALI .in                  : CALI
DRHO .g/cm3               : DRHO
NPHI .m3/m3               : NPHI
RHOB .g/cm3               : RHOB
GR .gAPI                  : GR
DTC .us/ft                : DTC
DTE .us/ft                : DTE
RDEP .ohm.m               : RDEP
SP .mV                    : SP
RSHA .ohm.m               : RSHA
RMED .ohm.m               : RMED
~Parameter
#==================================================================
~Ascii
# ...
 1725.6220703  -999.250000 13.390000343 -0.032001603 0.4933176339 2.0074875355 35.613887787 166.88520813 164.87533569 0.5769904256 49.378189087 0.5150023699 0.5150023699
 1725.7745361  -999.250000 13.574999809 -0.032983188 0.4903145432 2.0092811584 35.543163300 167.05990601 164.73826599 0.5729904175 49.457378387 0.5160063505 0.5160063505
 1725.9268799  -999.250000 13.534000397 -0.025995193 0.4710355997 2.0145561695 35.195953369 167.19952393 165.04510498 0.5699903965 49.575283051 0.5179904103 0.5179904103
 1726.0793457  -999.250000 13.951999664 -0.023002403 0.4655657709 2.0184626579 35.169334412 167.85058594 165.52597046 0.5659903884 49.692916870 0.5139711499 0.5139711499
 1726.2316895  -999.250000 13.968000412 -0.024004808 0.4754105508 2.0137312412 35.723743439 168.25770569 166.05470276 0.5629872084 49.666652679 0.5050128102 0.5050128102
 1726.3841553  -999.250000 13.694000244 -0.027019216 0.4885711372 2.0050556660 35.564876556 168.71458435 166.46694946 0.5589904189 49.558647156 0.5090352893 0.5090352893
 1726.5364990  -999.250000 13.366999626 -0.035008013 0.5017445683 2.0000936985 35.513984680 168.51982117 166.23983765 0.5559871793 49.449649811 0.5200191736 0.5200191736
 1726.6889648  -999.250000 13.071001053 -0.039997596 0.5074454546 1.9988625050 35.504802704 167.17695618 165.17414856 0.5519967675 49.340740204 0.5259872079 0.5259872079
 1726.8413086  -999.250000 12.946000099 -0.038993590 0.4921603799 2.0002062321 35.422687531 165.60884094 163.34423828 0.5509999990 49.259788513 0.5219839811 0.5219839811
 1726.9936523  -999.250000 13.008999825 -0.034987181 0.5051181316 2.0017063618 35.226287842 163.74507141 161.40290833 0.5509999990 49.193840027 0.5170192719 0.5170192719
 1727.1461182  -999.250000 13.288999557 -0.026992794 0.5152540803 2.0044252872 34.160152435 162.38635254 160.10964966 0.5509775877 49.127880096 0.5250319839 0.5250319839
 1727.2984619  -999.250000 13.469999313 -0.024004808 0.5078603625 2.0082564354 34.224361420 161.52116394 159.36372375 0.5439807773 49.091300964 0.5350168347 0.5350168347
 1727.4509277  -999.250000 13.555001259 -0.027000001 0.4959134459 2.0078437328 34.447689056 160.90992737 158.60227966 0.5359904170 49.216369629 0.5420095921 0.5420095921
 1727.6032715  -999.250000 13.704999924 -0.027004808 0.4877116382 2.0046124458 33.902248383 159.97833252 157.69818115 0.5329927802 49.332271576 0.5450000167 0.5450000167
 1727.7557373  -999.250000 13.800998688 -0.030016813 0.4772914946 2.0044937134 33.435775757 158.91242981 156.87860107 0.5299903750 49.443687439 0.5449904203 0.5449904203
 1727.9080811  -999.250000 13.824998856 -0.036996797 0.4667055607 2.0058124065 33.760459900 158.85289001 156.51167297 0.5269904137 49.345756531 0.5419855714 0.5419855714
 1728.0605469  -999.250000 13.774999619 -0.034980785 0.4736545384 2.0080564022 35.914794922 159.06181335 156.85511780 0.5229871869 49.244674683 0.5359776020 0.5359776020
 1728.2128906  -999.250000 13.725000381 -0.026990386 0.4827259183 2.0159811974 35.829441071 159.76242065 157.51924133 0.5189871788 49.143672943 0.5289807916 0.5289807916
 1728.3653564  -999.250000 13.745999336 -0.021007206 0.4901111126 2.0230627060 35.481597900 160.02355957 157.84204102 0.5149935484 49.041488647 0.5229935646 0.5229935646
 1728.5177002  -999.250000 13.904999733 -0.024019230 0.4845426679 2.0221874714 35.730838776 159.82255554 157.55554199 0.5129936337 48.882392883 0.5210128427 0.5210128427
 1728.6701660  -999.250000 14.093000412 -0.036026418 0.4753907919 2.0193812847 36.253463745 159.01728821 156.68727112 0.5110127926 48.693393707 0.5249999762 0.5249999762
 1728.8225098  -999.250000 14.065999985 -0.047001600 0.4821389616 2.0190124512 36.029365540 157.39944458 155.23411560 0.5150608420 48.504730225 0.5250160098 0.5250160098
 1728.9748535  -999.250000 13.822999954 -0.047982372 0.4932844341 2.0205936432 35.634948730 155.73500061 153.54714966 0.5340841413 48.420280457 0.5300312042 0.5300312042
 1729.1273193  -999.250000 13.581000328 -0.036968775 0.4988342226 2.0260441303 36.225265503 154.50781250 152.28894043 0.5691121221 48.538375854 0.5430768728 0.5430768728
 1729.2796631  -999.250000 13.479000092 -0.023972757 0.5041365027 2.0381186008 35.501941681 153.31503296 150.92088318 0.6040793061 48.656204224 0.5670047998 0.5670047998
 1729.4321289  -999.250000 13.440999985 -0.007000000 0.5122644305 2.0593385696 33.592700958 150.44538879 148.34419250 0.6371024847 48.741809845 0.5690128207 0.5690128207
 1729.5844727  -999.250000 13.598999977 -0.007009616 0.5177669525 2.0832936764 32.217636108 147.01695251 144.78605652 0.6690553427 48.681854248 0.5730793476 0.5730793476
 1729.7369385  -999.250000 13.834999084 -0.013004804 0.5014391541 2.0986757278 29.493232727 143.89382935 141.57360840 0.6920319796 48.620803833 0.6061633229 0.6061633229
 1729.8892822  -999.250000 14.168000221 -0.015003204 0.4878952801 2.1085999012 27.095478058 142.91317749 140.77160645 0.7019976377 48.560020447 0.6570072174 0.6570072174
 1730.0417480  -999.250000 14.222000122 -0.017004805 0.4819796681 2.1248571873 25.524000168 144.99221802 142.89573669 0.7009903789 48.568435669 0.6599584222 0.6599584222
 1730.1940918  -999.250000 14.350999832 -0.018999999 0.4755247235 2.1493372917 25.110651016 148.14965820 145.74308777 0.6979807615 48.704322815 0.6468918324 0.6468918324
 1730.3465576  -999.250000 14.449000359 -0.019019214 0.4688986540 2.1742451191 26.143600464 149.91546631 147.61276245 0.6899390817 48.839435577 0.6019775867 0.6019775867
 1730.4989014  -999.250000 14.212999344 -0.027004808 0.4680635333 2.1884562969 27.641401291 150.58088684 148.37414551 0.6708847284 48.975528717 0.5950641036 0.5950641036
 1730.6513672  -999.250000 13.637001038 -0.029985588 0.4724931717 2.1893937588 29.141119003 150.73023987 148.62132263 0.6348878145 49.140933990 0.6149583459 0.6149583459
 1730.8037109  -999.250000 13.469999313 -0.023988781 0.4682337046 2.1850874424 30.438283920 151.85191345 149.60523987 0.5999199748 49.432929993 0.6019103527 0.6019103527
 1730.9560547  -999.250000 13.383000374 -0.016990393 0.4603564143 2.1777744293 31.865575790 154.39050293 152.11332703 0.5749399066 49.723262787 0.5739350915 0.5739350915
 1731.1085205  -999.250000 13.364001274 -0.010977564 0.4559122622 2.1659562588 34.718727112 157.90658569 155.71920776 0.5499391556 49.832817078 0.5469583869 0.5469583869
 1731.2608643  -999.250000 13.432000160 0.0030016026 0.4587438703 2.1503875256 35.172851563 161.59565735 159.24877930 0.5309615731 49.775863647 0.5339759588 0.5339759588
 1731.4133301  -999.250000 13.454999924 0.0039807847 0.4635823667 2.1254923344 35.704586029 164.06285095 161.78784180 0.5149615407 49.718822479 0.5239807963 0.5239807963
 1731.5656738  -999.250000 13.520000458 -0.004014423 0.4665207267 2.0902438164 35.948123932 165.11845398 163.11613464 0.5029735565 49.662857056 0.5179831982 0.5179831982
 1731.7181396  -999.250000 13.505000114 -0.013019215 0.4674012065 2.0597796440 36.024372101 166.06103516 163.66159058 0.4919647872 49.604804993 0.5109775662 0.5109775662
 1731.8704834  -999.250000 13.251000404 -0.021004807 0.4688940942 2.0440251827 36.180366516 165.89620972 163.63334656 0.4809759557 49.543853760 0.5039831996 0.5039831996
 1732.0229492  -999.250000 13.101999283 -0.023992794 0.4740065038 2.0399124622 36.407238007 165.21047974 162.93627930 0.4709967971 49.482807159 0.4970160127 0.4970160127
 1732.1752930  -999.250000 13.121000290 -0.020995192 0.4821154773 2.0431687832 35.674709320 163.83540344 161.82173157 0.4700144231 49.422077179 0.5020143986 0.5020143986
 1732.3277588  -999.250000 13.300000191 -0.018002402 0.4889347851 2.0490252972 35.494441986 162.94229126 160.63716125 0.4760192335 49.454357147 0.5080448985 0.5080448985
 1732.4801025  -999.250000 13.578000069 -0.018996794 0.4856690466 2.0524938107 35.261856079 161.56719971 159.44549561 0.4820288122 49.566356659 0.5220256448 0.5220256448
 1732.6325684  -999.250000 13.770999908 -0.016995197 0.4719781876 2.0527937412 34.547302246 160.58393860 158.20008850 0.4910352528 49.677276611 0.5300127864 0.5300127864
 1732.7849121  -999.250000 13.827999115 -0.015004807 0.4583935142 2.0521435738 33.842288971 158.83108521 156.74377441 0.5020352006 49.763969421 0.5340191722 0.5340191722
