# LAS format log file from PETREL
# Project units are specified as depth units
#==================================================================
~Version information
VERS.   2.0:
WRAP.   NO:
#==================================================================
~Well
STRT .m      898.43609619 :
STOP .m      2454.1354980 :
STEP .m     0.00000000 :
NULL .        -999.250000 :
COMP.           : COMPANY
WELL.  31/4-6   : WELL
FLD.            : FIELD
LOC.            : LOCATION
SRVC.           : SERVICE COMPANY
DATE.  2018-09-11 14:48:38   : Log Export Date {yyyy-MM-dd HH:mm:ss}
PROV.           : PROVINCE
UWI.   31/4-6   : UNIQUE WELL ID
API.            : API NUMBER
#==================================================================
~Curve
DEPT .m                   : DEPTH
Lithology_geolink ._      : Lithology_geolink
CALI .in                  : CALI
DRHO .g/cm3               : DRHO
NPHI .m3/m3               : NPHI
RHOB .g/cm3               : RHOB
GR .gAPI                  : GR
DTC .us/ft                : DTC
DTE .us/ft                : DTE
RDEP .ohm.m               : RDEP
SP .mV                    : SP
RSHA .ohm.m               : RSHA
RMED .ohm.m               : RMED
~Parameter
#==================================================================
~Ascii
# ...
 2032.2922363 5.0000000000 14.128999710 0.0260320269 0.3859592676 2.1908123493 44.502403259 122.57194519 117.92391205 0.9909880161 52.299999237  -999.250000 1.0440920591
 2032.4447021 5.0000000000 13.723999977 0.0240016021 0.3961717784 2.2094523907 47.501201630 123.00952911 118.55651855 0.9759976268 52.424999237  -999.250000 1.1590096951
 2032.5970459 5.0000000000 13.640999794 0.0210048035 0.4077614248 2.1958055496 48.999122620 124.74217987 120.43194580 0.9729959965 52.299999237  -999.250000 1.1709663868
 2032.7495117 5.0000000000 13.640999794 0.0080104172 0.4228379428 2.1628074646 47.906322479 124.34391022 119.82531738 0.9680136442 52.549999237  -999.250000 1.1289463043
 2032.9018555 5.0000000000 13.847000122 0.0060032024 0.4192557335 2.1545524597 48.310623169 125.96023560 121.31590271 0.9850256443 52.424999237  -999.250000 1.0620024204
 2033.0543213 5.0000000000 14.253000259 0.0159919877 0.4261444807 2.1828784943 45.344402313 125.14241028 120.58471680 1.0169935226 52.424999237  -999.250000 1.0650265217
 2033.2066650 5.0000000000 13.890000343 0.0409799702 0.4255404770 2.2245330811 45.841247559 121.66783905 117.13490295 1.0089911222 52.424999237  -999.250000 1.0979976654
 2033.3591309 5.0000000000 13.543999672 0.0639815852 0.4193149805 2.2451417446 42.404319763 122.29849243 117.80612183 0.9980072379 52.299999237  -999.250000 1.0949920416
 2033.5114746 5.0000000000 13.484000206 0.0649991930 0.4103471935 2.2434194088 40.313426971 123.91741943 119.46325684 1.0069999695 52.299999237  -999.250000 1.0850216150
 2033.6639404 5.0000000000 13.543999672 0.0390208177 0.4061933160 2.2371783257 40.844100952 122.45937347 117.99019623 1.0069775581 52.174999237  -999.250000 1.1121264696
 2033.8162842 5.0000000000 13.567999840 0.0060264422 0.4036320448 2.2440524101 40.908828735 122.17593384 117.55068207 0.9930087924 52.549999237  -999.250000 1.1909999847
 2033.9687500 5.0000000000 13.625000000 0.0000048038 0.4208262265 2.2600514889 44.438648224 123.13772583 118.70088196 1.0040127039 52.924999237  -999.250000 1.1909006834
 2034.1210938 5.0000000000 13.620000839 0.0179855768 0.4203503728 2.2695956230 44.844753265 122.41504669 117.78983307 1.0119814873 53.424999237  -999.250000 1.1289863586
 2034.2735596 5.0000000000 13.836000443 0.0239951964 0.4352880120 2.2672970295 45.780948639 122.04511261 117.62828064 0.9889664054 53.049999237  -999.250000 1.1121585369
 2034.4259033 5.0000000000 13.796999931 0.0080128210 0.4387771785 2.2573833466 45.748874664 121.52557373 117.01267242 0.9679951668 53.049999237  -999.250000 1.2109775543
 2034.5782471 5.0000000000 13.718998909 0.0089983987 0.4556030333 2.2403292656 44.343650818 121.86068726 117.39353943 0.9620136023 53.299999237 1.5850920677 1.1828606129
 2034.7307129 5.0000000000 13.718998909 0.0179927871 0.4486156404 2.2058792114 43.904846191 126.40612030 121.84638977 0.9790120125 53.924999237 1.6994391680 1.0088877678
 2034.8830566 5.0000000000 14.265999794 0.0110112093 0.4182586670 2.1684072018 42.468151093 125.15579224 120.72487640 0.9940112233 53.299999237 0.9996797442 0.8690536618
 2035.0355225 5.0000000000 15.253000259 0.0020072116 0.3846069574 2.1522157192 41.404747009 125.40285492 120.80027771 1.0079976320 53.049999237 0.6004182696 0.9361602664
 2035.1878662 5.0000000000 14.565999985 0.0049951961 0.3889130354 2.1572015285 39.843578339 122.36978912 117.94435120 1.0049911737 52.424999237 1.1226028204 1.1360648870
 2035.3403320 5.0000000000 13.770999908 0.0079975966 0.4055166841 2.1681644917 39.311321259 118.03021240 113.43241882 0.9940256476 52.174999237 1.8741209507 1.2170592546
 2035.4926758 5.0000000000 13.795000076 0.0149943903 0.4115551412 2.1849703789 37.220603943 121.65261841 117.02851868 1.0260208845 52.049999237 0.7791995406 1.2908613682
 2035.6451416 5.0000000000 13.682000160 0.0289887898 0.4287562072 2.1912701130 39.218002319 120.67889404 116.25026703 1.0520097017 51.924999237 2.2732627392 1.1180465221
 2035.7974854 5.0000000000 13.873000145 0.0529807694 0.4546292722 2.1667649746 38.597232819 121.55299377 117.09334564 1.0580176115 52.049999237 1.1897612810 1.1469446421
 2035.9499512 5.0000000000 14.411999702 0.0400104076 0.4814884961 2.1118276119 42.623600006 126.07754517 121.50707245 1.0799984932 52.049999237 0.8919423819 1.0780912638
 2036.1022949 5.0000000000 13.942000389 0.0100240381 0.4613761604 2.0687820911 41.749675751 124.14422607 119.48583221 1.0789840221 52.424999237 0.8559863567 1.1349422932
 2036.2547607 5.0000000000 14.015999794 0.0169943962 0.4349611402 2.0711317062 41.346553802 126.25240326 121.70907593 1.0589855909 52.299999237 0.8387085795 1.0630736351
 2036.4071045 5.0000000000 14.114999771 0.0459767617 0.4128577113 2.0859789848 42.940376282 131.07063293 126.62265778 1.0499927998 52.549999237 0.6572900414 1.1089590788
 2036.5594482 6.0000000000 13.739001274 0.0659679770 0.4293535054 2.0818376541 45.909301758 131.31060791 126.87938690 1.0409911871 52.549999237 1.0187766552 1.0579943657
 2036.7119141 6.0000000000 14.156000137 0.0520112179 0.4304191768 2.0657935143 50.030147552 132.93579102 128.43844604 1.0300087929 53.049999237 0.7398253083 1.0509623289
 2036.8642578 6.0000000000 14.722000122 0.0470080040 0.4758172035 2.0642731190 48.968502045 135.05064392 130.51637268 1.0410176516 53.674999237 0.5224555731 1.0039663315
 2037.0167236 6.0000000000 15.083999634 0.0559927896 0.4849826992 2.0659241676 48.345527649 132.73095703 128.22543335 1.0629943609 53.799999237 1.0907338858 0.9620697498
 2037.1690674 6.0000000000 14.307999611 0.0420224182 0.4960123301 2.0632731915 50.246723175 130.36274719 125.80250549 1.0560008287 53.424999237 0.7589295506 1.0489776134
 2037.3215332 5.0000000000 13.836000443 0.0100256409 0.4360281229 2.0836925507 46.155223846 131.56118774 126.99821472 1.0569936037 53.049999237 0.6710560918 1.0210801363
 2037.4738770 5.0000000000 14.253000259 -0.010983173 0.4157262444 2.1452636719 45.186523438 129.80822754 125.25773621 1.0489959717 52.799999237 0.7416177988 1.1210032701
 2037.6263428 5.0000000000 14.083000183 -0.007003203 0.4021109045 2.2124371529 43.349857330 126.42265320 122.04675293 1.0440192223 52.549999237 1.5117533207 1.1251745224
 2037.7786865 5.0000000000 13.859000206 0.0119847758 0.4076455534 2.2486314774 47.002780914 126.50817871 121.90921783 1.0560352802 52.799999237 1.3580601215 1.2339839935
 2037.9311523 5.0000000000 13.979000092 0.0499695763 0.4155237079 2.2600133419 50.468051910 126.51537323 122.00977325 1.1000448465 52.674999237 1.4328078032 1.2140464783
 2038.0834961 6.0000000000 13.781000137 0.0789767653 0.4314472377 2.2456040382 49.876327515 125.28617859 120.71128845 1.1280144453 52.924999237 1.3129903078 1.2429199219
 2038.2359619 6.0000000000 14.024000168 0.0780007988 0.4438400567 2.2124104500 51.525295258 125.96025848 121.45603943 1.1460015774 52.674999237 1.3004988432 1.1431441307
 2038.3883057 6.0000000000 14.100998878 0.0510216318 0.4470174611 2.1820893288 47.967723846 125.26773834 120.84304810 1.1469719410 53.049999237 0.9886201620 1.2329496145
 2038.5406494 5.0000000000 14.130000114 0.0150576457 0.4272217453 2.1706333160 46.373149872 121.94113922 117.47714996 1.1119647026 52.549999237 1.7614130974 1.1701400280
 2038.6931152 5.0000000000 13.973999977 0.0120024038 0.4119322598 2.1770770550 44.062248230 121.14553070 116.71161652 1.0679919720 52.299999237 1.0299206972 1.3449270725
 2038.8454590 5.0000000000 13.739001274 0.0359615684 0.4191184342 2.1695415974 43.126602173 123.27962494 118.71887970 1.0579935312 52.174999237 2.1777598858 1.2539534569
 2038.9979248 5.0000000000 13.656000137 0.0609799698 0.4678009748 2.1409711838 45.125099182 127.35382843 122.95040894 1.0499846935 52.174999237 1.8776938915 1.1958942413
 2039.1502686 5.0000000000 13.663999557 0.0410320275 0.4908031523 2.1094698906 45.250877380 129.43762207 124.89568329 1.0310000181 52.424999237 1.4956125021 1.0639567375
 2039.3027344 5.0000000000 13.787000656 0.0220152251 0.4876025617 2.0980837345 46.342849731 129.13887024 124.47075653 1.0309928656 52.549999237 1.0119431019 1.0100929737
 2039.4550781 5.0000000000 13.729001045 0.0249975957 0.4526580274 2.0962896347 44.905921936 127.76116943 123.24386597 1.0219783783 52.549999237 0.9415636063 1.1260176897
