# LAS format log file from PETREL
# Project units are specified as depth units
#==================================================================
~Version information
VERS.   2.0:
WRAP.   NO:
#==================================================================
~Well
STRT .m      895.02691650 :
STOP .m      2933.5300293 :
STEP .m     0.00000000 :
NULL .        -999.250000 :
COMP.           : COMPANY
WELL.  31/4-5   : WELL
FLD.            : FIELD
LOC.            : LOCATION
SRVC.           : SERVICE COMPANY
DATE.  2018-09-11 14:48:38   : Log Export Date {yyyy-MM-dd HH:mm:ss}
PROV.           : PROVINCE
UWI.   31/4-5   : UNIQUE WELL ID
API.            : API NUMBER
#==================================================================
~Curve
DEPT .m                   : DEPTH
Lithology_geolink ._      : Lithology_geolink
CALI .in                  : CALI
DRHO .g/cm3               : DRHO
SGR .gAPI                 : SGR
NPHI .m3/m3               : NPHI
RHOB .g/cm3               : RHOB
PEF .b/e                  : PEF
GR .gAPI                  : GR
DTC .us/ft                : DTC
DTE .us/ft                : DTE
RDEP .ohm.m               : RDEP
SP .mV                    : SP
RSHA .ohm.m               : RSHA
RMIC .ohm.m               : RMIC
RMED .ohm.m               : RMED
~Parameter
#==================================================================
~Ascii
# ...
 1976.7624512 6.0000000000 14.812000275 0.0499959961 61.782844543 0.3776380718 2.2926588058 3.8749413490 64.402999878 119.07511139 116.44580078 1.0446453094 103.90399933 1.2784675360 1.6420648098 1.1830897331
 1976.9149170 6.0000000000 14.750000000 0.0460032038 61.249797821 0.3752554059 2.2942237854 3.8889999390 64.068000793 117.73844147 115.09006500 1.0922676325 104.28318787 1.2709888220 1.6690512896 1.2949759960
 1977.0672607 5.0000000000 14.751001358 0.0440016016 61.944839478 0.3849196434 2.2946517467 3.7988510132 65.093002319 118.70142365 116.14794922 1.1377356052 104.64054108 1.2478077412 1.6850383282 1.2799783945
 1977.2197266 5.0000000000 14.760999680 0.0459983982 61.901527405 0.4219160378 2.2917604446 3.7233586311 66.218002319 119.98186493 117.37725830 1.1633114815 105.08826447 1.2264547348 1.6976410151 1.2529679537
 1977.3720703 5.0000000000 14.803999901 0.0440016016 61.034706116 0.4319342077 2.2841460705 3.6177804470 66.828002930 120.40390778 117.76209259 1.1430416107 103.54850006 1.2036906481 1.8952225447 1.2329840660
 1977.5245361 5.0000000000 14.838999748 0.0340080075 59.964313507 0.4371376932 2.2753190994 3.6173746586 60.234001160 121.14749146 118.52614594 1.0817149878 101.33456421 1.1718574762 1.3429486752 1.2129567862
 1977.6768799 5.0000000000 14.803999901 0.0270056091 59.552009583 0.4169801772 2.2681047916 3.8399534225 58.594001770 121.36231995 118.82173157 1.0236682892 101.61560822 1.2015544176 1.6383298635 1.1859695911
 1977.8292236 5.0000000000 14.711000443 0.0309935939 61.303295135 0.4046941400 2.2631371021 3.9643754959 59.071998596 121.21465302 118.61247253 0.9882571101 102.69327545 1.2254108191 1.7403653860 1.1480792761
 1977.9816895 5.0000000000 14.626000404 0.0319992006 63.580993652 0.3973684609 2.2607202530 3.9663941860 61.645999908 122.14868164 119.55507660 0.9910349846 103.16513062 1.1538269520 1.4752353430 1.2469614744
 1978.1340332 5.0000000000 14.694999695 0.0220160130 65.814239502 0.3954635859 2.2647666931 3.7528846264 61.931999207 124.35337067 121.77727509 1.0025771856 104.00086212 1.0187125206 0.9277956486 1.1988886595
 1978.2864990 5.0000000000 15.312000275 0.0150056090 65.119873047 0.3874074221 2.2747545242 3.7506332397 61.422000885 125.82537842 123.27755737 1.0137131214 104.48292542 0.9844642878 1.6720328331 1.0598886013
 1978.4388428 5.0000000000 15.907999992 0.0199919939 63.095573425 0.3717316985 2.2823781967 3.6258468628 65.440002441 126.36327362 123.74169159 1.0176469088 104.42220306 1.0534833670 1.3719543219 0.9210616350
 1978.5913086 6.0000000000 15.312999725 0.0319903865 62.001136780 0.3614071012 2.2835841179 3.6213746071 66.556999207 124.79243469 122.21075439 1.0135849714 104.44034576 1.1945688725 1.7675068378 0.9981314540
 1978.7436523 6.0000000000 14.588999748 0.0379951894 63.533729553 0.3577886522 2.2824244499 3.7803189754 67.884002686 121.29273224 118.66006470 1.0279991627 104.72163391 1.2631736994 1.6138172150 1.1621000767
 1978.8961182 6.0000000000 14.522000313 0.0449943990 65.206291199 0.3561109900 2.2839639187 4.0529136658 65.424003601 119.66301727 117.14468384 1.0538413525 104.39501190 1.2399774790 1.5382275581 1.2869807482
 1979.0484619 6.0000000000 14.500000000 0.0559911877 64.779586792 0.3505122960 2.2894225121 3.9861290455 65.874000549 120.90863037 118.28979492 1.0764262676 102.39578247 1.1697740555 1.6070463657 1.2749407291
 1979.2009277 6.0000000000 14.663999557 0.0659919903 64.429267883 0.3658972681 2.2959430218 3.7741208076 68.570999146 123.05078125 120.43598938 1.0860648155 101.43685913 1.0903514624 1.0008846521 1.2008382082
 1979.3532715 6.0000000000 14.791000366 0.0709959939 64.751945496 0.3828936815 2.2959086895 3.4598765373 69.155998230 125.11055756 122.59603119 1.0772868395 101.97765350 1.0668718815 1.5876661539 1.0999623537
 1979.5057373 6.0000000000 14.784000397 0.0769951940 66.730232239 0.3874227405 2.2649359703 3.7790985107 66.725997925 125.36702728 122.73461914 1.0380264521 103.89988708 1.1250512600 1.7942339182 1.0530303717
 1979.6580811 6.0000000000 14.750000000 0.0720040053 67.284088135 0.3704208732 2.1934220791 4.5631008148 60.974998474 124.32003784 121.72213745 0.9916776419 105.04845428 1.1965769529 1.5550872087 1.0720906258
 1979.8104248 6.0000000000 14.668999672 0.0829823837 66.803672791 0.3466189206 2.1249730587 5.6428971291 65.305999756 122.95532227 120.37345123 0.9569174647 103.94974518 1.2067645788 1.2694014311 1.1850751638
 1979.9628906 6.0000000000 14.666999817 0.0849983990 65.451988220 0.3702605069 2.1050615311 5.3664455414 63.801998138 125.20331573 122.67590332 0.9580203295 102.53657532 1.0194410086 0.6056765318 1.2788125277
 1980.1152344 6.0000000000 14.885999680 0.0800080076 63.706527710 0.4208054841 2.1409204006 4.2082324028 68.720001221 131.39810181 128.82563782 0.9519158602 102.66105652 0.9530962706 0.5064110756 1.0448998213
 1980.2677002 6.0000000000 15.003998756 0.0750040114 62.991703033 0.4525923431 2.2014319897 3.8535139561 72.681999207 134.29325867 131.70707703 0.9479100704 104.54194641 0.9470470548 1.0924963951 0.9200168252
 1980.4200439 6.0000000000 15.003000259 0.0779951960 63.972644806 0.4555166662 2.2509839535 3.9126138687 71.282997131 134.63699341 132.02954102 0.9433406591 104.59024811 0.9741407633 1.2460913658 0.9410095811
 1980.5725098 6.0000000000 14.875000000 0.0909895822 65.564811707 0.4388476610 2.2790768147 4.0362563133 68.087997437 131.52006531 128.97140503 0.9267699122 104.28525543 1.0318361521 0.8701689243 0.9530841708
 1980.7248535 6.0000000000 14.690999985 0.0830064043 67.391365051 0.4359403849 2.2870309353 3.9228467941 67.526000977 127.03224182 124.42257690 0.9274281263 104.29617310 1.0548815727 1.2342787981 1.0579566956
 1980.8773193 6.0000000000 14.994999886 0.0660136119 67.874038696 0.4239097238 2.2847764492 3.8335194588 76.373001099 125.57237244 122.96531677 0.9317999482 104.01619720 1.0843734741 1.3504132032 1.0041296482
 1981.0296631 6.0000000000 14.927000046 0.0540096164 66.424354553 0.4175075889 2.2794134617 3.7912988663 74.324996948 125.16698456 122.56468201 0.9328129888 103.42207336 1.1418638229 1.4794495106 1.0850216150
 1981.1821289 6.0000000000 14.537000656 0.0480048060 64.419090271 0.4020055532 2.2753083706 3.8647837639 70.283996582 123.88092041 121.36634827 0.9266617298 102.36235809 1.2373106480 1.6649680138 1.1122529507
 1981.3344727 6.0000000000 14.482999802 0.0489991978 62.785572052 0.3867527843 2.2746999264 4.0058040619 62.265998840 122.56088257 119.99648285 0.9444131851 101.73492432 1.1509855986 1.3432537317 1.2699351311
 1981.4869385 6.0000000000 14.495999336 0.0480008014 63.537960052 0.3778055608 2.2763798237 3.7631313801 67.973999023 123.25533295 120.68570709 0.9646712542 101.79285431 1.0355596542 1.1113877296 1.1888126135
 1981.6392822 6.0000000000 14.508999825 0.0450024046 65.845886230 0.3999969065 2.2816543579 3.8058917522 64.325996399 125.61498260 123.01219177 0.9801750779 103.39868164 0.9634456635 1.2333130836 1.0719063282
 1981.7916260 6.0000000000 14.537000656 0.0519887917 67.689941406 0.4210636020 2.2859590054 3.8460254669 67.944999695 127.76421356 125.24459076 0.9889339805 104.09455872 0.9704595804 1.6420792341 0.9549895525
 1981.9440918 6.0000000000 14.630000114 0.0549975969 68.710693359 0.4255593121 2.2793772221 4.0064349174 66.594001770 127.66577911 125.07593536 1.0005809069 103.43492889 1.0577025414 1.6735107899 0.9420640469
 1982.0964355 6.0000000000 14.635000229 0.0490096062 68.023445129 0.4122670293 2.2669155598 4.1691803932 67.926002502 126.71201324 124.07393646 1.0161168575 102.10035706 1.1237030029 1.2113605738 1.0220863819
 1982.2489014 6.0000000000 14.574001312 0.0579927862 67.281600952 0.4085616469 2.2653038502 4.0739879608 66.401000977 125.31275177 122.82545471 1.0338943005 102.02918243 1.1574903727 1.7754075527 1.1300240755
 1982.4012451 6.0000000000 14.689999580 0.0759711713 66.154991150 0.4106391966 2.2767364979 4.0519294739 62.701000214 124.09226227 121.46926880 1.0545284748 103.15565491 1.1654115915 1.5903652906 1.1600040197
 1982.5537109 6.0000000000 15.227000237 0.0879903808 64.486480713 0.4096372128 2.2888946533 3.8468174934 61.543998718 124.60532379 121.95887756 1.0826073885 103.38369751 1.1810112000 1.3265676498 1.1649959087
