# LAS format log file from PETREL
# Project units are specified as depth units
#==================================================================
~Version information
VERS.   2.0:
WRAP.   NO:
#==================================================================
~Well
STRT .m      950.21093750 :
STOP .m      2894.8349609 :
STEP .m     0.00000000 :
NULL .        -999.250000 :
COMP.           : COMPANY
WELL.  31/4-2   : WELL
FLD.            : FIELD
LOC.            : LOCATION
SRVC.           : SERVICE COMPANY
DATE.  2018-09-11 14:48:36   : Log Export Date {yyyy-MM-dd HH:mm:ss}
PROV.           : PROVINCE
UWI.   31/4-2   : UNIQUE WELL ID
API.            : API NUMBER
#==================================================================
~Curve
DEPT .m                   : DEPTH
Lithology_geolink ._      : Lithology_geolink
CALI .in                  : CALI
DRHO .g/cm3               : DRHO
NPHI .m3/m3               : NPHI
RHOB .g/cm3               : RHOB
GR .gAPI                  : GR
DTC .us/ft                : DTC
DTE .us/ft                : DTE
RDEP .ohm.m               : RDEP
SP .mV                    : SP
RSHA .ohm.m               : RSHA
RMED .ohm.m               : RMED
~Parameter
#==================================================================
~Ascii
# ...
 1206.2429199  -999.250000 18.148000717 0.0070096157  -999.250000 1.9688807726 44.568317413 143.49893188 141.26930237 1.0979936123 26.660463333 0.8570128083 0.8570128083
 1206.3952637  -999.250000 18.146999359 0.0099999998  -999.250000 1.9624875784 44.980876923 142.67446899 140.36160278 1.0959967375 26.493465424 0.8609615564 0.8609615564
 1206.5477295  -999.250000 18.131999969 0.0099903848  -999.250000 1.9567559958 45.877574921 142.06762695 139.70297241 1.0950256586 26.326801300 0.8489871621 0.8489871621
 1206.7000732  -999.250000 18.117000580 0.0069903848  -999.250000 1.9495562315 46.366394043 141.35420227 139.22677612 1.1030288935 26.265314102 0.8450128436 0.8450128436
 1206.8525391  -999.250000 18.122999191 0.0040040035  -999.250000 1.9444122314 45.863689423 140.98527527 138.78320313 1.1120439768 26.363393784 0.8490480185 0.8490480185
 1207.0048828  -999.250000 18.127000809 0.0050032050  -999.250000 1.9481313229 45.035659790 140.50431824 138.28244019 1.1230448484 26.461315155 0.8610256314 0.8610256314
 1207.1573486  -999.250000 18.125999451 0.0059719775  -999.250000 1.9629319906 43.679977417 139.80915833 137.73768616 1.1370480061 26.559389114 0.8690160513 0.8690160513
 1207.3096924  -999.250000 18.131999969 -0.001006410  -999.250000 1.9819936752 42.429130554 139.65306091 137.26634216 1.1490706205 26.656314850 0.8730256557 0.8730256557
 1207.4621582  -999.250000 18.166999817 -0.002979984  -999.250000 1.9972633123 42.159156799 139.07922363 136.91703796 1.1710280180 26.754432678 0.8810480237 0.8810480237
 1207.6145020  -999.250000 18.204000473 0.0019903847  -999.250000 2.0019497871 42.199748993 139.05622864 136.70651245 1.1780128479 26.862428665 0.8930256367 0.8930256367
 1207.7669678  -999.250000 18.211000443 -0.001008006  -999.250000 1.9961997271 42.748229980 138.70674133 136.71199036 1.1819880009 26.996536255 0.9010000229 0.9010000229
 1207.9193115  -999.250000 18.142999649 -0.002996795  -999.250000 1.9905500412 44.054492950 139.36187744 136.96530151 1.1789711714 27.130405426 0.9009968042 0.9009968042
 1208.0716553  -999.250000 18.340999603 -0.002000000  -999.250000 1.9913250208 45.764438629 139.63069153 137.44184875 1.1699103117 27.257352829 0.8999807835 0.8999807835
 1208.2241211  -999.250000 18.468000412 -0.002006410  -999.250000 1.9951502085 46.213443756 140.76362610 138.55377197 1.1419422626 27.367862701 0.8939134479 0.8939134479
 1208.3764648  -999.250000 18.351999283 -0.004009608  -999.250000 1.9968999624 46.661170959 142.84613037 140.73199463 1.1239486933 27.637248993 0.8669359088 0.8669359088
 1208.5289307  -999.250000 18.347000122 -0.006993590  -999.250000 1.9920309782 46.403022766 145.78169250 143.44982910 1.1079871655 28.025999069 0.8469487429 0.8469487429
 1208.6812744  -999.250000 18.496999741 -0.004990384  -999.250000 1.9745438099 46.097908020 147.97801208 145.75411987 1.1040096283 28.025814056 0.8309903741 0.8309903741
 1208.8337402  -999.250000 18.079000473 -0.002004003  -999.250000 1.9498674870 45.757793427 149.11853027 147.00842285 1.1070880890 27.966484070 0.8280200362 0.8280200362
 1208.9860840  -999.250000 18.076000214 -0.003003205  -999.250000 1.9387375116 45.456157684 149.29800415 147.00038147 1.1291089058 27.587789536 0.8330640793 0.8330640793
 1209.1385498  -999.250000 18.033000946 -0.004008007  -999.250000 1.9490693808 44.880260468 147.40443420 145.27496338 1.1631880999 27.209638596 0.8533242345 0.8533242345
 1209.2908936  -999.250000 18.017999649 -0.006003205  -999.250000 1.9692062140 44.192321777 144.03190613 141.71049500 1.2101666927 26.870204926 0.9341763258 0.9341763258
 1209.4433594  -999.250000 18.235000610 -0.006995997  -999.250000 1.9881259203 42.101696014 139.12335205 136.97537231 1.2622241974 26.622995377 0.9891761541 0.9891761541
 1209.5957031  -999.250000 18.363000870 -0.005990385  -999.250000 2.0009248257 38.780921936 134.67427063 132.51065063 1.3181986809 26.621999741 1.0329935551 1.0329935551
 1209.7481689  -999.250000 18.218999863 -0.002979984  -999.250000 2.0056376457 35.646015167 132.70913696 130.43739319 1.3802402020 26.622415543 1.0309360027 1.0309360027
 1209.9005127  -999.250000 18.148000717 0.0020128207  -999.250000 2.0047750473 35.657070160 133.72685242 131.56430054 1.4401025772 26.726419449 1.0147659779 1.0147659779
 1210.0528564  -999.250000 18.662000656 0.0060064052  -999.250000 2.0054500103 37.861793518 137.04444885 134.63165283 1.4719775915 26.857528687 0.9418398142 0.9418398142
 1210.2053223  -999.250000 19.409999847 0.0080160256  -999.250000 2.0119690895 39.670848846 139.72026062 137.60200500 1.4649134874 27.021999359 0.8920801282 0.8920801282
 1210.3576660  -999.250000 19.131999969 0.0129839871  -999.250000 2.0190563202 41.495693207 141.89654541 139.48318481 1.4377918243 27.022853851 0.9170544147 0.9170544147
 1210.5101318  -999.250000 18.558000565 0.0079871798  -999.250000 2.0220315456 43.583869934 142.36605835 140.16453552 1.3727788925 27.290771484 0.9339679480 0.9339679480
 1210.6624756  -999.250000 18.400999069 0.0039967978  -999.250000 2.0237936974 45.103427887 142.60739136 140.36851501 1.3037983179 27.843017578 0.9238943458 0.9238943458
 1210.8149414  -999.250000 18.313999176 0.0030064103  -999.250000 2.0255877972 46.481464386 143.07820129 140.92985535 1.2408173084 28.161016464 0.8909262419 0.8909262419
 1210.9672852  -999.250000 18.225999832 0.0050032050  -999.250000 2.0258874893 46.313041687 144.10693359 141.82122803 1.1838430166 28.478017807 0.8679487109 0.8679487109
 1211.1197510  -999.250000 18.156000137 0.0059919935  -999.250000 2.0232746601 45.704273224 145.29508972 143.11219788 1.1349079609 28.795404434 0.8519759774 0.8519759774
 1211.2720947  -999.250000 18.118000031 0.0039903848  -999.250000 2.0193500519 45.522022247 146.93496704 144.52087402 1.1119519472 28.896255493 0.8459935784 0.8459935784
 1211.4245605  -999.250000 18.152000427 0.0010000000  -999.250000 2.0184435844 45.215175629 147.59742737 145.30534363 1.0969599485 28.975664139 0.8439999819 0.8439999819
 1211.5769043  -999.250000 18.174999237 0.0010160257  -999.250000 2.0229001045 44.511825562 147.30131531 145.23498535 1.0870256424 28.891033173 0.8440192342 0.8440192342
 1211.7293701  -999.250000 18.132999420 0.0060160127  -999.250000 2.0316381454 44.149574280 146.49343872 144.17929077 1.0950280428 28.587715149 0.8501201272 0.8501201272
 1211.8817139  -999.250000 18.082000732 0.0100096148  -999.250000 2.0402626991 44.789390564 144.54228210 142.39115906 1.1020897627 28.016265869 0.8801698685 0.8801698685
 1212.0340576  -999.250000 18.104999542 0.0130032031  -999.250000 2.0444531441 44.597095490 142.85179138 140.53163147 1.1300960779 27.164543152 0.9330480695 0.9330480695
 1212.1865234  -999.250000 18.172000885 0.0139903855  -999.250000 2.0420749187 43.694801331 141.06919861 138.90509033 1.1601024866 26.710834503 0.9479583502 0.9479583502
 1212.3388672  -999.250000 18.141000748 0.0109807849  -999.250000 2.0340249538 44.259502411 139.60881042 137.29719543 1.1921088696 26.660726547 0.9349967837 0.9349967837
 1212.4913330  -999.250000 18.063999176 0.0049871793  -999.250000 2.0235619545 45.662391663 138.07244873 135.95031738 1.2260447741 27.200086594 0.9340737462 0.9340737462
 1212.6436768  -999.250000 18.129999161 0.0009903924  -999.250000 2.0139000416 46.405483246 137.41706848 135.32514954 1.2400127649 27.850797653 0.9569423795 0.9569423795
 1212.7961426  -999.250000 18.124000549 -0.002000000  -999.250000 2.0089871883 46.244674683 137.71516418 135.48861694 1.2439743280 28.408502579 0.9389230609 0.9389230609
 1212.9484863  -999.250000 18.219999313 -0.001980769  -999.250000 2.0116999149 46.144607544 138.51243591 136.24589539 1.2359582186 27.941612244 0.9149839878 0.9149839878
 1213.1009521  -999.250000 18.238000870 0.0040280228  -999.250000 2.0198693275 46.336044312 140.14349365 137.86233521 1.2229319811 27.508678436 0.9099640250 0.9099640250
 1213.2532959  -999.250000 18.233999252 0.0110064102  -999.250000 2.0273375511 47.097579956 141.91416931 139.77992249 1.2059390545 27.179641724 0.9009743929 0.9009743929
 1213.4057617  -999.250000 18.191999435 0.0129959974  -999.250000 2.0307064056 48.523292542 143.25611877 140.92469788 1.1869679689 27.068405151 0.8930000067 0.8930000067
