# LAS format log file from PETREL
# Project units are specified as depth units
#==================================================================
~Version information
VERS.   2.0:
WRAP.   NO:
#==================================================================
~Well
STRT .m      860.54608154 :
STOP .m      3158.4321289 :
STEP .m     0.00000000 :
NULL .        -999.250000 :
COMP.           : COMPANY
WELL.  31/4-4   : WELL
FLD.            : FIELD
LOC.            : LOCATION
SRVC.           : SERVICE COMPANY
DATE.  2018-09-11 14:48:37   : Log Export Date {yyyy-MM-dd HH:mm:ss}
PROV.           : PROVINCE
UWI.   31/4-4   : UNIQUE WELL ID
API.            : API NUMBER
#==================================================================
~Curve
DEPT .m                   : DEPTH
Lithology_geolink ._      : Lithology_geolink
CALI .in                  : CALI
DRHO .g/cm3               : DRHO
NPHI .m3/m3               : NPHI
RHOB .g/cm3               : RHOB
GR .gAPI                  : GR
DTC .us/ft                : DTC
DTE .us/ft                : DTE
RDEP .ohm.m               : RDEP
SP .mV                    : SP
RSHA .ohm.m               : RSHA
RMED .ohm.m               : RMED
~Parameter
#==================================================================
~Ascii
# ...
 2082.1838379 13.000000000 12.671999931 -0.001000000 0.3461286724 2.4519879818 88.879798889 107.36730194 101.60597229 1.5451120138 20.349399567 2.0058784485 2.0058784485
 2082.3361816 13.000000000 12.671999931 0.0060000001 0.3773199022 2.4588773251 90.367790222 107.60489655 101.90921021 1.5800336599 24.215204239 1.9679759741 1.9679759741
 2082.4887695 13.000000000 12.671999931 0.0040000002 0.3632699847 2.4623665810 85.864181519 107.87224579 102.22550201 1.6010063887 26.221817017 1.9531569481 1.9531569481
 2082.6411133 13.000000000 12.687000275 0.0030000000 0.3524073958 2.4575333595 82.490188599 108.04349518 102.33551025 1.6029776335 29.265583038 2.0024070740 2.0024070740
 2082.7934570 13.000000000 12.687999725 0.0060000001 0.3176058233 2.4599750042 79.420204163 107.06956482 101.37454987 1.5959807634 26.334402084 2.1292815208 2.1292815208
 2082.9458008 13.000000000 12.687999725 -0.002000000 0.3112201691 2.4613626003 73.878807068 105.81829071 100.14564514 1.5900015831 25.530508041 2.2169375420 2.2169375420
 2083.0983887 13.000000000 12.687999725 -0.002000000 0.2849999964 2.4610333443 76.257209778 105.32148743 99.673599243 1.5910352468 28.966407776 2.1775801182 2.1775801182
 2083.2507324 13.000000000 12.687999725 -0.007000000 0.2846499979 2.4579999447 78.506408691 106.18441772 100.43601990 1.6020865440 30.343009949 2.0466089249 2.0466089249
 2083.4030762 13.000000000 12.687999725 -0.005000000 0.2860876918 2.4530749321 80.507202148 106.99012756 101.25412750 1.6291567087 32.209403992 1.9248815775 1.9248815775
 2083.5554199 13.000000000 12.687999725 -0.007000000 0.3106705248 2.4549612999 82.752807617 107.74610138 102.07818604 1.6781105995 31.393388748 1.8880417347 1.8880417347
 2083.7080078 13.000000000 12.694999695 -0.007000000 0.3465599716 2.4609749317 84.484176636 108.01489258 102.28678894 1.7472275496 27.272794724 1.9142949581 1.9142949581
 2083.8603516 13.000000000 12.694999695 -0.003000000 0.3476599753 2.4703083038 79.523536682 106.58014679 100.86824036 1.8181922436 26.586198807 2.0067083836 2.0067083836
 2084.0126953 13.000000000 12.694999695 0.0080000004 0.3495469987 2.4819250107 67.224960327 103.01496887 97.299995422 1.8780641556 26.339803696 2.2283685207 2.2283685207
 2084.1650391 13.000000000 12.694999695 0.0160000008 0.3529146016 2.4933228493 59.428997040 98.626502991 92.879203796 1.8979616165 27.204000473 2.6556768417 2.6556768417
 2084.3173828 13.000000000 12.696000099 0.0140000004 0.3313246667 2.5000360012 56.637619019 95.446212769 89.757347107 1.8859759569 24.716808319 3.1780064106 3.1780064106
 2084.4699707 13.000000000 12.711000443 0.0060000001 0.2960099876 2.4990499020 64.542465210 95.332817078 89.565452576 1.8708846569 27.714855194 3.1800096035 3.1800096035
 2084.6223145 13.000000000 12.718999863 0.0060000001 0.2524498105 2.4909415245 77.785057068 97.445365906 91.653327942 1.8348301649 28.591983795 2.5595226288 2.5595226288
 2084.7746582 13.000000000 12.718999863 0.0120000001 0.2783483267 2.4833664894 88.701805115 101.14669037 95.471374512 1.7817407846 25.160400391 2.0993053913 2.0993053913
 2084.9270020 13.000000000 12.711000443 0.0070000002 0.3241265714 2.4714157581 92.999198914 106.09080505 100.45086670 1.7008365393 23.415699005 1.8828862906 1.8828862906
 2085.0795898 13.000000000 12.718999863 0.0130000003 0.3602399826 2.4707584381 92.485778809 109.29216003 103.57328033 1.5987275839 23.233661652 1.8119391203 1.8119391203
 2085.2319336 13.000000000 12.718999863 0.0089999996 0.3707799911 2.4692332745 88.065406799 110.81222534 105.01433563 1.5137853622 24.999608994 1.7929775715 1.7929775715
 2085.3842773 13.000000000 12.711000443 0.0099999998 0.3913869560 2.4616916180 88.806404114 111.38259888 105.59137726 1.4469136000 26.745048523 1.7858976126 1.7858976126
 2085.5366211 13.000000000 12.711999893 0.0040000002 0.4005852938 2.4469950199 86.755912781 111.90408325 106.21257019 1.4200208187 27.069046021 1.7540047169 1.7540047169
 2085.6892090 13.000000000 12.733999252 0.0020000001 0.4103299975 2.4364666939 90.439002991 110.95716095 105.22488403 1.4331218004 25.226200104 1.7571345568 1.7571345568
 2085.8415527 13.000000000 12.741999626 0.0000000000 0.3969200253 2.4332582951 90.753807068 110.25572205 104.52574921 1.4711506367 24.674612045 1.7991313934 1.7991313934
 2085.9938965 13.000000000 12.756999969 0.0000000000 0.3978984356 2.4324998856 91.956832886 110.42859650 104.72112274 1.5181313753 27.354253769 1.8401795626 1.8401795626
 2086.1462402 13.000000000 12.758000374 -0.001000000 0.3847411275 2.4433667660 97.788803101 109.59512329 103.90273285 1.5590448380 27.749397278 1.8963840008 1.8963840008
 2086.2988281 13.000000000 12.758000374 -0.004000000 0.3852199912 2.4532499313 90.246795654 105.93669128 100.20135498 1.5730191469 29.428647995 2.0165512562 2.0165512562
 2086.4511719 13.000000000 12.758000374 -0.006000000 0.3691599965 2.4690582752 89.233573914 103.23683167 97.500892639 1.5790256262 28.693294525 2.1883814335 2.1883814335
 2086.6035156 13.000000000 12.758000374 -0.008000000 0.3408154249 2.4759500027 84.129409790 102.68788147 96.954811096 1.5870256424 27.545808792 2.3064615726 2.3064615726
 2086.7558594 13.000000000 12.765000343 0.0000000000 0.3426769376 2.4786000252 85.490402222 103.25347900 97.558624268 1.5950000286 29.041799545 2.1382319927 2.1382319927
 2086.9082031 13.000000000 12.765999794 -0.005000000 0.3479615450 2.4675400257 82.498298645 105.27832794 99.550399780 1.5949743986 29.295431137 1.8988686800 1.8988686800
 2087.0607910 13.000000000 12.765999794 -0.005000000 0.3642399907 2.4507415295 81.446815491 109.19169617 103.48163605 1.5788846016 32.053398132 1.8170833588 1.8170833588
 2087.2131348 13.000000000 12.765999794 0.0000000000 0.3491741419 2.4501667023 84.191612244 111.03010559 105.34155273 1.5429134369 31.233983994 1.8430641890 1.8430641890
 2087.3654785 13.000000000 12.765999794 0.0120000001 0.3283434212 2.4539334774 85.321998596 111.04472351 105.30467224 1.5159136057 28.112350464 1.8630192280 1.8630192280
 2087.5178223 13.000000000 12.788000107 0.0070000002 0.3389628828 2.4504649639 88.127708435 111.28299713 105.48291779 1.4889646769 26.039398193 1.8689919710 1.8689919710
 2087.6704102 13.000000000 12.789999962 -0.005000000 0.3483400047 2.4335582256 89.818008423 111.27865601 105.48458862 1.4669487476 25.047811508 1.8639326096 1.8639326096
 2087.8227539 13.000000000 12.812001228 -0.003000000 0.3699399829 2.4295499325 91.373199463 112.14310455 106.20187378 1.4509935379 27.163196564 1.8429007530 1.8429007530
 2087.9750977 13.000000000 12.812001228 0.0020000001 0.3564516306 2.4384667873 90.805992126 112.67447662 106.76516724 1.4489808083 26.288045883 1.8119326830 1.8119326830
 2088.1274414 13.000000000 12.805000305 0.0060000001 0.3687003255 2.4464592934 88.614997864 112.85290527 107.12032318 1.4429551363 25.362998962 1.7910991907 1.7910991907
 2088.2800293 13.000000000 12.805000305 -0.003996795 0.3776499927 2.4416916370 85.507011414 112.91297150 107.26237488 1.4289776087 23.491996765 1.8220993280 1.8220993280
 2088.4323730 13.000000000 12.812001228 -0.001988782 0.3973399997 2.4350833893 87.702224731 112.84719849 107.16702271 1.4220160246 22.874256134 1.8528269529 1.8528269529
 2088.5847168 13.000000000 12.812999725 0.0050208000 0.3762437701 2.4411499500 92.137016296 112.42022705 106.67913818 1.4269936085 24.514411926 1.7988590002 1.7988590002
 2088.7370605 13.000000000 12.812999725 0.0179999992 0.3613338768 2.4527142048 95.877799988 111.68138885 105.88310242 1.4250319004 26.200248718 1.7549967766 1.7549967766
 2088.8894043 13.000000000 12.812999725 0.0070000002 0.3631969690 2.4499793053 96.744689941 111.24385834 105.42137146 1.4350111485 27.212451935 1.7541168928 1.7541168928
 2089.0419922 13.000000000 12.812999725 -0.000012821 0.3670700192 2.4350500107 93.434394836 110.48470306 104.67584229 1.4420480728 27.498958588 1.8270962238 1.8270962238
 2089.1943359 13.000000000 12.812999725 -0.007993600 0.3591626883 2.4281249046 92.316406250 110.25572205 104.52574921 1.4570705891 29.035791397 1.8569358587 1.8569358587
 2089.3466797 13.000000000 12.812999725 -0.004000000 0.3357675374 2.4306249619 93.371604919 110.42859650 104.74545288 1.4790672064 27.408597946 1.8370927572 1.8370927572
