# LAS format log file from PETREL
# Project units are specified as depth units
#==================================================================
~Version information
VERS.   2.0:
WRAP.   NO:
#==================================================================
~Well
STRT .m      996.03363037 :
STOP .m      2328.0097656 :
STEP .m     0.00000000 :
NULL .        -999.250000 :
COMP.           : COMPANY
WELL.  31/4-10   : WELL
FLD.            : FIELD
LOC.            : LOCATION
SRVC.           : SERVICE COMPANY
DATE.  2018-09-11 14:48:36   : Log Export Date {yyyy-MM-dd HH:mm:ss}
PROV.           : PROVINCE
UWI.   31/4-10   : UNIQUE WELL ID
API.            : API NUMBER
#==================================================================
~Curve
DEPT .m                   : DEPTH
Lithology_geolink ._      : Lithology_geolink
CALI .in                  : CALI
DRHO .g/cm3               : DRHO
NPHI .m3/m3               : NPHI
RHOB .g/cm3               : RHOB
GR .gAPI                  : GR
DTC .us/ft                : DTC
RDEP .ohm.m               : RDEP
SP .mV                    : SP
RSHA .ohm.m               : RSHA
RMED .ohm.m               : RMED
~Parameter
#==================================================================
~Ascii
# ...
 1788.8184814  -999.250000 12.312499046  -999.250000  -999.250000 2.0493378639 75.430809021 138.01406860 0.8016370535 146.83366394 1.1831973791 0.6189286113
 1788.9709473  -999.250000 12.312439919  -999.250000  -999.250000 2.0328726768 74.656440735 139.58766174 0.8506838679 147.29176331 1.2499040365 0.8786097169
 1789.1232910  -999.250000 12.304699898  -999.250000  -999.250000 2.0311026573 71.077369690 138.29043579 0.8730565310 147.29153442 1.2398560047 0.6552715898
 1789.2757568  -999.250000 12.304900169  -999.250000  -999.250000 2.0457479954 72.750648499 137.19558716 0.9021943212 146.91616821 1.2012563944 0.6528043151
 1789.4281006  -999.250000 12.328161240  -999.250000  -999.250000 2.0500013828 72.830543518 136.68778992 0.9316658378 146.41653442 1.2064006329 0.7335618734
 1789.5805664  -999.250000 12.335900307  -999.250000  -999.250000 2.0704259872 74.877494812 135.29792786 0.9617850780 146.45883179 1.1371138096 0.8206983209
 1789.7329102  -999.250000 12.335900307  -999.250000  -999.250000 2.0741038322 75.134216309 134.99919128 0.9602730870 146.95846558 0.9820655584 0.8997105956
 1789.8853760  -999.250000 12.335900307  -999.250000  -999.250000 2.0799458027 76.176460266 134.86697388 0.9571315646 147.04147339 1.3901582956 0.7645953298
 1790.0377197  -999.250000 12.335960388  -999.250000  -999.250000 2.1028625965 75.077056885 131.61730957 0.9500343204 146.79153442 1.4464340210 0.8257799745
 1790.1900635  -999.250000 12.343740463  -999.250000  -999.250000 2.0949084759 76.758422852 133.50389099 0.9193689823 146.45832825 1.4613994360 0.9955394268
 1790.3425293  -999.250000 12.335900307  -999.250000  -999.250000 2.0943822861 77.682067871 134.10488892 0.9044717550 146.04147339 1.4056211710 0.9435885549
 1790.4948730  -999.250000 12.335900307  -999.250000  -999.250000 2.0859518051 77.053550720 134.70487976 0.8430474997 145.91673279 1.3272846937 0.7812159657
 1790.6473389  -999.250000 12.335900307  -999.250000  -999.250000 2.0757722855 76.042716980 135.30226135 0.7816246152 145.79116821 1.3482099771 0.8375994563
 1790.7996826  -999.250000 12.335900307  -999.250000  -999.250000 2.0625009537 73.761108398 135.62518311 0.7604472637 145.04113770 1.4067668915 0.7126165032
 1790.9521484  -999.250000 12.335900307  -999.250000  -999.250000 2.0437812805 75.029907227 138.48226929 0.7321610451 144.37500000 1.3579707146 0.8365566730
 1791.1044922  -999.250000 12.335900307  -999.250000  -999.250000 2.0754156113 78.505500793 136.68701172 0.7272962332 144.54193115 1.3077293634 0.6860451102
 1791.2569580  -999.250000 12.335900307  -999.250000  -999.250000 2.0922498703 79.136665344 135.19779968 0.7494395971 144.87500000 1.3218170404 0.8700032234
 1791.4093018  -999.250000 12.335960388  -999.250000  -999.250000 2.1033227444 80.465095520 134.81309509 0.7546530962 144.87500000 1.2657135725 0.6466904283
 1791.5617676  -999.250000 12.343729973  -999.250000  -999.250000 2.0695171356 76.570526123 136.28805542 0.7615674138 144.91676331 1.1670594215 0.7708991766
 1791.7141113  -999.250000 12.335900307  -999.250000  -999.250000 2.1188459396 83.627159119 135.20292664 0.8587120771 145.12519836 1.3736526966 0.8107798696
 1791.8665771  -999.250000 12.335900307  -999.250000  -999.250000 2.1175620556 83.860771179 135.49084473 0.8717056513 145.70913696 1.3332014084 0.7967259884
 1792.0189209  -999.250000 12.335599899  -999.250000  -999.250000 2.1168754101 82.389030457 134.59072876 0.8925197124 146.41673279 1.2529963255 0.7600250840
 1792.1713867  -999.250000 12.296959877  -999.250000  -999.250000 2.0948123932 76.799087524 133.51156616 0.9062919021 146.41647339 1.2677588463 0.8882936239
 1792.3237305  -999.250000 12.304639816  -999.250000  -999.250000 2.0789105892 75.454811096 134.61650085 0.9053652883 146.25000000 1.6831655502 0.7574779987
 1792.4760742  -999.250000 12.296959877  -999.250000  -999.250000 2.0708463192 77.459770203 136.60719299 0.8891676068 146.33346558 1.9650325775 0.9133529067
 1792.6285400  -999.250000 12.304639816  -999.250000  -999.250000 2.0739037991 79.909759521 137.58979797 0.8072593212 146.54176331 1.3391549587 0.6663597226
 1792.7808838  -999.250000 12.296899796  -999.250000  -999.250000 2.0685369968 76.731155396 136.46919250 0.7205916047 146.66673279 1.2579362392 0.8295359612
 1792.9333496  -999.250000 12.296899796  -999.250000  -999.250000 2.0886702538 74.606033325 132.94789124 0.6860225797 146.79176331 1.2717078924 0.5791831613
 1793.0856934  -999.250000 12.296648979  -999.250000  -999.250000 2.2099654675 72.403579712 117.09488678 0.6763674021 146.79153442 1.0769987106 0.7906432748
 1793.2381592  -999.250000 12.265729904  -999.250000  -999.250000 2.2380251884 75.625267029 116.21269989 0.6735106111 146.79206848 1.0667628050 0.6623665690
 1793.3905029  -999.250000 12.281180382  -999.250000  -999.250000 2.2269036770 75.721611023 117.58194733 0.7785499096 147.25019836 1.2222262621 0.8956444860
 1793.5429688  -999.250000 12.265409470  -999.250000  -999.250000 2.2226047516 72.475822449 115.65459442 0.8071708083 147.41647339 1.0772305727 0.7198875546
 1793.6953125  -999.250000 12.242259979  -999.250000  -999.250000 2.1631395817 70.031593323 121.13610840 0.8355718255 147.04133606 2.2724509239 0.7805783153
 1793.8477783  -999.250000 12.250000954  -999.250000  -999.250000 2.1976571083 66.468589783 114.26441193 1.0168473721 146.24909973 1.0509295464 1.0309932232
 1794.0001221  -999.250000 12.250000954  -999.250000  -999.250000 2.2801563740 63.268405914 101.42585754 1.1749825478 145.58346558 1.4673569202 1.1528898478
 1794.1525879  -999.250000 12.249739647  -999.250000  -999.250000 2.2268190384 58.219036102 104.02100372 1.4278876781 145.79176331 2.5931844711 1.3487241268
 1794.3049316  -999.250000 12.219470024  -999.250000  -999.250000 2.0977923870 61.464000702 117.80517578 1.5970464945 145.87500000 7.9429888725 1.4800251722
 1794.4572754  -999.250000 12.304699898  -999.250000  -999.250000 2.1681971550 68.216362000 119.27719116 1.2794597149 145.83326721 3.2202339172 1.0351859331
 1794.6097412  -999.250000 12.305190086  -999.250000  -999.250000 2.1469571590 78.407600403 128.63333130 1.0629949570 145.75000000 1.0500317812 1.0874027014
 1794.7620850  -999.250000 12.366129875  -999.250000  -999.250000 2.1285521984 82.301963806 133.29675293 0.8857378960 145.91693115 1.1743425131 0.8462301493
 1794.9145508  -999.250000 12.234549522  -999.250000  -999.250000 2.1237559319 81.090797424 133.00019836 0.7553692460 145.95762634 1.1238653660 0.7932270765
 1795.0668945  -999.250000 12.249939919  -999.250000  -999.250000 2.1012957096 77.126663208 133.00526428 0.6916467547 145.16633606 1.2201129198 0.7390832305
 1795.2193604  -999.250000 12.242199898  -999.250000  -999.250000 2.0971508026 77.330734253 133.58288574 0.6970744729 144.58293152 0.9320417643 0.9180108905
 1795.3717041  -999.250000 12.242759705  -999.250000  -999.250000 2.1257967949 79.431488037 131.69697571 0.7176291347 144.33346558 1.3097368479 0.9119435549
 1795.5241699  -999.250000 12.312499046  -999.250000  -999.250000 2.1255214214 78.745597839 131.28829956 0.7553914189 144.75059509 1.3259629011 0.7139700651
 1795.6765137  -999.250000 12.312379837  -999.250000  -999.250000 2.1332836151 78.269714355 130.09434509 0.7948858738 145.45866394 1.4032809734 0.8513852954
 1795.8289795  -999.250000 12.296770096  -999.250000  -999.250000 2.1128306389 73.354690552 129.41511536 0.8277209997 146.00030518 1.5155427456 0.7936159372
 1795.9813232  -999.250000 12.281299591  -999.250000  -999.250000 2.0908153057 71.283493042 130.91552734 0.8404703736 146.04133606 1.5097239017 0.9160628915
 1796.1337891  -999.250000 12.281299591  -999.250000  -999.250000 2.0626642704 67.974136353 132.83192444 0.9175705910 145.58323669 1.5007419586 0.8416613936
 1796.2861328  -999.250000 12.281419754  -999.250000  -999.250000 2.0492174625 71.712524414 136.27453613 0.9042071700 145.29133606 1.4744582176 0.7166600227
 1796.4384766  -999.250000 12.296770096  -999.250000  -999.250000 2.0835452080 74.637237549 133.57849121 0.8700862527 145.00000000 1.4571803808 0.7580909729
