# LAS format log file from PETREL
# Project units are specified as depth units
#==================================================================
~Version information
VERS.   2.0:
WRAP.   NO:
#==================================================================
~Well
STRT .m      895.02691650 :
STOP .m      2933.5300293 :
STEP .m     0.00000000 :
NULL .        -999.250000 :
COMP.           : COMPANY
WELL.  31/4-5   : WELL
FLD.            : FIELD
LOC.            : LOCATION
SRVC.           : SERVICE COMPANY
DATE.  2018-09-11 14:48:38   : Log Export Date {yyyy-MM-dd HH:mm:ss}
PROV.           : PROVINCE
UWI.   31/4-5   : UNIQUE WELL ID
API.            : API NUMBER
#==================================================================
~Curve
DEPT .m                   : DEPTH
Lithology_geolink ._      : Lithology_geolink
CALI .in                  : CALI
DRHO .g/cm3               : DRHO
SGR .gAPI                 : SGR
NPHI .m3/m3               : NPHI
RHOB .g/cm3               : RHOB
PEF .b/e                  : PEF
GR .gAPI                  : GR
DTC .us/ft                : DTC
DTE .us/ft                : DTE
RDEP .ohm.m               : RDEP
SP .mV                    : SP
RSHA .ohm.m               : RSHA
RMIC .ohm.m               : RMIC
RMED .ohm.m               : RMED
~Parameter
#==================================================================
~Ascii
# ...
 2523.5739746 5.0000000000 12.366999626 0.0230144225 76.845596313 0.3079392314 2.3549447060 3.8804614544 74.410606384 91.787162781 87.052185059 2.7855384350 121.22697449 3.1301538944  -999.250000 3.2538173199
 2523.7263184 5.0000000000 12.366999626 0.0320032053 75.928504944 0.3074598014 2.3583605289 3.9971153736 71.668968201 91.223014832 86.658073425 2.8019230366 121.53891754 3.1289999485  -999.250000 3.1968398094
 2523.8789063 5.0000000000 12.366999626 0.0339936018 74.786987305 0.3072979748 2.3576354980 4.1951537132 70.408447266 91.031440735 86.212310791 2.8234655857 122.54623413 3.1590833664  -999.250000 3.1469280720
 2524.0312500 5.0000000000 12.366999626 0.0319967978 74.010704041 0.2973196805 2.3546226025 4.2738461494 71.176338196 90.894111633 86.035087585 2.8454616070 123.11027527 3.2072308064  -999.250000 3.1319663525
 2524.1835938 5.0000000000 12.366999626 0.0299951918 74.124961853 0.2971343398 2.3531744480 4.1571536064 73.880104065 90.871002197 86.251876831 2.8639230728 123.35642242 3.2528076172  -999.250000 3.1250159740
 2524.3359375 2.0000000000 12.366999626 0.0270016026 74.901260376 0.3061047196 2.3561129570 3.8764998913 72.696258545 91.472991943 86.683105469 2.8748459816 122.84680939 3.2792308331  -999.250000 3.1301987171
 2524.4885254 2.0000000000 12.366999626 0.0280000009 76.196296692 0.3277959824 2.3620104790 3.7535200119 73.461662292 91.988670349 87.185989380 2.8972353935 122.38348389 3.3014655113  -999.250000 3.1922500134
 2524.6408691 2.0000000000 12.366999626 0.0280000009 75.918579102 0.3483419716 2.3669555187 3.7251923084 68.064498901 92.063598633 87.483398438 2.9230000973 122.09062195 3.3287692070  -999.250000 3.2441487312
 2524.7932129 2.0000000000 12.371999741 0.0279871803 73.830467224 0.3433074653 2.3660173416 3.9609615803 68.999153137 92.388862610 87.638130188 2.9428076744 121.82089996 3.3629615307  -999.250000 3.2750577927
 2524.9455566 2.0000000000 12.385999680 0.0199919865 72.504913330 0.3230100870 2.3603994846 3.8938076496 71.596015930 92.401657104 87.725311279 2.9476537704 122.00135803 3.3970768452  -999.250000 3.2930736542
 2525.0981445 6.0000000000 12.397999763 0.0150031997 72.291046143 0.3043947220 2.3586413860 4.0484952927 78.479553223 92.115249634 87.581085205 2.9515447617 123.14852905 3.4160656929  -999.250000 3.3161730766
 2525.2504883 6.0000000000 12.397999763 0.0160128213 73.858512878 0.3121259511 2.3638019562 3.7125406265 85.188476563 92.187904358 87.506790161 2.9670417309 123.10901642 3.4064974785  -999.250000 3.3521633148
 2525.4028320 5.0000000000 12.397999763 0.0240032058 75.340354919 0.3345294893 2.3696796894 3.8004615307 82.360618591 92.087036133 87.542892456 2.9937691689 122.27602386 3.3758077621  -999.250000 3.3861122131
 2525.5551758 5.0000000000 12.397999763 0.0259967949 76.481315613 0.3466816247 2.3708522320 3.6746921539 76.507217407 91.862854004 87.200378418 3.0235383511 122.87079620 3.3631539345  -999.250000 3.4210095406
 2525.7075195 5.0000000000 12.397999763 0.0239903852 76.327980042 0.3476769030 2.3675346375 3.9779999256 72.287765503 91.624343872 86.772506714 3.0252308846 122.59734344 3.4221539497  -999.250000 3.4238686562
 2525.8601074 5.0000000000 12.397999763 0.0179903992 74.038658142 0.3332903683 2.3647925854 4.1438717842 75.270866394 91.106353760 86.513793945 3.0073041916 121.27079010 3.5512175560  -999.250000 3.3828508854
 2526.0124512 5.0000000000 12.390999794 0.0150032043 72.746704102 0.3333895802 2.3674297333 4.3324999809 78.658462524 91.094825745 86.401878357 2.9740386009 121.40843964 3.6979229450  -999.250000 3.3520815372
 2526.1647949 6.0000000000 12.382999420 0.0170048084 72.865867615 0.3206543326 2.3729639053 4.2276153564 80.200035095 91.031593323 86.211914063 2.9293076992 122.62973022 3.7388846874  -999.250000 3.3693556786
 2526.3171387 6.0000000000 12.375000000 0.0200048070 74.551353455 0.3046249151 2.3748254776 4.1729617119 82.711952209 90.771820068 86.214385986 2.8833076954 122.69638824 3.5429615974  -999.250000 3.4806346893
 2526.4697266 6.0000000000 12.366999626 0.0230000000 74.411788940 0.2890138626 2.3687622547 4.0848288536 80.816940308 91.250251770 86.497413635 2.8381838799 122.71021271 3.2949151993  -999.250000 3.6786010265
 2526.6220703 6.0000000000 12.358999252 0.0230032057 73.602325439 0.2933740318 2.3590157032 4.1713075638 80.786918640 91.672431946 86.890419006 2.7905385494 122.85269928 3.0873076916  -999.250000 3.8023424149
 2526.7744141 6.0000000000 12.347000122 0.0250016022 73.346374512 0.3208241463 2.3514266014 4.1937308311 74.510749817 91.609832764 87.126419067 2.7345769405 123.26154327 2.9923462868  -999.250000 3.6650352478
 2526.9267578 5.0000000000 12.333000183 0.0259983987 73.868499756 0.3358459175 2.3481125832 4.1330771446 75.595222473 92.188484192 87.430297852 2.6873075962 123.97593689 3.0175001621  -999.250000 3.3641955853
 2527.0793457 5.0000000000 12.325000763 0.0250032004 73.557838440 0.3270306289 2.3503973484 3.9362354279 74.494865417 92.302001953 87.511764526 2.6562998295 123.35777283 3.0866940022  -999.250000 3.1134135723
 2527.2316895 5.0000000000 12.328000069 0.0259967949 73.695968628 0.3116320670 2.3570439816 3.9296958447 76.324844360 91.622489929 87.140357971 2.6530001163 121.83465576 3.1640145779  -999.250000 2.9919474125
 2527.3840332 5.0000000000 12.329000473 0.0239951927 74.938903809 0.3004593849 2.3624908924 4.0921154022 77.474876404 91.973327637 87.191642761 2.6901538372 121.45490265 3.2207691669  -999.250000 2.9812402725
 2527.5363770 5.0000000000 12.340000153 0.0210016016 76.162460327 0.3001024723 2.3631317616 4.2686924934 78.021072388 91.662200928 87.107337952 2.7755000591 121.93440247 3.1765770912  -999.250000 3.0562851429
 2527.6887207 5.0000000000 12.347000122 0.0220080130 75.424781799 0.3078539968 2.3653714657 4.3650770187 78.685020447 91.787162781 87.119995117 2.8603076935 122.42086792 3.1788461208  -999.250000 3.1452596188
 2527.8413086 2.0000000000 12.343999863 0.0270192008 74.343063354 0.3040939569 2.3797085285 4.4369363785 74.331321716 92.352005005 87.580467224 2.9098160267 122.38231659 3.5082609653  -999.250000 3.2259953022
 2527.9936523 2.0000000000 12.343999863 0.0329951905 74.191070557 0.2959598601 2.4052755833 4.7528462410 72.554092407 92.325477600 87.803459167 2.9123461246 121.89046478 4.2507309914  -999.250000 3.2245006561
 2528.1459961 2.0000000000 12.343999863 0.0300080124 73.105537415 0.2833901644 2.4311385155 4.6479234695 67.628082275 91.622695923 86.814247131 2.9137692451 121.89904785 4.6993846893  -999.250000 3.1212501526
 2528.2983398 2.0000000000 12.347999573 0.0350144245 71.318946838 0.2710294425 2.4433610439 4.2760386467 65.179603577 88.443458557 83.645957947 2.9272692204 122.59092712 4.3001537323  -999.250000 3.2015383244
 2528.4509277 16.000000000 12.350999832 0.0439967997 69.658248901 0.2644802034 2.4334356785 4.0061454773 61.816337585 85.373229980 80.782844543 2.9440417290 123.03299713 3.7093505859  -999.250000 3.9957017899
 2528.6032715 16.000000000 12.352001190 0.0429855771 70.797309875 0.2739284635 2.4089975357 3.8973846436 60.991420746 84.620910645 79.831024170 2.9495384693 123.04091644 3.2905769348  -999.250000 4.9676222801
 2528.7556152 5.0000000000 12.352001190 0.0339951925 73.177093506 0.2979234755 2.3870475292 3.9613077641 63.757324219 85.255523682 80.451614380 2.9066538811 123.28510284 3.1742308140  -999.250000 4.6792278290
 2528.9079590 5.0000000000 12.352001190 0.0310112182 74.125465393 0.3187728822 2.3783993721 4.0346922874 71.445800781 87.592674255 82.922187805 2.8275771141 123.28079224 3.2012693882  -999.250000 3.8154036999
 2529.0605469 5.0000000000 12.352001190 0.0379775986 74.634231567 0.3205418885 2.3758828640 4.0500898361 76.947090149 90.220458984 85.455123901 2.7524199486 122.47570038 3.2556283474  -999.250000 3.3182499409
 2529.2128906 5.0000000000 12.352001190 0.0309791658 74.520339966 0.3149000108 2.3681941032 4.1306319237 81.957542419 91.157066345 86.638038635 2.6953358650 121.73387146 3.2956223488  -999.250000 3.1629569530
 2529.3649902 5.0000000000 12.352001190 0.0179999992 75.348808289 0.3149000108 2.3603341579 3.9529182911 80.427001953 91.733779907 87.032585144 2.6633927822 121.87322235 3.2991170883  -999.250000 3.1541459560
