# LAS format log file from PETREL
# Project units are specified as depth units
#==================================================================
~Version information
VERS.   2.0:
WRAP.   NO:
#==================================================================
~Well
STRT .m      895.02691650 :
STOP .m      2933.5300293 :
STEP .m     0.00000000 :
NULL .        -999.250000 :
COMP.           : COMPANY
WELL.  31/4-5   : WELL
FLD.            : FIELD
LOC.            : LOCATION
SRVC.           : SERVICE COMPANY
DATE.  2018-09-11 14:48:38   : Log Export Date {yyyy-MM-dd HH:mm:ss}
PROV.           : PROVINCE
UWI.   31/4-5   : UNIQUE WELL ID
API.            : API NUMBER
#==================================================================
~Curve
DEPT .m                   : DEPTH
Lithology_geolink ._      : Lithology_geolink
CALI .in                  : CALI
DRHO .g/cm3               : DRHO
SGR .gAPI                 : SGR
NPHI .m3/m3               : NPHI
RHOB .g/cm3               : RHOB
PEF .b/e                  : PEF
GR .gAPI                  : GR
DTC .us/ft                : DTC
DTE .us/ft                : DTE
RDEP .ohm.m               : RDEP
SP .mV                    : SP
RSHA .ohm.m               : RSHA
RMIC .ohm.m               : RMIC
RMED .ohm.m               : RMED
~Parameter
#==================================================================
~Ascii
# ...
 1031.7297363  -999.250000 18.044000626 -0.015012019  -999.250000  -999.250000 1.9936252832  -999.250000 72.574310303 138.83009338 138.00148010 1.3108958006 117.51448822 1.1409847736  -999.250000 1.1400768757
 1031.8822021  -999.250000 17.997999191 -0.010016025  -999.250000  -999.250000 1.9998657703  -999.250000 73.302001953 138.71080017 137.75001526 1.3333754539 117.87055206 1.1291929483  -999.250000 1.1290264130
 1032.0345459  -999.250000 17.968000412 -0.008008007  -999.250000  -999.250000 1.9982013702  -999.250000 72.287818909 138.79153442 137.89808655 1.3245520592 117.55856323 1.1535376310  -999.250000 1.1549167633
 1032.1868896  -999.250000 17.929000854 -0.010987980  -999.250000  -999.250000 1.9907433987  -999.250000 73.732841492 138.71768188 137.80618286 1.3414779902 116.76014709 1.1649191380  -999.250000 1.1649678946
 1032.3393555  -999.250000 17.892999649 -0.019963970  -999.250000  -999.250000 1.9852086306  -999.250000 77.250183105 138.68603516 137.77488708 1.3633733988 117.27285004 1.1483877897  -999.250000 1.1480544806
 1032.4916992  -999.250000 17.864999771 -0.008048077  -999.250000  -999.250000 1.9858248234  -999.250000 76.302764893 138.69027710 137.79447937 1.3404828310 117.24723816 1.1363210678  -999.250000 1.1360385418
 1032.6441650  -999.250000 17.841999054 -0.008995997  -999.250000  -999.250000 1.9886986017  -999.250000 76.188003540 138.29887390 137.39469910 1.3396418095 116.86430359 1.1420449018  -999.250000 1.1419807673
 1032.7965088  -999.250000 17.843999863 -0.002028045  -999.250000  -999.250000 1.9898705482  -999.250000 72.580894470 138.20884705 137.27085876 1.3382402658 116.26749420 1.1377205849  -999.250000 1.1370159388
 1032.9489746  -999.250000 17.909999847 -0.009967974  -999.250000  -999.250000 1.9884910583  -999.250000 69.556999207 137.92066956 137.11521912 1.3327163458 116.21849060 1.1502090693  -999.250000 1.1509664059
 1033.1013184  -999.250000 17.995000839 -0.008008013  -999.250000  -999.250000 1.9864398241  -999.250000 65.076591492 138.35800171 137.42660522 1.3539975882 116.02644348 1.1493602991  -999.250000 1.1500031948
 1033.2537842  -999.250000 18.041000366 -0.017967949  -999.250000  -999.250000 1.9859323502  -999.250000 64.458000183 138.85295105 137.93513489 1.4080753326 115.44842529 1.1463582516  -999.250000 1.1470071077
 1033.4061279  -999.250000 18.063999176 -0.010025641  -999.250000  -999.250000 1.9864867926  -999.250000 68.159034729 138.83010864 137.99571228 1.4290784597 115.53383636 1.1539191008  -999.250000 1.1549743414
 1033.5585938  -999.250000 18.087999344 -0.014983987  -999.250000  -999.250000 1.9871033430  -999.250000 73.370002747 138.81752014 137.83847046 1.4107459784 115.78357697 1.1699703932  -999.250000 1.1699639559
 1033.7109375  -999.250000 18.131000519 -0.010016025  -999.250000  -999.250000 1.9881221056  -999.250000 74.040466309 138.21231079 137.22659302 1.3710144758 115.80056000 1.1860897541  -999.250000 1.1859487295
 1033.8634033  -999.250000 18.239999771 -0.020964772  -999.250000  -999.250000 1.9914040565  -999.250000 69.938003540 137.19487000 136.29899597 1.3193225861 115.48833466 1.2003298998  -999.250000 1.2009639740
 1034.0157471  -999.250000 18.443000793 -0.021996794  -999.250000  -999.250000 1.9982031584  -999.250000 65.214782715 136.72215271 135.80383301 1.2522379160 115.79210663 1.1861490011  -999.250000 1.1850512028
 1034.1682129  -999.250000 18.739999771 -0.022996798  -999.250000  -999.250000 2.0056080818  -999.250000 63.465999603 136.87234497 136.02583313 1.1964420080 116.16162872 1.1804771423  -999.250000 1.1800119877
 1034.3205566  -999.250000 19.104999542 -0.022003205  -999.250000  -999.250000 2.0099854469  -999.250000 64.116477966 137.59666443 136.69511414 1.1776714325 115.98513794 1.1711938381  -999.250000 1.1710288525
 1034.4729004  -999.250000 19.458000183 -0.022995997  -999.250000  -999.250000 2.0133659840  -999.250000 65.103202820 138.13595581 137.15162659 1.1707205772 115.81614685 1.1506421566  -999.250000 1.1500673294
 1034.6253662  -999.250000 19.698999405 -0.024993591  -999.250000  -999.250000 2.0201032162  -999.250000 65.645568848 139.12068176 138.24722290 1.1506265402 115.73143768 1.1576867104  -999.250000 1.1579743624
 1034.7777100  -999.250000 19.823999405 -0.016036030  -999.250000  -999.250000 2.0289270878  -999.250000 68.035087585 140.68312073 139.79364014 1.1867158413 115.94287109 1.1845171452  -999.250000 1.1849133968
 1034.9301758  -999.250000 20.023000717 -0.006032052  -999.250000  -999.250000 2.0327472687  -999.250000 68.765998840 141.46110535 140.52459717 1.2668516636 116.27410889 1.2056121826  -999.250000 1.2059495449
 1035.0825195  -999.250000 20.316999435 -0.008987990  -999.250000  -999.250000 2.0342056751  -999.250000 70.587539673 139.55558777 138.71415710 1.3737894297 116.55827332 1.2088799477  -999.250000 1.2089903355
 1035.2349854  -999.250000 20.420999527 -0.041894231  -999.250000  -999.250000 2.0596320629  -999.250000 66.568000793 128.47218323 127.48989105 1.4750609398 116.98326874 1.1922684908  -999.250000 1.1920409203
 1035.3873291  -999.250000 20.420999527 -0.096823722  -999.250000  -999.250000 2.1439559460  -999.250000 62.037631989 109.21688080 108.20668793 1.5169167519 116.28392029 1.3008679152  -999.250000 1.3056348562
 1035.5397949  -999.250000 19.924999237 -0.119926341  -999.250000  -999.250000 2.2811982632  -999.250000 50.627998352 93.991386414 93.094795227 1.5104326010 115.80106354 1.9746954441  -999.250000 2.0003271103
 1035.6921387  -999.250000 18.427999496 -0.052217949  -999.250000  -999.250000 2.3887622356  -999.250000 51.542266846 87.807090759 86.851379395 1.5222091675 116.45120239 2.6337540150  -999.250000 2.6549024582
 1035.8446045  -999.250000 17.378000259 0.0157822259  -999.250000  -999.250000 2.3787410259  -999.250000 56.759998322 92.457435608 91.650566101 1.5653930902 116.34748077 2.1244509220  -999.250000 2.1013388634
 1035.9969482  -999.250000 17.385999680 0.0329455137  -999.250000  -999.250000 2.2654793262  -999.250000 66.856910706 108.98944092 108.10433197 1.6731506586 116.27205658 1.3898268938  -999.250000 1.3653603792
 1036.1494141  -999.250000 17.568000793 0.0170512423  -999.250000  -999.250000 2.1392288208  -999.250000 67.120002747 126.69865417 125.72094727 1.7380808592 116.29705048 1.1953154802  -999.250000 1.1914134026
 1036.3017578  -999.250000 17.673999786 -0.009913461  -999.250000  -999.250000 2.0607402325  -999.250000 66.318641663 135.90156555 134.99876404 1.6992082596 116.18473816 1.1898061037  -999.250000 1.1909999847
 1036.4541016  -999.250000 17.701000214 -0.012987991  -999.250000  -999.250000 2.0329885483  -999.250000 62.443107605 138.53906250 137.63441467 1.5706933737 116.12934113 1.2314755917  -999.250000 1.2328654528
 1036.6065674  -999.250000 17.738000870 -0.016987180  -999.250000  -999.250000 2.0333206654  -999.250000 63.554107666 139.21711731 138.29959106 1.4271923304 115.56711578 1.2642989159  -999.250000 1.2648974657
 1036.7589111  -999.250000 17.788000107 -0.009032025  -999.250000  -999.250000 2.0416271687  -999.250000 67.637725830 138.78247070 137.91874695 1.3220095634 115.78668976 1.2732794285  -999.250000 1.2739712000
 1036.9113770  -999.250000 17.836999893 -0.006009615  -999.250000  -999.250000 2.0490517616  -999.250000 73.844001770 138.29754639 137.40959167 1.2730144262 115.51964569 1.3030601740  -999.250000 1.3039039373
 1037.0637207  -999.250000 17.856000900 0.0079439553  -999.250000  -999.250000 2.0522954464  -999.250000 74.718299866 137.71618652 136.81713867 1.2917573452 115.20054626 1.2964410782  -999.250000 1.2960256338
 1037.2161865  -999.250000 17.851999283 0.0089967949  -999.250000  -999.250000 2.0495984554  -999.250000 71.083000183 139.02424622 138.21765137 1.3126121759 115.36829376 1.2826714516  -999.250000 1.2820335627
 1037.3685303  -999.250000 17.864999771 0.0209519621  -999.250000  -999.250000 2.0395288467  -999.250000 67.830612183 139.58273315 138.62440491 1.3519560099 114.95754242 1.2572425604  -999.250000 1.2560832500
 1037.5209961  -999.250000 17.892999649 0.0050512818  -999.250000  -999.250000 2.0228507519  -999.250000 68.021003723 139.15077209 138.16815186 1.3508358002 114.87195587 1.2557612658  -999.250000 1.2560000420
