# LAS format log file from PETREL
# Project units are specified as depth units
#==================================================================
~Version information
VERS.   2.0:
WRAP.   NO:
#==================================================================
~Well
STRT .m      860.54608154 :
STOP .m      3158.4321289 :
STEP .m     0.00000000 :
NULL .        -999.250000 :
COMP.           : COMPANY
WELL.  31/4-4   : WELL
FLD.            : FIELD
LOC.            : LOCATION
SRVC.           : SERVICE COMPANY
DATE.  2018-09-11 14:48:37   : Log Export Date {yyyy-MM-dd HH:mm:ss}
PROV.           : PROVINCE
UWI.   31/4-4   : UNIQUE WELL ID
API.            : API NUMBER
#==================================================================
~Curve
DEPT .m                   : DEPTH
Lithology_geolink ._      : Lithology_geolink
CALI .in                  : CALI
DRHO .g/cm3               : DRHO
NPHI .m3/m3               : NPHI
RHOB .g/cm3               : RHOB
GR .gAPI                  : GR
DTC .us/ft                : DTC
DTE .us/ft                : DTE
RDEP .ohm.m               : RDEP
SP .mV                    : SP
RSHA .ohm.m               : RSHA
RMED .ohm.m               : RMED
~Parameter
#==================================================================
~Ascii
# ...
 1321.4035645  -999.250000 17.795000076 0.0000000000  -999.250000 2.0394442081 67.585769653 145.66438293 143.50076294 1.1330896616 14.480605125 1.0830671787 1.0830671787
 1321.5559082  -999.250000 17.750000000 0.0030000000  -999.250000 2.0285537243 71.605766296 143.86859131 141.64813232 1.1490721703 15.476802826 1.0950721502 1.0950721502
 1321.7082520  -999.250000 17.750000000 0.0160000008  -999.250000 2.0297687054 67.640914917 142.10748291 139.85945129 1.1640384197 15.844293594 1.1100816727 1.1100816727
 1321.8607178  -999.250000 17.750000000 0.0270000007  -999.250000 2.0360779762 70.941307068 141.10919189 138.88932800 1.1720048189 14.660798073 1.1270673275 1.1270673275
 1322.0130615  -999.250000 17.750000000 0.0209999997  -999.250000 2.0346767902 71.644515991 140.82031250 138.61695862 1.1730383635 14.411398888 1.1409760714 1.1409760714
 1322.1655273  -999.250000 17.750999451 0.0209999997  -999.250000 2.0263044834 75.685600281 142.95539856 140.69358826 1.1811153889 14.287302971 1.1358605623 1.1358605623
 1322.3178711  -999.250000 17.780000687 0.0199991986  -999.250000 2.0213255882 75.169082642 145.79335022 143.50039673 1.2049472332 14.349097252 1.1068606377 1.1068606377
 1322.4703369  -999.250000 17.750000000 0.0189903844  -999.250000 2.0235750675 71.265625000 147.03172302 144.82771301 1.1938413382 14.162302971 1.0780240297 1.0780240297
 1322.6226807  -999.250000 17.750999451 0.0070008007  -999.250000 2.0319573879 74.514717102 147.34831238 145.14051819 1.1608030796 14.228002548 1.0830960274 1.0830960274
 1322.7751465  -999.250000 17.812000275 0.0080104172  -999.250000 2.0435431004 77.583732605 147.67710876 145.51139832 1.1198509932 14.847293854 1.1029038429 1.1029038429
 1322.9274902  -999.250000 18.268999100 0.0209999997  -999.250000 2.0485656261 81.842575073 148.15373230 145.94810486 1.0889760256 14.291203499 1.0828510523 1.0828510523
 1323.0799561  -999.250000 17.893999100 0.0209983978  -999.250000 2.0451178551 75.144233704 147.72224426 145.49470520 1.0840721130 15.165004730 1.0518269539 1.0518269539
 1323.2322998  -999.250000 17.996999741 0.0199951921  -999.250000 2.0420970917 79.093147278 148.46502686 146.24018860 1.0989711285 15.790004730 1.0160048008 1.0160048008
 1323.3847656  -999.250000 17.892000198 0.0140064051  -999.250000 2.0463471413 72.521018982 150.07374573 147.82069397 1.0929272175 16.415502548 1.0170111656 1.0170111656
 1323.5371094  -999.250000 17.924999237 0.0179967936  -999.250000 2.0553817749 76.221458435 150.33691406 148.12696838 1.0800096989 17.033996582 1.0190097094 1.0190097094
 1323.6895752  -999.250000 18.011999130 0.0139727788  -999.250000 2.0496635437 70.327011108 149.64984131 147.43719482 1.0819944143 16.416557312 1.0210392475 1.0210392475
 1323.8419189  -999.250000 17.903999329 -0.003004808  -999.250000 2.0264487267 72.814506531 148.46684265 146.27632141 1.0810096264 17.223798752 1.0281250477 1.0281250477
 1323.9942627  -999.250000 17.840999603 -0.009001601  -999.250000 2.0092768669 73.123802185 147.52511597 145.30679321 1.0830768347 16.976499557 1.0540672541 1.0540672541
 1324.1467285  -999.250000 17.753000259 -0.010995993  -999.250000 2.0016663074 72.868392944 147.41757202 145.24159241 1.0990768671 17.291208267 1.0680096149 1.0680096149
 1324.2990723  -999.250000 17.826000214 -0.005991993  -999.250000 2.0071833134 71.508407593 147.93568420 145.76116943 1.1152497530 18.154193878 1.0699664354 1.0699664354
 1324.4515381  -999.250000 17.753000259 0.0040056091  -999.250000 2.0222771168 73.276145935 148.51161194 146.24159241 1.1672692299 16.536703110 1.0629758835 1.0629758835
 1324.6038818  -999.250000 17.826999664 0.0110048037  -999.250000 2.0410833359 78.715026855 148.91830444 146.69592285 1.2231249809 16.475601196 1.0580288172 1.0580288172
 1324.7563477  -999.250000 17.795000076 0.0170016028  -999.250000 2.0557365417 84.310600281 147.80845642 145.57464600 1.2491489649 16.594591141 1.0641731024 1.0641731024
 1324.9086914  -999.250000 17.750000000 0.0189863779  -999.250000 2.0564270020 83.785682678 145.17608643 142.94572449 1.2800096273 15.474698067 1.1002305746 1.1002305746
 1325.0611572  -999.250000 17.749000549 0.0019775822  -999.250000 2.0649766922 78.072418213 140.37594604 138.14689636 1.2818316221 15.408994675 1.1483509541 1.1483509541
 1325.2135010  -999.250000 17.735000610 -0.011987980  -999.250000 2.1097013950 67.179893494 130.53344727 128.35549927 1.2469086647 14.781595230 1.2212496996 1.2212496996
 1325.3659668  -999.250000 17.750999451 0.0030816654  -999.250000 2.2041354179 65.520736694 121.07968140 118.89624786 1.2280962467 13.660798073 1.2729663849 1.2729663849
 1325.5183105  -999.250000 17.798999786 0.0540328547  -999.250000 2.2826826572 69.834037781 119.26173401 117.09658051 1.2480962276 13.413201332 1.2657259703 1.2657259703
 1325.6707764  -999.250000 18.316999435 0.0949503556  -999.250000 2.2672655582 74.179244995 123.66487885 121.47470093 1.2680168152 13.665155411 1.2085292339 1.2085292339
 1325.8231201  -999.250000 17.982999802 0.0639751628  -999.250000 2.1742537022 72.608474731 133.72279358 131.49365234 1.2710865736 14.225601196 1.1247067451 1.1247067451
 1325.9754639  -999.250000 17.947000504 0.0329847895  -999.250000 2.0827939510 69.200912476 143.38339233 141.22016907 1.2886878252 14.349097252 1.0640096664 1.0640096664
 1326.1279297  -999.250000 17.749000549 0.0139951929  -999.250000 2.0431020260 71.896339417 145.74415588 143.55636597 1.2236442566 14.165908813 1.0661827326 1.0661827326
 1326.2802734  -999.250000 17.718999863 0.0080024023  -999.250000 2.0372171402 76.308494568 143.71669006 141.50796509 1.1499567032 14.973496437 1.1040480137 1.1040480137
 1326.4327393  -999.250000 17.732999802 0.0110056093  -999.250000 2.0384721756 75.365982056 141.93008423 139.71578979 1.1409279108 14.667110443 1.1139181852 1.1139181852
 1326.5850830  -999.250000 18.173000336 0.0180008002  -999.250000 2.0409400463 73.522521973 142.41503906 140.24008179 1.1260240078 15.731302261 1.0968078375 1.0968078375
 1326.7374268  -999.250000 18.205999374 0.0189999994  -999.250000 2.0361301899 78.186500549 142.89649963 140.68110657 1.1310601234 17.035999298 1.0569880009 1.0569880009
 1326.8897705  -999.250000 17.826000214 0.0179999992  -999.250000 2.0363454819 77.817504883 144.07330322 141.82388306 1.1458679438 16.791004181 1.0539599657 1.0539599657
 1327.0421143  -999.250000 17.767000198 0.0049999999  -999.250000 2.0279860497 78.917366028 145.43142700 143.24113464 1.1128846407 17.786802292 1.0440129042 1.0440129042
 1327.1945801  -999.250000 17.813999176 -0.005000000  -999.250000 2.0216133595 72.498001099 146.70474243 144.50968933 1.0769640207 17.726001740 1.0479038954 1.0479038954
 1327.3469238  -999.250000 18.344999313 -0.006000000  -999.250000 2.0191595554 72.014221191 148.02481079 145.86836243 1.0679006577 17.972795486 1.0239712000 1.0239712000
 1327.4993896  -999.250000 17.923000336 -0.001000000  -999.250000 2.0233438015 76.442260742 148.33108521 146.16145325 1.0369077921 17.283746719 1.0149319172 1.0149319172
 1327.6517334  -999.250000 17.947000504 0.0060000001  -999.250000 2.0352718830 77.525016785 148.44113159 146.25761414 1.0139679909 16.477001190 0.9979479909 0.9979479909
 1327.8041992  -999.250000 17.750999451 0.0170000009  -999.250000 2.0497758389 83.751754761 147.68359375 145.47967529 1.0060601234 16.970241547 0.9849199057 0.9849199057
 1327.9565430  -999.250000 17.799999237 0.0160000008  -999.250000 2.0551545620 84.183998108 147.73741150 145.58473206 1.0210080147 15.788252831 0.9649879932 0.9649879932
 1328.1090088  -999.250000 17.899999619 0.0160000008  -999.250000 2.0503373146 83.174484253 148.51103210 146.31838989 1.0230880976 16.100502014 0.9620360732 0.9620360732
 1328.2613525  -999.250000 17.718999863 0.0109999999  -999.250000 2.0382995605 79.784980774 149.68475342 147.42579651 1.0451200008 16.217241287 0.9711161256 0.9711161256
 1328.4138184  -999.250000 17.718999863 0.0109999999  -999.250000 2.0346262455 72.813003540 150.16850281 147.96430969 1.0750521421 14.288253784 1.0000921488 1.0000921488
 1328.5661621  -999.250000 17.719999313 0.0070000002  -999.250000 2.0334827900 72.803993225 148.06849670 145.83944702 1.0880401134 14.597246170 1.0231841803 1.0231841803
