# LAS format log file from PETREL
# Project units are specified as depth units
#==================================================================
~Version information
VERS.   2.0:
WRAP.   NO:
#==================================================================
~Well
STRT .m      898.43609619 :
STOP .m      2454.1354980 :
STEP .m     0.00000000 :
NULL .        -999.250000 :
COMP.           : COMPANY
WELL.  31/4-6   : WELL
FLD.            : FIELD
LOC.            : LOCATION
SRVC.           : SERVICE COMPANY
DATE.  2018-09-11 14:48:38   : Log Export Date {yyyy-MM-dd HH:mm:ss}
PROV.           : PROVINCE
UWI.   31/4-6   : UNIQUE WELL ID
API.            : API NUMBER
#==================================================================
~Curve
DEPT .m                   : DEPTH
Lithology_geolink ._      : Lithology_geolink
CALI .in                  : CALI
DRHO .g/cm3               : DRHO
NPHI .m3/m3               : NPHI
RHOB .g/cm3               : RHOB
GR .gAPI                  : GR
DTC .us/ft                : DTC
DTE .us/ft                : DTE
RDEP .ohm.m               : RDEP
SP .mV                    : SP
RSHA .ohm.m               : RSHA
RMED .ohm.m               : RMED
~Parameter
#==================================================================
~Ascii
 898.43609619  -999.250000 18.702999115  -999.250000  -999.250000 1.8659266233 66.687805176 142.64247131 143.90866089 1.7230085135 29.600000381  -999.250000 1.7809915543
 898.58850098  -999.250000 18.702999115  -999.250000  -999.250000 1.8556894064 66.187477112 145.42657471 146.74719238 1.7440203428 30.100000381  -999.250000 1.7600020170
 898.74090576  -999.250000 18.702999115 -1.253216267  -999.250000 1.8526415825 64.876853943 146.32479858 147.58026123 1.7950155735 30.100000381  -999.250000 1.7649807930
 898.89331055  -999.250000 18.702999115 -1.206188202  -999.250000 1.8532364368 69.501098633 146.18853760 147.43217468 1.8340115547 30.600000381  -999.250000 1.7169835567
 899.04571533  -999.250000 18.718999863 -1.251815796  -999.250000 1.8581645489 72.252525330 144.77626038 146.06591797 1.8630115986 31.600002289  -999.250000 1.6760420799
 899.19812012  -999.250000 18.702999115 -1.311759710  -999.250000 1.8718286753 78.563507080 141.05270386 142.29756165 1.8920091391 32.099998474  -999.250000 1.7810580730
 899.35052490  -999.250000 18.718999863 -1.556018829  -999.250000 1.8770623207 79.812652588 139.67915344 140.89028931 1.9149963856 32.099998474  -999.250000 1.9260191917
 899.50292969  -999.250000 18.718999863 -1.798127413  -999.250000 1.8798872232 78.936500549 138.91429138 140.12541199 1.9060032368 32.599998474  -999.250000 1.9739795923
 899.65533447  -999.250000 18.687999725 -1.715302825  -999.250000 1.8815629482 75.189056396 138.43228149 139.68601990 1.9139823914 32.099998474  -999.250000 1.9229831696
 899.80773926  -999.250000 18.641000748 -1.444976807  -999.250000 1.8760840893 76.499397278 139.96699524 141.16352844 1.8919614553 31.600002289  -999.250000 1.9019118547
 899.96014404  -999.250000 18.641000748 -1.239738822  -999.250000 1.8672797680 75.748748779 142.27661133 143.54237366 1.8439342976 31.100000381  -999.250000 1.7920465469
 900.11248779  -999.250000 18.641000748 -1.297763705  -999.250000 1.8623106480 74.186424255 143.65809631 144.88485718 1.7619707584 30.600000381  -999.250000 1.8499271870
 900.26489258  -999.250000 18.641000748 -1.397599578  -999.250000 1.8662313223 70.249877930 142.57283020 143.81051636 1.6889611483 30.100000381  -999.250000 1.6679602861
 900.41729736  -999.250000 18.641000748 -1.462739706  -999.250000 1.8684647083 69.939178467 141.93545532 143.20463562 1.5919728279 28.600000381  -999.250000 1.5689619780
 900.56970215  -999.250000 18.641000748 -1.401248336  -999.250000 1.8644011021 72.875900269 143.06185913 144.31106567 1.5239800215 27.100000381  -999.250000 1.4740055799
 900.72210693  -999.250000 18.641000748 -1.352196217  -999.250000 1.8622505665 75.127052307 143.64503479 144.89839172 1.4739891291 29.600000381  -999.250000 1.4880120754
 900.87451172  -999.250000 18.656000137 -1.330088139  -999.250000 1.8619235754 80.250648499 143.72006226 144.99284363 1.4469884634 30.600000381  -999.250000 1.5179735422
 901.02691650  -999.250000 18.687999725 -1.311076045  -999.250000 1.8640297651 81.873573303 143.18016052 144.42439270 1.4179959297 28.100000381  -999.250000 1.4520156384
 901.17932129  -999.250000 18.656000137 -1.274148226  -999.250000 1.8617732525 78.311424255 143.79678345 145.04661560 1.4079955816 28.600000381  -999.250000 1.4910097122
 901.33172607  -999.250000 18.687999725 -1.305871844  -999.250000 1.8564543724 74.374824524 145.24696350 146.50704956 1.3970003128 29.100000381  -999.250000 1.5150240660
 901.48413086  -999.250000 18.687999725 -1.334883928  -999.250000 1.8536043167 73.940528870 146.03170776 147.30557251 1.3980000019 30.100000381  -999.250000 1.5749779940
 901.63653564  -999.250000 18.672000885 -1.452574492  -999.250000 1.8525581360 80.251800537 146.36708069 147.60789490 1.3979991674 30.100000381  -999.250000 1.5200359821
 901.78894043  -999.250000 18.641000748 -1.371295571  -999.250000 1.8549664021 82.498497009 145.66180420 146.94038391 1.3970152140 30.100000381  -999.250000 1.5649647713
 901.94134521  -999.250000 18.641000748 -1.371996403  -999.250000 1.8585203886 80.621994019 144.66842651 145.93006897 1.4160040617 30.600000381  -999.250000 1.5210433006
 902.09368896  -999.250000 18.656000137 -1.259452462  -999.250000 1.8621714115 76.874427795 143.65742493 144.91961670 1.4210047722 31.600002289  -999.250000 1.5749676228
 902.24609375  -999.250000 18.641000748 -1.298839808  -999.250000 1.8619027138 75.438156128 143.76727295 145.01138306 1.4330087900 31.100000381  -999.250000 1.4940232038
 902.39849854  -999.250000 18.641000748 -1.342823863  -999.250000 1.8649898767 75.814025879 142.89512634 144.15226746 1.4550156593 31.100000381  -999.250000 1.5520044565
 902.55090332  -999.250000 18.641000748 -1.377859831  -999.250000 1.8678337336 78.375999451 142.12802124 143.37194824 1.4940103292 30.600000381  -999.250000 1.5629795790
 902.70330811  -999.250000 18.672000885 -1.298320413  -999.250000 1.8675533533 80.874977112 142.19747925 143.44659424 1.5200196505 30.100000381  -999.250000 1.5120371580
 902.85571289  -999.250000 18.672000885 -1.237244248  -999.250000 1.8693156242 80.812805176 141.77790833 142.96609497 1.5690091848 30.600000381  -999.250000 1.6050765514
 903.00811768  -999.250000 18.656000137 -1.243971944  -999.250000 1.8704636097 80.312179565 141.38182068 142.65925598 1.5920156240 32.099998474  -999.250000 1.7960312366
 903.16052246  -999.250000 18.656000137 -1.301767826  -999.250000 1.8675113916 78.249252319 142.21165466 143.46803284 1.6310241222 31.100000381  -999.250000 1.8739651442
 903.31292725  -999.250000 18.687999725 -1.368731618  -999.250000 1.8623712063 76.374748230 143.64506531 144.87675476 1.6910088062 31.100000381  -999.250000 1.7869766951
 903.46533203  -999.250000 18.687999725 -1.334140182  -999.250000 1.8615000248 75.749877930 143.88069153 145.11906433 1.7130020857 31.600002289  -999.250000 1.7290035486
 903.61773682  -999.250000 18.672000885 -1.324036002  -999.250000 1.8615208864 75.437477112 143.86711121 145.10494995 1.7179980278 31.100000381  -999.250000 1.7380208969
 903.77014160  -999.250000 18.672000885 -1.350902677  -999.250000 1.8616000414 74.124649048 143.82150269 145.08869934 1.7129944563 31.100000381  -999.250000 1.7900527716
 903.92254639  -999.250000 18.656000137 -1.349007130  -999.250000 1.8616209030 73.687751770 143.80909729 145.07203674 1.7060040236 30.600000381  -999.250000 1.8558926582
 904.07495117  -999.250000 18.672000885 -1.278255939  -999.250000 1.8617000580 73.377799988 143.76190186 145.05596924 1.7110111713 30.600000381  -999.250000 1.7219423056
 904.22729492  -999.250000 18.672000885 -1.180392385  -999.250000 1.8617208004 76.875450134 143.76190186 145.03996277 1.7250000238 31.100000381  -999.250000 1.6500132084
 904.37969971  -999.250000 18.672000885 -1.196931958  -999.250000 1.8618206978 78.001029968 143.76190186 145.02371216 1.7249947786 31.600002289  -999.250000 1.6830047369
 904.53210449  -999.250000 18.672000885 -1.286639452  -999.250000 1.8618999720 80.562850952 143.76190186 145.00706482 1.7119932175 32.599998474  -999.250000 1.6950304508
 904.68450928  -999.250000 18.672000885 -1.332815766  -999.250000 1.8619207144 80.188957214 143.74951172 144.99096680 1.6949871778 34.099998474  -999.250000 1.7710348368
 904.83691406  -999.250000 18.672000885 -1.322044134  -999.250000 1.8619999886 82.562080383 143.70185852 144.97492981 1.6629947424 35.099998474  -999.250000 1.8579587936
 904.98931885  -999.250000 18.672000885 -1.226384401  -999.250000 1.8620207310 80.228088379 143.70063782 144.95864868 1.6499911547 34.599998474  -999.250000 1.7549867630
 905.14172363  -999.250000 18.687999725 -1.186160207  -999.250000 1.8621207476 25.530643463 143.70230103 144.94212341 1.6279903650 34.099998474  -999.250000 1.7219572067
 905.29412842  -999.250000 18.687999725 -1.153132200  -999.250000 1.8622000217 24.641426086 143.68991089 144.92597961 1.6039987803 34.099998474  -999.250000 1.6150079966
 905.44653320  -999.250000 18.687999725 -1.202799678  -999.250000 1.8622208834 25.703687668 143.64225769 144.90994263 1.6009967327 33.099998474  -999.250000 1.6349747181
 905.59893799  -999.250000 18.687999725 -1.224911928  -999.250000 1.8623000383 27.421049118 143.64103699 144.89372253 1.5930041075 32.099998474  -999.250000 1.5720304251
