# LAS format log file from PETREL
# Project units are specified as depth units
#==================================================================
~Version information
VERS.   2.0:
WRAP.   NO:
#==================================================================
~Well
STRT .m      950.21093750 :
STOP .m      2894.8349609 :
STEP .m     0.00000000 :
NULL .        -999.250000 :
COMP.           : COMPANY
WELL.  31/4-2   : WELL
FLD.            : FIELD
LOC.            : LOCATION
SRVC.           : SERVICE COMPANY
DATE.  2018-09-11 14:48:36   : Log Export Date {yyyy-MM-dd HH:mm:ss}
PROV.           : PROVINCE
UWI.   31/4-2   : UNIQUE WELL ID
API.            : API NUMBER
#==================================================================
~Curve
DEPT .m                   : DEPTH
Lithology_geolink ._      : Lithology_geolink
CALI .in                  : CALI
DRHO .g/cm3               : DRHO
NPHI .m3/m3               : NPHI
RHOB .g/cm3               : RHOB
GR .gAPI                  : GR
DTC .us/ft                : DTC
DTE .us/ft                : DTE
RDEP .ohm.m               : RDEP
SP .mV                    : SP
RSHA .ohm.m               : RSHA
RMED .ohm.m               : RMED
~Parameter
#==================================================================
~Ascii
# ...
 2245.0012207 5.0000000000 13.342000008 0.0260000005 0.3144499958 2.4339623451 58.823001862 102.76182556 100.36122131 4.9728960991 47.671051025 5.1209053993 5.1209053993
 2245.1538086 5.0000000000 13.342000008 0.0379999988 0.3242651522 2.4406630993 62.664398193 102.19557953 100.23948669 4.9076066017 48.325740814 5.0617341995 5.0617341995
 2245.3061523 5.0000000000 13.340998650 0.0380096138 0.3337210119 2.4457874298 62.911296844 102.08547211 99.590805054 4.7847418785 48.244987488 4.9789247513 4.9789247513
 2245.4584961 5.0000000000 13.340998650 0.0439967997 0.3405942619 2.4499437809 62.474784851 100.96282959 98.764076233 4.6238174438 48.237987518 4.9321141243 4.9321141243
 2245.6108398 5.0000000000 13.340000153 0.0419999994 0.3370000124 2.4498250484 62.964000702 100.14430237 97.922142029 4.5099139214 48.230754852 5.0032496452 5.0032496452
 2245.7631836 5.0000000000 13.340000153 0.0399999991 0.3407799900 2.4513936043 64.019996643 99.571105957 97.225624084 4.4559712410 48.079017639 5.1592435837 5.1592435837
 2245.9157715 6.0000000000 13.338999748 0.0429951921 0.3477539718 2.4569380283 65.252037048 98.567657471 96.573448181 4.4379744530 48.090633392 5.3115119934 5.3115119934
 2246.0681152 6.0000000000 13.338999748 0.0399888009 0.3564839065 2.4585187435 67.147300720 98.279609680 95.976776123 4.4299807549 48.288494110 5.4713349342 5.4713349342
 2246.2204590 6.0000000000 13.338999748 0.0329999998 0.3651699722 2.4582250118 67.955001831 98.041107178 95.707008362 4.4179553986 48.597827911 5.6804661751 5.6804661751
 2246.3728027 6.0000000000 13.317000389 0.0359999985 0.3733000159 2.4638249874 69.007003784 98.026199341 95.793312073 4.3899102211 49.113651276 5.9713287354 5.9713287354
 2246.5253906 6.0000000000 13.245000839 0.0449791700 0.3719145656 2.4714195728 68.754455566 97.802581787 95.727630615 4.3337955475 48.896968842 6.1757473946 6.1757473946
 2246.6777344 6.0000000000 13.187999725 0.0319759622 0.3560426533 2.4742438793 67.164657593 97.116912842 94.891143799 4.2699036598 48.576251984 6.0965385437 6.0965385437
 2246.8300781 6.0000000000 13.201999664 0.0169968009 0.3452131152 2.4791812897 66.949699402 95.730545044 93.493019104 4.2099118233 48.733306885 5.8084950447 5.8084950447
 2246.9824219 6.0000000000 13.347000122 0.0149999997 0.3346900046 2.4899063110 66.763000488 94.970314026 92.293403625 4.1549439430 48.924045563 5.4936170578 5.4936170578
 2247.1350098 6.0000000000 13.397999763 0.0190080125 0.3271064460 2.4982883930 67.082817078 93.666877747 91.461914063 4.1199421883 48.953117371 5.2546706200 5.2546706200
 2247.2873535 6.0000000000 13.413000107 0.0240064096 0.3311626315 2.5009562969 67.590339661 93.416885376 91.417022705 4.1019587517 48.990455627 5.1519374847 5.1519374847
 2247.4396973 6.0000000000 13.388999939 0.0279968008 0.3452857435 2.4956624508 67.174499512 94.830612183 92.449584961 4.0759682655 49.274528503 5.1129741669 5.1129741669
 2247.5920410 6.0000000000 13.324999809 0.0260000005 0.3551100194 2.4891123772 65.611999512 96.043563843 93.548431396 4.0560178757 49.604492188 5.0969905853 5.0969905853
 2247.7443848 6.0000000000 13.321000099 0.0390000008 0.3535900116 2.4916951656 66.636001587 96.486137390 94.135360718 4.0670433044 49.912017822 5.0910096169 5.0910096169
 2247.8969727 6.0000000000 13.321000099 0.0359791666 0.3463195562 2.4948060513 67.265533447 96.891548157 94.641143799 4.0940461159 49.922992706 5.0970993042 5.0970993042
 2248.0493164 6.0000000000 13.369999886 0.0229968000 0.3522537053 2.4879686832 68.222595215 97.509689331 95.396347046 4.1230354309 49.295890808 5.1591892242 5.1591892242
 2248.2016602 6.0000000000 13.402999878 0.0209999997 0.3483200073 2.4765312672 68.595001221 98.219985962 96.168632507 4.1450014114 49.227943420 5.2769937515 5.2769937515
 2248.3540039 6.0000000000 13.392000198 0.0260000005 0.3445500135 2.4708311558 69.517997742 98.935485840 96.539016724 4.1459712982 49.191379547 5.2728524208 5.2728524208
 2248.5065918 6.0000000000 13.392000198 0.0209775642 0.3464279473 2.4700312614 70.179199219 98.532958984 96.407295227 4.1279230118 48.805725098 5.1807537079 5.1807537079
 2248.6589355 6.0000000000 13.390999794 0.0070112003 0.3451427519 2.4675626755 70.301940918 98.279609680 96.050880432 4.1039566994 49.032066345 5.1039729118 5.1039729118
 2248.8112793 6.0000000000 13.390999794 0.0140000004 0.3468500078 2.4700250626 70.265998840 98.041107178 95.805427551 4.0769615173 49.072128296 5.0870175362 5.0870175362
 2248.9636230 6.0000000000 13.390999794 0.0260000005 0.3680199683 2.4812626839 72.219001770 98.026199341 95.709220886 4.0529985428 49.154972076 5.0980210304 5.0980210304
 2249.1162109 6.0000000000 13.390000343 0.0369983986 0.3749008477 2.4884693623 72.648719788 98.102424622 95.620170593 4.0520830154 49.760562897 5.1110191345 5.1110191345
 2249.2685547 6.0000000000 13.399999619 0.0359791666 0.3754294515 2.4842126369 71.845382690 97.730911255 95.497032166 4.0780367851 49.311500549 5.1170048714 5.1170048714
 2249.4208984 6.0000000000 13.419000626 0.0229920000 0.3750855625 2.4784624577 70.213706970 97.782577515 95.364883423 4.1010127068 49.001304626 5.1200046539 5.1200046539
 2249.5732422 6.0000000000 13.429000854 0.0179999992 0.3723199964 2.4756627083 69.410003662 97.116912842 95.230041504 4.1089987755 49.192207336 5.1230049133 5.1230049133
 2249.7258301 6.0000000000 13.428000450 0.0230064094 0.3679688275 2.4739060402 67.348869324 97.519447327 95.090148926 4.1079711914 49.943599701 5.1260094643 5.1260094643
 2249.8781738 6.0000000000 13.428000450 0.0270208344 0.3609973192 2.4753937721 65.395408630 97.325607300 94.950714111 4.0989713669 50.130008698 5.1290049553 5.1290049553
 2250.0305176 5.0000000000 13.427000046 0.0400063992 0.3530700207 2.4791562557 63.782878876 97.087104797 94.863250732 4.0809659958 50.133758545 5.1320047379 5.1320047379
 2250.1828613 5.0000000000 13.427000046 0.0439999998 0.3468500078 2.4818375111 65.581001282 97.072196960 94.821716309 4.0599551201 49.984951019 5.1349954605 5.1349954605
 2250.3352051 5.0000000000 13.427000046 0.0359999985 0.3566400111 2.4830312729 66.669998169 96.848609924 94.666496277 4.0319390297 49.953556061 5.1319632530 5.1319632530
 2250.4877930 5.0000000000 13.427000046 0.0280032065 0.3600728512 2.4814124107 66.744995117 96.465126038 94.323448181 3.9938654900 49.677585602 5.1088209152 5.1088209152
 2250.6401367 5.0000000000 13.427000046 0.0299903993 0.3556188941 2.4767999649 65.494155884 96.282913208 93.990798950 3.9519357681 49.236694336 5.0528173447 5.0528173447
 2250.7924805 5.0000000000 13.427000046 0.0240000002 0.3549300134 2.4674062729 66.218002319 95.904251099 93.841094971 3.9119439125 49.047004700 4.9387259483 4.9387259483
 2250.9448242 5.0000000000 13.427000046 0.0170000009 0.3629399836 2.4606122971 67.245002747 96.103195190 93.837478638 3.8769454956 49.050281525 4.7678413391 4.7678413391
 2251.0974121 5.0000000000 13.427000046 0.0330320522 0.3543798327 2.4651694298 68.966255188 95.973991394 94.012573242 3.8429391384 49.230041504 4.6691088676 4.6691088676
 2251.2497559 5.0000000000 13.427000046 0.0530288443 0.3542616665 2.4773125648 69.121307373 96.779373169 94.248733521 3.8240239620 50.177215576 4.7031793594 4.7031793594
 2251.4020996 5.0000000000 13.475000381 0.0709712058 0.3490750790 2.4879436493 68.686729431 96.162818909 94.161422729 3.8390481472 50.311958313 4.8151893616 4.8151893616
 2251.5544434 6.0000000000 13.476999283 0.0529999994 0.3460100293 2.4881312847 67.890998840 96.038887024 93.661758423 3.8690481186 50.285892487 4.9331040382 4.9331040382
 2251.7070313 6.0000000000 13.466999054 0.0329903848 0.3528018296 2.4835059643 67.236915588 95.218360901 93.090995789 3.8990862370 50.219573975 4.9981217384 4.9981217384
 2251.8593750 6.0000000000 13.466999054 0.0269919876 0.3664463758 2.4847002029 65.933631897 95.021415710 92.778358459 3.9260418415 50.086257935 5.0360512733 5.0360512733
 2252.0117188 6.0000000000 13.466999054 0.0219999999 0.3829158545 2.4893000126 63.838439941 95.378181458 93.036277771 3.9520368576 49.621791840 5.0680189133 5.0680189133
 2252.1640625 6.0000000000 13.466999054 0.0219999999 0.3928099871 2.4930686951 64.112998962 96.073379517 93.998947144 3.9750399590 49.491443634 5.0800046921 5.0800046921
