# LAS format log file from PETREL
# Project units are specified as depth units
#==================================================================
~Version information
VERS.   2.0:
WRAP.   NO:
#==================================================================
~Well
STRT .m      860.54608154 :
STOP .m      3158.4321289 :
STEP .m     0.00000000 :
NULL .        -999.250000 :
COMP.           : COMPANY
WELL.  31/4-4   : WELL
FLD.            : FIELD
LOC.            : LOCATION
SRVC.           : SERVICE COMPANY
DATE.  2018-09-11 14:48:37   : Log Export Date {yyyy-MM-dd HH:mm:ss}
PROV.           : PROVINCE
UWI.   31/4-4   : UNIQUE WELL ID
API.            : API NUMBER
#==================================================================
~Curve
DEPT .m                   : DEPTH
Lithology_geolink ._      : Lithology_geolink
CALI .in                  : CALI
DRHO .g/cm3               : DRHO
NPHI .m3/m3               : NPHI
RHOB .g/cm3               : RHOB
GR .gAPI                  : GR
DTC .us/ft                : DTC
DTE .us/ft                : DTE
RDEP .ohm.m               : RDEP
SP .mV                    : SP
RSHA .ohm.m               : RSHA
RMED .ohm.m               : RMED
~Parameter
#==================================================================
~Ascii
# ...
 2389.4221191 2.0000000000 12.163999557 0.0070000002 0.2839432955 2.3877470493 101.22799683 91.564376831 90.209213257 2.0917375088 54.841400146 2.0002431870 2.0002431870
 2389.5744629 2.0000000000 12.164999008 0.0010000000 0.2855773568 2.3875110149 94.392829895 91.270027161 89.995590210 2.0099453926 56.210399628 2.0762562752 2.0762562752
 2389.7270508 2.0000000000 12.178999901 -0.001004808 0.2813900113 2.3871493340 105.50720978 90.871002197 89.652687073 1.9760576487 55.206996918 2.2355802059 2.2355802059
 2389.8793945 2.0000000000 12.178999901 -0.003996800 0.2836064398 2.3922865391 107.76422119 91.287231445 89.936958313 1.9941827059 53.652805328 2.1040127277 2.1040127277
 2390.0317383 5.0000000000 12.164999008 -0.002000000 0.2874737978 2.3921351433 112.16400146 91.501281738 90.196922302 2.0512049198 54.524600983 1.7964240313 1.7964240313
 2390.1840820 5.0000000000 12.164999008 -0.005000000 0.3031748235 2.3796105385 104.67989349 91.802764893 90.416961670 2.1151442528 54.400901794 1.6170544624 1.6170544624
 2390.3366699 2.0000000000 12.203000069 -0.002008013 0.3207300305 2.3640551567 99.617790222 91.924636841 90.661331177 2.2050704956 54.955993652 1.6520448923 1.6520448923
 2390.4890137 2.0000000000 12.234999657 -0.007000000 0.3293199837 2.3593380451 97.370994568 91.632797241 90.393264771 2.2271122932 53.085601807 1.9783749580 1.9783749580
 2390.6413574 2.0000000000 12.272999763 -0.007008000 0.3229701817 2.3675718307 96.125602722 90.908737183 89.670822144 2.2621924877 52.648799896 2.4067883492 2.4067883492
 2390.7937012 2.0000000000 12.298000336 -0.012000000 0.3213326037 2.3749523163 96.314399719 90.016876221 88.652153015 2.3221185207 52.270999908 2.6522686481 2.6522686481
 2390.9462891 2.0000000000 12.350000381 -0.007988783 0.3430300057 2.3885166645 96.767227173 89.261123657 87.920158386 2.3590641022 51.036621094 2.7359070778 2.7359070778
 2391.0986328 2.0000000000 12.352001190 -0.000991987 0.3517800272 2.4070007801 102.12259674 88.962997437 87.637542725 2.3791761398 54.654808044 2.7061603069 2.7061603069
 2391.2509766 2.0000000000 12.365999222 0.0040176003 0.3506318331 2.4184629917 101.36798859 88.880165100 87.578208923 2.4340865612 56.158016205 2.4439005852 2.4439005852
 2391.4033203 2.0000000000 12.352001190 0.0149999997 0.3245918155 2.4203784466 99.175804138 89.180923462 87.942085266 2.4610192776 58.643600464 2.1014623642 2.1014623642
 2391.5556641 2.0000000000 12.352001190 0.0049999999 0.2935298085 2.4014663696 95.377906799 89.717491150 88.299957275 2.4669840336 56.645492554 1.9340962172 1.9340962172
 2391.7082520 2.0000000000 12.375000000 -0.002009616 0.2773599923 2.3796474934 97.191009521 89.639198303 88.365913391 2.4570128918 53.843612671 1.9946088791 1.9946088791
 2391.8605957 2.0000000000 12.413000107 -0.007988800 0.2858400047 2.3719038963 98.133811951 89.440002441 88.144279480 2.4611122608 55.896797180 2.1849069595 2.1849069595
 2392.0129395 2.0000000000 12.416000366 -0.001000000 0.3088600039 2.3841845989 100.87680054 89.217826843 87.849990845 2.4962303638 54.894802094 2.4677360058 2.4677360058
 2392.1652832 2.0000000000 12.484000206 0.0010000000 0.2996399999 2.4077358246 101.44070435 89.141860962 87.750000000 2.5682132244 53.278205872 2.6973879337 2.6973879337
 2392.3178711 2.0000000000 12.529998779 0.0050064102 0.2960099876 2.4229917526 103.10897064 89.062370300 87.740898132 2.7013525963 55.279205322 2.9397017956 2.9397017956
 2392.4702148 2.0000000000 12.531000137 0.0090080127 0.2996799946 2.4355666637 98.107772827 88.906936646 87.524749756 2.8112308979 56.586601257 3.1584968567 3.1584968567
 2392.6225586 2.0000000000 12.524000168 0.0140016004 0.3135299981 2.4500083923 92.732368469 88.700996399 87.370277405 2.8829615116 56.459197998 3.3130481243 3.3130481243
 2392.7749023 2.0000000000 12.524000168 0.0149999997 0.3054400086 2.4633128643 87.254203796 88.526237488 87.247276306 2.8710384369 55.584403992 3.3276257515 3.3276257515
 2392.9274902 2.0000000000 12.531000137 0.0069871796 0.2957200110 2.4569749832 88.567611694 88.068519592 86.792312622 2.8833620548 54.770793915 3.2101857662 3.2101857662
 2393.0798340 2.0000000000 12.531000137 -0.000988782 0.3001399934 2.4388582706 90.005813599 87.353027344 86.085037231 2.9967019558 53.455993652 2.9559614658 2.9559614658
 2393.2321777 2.0000000000 12.522998810 0.0059839999 0.2889499962 2.4295082092 91.795570374 87.390365601 85.957550049 3.2161762714 51.582397461 2.6324741840 2.6324741840
 2393.3845215 2.0000000000 12.506999969 -0.004000000 0.2890500128 2.4280328751 86.362403870 86.044937134 84.727714539 3.5836129189 50.154399872 2.4706256390 2.4706256390
 2393.5368652 2.0000000000 12.454001427 0.0060000001 0.2814999819 2.4472806454 82.431793213 81.717201233 80.357643127 4.0868511200 51.525100708 2.9814999104 2.9814999104
 2393.6894531 2.0000000000 12.437999725 -0.002985577 0.2694300115 2.4859666824 78.554588318 75.527084351 74.185325623 4.6190929413 51.583797455 5.8082499504 5.8082499504
 2393.8417969 2.0000000000 12.437001228 0.0060048001 0.2293400019 2.5433499813 75.931793213 69.683692932 68.360038757 5.2725768089 50.593112946 13.082492828 13.082492828
 2393.9941406 16.000000000 12.413998604 0.0089999996 0.1896800101 2.5985500813 73.994796753 66.323150635 64.995574951 6.0764894485 52.493396759 26.660051346 26.660051346
 2394.1464844 16.000000000 12.399000168 0.0080000004 0.1620099992 2.6186735630 72.387016296 65.823295593 64.412666321 6.8523559570 52.305900574 42.581478119 42.581478119
 2394.2990723 16.000000000 12.399000168 0.0069807693 0.1530999988 2.6195917130 79.874000549 65.927169800 64.548851013 7.0721731186 52.243598938 54.055641174 54.055641174
 2394.4514160 16.000000000 12.413998604 -0.005003205 0.1504700035 2.6102917194 79.579429626 65.750099182 64.315742493 6.5013847351 52.124404907 42.033954620 42.033954620
 2394.6037598 2.0000000000 12.413998604 -0.006992000 0.1480199993 2.5987164974 84.661361694 67.794487000 66.414810181 5.6854071617 53.811206818 13.692605972 13.692605972
 2394.7561035 2.0000000000 12.413000107 -0.002000000 0.1550499946 2.5901167393 76.404197693 72.970626831 71.785224915 4.8769011497 55.424098969 5.4774274826 5.4774274826
 2394.9086914 2.0000000000 12.371000290 0.0150080128 0.1878899932 2.5721082687 85.496994019 79.780464172 78.509338379 4.2213783264 53.276603699 3.4290962219 3.4290962219
 2395.0610352 2.0000000000 12.437999725 0.0199711528 0.2286700010 2.5348916054 84.580635071 85.405235291 84.087432861 3.7157788277 53.775600433 3.1485576630 3.1485576630
 2395.2133789 2.0000000000 12.520999908 0.0019984001 0.2559799850 2.4751749039 90.057189941 87.628646851 86.229980469 3.3347980976 53.967411041 3.3226089478 3.3226089478
 2395.3657227 2.0000000000 12.534000397 0.0010000000 0.2629899979 2.4361662865 88.261001587 87.811203003 86.492301941 2.9603695869 55.650402069 3.5122303963 3.5122303963
 2395.5180664 2.0000000000 12.614998817 0.0020000001 0.2887099981 2.4343681335 91.695411682 88.047882080 86.681015015 2.7638781071 55.772895813 3.5838463306 3.5838463306
 2395.6706543 2.0000000000 12.640000343 0.0059855771 0.3089300096 2.4465832710 96.302787781 88.247398376 86.909263611 2.6881411076 54.461601257 3.4873108864 3.4873108864
 2395.8229980 2.0000000000 12.649000168 -0.003004800 0.3086300194 2.4514501095 93.127204895 88.525711060 87.205474854 2.7322757244 54.333999634 3.2721121311 3.2721121311
 2395.9753418 2.0000000000 12.664999962 -0.006000000 0.3066999912 2.4464416504 93.811805725 88.224937439 86.902671814 2.8183777332 53.401000977 2.9953696728 2.9953696728
 2396.1276855 2.0000000000 12.711000443 0.0020000001 0.3075900078 2.4412450790 93.447219849 88.366867065 86.937782288 2.9360530376 53.708396912 2.7991650105 2.7991650105
 2396.2802734 2.0000000000 12.768000603 0.0000048077 0.3208499849 2.4261667728 99.188003540 88.585311890 87.187500000 2.9687244892 51.456596375 2.9038107395 2.9038107395
 2396.4326172 2.0000000000 12.899000168 0.0030032052 0.3269599974 2.4141082764 99.188003540 88.485893250 87.187500000 2.8824100494 49.776802063 3.4695608616 3.4695608616
 2396.5849609 2.0000000000 13.041999817 0.0050176000 0.3375599980 2.4140334129 99.174583435 88.625083923 87.201675415 2.6988301277 50.336803436 4.2659740448 4.2659740448
