# LAS format log file from PETREL
# Project units are specified as depth units
#==================================================================
~Version information
VERS.   2.0:
WRAP.   NO:
#==================================================================
~Well
STRT .m      898.43609619 :
STOP .m      2454.1354980 :
STEP .m     0.00000000 :
NULL .        -999.250000 :
COMP.           : COMPANY
WELL.  31/4-6   : WELL
FLD.            : FIELD
LOC.            : LOCATION
SRVC.           : SERVICE COMPANY
DATE.  2018-09-11 14:48:38   : Log Export Date {yyyy-MM-dd HH:mm:ss}
PROV.           : PROVINCE
UWI.   31/4-6   : UNIQUE WELL ID
API.            : API NUMBER
#==================================================================
~Curve
DEPT .m                   : DEPTH
Lithology_geolink ._      : Lithology_geolink
CALI .in                  : CALI
DRHO .g/cm3               : DRHO
NPHI .m3/m3               : NPHI
RHOB .g/cm3               : RHOB
GR .gAPI                  : GR
DTC .us/ft                : DTC
DTE .us/ft                : DTE
RDEP .ohm.m               : RDEP
SP .mV                    : SP
RSHA .ohm.m               : RSHA
RMED .ohm.m               : RMED
~Parameter
#==================================================================
~Ascii
# ...
 2339.5307617 18.000000000 12.343999863 -0.015000000 0.3641999960 2.0230596066 66.486480713 112.06373596 107.54658508 2.6290369034 68.400001526  -999.250000 4.1765513420
 2339.6831055 18.000000000 12.366999626 -0.008000000 0.3044757247 2.2297832966 58.069149017 107.66171265 103.20568085 2.6520478725 68.775001526  -999.250000 4.5184302330
 2339.8354492 18.000000000 12.343999863 0.0099999998 0.2529925108 2.3949708939 61.905998230 100.27236176 95.708908081 2.6819999218 68.900001526  -999.250000 3.5390000343
 2339.9880371 18.000000000 12.328000069 0.0140000004 0.2500000000 2.4119138718 71.194313049 94.575111389 90.046798706 2.7088398933 68.650001526  -999.250000 2.7224199772
 2340.1403809 18.000000000 12.328000069 0.0089999996 0.2919300199 2.3981831074 75.126106262 93.656021118 89.208381653 2.6088652611 68.275001526  -999.250000 2.3606748581
 2340.2927246 3.0000000000 12.397999763 0.0070000002 0.3238588274 2.3917207718 75.810302734 95.876518250 91.285598755 2.5248754025 67.900001526  -999.250000 2.1580288410
 2340.4450684 3.0000000000 12.477000237 0.0109999999 0.3485404551 2.4024584293 74.125000000 98.566925049 94.051544189 2.4470000267 68.775001526  -999.250000 2.1760001183
 2340.5974121 3.0000000000 12.647999763 0.0179999992 0.3246684074 2.4207999706 76.625000000 98.304450989 93.810607910 2.3259999752 70.025001526  -999.250000 2.2460000515
 2340.7500000 7.0000000000 12.781000137 0.0189999994 0.3443000019 2.4167377949 83.320816040 97.649345398 93.038528442 2.1449117661 70.275001526  -999.250000 2.4864633083
 2340.9023438 7.0000000000 12.633000374 0.0359999985 0.3574800193 2.4083695412 88.197204590 97.893501282 93.303916931 2.0899615288 70.775001526  -999.250000 2.7746193409
 2341.0546875 7.0000000000 12.718999863 0.0790000036 0.3925837278 2.4113333225 93.938003540 98.021888733 93.575920105 2.0659999847 71.275001526  -999.250000 2.5369999409
 2341.2070313 6.0000000000 12.500000000 0.1309999973 0.3901939392 2.4230666161 90.250000000 101.20631409 96.657409668 2.0880000591 71.275001526  -999.250000 2.1640000343
 2341.3596191 6.0000000000 12.390999794 0.1289999932 0.3874499798 2.4104106426 89.683998108 104.32753754 99.803108215 2.1069970131 71.400001526  -999.250000 2.0288941860
 2341.5119629 6.0000000000 12.336000443 0.0879999995 0.3453400135 2.4048302174 87.189102173 104.25447083 99.688461304 2.1049599648 71.525001526  -999.250000 1.9631154537
 2341.6643066 6.0000000000 12.234000206 0.0240000002 0.3099367619 2.4210791588 87.870498657 102.12673950 97.703155518 2.0800158978 70.900001526  -999.250000 2.0353105068
 2341.8166504 6.0000000000 12.296999931 0.0030000000 0.2958525419 2.4688584805 85.063003540 99.776931763 95.298179626 2.0899999142 69.900001526  -999.250000 2.2290000916
 2341.9692383 5.0000000000 12.281000137 0.0010000000 0.3055399954 2.5090508461 80.309196472 96.621551514 92.048385620 2.1070609093 69.900001526  -999.250000 2.4220623970
 2342.1215820 5.0000000000 12.272999763 0.0099999998 0.3173800111 2.5556595325 77.940406799 94.675651550 90.216217041 2.1451346874 69.900001526  -999.250000 2.4610817432
 2342.2739258 5.0000000000 12.234000206 0.0070000002 0.3017850220 2.5953874588 79.438003540 93.602638245 88.992790222 2.2291872501 69.775001526  -999.250000 2.5121872425
 2342.4262695 5.0000000000 12.234000206 0.0080000004 0.3014604747 2.6093707085 79.438003540 92.889541626 88.408668518 2.3459999561 70.150001526  -999.250000 2.6289999485
 2342.5786133 5.0000000000 12.296999931 0.0040000002 0.3132810295 2.5828499794 77.313003540 91.914512634 87.421096802 2.3870000839 69.275001526  -999.250000 2.7300000191
 2342.7312012 5.0000000000 12.241999626 0.0130000003 0.3243399858 2.5616509914 74.686599731 91.548278809 87.061248779 2.3979856968 69.025001526  -999.250000 2.7029504776
 2342.8835449 5.0000000000 12.234000206 0.0189999994 0.3052106500 2.5434281826 73.815200806 92.520614624 87.932434082 2.3889551163 68.775001526  -999.250000 2.6719343662
 2343.0358887 5.0000000000 12.234000206 0.0140000004 0.2915818095 2.5148999691 75.188003540 93.475540161 89.022171021 2.3610000610 68.775001526  -999.250000 2.6310000420
 2343.1882324 5.0000000000 12.241999626 0.0080000004 0.2938862741 2.4953835011 74.063003540 93.971603394 89.368782043 2.3420000076 69.025001526  -999.250000 2.5290000439
 2343.3408203 5.0000000000 12.250000954 0.0010000000 0.3111000061 2.4901678562 73.565605164 94.121810913 89.577827454 2.3500175476 69.025001526  -999.250000 2.3690352440
 2343.4931641 5.0000000000 12.234000206 0.0030000000 0.3309899867 2.5068187714 75.186500549 94.837074280 90.234100342 2.3609888554 69.775001526  -999.250000 2.3911843300
 2343.6455078 5.0000000000 12.272999763 0.0040000002 0.3322080672 2.5131540298 74.253799438 95.321205139 90.786285400 2.3539488316 70.400001526  -999.250000 2.5062191486
 2343.7978516 5.0000000000 12.296999931 0.0080000004 0.3414152265 2.5074331760 76.625000000 95.192695618 90.699005127 2.3220000267 70.900001526  -999.250000 2.6429998875
 2343.9504395 6.0000000000 12.305000305 0.0089999996 0.3564499915 2.4808931351 76.758712769 96.330329895 91.895820618 2.2659454346 71.150001526  -999.250000 2.7438910007
 2344.1027832 6.0000000000 12.319999695 0.0099999998 0.3861699998 2.4529089928 82.195213318 98.676086426 94.359367371 2.2320065498 71.650001526  -999.250000 2.6753640175
 2344.2551270 6.0000000000 12.352001190 0.0099999998 0.4033524692 2.4446291924 86.693801880 101.34113312 96.819061279 2.2360064983 71.900001526  -999.250000 2.2788064480
 2344.4074707 6.0000000000 12.296999931 0.0109999999 0.4056962729 2.4413666725 90.313003540 102.32345581 97.761825562 2.2400000095 71.900001526  -999.250000 2.1579999924
 2344.5598145 7.0000000000 12.516000748 0.0109999999 0.3886873126 2.4376833439 88.625000000 103.02630615 98.449447632 2.2520000935 72.150001526  -999.250000 2.1250000000
 2344.7124023 7.0000000000 12.468999863 0.0130000003 0.3956300020 2.4222857952 87.311599731 102.92281342 98.326957703 2.2730576992 72.025001526  -999.250000 2.1090257168
 2344.8647461 7.0000000000 12.586000443 0.0120000001 0.4097673595 2.3729724884 86.441299438 102.05372620 97.477630615 2.3089776039 71.775001526  -999.250000 2.1253216267
 2345.0170898 7.0000000000 12.444999695 0.0049999999 0.4581124187 2.2464706898 88.500000000 104.95603943 100.50106812 2.2950000763 71.775001526  -999.250000 2.3259999752
 2345.1694336 7.0000000000 12.358999252 -0.012000000 0.4580003023 2.1304874420 85.625000000 109.62374878 105.03964233 2.2360000610 70.900001526  -999.250000 2.8220000267
 2345.3220215 7.0000000000 12.352001190 -0.017000001 0.4151499867 2.1233053207 79.803886414 109.75122070 105.28726196 2.1618587971 70.400001526  -999.250000 3.1368334293
 2345.4743652 3.0000000000 12.288999557 -0.020000000 0.3185999990 2.2241971493 74.119995117 108.04767609 103.59423828 2.0738284588 69.650001526  -999.250000 3.0324583054
 2345.6267090 3.0000000000 12.187999725 -0.014000000 0.2753992379 2.3484292030 70.995697021 103.14122772 98.677337646 1.9668544531 69.025001526  -999.250000 2.6943998337
 2345.7790527 3.0000000000 12.171998978 -0.015000000 0.2441200912 2.3778543472 68.313003540 97.742744446 93.189224243 1.8760000467 67.400001526  -999.250000 2.3199999332
 2345.9316406 3.0000000000 12.336000443 -0.017999999 0.2658700049 2.3519704342 66.813003540 96.506904602 92.028266907 1.8198798895 65.525001526  -999.250000 2.0267724991
 2346.0839844 3.0000000000 12.352001190 -0.011000000 0.3190900087 2.3212358952 66.815307617 98.771888733 94.342453003 1.7448990345 65.650001526  -999.250000 1.8849166632
 2346.2363281 3.0000000000 12.382999420 -0.008000000 0.3871609271 2.2462625504 68.259201050 106.98187256 102.35864258 1.6819456816 67.900001526  -999.250000 1.8331038952
 2346.3886719 18.000000000 12.336000443 -0.004000000 0.4592244923 2.1380875111 74.000000000 115.74988556 111.15444946 1.6480000019 68.650001526  -999.250000 1.8980000019
 2346.5410156 18.000000000 12.781000137 -0.002000000 0.4806258678 2.0298416615 79.625000000 124.85818481 120.30253601 1.6590000391 69.775001526  -999.250000 2.0569999218
 2346.6936035 18.000000000 12.694999695 -0.005000000 0.4832800031 1.9777656794 85.126205444 132.85731506 128.30154419 1.7122820616 70.150001526  -999.250000 2.2231411934
