# LAS format log file from PETREL
# Project units are specified as depth units
#==================================================================
~Version information
VERS.   2.0:
WRAP.   NO:
#==================================================================
~Well
STRT .m      895.02691650 :
STOP .m      2933.5300293 :
STEP .m     0.00000000 :
NULL .        -999.250000 :
COMP.           : COMPANY
WELL.  31/4-5   : WELL
FLD.            : FIELD
LOC.            : LOCATION
SRVC.           : SERVICE COMPANY
DATE.  2018-09-11 14:48:38   : Log Export Date {yyyy-MM-dd HH:mm:ss}
PROV.           : PROVINCE
UWI.   31/4-5   : UNIQUE WELL ID
API.            : API NUMBER
#==================================================================
~Curve
DEPT .m                   : DEPTH
Lithology_geolink ._      : Lithology_geolink
CALI .in                  : CALI
DRHO .g/cm3               : DRHO
SGR .gAPI                 : SGR
NPHI .m3/m3               : NPHI
RHOB .g/cm3               : RHOB
PEF .b/e                  : PEF
GR .gAPI                  : GR
DTC .us/ft                : DTC
DTE .us/ft                : DTE
RDEP .ohm.m               : RDEP
SP .mV                    : SP
RSHA .ohm.m               : RSHA
RMIC .ohm.m               : RMIC
RMED .ohm.m               : RMED
~Parameter
#==================================================================
~Ascii
# ...
 1299.1918945  -999.250000 18.093999863 0.0010480385  -999.250000  -999.250000 2.1043910980  -999.250000 66.556999207 141.01097107 140.08432007 1.1260175705 109.48070526 1.1564491987  -999.250000 1.1569710970
 1299.3443604  -999.250000 18.042999268 0.0019975964  -999.250000  -999.250000 2.0925471783  -999.250000 63.789001465 138.93693542 138.08691406 1.1413397789 109.81813049 1.2055962086  -999.250000 1.2069199085
 1299.4967041  -999.250000 18.021999359 0.0000048077  -999.250000  -999.250000 2.0805325508  -999.250000 58.810001373 137.37176514 136.39639282 1.1685404778 110.35168457 1.2357790470  -999.250000 1.2369279861
 1299.6491699  -999.250000 18.031000137 -0.001996795  -999.250000  -999.250000 2.0728104115  -999.250000 56.397998810 135.94050598 134.99722290 1.1852211952 110.57775116 1.2575095892  -999.250000 1.2579663992
 1299.8015137  -999.250000 18.031000137 -0.002998397  -999.250000  -999.250000 2.0728745461  -999.250000 54.356998444 135.11924744 134.22090149 1.2081369162 110.77139282 1.2749719620  -999.250000 1.2759711742
 1299.9538574  -999.250000 18.034999847 -0.002002402  -999.250000  -999.250000 2.0815665722  -999.250000 53.356998444 134.98718262 134.02285767 1.2277315855 110.80931091 1.2884478569  -999.250000 1.2889688015
 1300.1063232  -999.250000 18.045999527 0.0159711540  -999.250000  -999.250000 2.0954484940  -999.250000 57.520999908 134.30247498 133.32693481 1.2009367943 110.60657501 1.2741472721  -999.250000 1.2740241289
 1300.2586670  -999.250000 18.055000305 0.0219855886  -999.250000  -999.250000 2.1074399948  -999.250000 60.166999817 134.65220642 133.82733154 1.1705818176 110.39417267 1.2552684546  -999.250000 1.2550456524
 1300.4111328  -999.250000 18.041999817 0.0329823717  -999.250000  -999.250000 2.1098034382  -999.250000 64.385002136 136.06347656 135.13140869 1.1432210207 111.08869934 1.2283402681  -999.250000 1.2270448208
 1300.5634766  -999.250000 18.013999939 0.0270144120  -999.250000  -999.250000 2.0992453098  -999.250000 69.959999084 137.40110779 136.50170898 1.1038950682 111.94412994 1.2153133154  -999.250000 1.2150288820
 1300.7159424  -999.250000 17.979999542 0.0090288455  -999.250000  -999.250000 2.0834393501  -999.250000 73.875000000 140.01835632 139.07403564 1.0487998724 111.78497314 1.1673226357  -999.250000 1.1660785675
 1300.8682861  -999.250000 18.014999390 0.0129903927  -999.250000  -999.250000 2.0742561817  -999.250000 73.500000000 143.38171387 142.39070129 1.0516866446 111.46379852 1.0623718500  -999.250000 1.0582593679
 1301.0207520  -999.250000 18.111000061 0.0050128205  -999.250000  -999.250000 2.0759367943  -999.250000 66.962997437 145.23951721 144.41563416 1.0318461657 112.02013397 1.0437115431  -999.250000 1.0430240631
 1301.1730957  -999.250000 18.056999207 0.0339303464  -999.250000  -999.250000 2.0803592205  -999.250000 69.984001160 145.88917542 144.96771240 1.0061017275 111.75404358 0.9935184717  -999.250000 0.9911248684
 1301.3255615  -999.250000 18.075000763 0.0150304483  -999.250000  -999.250000 2.0789184570  -999.250000 70.598999023 144.36505127 143.43867493 0.9956217408 111.46298981 1.0530840158  -999.250000 1.0548974276
 1301.4779053  -999.250000 18.256999969 0.0120072057  -999.250000  -999.250000 2.0734663010  -999.250000 75.379997253 141.85694885 141.02397156 0.9881787300 110.99190521 1.0329368114  -999.250000 1.0320551395
 1301.6303711  -999.250000 18.174999237 -0.002975962  -999.250000  -999.250000 2.0702345371  -999.250000 74.436996460 140.93406677 140.05197144 0.9614616036 111.11222076 1.0863375664  -999.250000 1.0879102945
 1301.7827148  -999.250000 17.989999771 -0.003000000  -999.250000  -999.250000 2.0706388950  -999.250000 74.026000977 140.84347534 139.88784790 0.9994316697 111.22785950 1.0798958540  -999.250000 1.0790144205
 1301.9350586  -999.250000 17.950000763 0.0039831866  -999.250000  -999.250000 2.0685367584  -999.250000 71.995002747 140.93385315 140.07133484 1.0182211399 111.18749237 1.1062051058  -999.250000 1.1079304218
 1302.0875244  -999.250000 17.941999435 0.0049983975  -999.250000  -999.250000 2.0595428944  -999.250000 67.515998840 139.56214905 138.66799927 1.0579351187 111.46170044 1.1170576811  -999.250000 1.1179840565
 1302.2398682  -999.250000 17.934000015 0.0020072060  -999.250000  -999.250000 2.0502717495  -999.250000 63.174999237 138.58238220 137.68280029 1.0788670778 111.32875824 1.1321040392  -999.250000 1.1319663525
 1302.3923340  -999.250000 17.926000595 -0.003990385  -999.250000  -999.250000 2.0498065948  -999.250000 65.791999817 137.35903931 136.48986816 1.1039375067 111.69890594 1.1445865631  -999.250000 1.1449791193
 1302.5446777  -999.250000 17.922000885 0.0099663725  -999.250000  -999.250000 2.0567953587  -999.250000 64.345001221 136.53414917 135.58163452 1.0779103041 111.84020996 1.1424739361  -999.250000 1.1420071125
 1302.6971436  -999.250000 17.922000885 0.0090016024  -999.250000  -999.250000 2.0619597435  -999.250000 72.037002563 137.02453613 136.16259766 1.0625312328 111.87180328 1.1402355433  -999.250000 1.1400032043
 1302.8494873  -999.250000 17.919000626 0.0179783814  -999.250000  -999.250000 2.0606026649  -999.250000 71.375999451 139.14225769 138.17369080 1.0486589670 111.47308350 1.1567486525  -999.250000 1.1579567194
 1303.0019531  -999.250000 17.910999298 0.0010272437  -999.250000  -999.250000 2.0593609810  -999.250000 71.651000977 142.82839966 141.88130188 1.0611153841 110.98893738 1.1131249666  -999.250000 1.1120736599
 1303.1542969  -999.250000 17.986999512 0.0139687750  -999.250000  -999.250000 2.0627236366  -999.250000 69.625000000 145.86283875 145.00373840 1.0453698635 111.15570068 1.0673322678  -999.250000 1.0651129484
 1303.3067627  -999.250000 18.114000320 0.0169951934  -999.250000  -999.250000 2.0659172535  -999.250000 68.864997864 147.52452087 146.62985229 1.0438822508 110.88519287 0.9986872077  -999.250000 0.9961105585
 1303.4591064  -999.250000 18.174999237 0.0090192147  -999.250000  -999.250000 2.0649738312  -999.250000 75.401000977 145.35635376 144.37736511 1.0334218740 111.13980865 1.0252878666  -999.250000 1.0269254446
 1303.6115723  -999.250000 18.233999252 0.0080016032  -999.250000  -999.250000 2.0600850582  -999.250000 70.442001343 141.48574829 140.67417908 0.9977384210 111.36190796 1.0494086742  -999.250000 1.0499631166
 1303.7639160  -999.250000 18.127000809 0.0010112179  -999.250000  -999.250000 2.0532433987  -999.250000 71.083000183 141.94212341 141.06138611 0.9552866220 111.39054108 1.1207574606  -999.250000 1.1228830814
 1303.9162598  -999.250000 17.976999283 0.0199543629  -999.250000  -999.250000 2.0437171459  -999.250000 71.245002747 143.84709167 142.90582275 0.9936635494 111.77080536 1.0638941526  -999.250000 1.0611488819
 1304.0687256  -999.250000 18.063999176 0.0110144233  -999.250000  -999.250000 2.0333747864  -999.250000 77.553001404 144.47962952 143.62876892 1.0149400234 111.90911865 1.0735263824  -999.250000 1.0739791393
 1304.2210693  -999.250000 18.194000244 0.0149903921  -999.250000  -999.250000 2.0269217491  -999.250000 78.468002319 144.83549500 143.85377502 1.0363931656 112.09019470 1.0231096745  -999.250000 1.0211273432
 1304.3735352  -999.250000 18.111999512 0.0110064102  -999.250000  -999.250000 2.0233154297  -999.250000 70.936996460 142.59167480 141.61596680 1.0698773861 112.65161133 1.0998100042  -999.250000 1.1028686762
 1304.5258789  -999.250000 17.978000641 0.0139927948  -999.250000  -999.250000 2.0197823048  -999.250000 66.815002441 139.05097961 138.22842407 1.0713554621 112.16415405 1.1215780973  -999.250000 1.1219543219
 1304.6783447  -999.250000 17.968999863 0.0030176283  -999.250000  -999.250000 2.0171027184  -999.250000 63.893001556 137.35256958 136.44729614 1.0224783421 111.40827179 1.1406441927  -999.250000 1.1409696341
 1304.8306885  -999.250000 17.968999863 0.0049951961  -999.250000  -999.250000 2.0178744793  -999.250000 70.732002258 138.44190979 137.60844421 1.0353931189 111.49958801 1.1130287647  -999.250000 1.1120696068
 1304.9831543  -999.250000 17.968999863 -0.000990385  -999.250000  -999.250000 2.0230505466  -999.250000 72.693000793 139.49208069 138.58082581 1.0362355709 111.12886047 1.1116466522  -999.250000 1.1119999886
