# LAS format log file from PETREL
# Project units are specified as depth units
#==================================================================
~Version information
VERS.   2.0:
WRAP.   NO:
#==================================================================
~Well
STRT .m      860.54608154 :
STOP .m      3158.4321289 :
STEP .m     0.00000000 :
NULL .        -999.250000 :
COMP.           : COMPANY
WELL.  31/4-4   : WELL
FLD.            : FIELD
LOC.            : LOCATION
SRVC.           : SERVICE COMPANY
DATE.  2018-09-11 14:48:37   : Log Export Date {yyyy-MM-dd HH:mm:ss}
PROV.           : PROVINCE
UWI.   31/4-4   : UNIQUE WELL ID
API.            : API NUMBER
#==================================================================
~Curve
DEPT .m                   : DEPTH
Lithology_geolink ._      : Lithology_geolink
CALI .in                  : CALI
DRHO .g/cm3               : DRHO
NPHI .m3/m3               : NPHI
RHOB .g/cm3               : RHOB
GR .gAPI                  : GR
DTC .us/ft                : DTC
DTE .us/ft                : DTE
RDEP .ohm.m               : RDEP
SP .mV                    : SP
RSHA .ohm.m               : RSHA
RMED .ohm.m               : RMED
~Parameter
#==================================================================
~Ascii
# ...
 2689.3449707 2.0000000000 12.421999931 0.0329999998 0.2667795420 2.4644849300 84.384613037 82.121856689 80.896125793 2.9219310284 88.655105591 2.6348526478 2.6348526478
 2689.4975586 2.0000000000 12.421999931 0.0280000009 0.2789100111 2.4624433517 90.392997742 82.661659241 81.350807190 2.8789615631 88.101638794 2.5428431034 2.5428431034
 2689.6499023 2.0000000000 12.421999931 0.0160000008 0.2489999980 2.4541273117 96.006111145 81.994293213 80.727233887 2.8670032024 88.612182617 2.4941761494 2.4941761494
 2689.8022461 2.0000000000 12.421999931 0.0120000001 0.2570299804 2.4522936344 99.816810608 80.407562256 79.149749756 2.8689775467 88.725608826 2.6045289040 2.6045289040
 2689.9545898 2.0000000000 12.421999931 0.0299999993 0.2351099998 2.4644033909 102.18349457 78.969398499 77.660789490 2.8550353050 89.106697083 2.9344069958 2.9344069958
 2690.1071777 2.0000000000 12.421999931 0.0250000004 0.2547000051 2.4766600132 99.353599548 78.468696594 77.069290161 2.8770320415 89.539466858 3.1875998974 3.1875998974
 2690.2595215 2.0000000000 12.421999931 0.0320000015 0.2454299927 2.4807977676 92.676086426 78.119575500 76.871025085 2.8868782520 90.307472229 3.0623204708 3.0623204708
 2690.4118652 2.0000000000 12.421999931 0.0209999997 0.2578999996 2.4769833088 85.252204895 78.492744446 77.265892029 2.8106827736 91.225212097 2.6387243271 2.6387243271
 2690.5642090 2.0000000000 12.421999931 0.0439999998 0.2469599843 2.4891872406 86.637519836 79.573570251 78.283500671 2.6125960350 91.357894897 2.4671218395 2.4671218395
 2690.7167969 2.0000000000 12.421999931 0.0439999998 0.2617099881 2.5026202202 94.444404602 80.230522156 79.040481567 2.3603568077 92.538528442 2.5426063538 2.5426063538
 2690.8691406 2.0000000000 12.421999931 0.0410000011 0.2711899877 2.4966781139 96.437004089 81.269111633 79.937965393 2.1598446369 93.014244080 2.4192693233 2.4192693233
 2691.0214844 2.0000000000 12.421999931 0.0199999996 0.2677000165 2.4638819695 95.808799744 82.682975769 81.366020203 2.0629086494 93.787826538 1.9634535313 1.9634535313
 2691.1738281 2.0000000000 12.421999931 0.0189999994 0.2510400116 2.4404551983 93.193511963 83.792243958 82.478927612 2.0058445930 94.299377441 1.6228798628 1.6228798628
 2691.3261719 2.0000000000 12.421999931 0.0299999993 0.2434000075 2.4375998974 96.620994568 84.745407104 83.465751648 1.9087644815 93.912704468 1.5481762886 1.5481762886
 2691.4787598 2.0000000000 12.428999901 0.0359999985 0.2578200102 2.4518132210 94.123802185 84.593399048 83.258995056 1.7615519762 94.349800110 1.6583328247 1.6583328247
 2691.6311035 2.0000000000 12.428999901 0.0260000005 0.2606700063 2.4479448795 93.745292664 84.252784729 82.904098511 1.6217387915 94.288513184 1.7618893385 1.7618893385
 2691.7834473 2.0000000000 12.421999931 0.0010000000 0.2541199923 2.4176855087 90.813003540 84.512939453 83.149940491 1.4587211609 95.229393005 1.6928412914 1.6928412914
 2691.9357910 2.0000000000 12.428999901 -0.005000000 0.2789599895 2.3873043060 90.820213318 85.500022888 84.156036377 1.2848060131 94.223228455 1.5937836170 1.5937836170
 2692.0883789 2.0000000000 12.430000305 -0.003000000 0.2963300049 2.3758580685 95.332206726 87.070549011 85.662918091 1.1637184620 93.114341736 1.4581712484 1.4581712484
 2692.2407227 2.0000000000 12.428999901 0.0240000002 0.3072899878 2.3957984447 101.31981659 88.794097900 87.529296875 1.0758910179 91.660507202 1.1996779442 1.1996779442
 2692.3930664 2.0000000000 12.421999931 0.0280000009 0.2749499977 2.3898375034 105.55709076 90.310058594 89.213325500 1.0079391003 90.729393005 0.9987788796 0.9987788796
 2692.5454102 2.0000000000 12.421999931 0.0189999994 0.2625800073 2.3525910378 101.86277771 91.371360779 90.139007568 0.9699567556 90.348373413 0.8609246612 0.8609246612
 2692.6979980 2.0000000000 12.421999931 0.0149999997 0.2603200078 2.3154492378 94.239196777 91.925216675 90.738327026 0.9429840446 89.336639404 0.8140991926 0.8140991926
 2692.8503418 2.0000000000 12.428999901 0.0060000001 0.2824699879 2.3038225174 90.881813049 91.978088379 90.733848572 0.9380400777 89.224700928 0.8451442719 0.8451442719
 2693.0026855 2.0000000000 12.430000305 0.0149999997 0.2912499905 2.3199326992 95.126304626 91.724937439 90.395500183 0.9631057978 89.037506104 0.9352836609 0.9352836609
 2693.1550293 2.0000000000 12.430000305 0.0049999999 0.2981199920 2.3354272842 95.939506531 90.341262817 89.022491455 1.0291779041 89.350540161 1.1123862267 1.1123862267
 2693.3073730 2.0000000000 12.430000305 0.0379999988 0.2860499918 2.3677070141 96.866188049 88.334831238 87.101409912 1.1401634216 89.688064575 1.3532612324 1.3532612324
 2693.4599609 2.0000000000 12.430000305 0.0320000015 0.2823399901 2.3967859745 91.379402161 87.531898499 86.190437317 1.2422496080 89.725601196 1.5162656307 1.5162656307
 2693.6123047 2.0000000000 12.430000305 0.0199999996 0.3674399853 2.4114120007 92.752906799 85.792968750 84.440055847 1.3201891184 89.912498474 1.5991425514 1.5991425514
 2693.7646484 2.0000000000 12.430000305 0.0109999999 0.4206900001 2.4175000191 94.554786682 85.581535339 84.261299133 1.4379390478 89.600730896 1.6880592108 1.6880592108
 2693.9169922 2.0000000000 12.430000305 0.0140000004 0.5045999885 2.4134457111 89.444915771 85.924980164 84.725387573 1.3999246359 90.055366516 1.7246747017 1.7246747017
 2694.0695801 2.0000000000 12.430000305 0.0230000000 0.4610100091 2.3959968090 93.767402649 85.623901367 84.312446594 1.3531600237 89.661125183 1.5210207701 1.5210207701
 2694.2219238 2.0000000000 12.430000305 0.0280000009 0.4840900004 2.3701264858 99.207336426 87.340263367 86.069381714 1.4031522274 89.389640808 1.2156522274 1.2156522274
 2694.3742676 2.0000000000 12.430998802 0.0340000018 0.4981200099 2.3501820564 111.24318695 87.281211853 86.125869751 1.4979567528 90.412994385 0.9989535213 0.9989535213
 2694.5266113 2.0000000000 12.472999573 0.0189999994 0.5113000274 2.3409574032 106.99689484 86.281211853 85.022079468 1.4714807272 91.030502319 0.9703894258 0.9703894258
 2694.6791992 2.0000000000 12.640999794 0.0460000001 0.5079399943 2.3447661400 105.08580017 91.145706177 89.848068237 1.7721136808 90.099700928 1.2164560556 1.2164560556
 2694.8315430 5.0000000000 12.815999031 0.1159999967 0.4718900025 2.3445909023 112.20603180 97.776519775 96.428855896 2.1195704937 90.003044128 2.2949662209 2.2949662209
 2694.9838867 5.0000000000 12.875000000 0.1199999973 0.4550800025 2.2953379154 123.44130707 103.01112366 101.74981689 2.4756600857 88.157569885 3.5211377144 3.5211377144
 2695.1362305 5.0000000000 12.921999931 0.1360000074 0.4196099937 2.2563726902 125.50130463 105.45812225 104.07931519 2.8872179985 85.390121460 4.2305960655 4.2305960655
 2695.2885742 5.0000000000 12.958000183 0.0670000017 0.4364199936 2.2118139267 126.29968262 102.20486450 100.81417847 3.0222370625 82.971542358 4.6035962105 4.6035962105
 2695.4411621 18.000000000 12.902000427 0.1369999945 0.4540300071 2.1901156902 117.99300385 100.38760376 98.961776733 2.5472879410 80.811294556 5.5953249931 5.5953249931
 2695.5935059 18.000000000 13.170001030 0.0579999983 0.4792100191 2.0590796471 115.80018616 103.00495911 101.71511078 2.6377003193 78.409469604 4.7611041069 4.7611041069
 2695.7458496 18.000000000 13.161999702 0.0320000015 0.4511500299 1.9071183205 107.81050110 105.46423340 104.15153503 3.0751168728 76.829826355 4.2014408112 4.2014408112
 2695.8981934 18.000000000 13.305999756 0.0070000002 0.4388499856 1.8542778492 106.25120544 110.00341034 108.73368835 3.7708716393 76.100311279 3.2298574448 3.2298574448
 2696.0507813 18.000000000 13.463999748 -0.015000000 0.4356399775 1.9070919752 107.01319885 111.70671844 110.51533508 3.6920528412 76.291572571 3.1414480209 3.1414480209
 2696.2031250 18.000000000 13.024000168 -0.015000000 0.4388600290 2.0480411053 111.13421631 106.52017975 105.15534973 4.0195207596 75.536514282 3.2810783386 3.2810783386
 2696.3554688 18.000000000 13.055999756 -0.026000001 0.4389599860 2.2167980671 116.88080597 99.014678955 97.678321838 3.7197532654 75.231391907 3.3306040764 3.3306040764
 2696.5078125 18.000000000 12.918999672 0.0089999996 0.3666500151 2.3732185364 120.49539185 88.901046753 87.498016357 2.9429342747 75.474945068 3.7073445320 3.7073445320
