# LAS format log file from PETREL
# Project units are specified as depth units
#==================================================================
~Version information
VERS.   2.0:
WRAP.   NO:
#==================================================================
~Well
STRT .m      996.03363037 :
STOP .m      2328.0097656 :
STEP .m     0.00000000 :
NULL .        -999.250000 :
COMP.           : COMPANY
WELL.  31/4-10   : WELL
FLD.            : FIELD
LOC.            : LOCATION
SRVC.           : SERVICE COMPANY
DATE.  2018-09-11 14:48:36   : Log Export Date {yyyy-MM-dd HH:mm:ss}
PROV.           : PROVINCE
UWI.   31/4-10   : UNIQUE WELL ID
API.            : API NUMBER
#==================================================================
~Curve
DEPT .m                   : DEPTH
Lithology_geolink ._      : Lithology_geolink
CALI .in                  : CALI
DRHO .g/cm3               : DRHO
NPHI .m3/m3               : NPHI
RHOB .g/cm3               : RHOB
GR .gAPI                  : GR
DTC .us/ft                : DTC
RDEP .ohm.m               : RDEP
SP .mV                    : SP
RSHA .ohm.m               : RSHA
RMED .ohm.m               : RMED
~Parameter
#==================================================================
~Ascii
# ...
 1967.5837402  -999.250000 11.839068413  -999.250000  -999.250000 2.1528937817 54.547424316 122.49366760 0.9448025823  -999.250000 1.8889654875 0.9564827681
 1967.7362061  -999.250000 11.813968658  -999.250000  -999.250000 2.1646645069 56.375835419 121.79384613 0.9778745174  -999.250000 1.8744604588 1.1568335295
 1967.8885498  -999.250000 11.788889885  -999.250000  -999.250000 2.1658036709 55.148033142 121.19126129 1.0683647394  -999.250000 1.8599663973 0.9269140363
 1968.0410156  -999.250000 11.763779640  -999.250000  -999.250000 2.1731610298 55.129093170 120.29120636 1.1079707146  -999.250000 1.8454604149 0.9097806811
 1968.1933594  -999.250000 11.738699913  -999.250000  -999.250000 2.1790156364 54.968391418 119.50643921 1.1462646723  -999.250000 1.8309673071 1.2523647547
 1968.3458252  -999.250000 11.713600159  -999.250000  -999.250000 2.1676151752 53.023422241 120.09429169 1.1421087980  -999.250000 1.8164486885 1.0338512659
 1968.4981689  -999.250000 11.688520432  -999.250000  -999.250000 2.1730926037 53.390022278 119.59134674 1.1045737267  -999.250000 1.8018683195 1.0670107603
 1968.6506348  -999.250000 11.663419724  -999.250000  -999.250000 2.1673169136 49.346740723 118.69024658 1.0904182196  -999.250000 1.7873507738 0.9918935299
 1968.8029785  -999.250000 11.638339996  -999.250000  -999.250000 2.1652562618 46.453674316 117.79475403 1.0437860489  -999.250000 1.7728683949 0.9711806178
 1968.9553223  -999.250000 11.613238335  -999.250000  -999.250000 2.1648113728 44.797027588 117.20526123 1.0090187788  -999.250000 1.7583634853 0.8617951870
 1969.1077881  -999.250000 11.588158607  -999.250000  -999.250000 2.1581289768 43.849613190 117.68180847 0.9688454866  -999.250000 1.7438694239 1.1164462566
 1969.2601318  -999.250000 11.563059807  -999.250000  -999.250000 2.1843538284 47.733486176 115.88435364 0.9629954696  -999.250000 1.7293643951 1.0557564497
 1969.4125977  -999.250000 11.537949562  -999.250000  -999.250000 2.2040510178 49.761127472 114.30366516 0.9840697646  -999.250000 1.7148594856 1.1050508022
 1969.5649414  -999.250000 11.512869835  -999.250000  -999.250000 2.1991012096 48.809539795 114.49694824 1.0222868919  -999.250000 1.7003654242 1.2006487846
 1969.7174072  -999.250000 11.487770081  -999.250000  -999.250000 2.1991937160 48.160423279 114.22147369 1.0745117664  -999.250000 1.6858594418 0.9632599950
 1969.8697510  -999.250000 11.462690353  -999.250000  -999.250000 2.1832854748 47.968025208 116.11872101 1.0854793787  -999.250000 1.6713664532 1.0944014788
 1970.0222168  -999.250000 11.437589645  -999.250000  -999.250000 2.1804940701 52.067337036 118.13254547 1.0184637308  -999.250000 1.6568604708 1.1995916367
 1970.1745605  -999.250000 11.412509918  -999.250000  -999.250000 2.1643748283 54.605873108 121.10210419 0.9732047915  -999.250000 1.6423673630 0.8750454187
 1970.3270264  -999.250000 11.387408257  -999.250000  -999.250000 2.1619455814 54.773502350 121.47057343 0.9411866665  -999.250000 1.6278496981 1.0977671146
 1970.4793701  -999.250000 11.362329483  -999.250000  -999.250000 2.1905231476 56.895256042 118.88170624 0.9310950041  -999.250000 1.6133682728 1.0739921331
 1970.6318359  -999.250000 11.337220192  -999.250000  -999.250000 2.2123084068 58.210124969 116.89178467 1.0405462980  -999.250000 1.5988496542 0.8798688054
 1970.7841797  -999.250000 11.312140465  -999.250000  -999.250000 2.2145805359 56.983432770 116.09070587 1.1131182909  -999.250000 1.5842692852 1.0906796455
 1970.9366455  -999.250000 11.287037849  -999.250000  -999.250000 2.2117235661 53.877513885 115.09927368 1.1483368874  -999.250000 1.5697517395 1.0228468180
 1971.0889893  -999.250000 11.261958122  -999.250000  -999.250000 2.1986386776 49.895572662 115.00503540 1.1813212633  -999.250000 1.5552703142 1.0384912491
 1971.2413330  -999.250000 11.236860275  -999.250000  -999.250000 2.1951687336 50.126457214 115.51979065 1.2053340673  -999.250000 1.5407644510 1.2356534004
 1971.3937988  -999.250000 11.211759567  -999.250000  -999.250000 2.1800000668 50.420810699 117.50721741 1.1442606449  -999.250000 1.5262594223 1.0515441895
 1971.5461426  -999.250000 11.186679840  -999.250000  -999.250000 2.1784553528 51.921916962 118.30160522 1.0078477859  -999.250000 1.5117654800 1.0753335953
 1971.6986084  -999.250000 11.161579132  -999.250000  -999.250000 2.1942834854 56.989131927 118.49080658 0.9276393056  -999.250000 1.4972604513 0.9301695824
 1971.8509521  -999.250000 11.136489868  -999.250000  -999.250000 2.2000374794 56.744670868 117.70540619 0.9214324951  -999.250000 1.4827663898 0.9384421706
 1972.0034180  -999.250000 11.111390114  -999.250000  -999.250000 2.2095940113 60.539043427 118.20547485 0.9250961542  -999.250000 1.4682614803 1.0827362537
 1972.1557617  -999.250000 11.086310387  -999.250000  -999.250000 2.1950225830 57.740142822 118.69269562 0.9454959631  -999.250000 1.4537672997 0.9832611680
 1972.3082275  -999.250000 11.061207771  -999.250000  -999.250000 2.2109689713 60.433662415 117.99791718 0.9558753371  -999.250000 1.4392497540 0.9581789970
 1972.4605713  -999.250000 11.036128044  -999.250000  -999.250000 2.2043640614 58.177150726 117.79616547 0.9535394907  -999.250000 1.4247683287 1.0430349112
 1972.6130371  -999.250000 11.011030197  -999.250000  -999.250000 2.1956856251 54.798706055 117.40012360 0.9581992626  -999.250000 1.4102507830 1.0578697920
 1972.7653809  -999.250000 10.985950470  -999.250000  -999.250000 2.1909608841 53.471527100 117.40681458 0.9970739484  -999.250000 1.3957693577 1.0738970041
 1972.9178467  -999.250000 10.960849762  -999.250000  -999.250000 2.1789879799 51.721355438 118.09866333 1.0279500484  -999.250000 1.3812506199 1.0191711187
 1973.0701904  -999.250000 10.935770035  -999.250000  -999.250000 2.1644308567 53.431949615 118.00033569 1.1108953953  -999.250000 1.3666703701 1.0754044056
 1973.2225342  -999.250000 10.910659790  -999.250000  -999.250000 2.1588313580 51.273391724 117.90134430 1.1213165522  -999.250000 1.3521643877 1.1530427933
 1973.3750000  -999.250000 10.885560036  -999.250000  -999.250000 2.1666502953 54.547615051 117.80235291 1.1020234823  -999.250000 1.3376594782 1.1027363539
 1973.5273438  -999.250000 10.860480309  -999.250000  -999.250000 2.1754555702 56.114078522 117.70374298 1.1251392365  -999.250000 1.3231654167 0.8863216043
 1973.6798096  -999.250000 10.835378647  -999.250000  -999.250000 2.1950898170 60.218238831 117.60516357 1.1615293026  -999.250000 1.3086603880 1.1471240520
 1973.8321533  -999.250000 10.810298920  -999.250000  -999.250000 2.1996004581 61.304443359 117.50694275 1.1643481255  -999.250000 1.2941664457 1.0786719322
 1973.9846191  -999.250000 10.785200119  -999.250000  -999.250000 2.2060112953 64.164649963 117.40866089 1.1371799707  -999.250000 1.2796614170 1.1833137274
 1974.1369629  -999.250000 10.760120392  -999.250000  -999.250000 2.1949219704 61.685817719 117.31073761 1.1247483492  -999.250000 1.2651674747 1.1415865421
 1974.2894287  -999.250000 10.735019684  -999.250000  -999.250000 2.1760835648 56.610839844 117.21276093 1.1188868284  -999.250000 1.2506507635 0.9156020880
 1974.4417725  -999.250000 10.709939957  -999.250000  -999.250000 2.1555950642 51.734966278 117.11514282 1.0888283253  -999.250000 1.2361682653 1.1003203392
 1974.5942383  -999.250000 10.684829712  -999.250000  -999.250000 2.1576077938 52.252796173 117.01746368 1.0918502808  -999.250000 1.2216507196 1.1567503214
 1974.7465820  -999.250000 10.659749985  -999.250000  -999.250000 2.1712372303 56.677497864 116.92024231 1.0870416164  -999.250000 1.2071692944 1.1047183275
 1974.8990479  -999.250000 10.634650230  -999.250000  -999.250000 2.1769595146 58.634613037 116.82286072 1.0802078247  -999.250000 1.1926517487 1.2482070923
 1975.0513916  -999.250000 10.609569550  -999.250000  -999.250000 2.1733739376 59.860347748 116.72594452 1.0321058035  -999.250000 1.1781703234 1.0469731092
 1975.2037354  -999.250000 10.584468842  -999.250000  -999.250000 2.1515879631 55.594413757 116.62905121 0.9881900549  -999.250000 1.1636632681 1.1991274357
