# LAS format log file from PETREL
# Project units are specified as depth units
#==================================================================
~Version information
VERS.   2.0:
WRAP.   NO:
#==================================================================
~Well
STRT .m      898.43609619 :
STOP .m      2454.1354980 :
STEP .m     0.00000000 :
NULL .        -999.250000 :
COMP.           : COMPANY
WELL.  31/4-6   : WELL
FLD.            : FIELD
LOC.            : LOCATION
SRVC.           : SERVICE COMPANY
DATE.  2018-09-11 14:48:38   : Log Export Date {yyyy-MM-dd HH:mm:ss}
PROV.           : PROVINCE
UWI.   31/4-6   : UNIQUE WELL ID
API.            : API NUMBER
#==================================================================
~Curve
DEPT .m                   : DEPTH
Lithology_geolink ._      : Lithology_geolink
CALI .in                  : CALI
DRHO .g/cm3               : DRHO
NPHI .m3/m3               : NPHI
RHOB .g/cm3               : RHOB
GR .gAPI                  : GR
DTC .us/ft                : DTC
DTE .us/ft                : DTE
RDEP .ohm.m               : RDEP
SP .mV                    : SP
RSHA .ohm.m               : RSHA
RMED .ohm.m               : RMED
~Parameter
#==================================================================
~Ascii
# ...
 1615.3258057  -999.250000 17.375000000 0.0029871794  -999.250000 2.0393269062 34.997570038 147.89096069 149.18632507 0.5620048046 39.424999237  -999.250000 0.6959398985
 1615.4781494  -999.250000 17.531000137 0.0209567659  -999.250000 2.0382833481 31.968648911 149.52870178 150.83868408 0.5680072308 41.549999237  -999.250000 0.6209695935
 1615.6306152  -999.250000 17.500000000 0.0180048067  -999.250000 2.0217657089 31.533029556 150.30355835 151.60624695 0.5769992471 40.174999237  -999.250000 0.5830000043
 1615.7829590  -999.250000 17.500000000 0.0090216165  -999.250000 2.0073759556 34.065402985 149.89601135 151.24014282 0.5759983659 40.049999237  -999.250000 0.5830096006
 1615.9354248  -999.250000 17.843999863 0.0109967953  -999.250000 2.0036463737 37.063373566 149.22491455 150.53010559 0.5740007758 39.049999237  -999.250000 0.5950128436
 1616.0877686  -999.250000 17.641000748 0.0070096077  -999.250000 2.0051403046 37.531047821 148.32101440 149.62536621 0.5749999881 39.549999237  -999.250000 0.6110152006
 1616.2402344  -999.250000 17.641000748 -0.002983974  -999.250000 2.0115859509 37.594879150 147.90451050 149.14126587 0.5749983788 41.549999237  -999.250000 0.6300232410
 1616.3925781  -999.250000 17.577999115 -0.006990393  -999.250000 2.0264494419 38.687950134 148.81964111 150.11738586 0.5730000138 42.174999237  -999.250000 0.6590048075
 1616.5450439  -999.250000 17.452999115 -0.003006410  -999.250000 2.0435540676 38.629154205 150.19032288 151.49722290 0.5730063915 41.924999237  -999.250000 0.6649760008
 1616.6973877  -999.250000 17.547000885 0.0069759809  -999.250000 2.0507597923 41.216873169 150.17810059 151.48986816 0.5770096183 41.299999237  -999.250000 0.6499831676
 1616.8498535  -999.250000 17.452999115 0.0099951923  -999.250000 2.0442929268 38.563148499 149.32461548 150.62710571 0.5890160203 41.549999237  -999.250000 0.6289936304
 1617.0021973  -999.250000 17.656000137 0.0050120093  -999.250000 2.0309803486 38.651889801 148.94731140 150.21649170 0.5990104079 40.674999237  -999.250000 0.6249976158
 1617.1546631  -999.250000 17.797000885 -0.004983974  -999.250000 2.0227856636 33.526847839 147.55184937 148.79937744 0.6120223999 41.049999237  -999.250000 0.6219791770
 1617.3070068  -999.250000 17.577999115 -0.011988782  -999.250000 2.0308928490 30.938436508 138.75959778 139.91784668 0.6259959936 41.174999237  -999.250000 0.6090184450
 1617.4593506  -999.250000 17.608999252 -0.016987991  -999.250000 2.0682001114 31.486089706 122.64707947 123.81698608 0.6209831834 41.424999237  -999.250000 0.6320888996
 1617.6118164  -999.250000 17.672000885 -0.034971155  -999.250000 2.1511745453 34.091999054 111.30604553 112.30053711 0.5999951959 42.299999237  -999.250000 0.7430832982
 1617.7641602  -999.250000 17.687999725 -0.064927943  -999.250000 2.2689375877 31.591960907 110.12544250 111.10365295 0.5940015912 43.299999237  -999.250000 0.8468871117
 1617.9166260  -999.250000 17.875000000 -0.036046471  -999.250000 2.3338489532 29.048189163 118.68772888 119.71684265 0.5960104465 41.174999237  -999.250000 0.7058982253
 1618.0689697  -999.250000 17.702999115 -0.004076862  -999.250000 2.2735238075 30.536304474 134.84222412 136.08071899 0.6090104580 41.299999237  -999.250000 0.5789799690
 1618.2214355  -999.250000 17.406000137 0.0249535255  -999.250000 2.1506717205 37.157176971 149.25019836 150.56753540 0.6219935417 41.674999237  -999.250000 0.5540288687
 1618.3737793  -999.250000 17.827999115 0.0180168133  -999.250000 2.0542335510 38.624599457 155.10559082 156.41404724 0.6139888167 42.299999237  -999.250000 0.5900408030
 1618.5262451  -999.250000 18.297000885 -0.003964744  -999.250000 2.0110294819 38.124649048 155.78927612 157.15176392 0.5999960303 41.424999237  -999.250000 0.6410376430
 1618.6785889  -999.250000 18.358999252 -0.004000000  -999.250000 2.0042030811 37.689651489 154.65901184 155.94740295 0.5949984193 40.424999237  -999.250000 0.6880040169
 1618.8310547  -999.250000 18.702999115 -0.012985577  -999.250000 2.0098822117 39.750801086 150.50431824 151.84788513 0.5930016041 40.549999237  -999.250000 0.6929664016
 1618.9833984  -999.250000 17.766000748 -0.006016814  -999.250000 2.0197165012 40.251125336 146.92126465 148.17944336 0.5940039754 40.924999237  -999.250000 0.6719831824
 1619.1358643  -999.250000 17.766000748 -0.006000000  -999.250000 2.0327813625 41.660102844 146.94523621 148.17950439 0.5990127921 38.924999237  -999.250000 0.6509743929
 1619.2882080  -999.250000 17.906000137 0.0089759612  -999.250000 2.0448880196 44.219802856 146.81611633 148.01190186 0.6069959998 41.049999237  -999.250000 0.6349920034
 1619.4406738  -999.250000 17.687999725 0.0030096078  -999.250000 2.0516946316 45.214096069 146.09071350 147.42626953 0.6019823551 42.549999237  -999.250000 0.6249920130
 1619.5930176  -999.250000 17.797000885 -0.000993590  -999.250000 2.0558283329 42.155147552 146.68690491 148.02203369 0.5909928083 41.299999237  -999.250000 0.6199951768
 1619.7453613  -999.250000 18.202999115 -0.004990392  -999.250000 2.0605375767 41.091976166 147.20828247 148.52084351 0.5819967985 41.174999237  -999.250000 0.6139936447
 1619.8978271  -999.250000 18.031000137 0.0049839742  -999.250000 2.0605897903 38.561820984 147.44715881 148.64433289 0.5780007839 42.549999237  -999.250000 0.6059976220
 1620.0501709  -999.250000 18.047000885 0.0000120096  -999.250000 2.0527238846 37.094425201 147.83567810 149.15663147 0.5790072083 42.299999237  -999.250000 0.6030063629
 1620.2026367  -999.250000 18.156000137 -0.006988782  -999.250000 2.0454354286 37.627529144 148.78900146 150.05589294 0.5880079865 41.799999237  -999.250000 0.6110104322
 1620.3549805  -999.250000 18.108999252 -0.005004804  -999.250000 2.0433626175 40.782249451 149.56813049 150.85665894 0.5980048180 40.924999237  -999.250000 0.6240144372
 1620.5074463  -999.250000 18.250000000 -0.001006410  -999.250000 2.0431189537 42.342498779 149.51325989 150.84129333 0.6039991975 41.674999237  -999.250000 0.6420120597
 1620.6597900  -999.250000 18.031000137 0.0089759808  -999.250000 2.0409448147 40.467700958 148.84770203 150.18859863 0.6030007601 42.049999237  -999.250000 0.6570007801
 1620.8122559  -999.250000 18.218999863 0.0010128205  -999.250000 2.0407710075 38.843952179 148.37069702 149.65606689 0.6039951444 41.799999237  -999.250000 0.6579727530
 1620.9645996  -999.250000 18.125000000 0.0119735794  -999.250000 2.0460987091 38.812473297 148.06861877 149.41345215 0.6009984016 41.049999237  -999.250000 0.6409823298
 1621.1170654  -999.250000 17.812999725 0.0100032045  -999.250000 2.0490608215 38.161003113 148.47578430 149.75827026 0.5989999771 40.424999237  -999.250000 0.6189808249
 1621.2694092  -999.250000 17.766000748 -0.000973579  -999.250000 2.0463132858 41.280548096 148.97222900 150.29582214 0.5989943743 41.424999237  -999.250000 0.6070007682
 1621.4218750  -999.250000 18.202999115 -0.004993590  -999.250000 2.0412590504 40.720554352 149.09155273 150.36683655 0.5919871926 39.799999237  -999.250000 0.6080048084
 1621.5742188  -999.250000 18.141000748 -0.005000000  -999.250000 2.0379507542 41.685218811 149.18589783 150.41093445 0.5839992166 40.049999237  -999.250000 0.6110079885
 1621.7265625  -999.250000 17.843999863 -0.000012010  -999.250000 2.0402123928 38.219852448 149.11135864 150.43721008 0.5830016136 42.174999237  -999.250000 0.6210016012
 1621.8790283  -999.250000 17.858999252 -0.000998397  -999.250000 2.0464131832 39.283027649 148.72842407 150.07963562 0.5850007534 39.549999237  -999.250000 0.6230064631
 1622.0313721  -999.250000 18.202999115 -0.003992795  -999.250000 2.0515851974 41.812099457 148.20190430 149.49951172 0.5860024095 39.049999237  -999.250000 0.6310032010
 1622.1838379  -999.250000 18.062999725 -0.002003205  -999.250000 2.0544273853 40.685119629 147.48628235 148.83282471 0.5890055895 41.924999237  -999.250000 0.6350055933
 1622.3361816  -999.250000 17.625000000 -0.002997598  -999.250000 2.0582418442 37.094051361 146.79667664 148.05200195 0.5960032344 43.049999237  -999.250000 0.6419992447
 1622.4886475  -999.250000 17.702999115 0.0009935898  -999.250000 2.0648293495 37.159355164 146.34875488 147.59892273 0.6000016332 43.174999237  -999.250000 0.6409983635
