# LAS format log file from PETREL
# Project units are specified as depth units
#==================================================================
~Version information
VERS.   2.0:
WRAP.   NO:
#==================================================================
~Well
STRT .m      895.02691650 :
STOP .m      2933.5300293 :
STEP .m     0.00000000 :
NULL .        -999.250000 :
COMP.           : COMPANY
WELL.  31/4-5   : WELL
FLD.            : FIELD
LOC.            : LOCATION
SRVC.           : SERVICE COMPANY
DATE.  2018-09-11 14:48:38   : Log Export Date {yyyy-MM-dd HH:mm:ss}
PROV.           : PROVINCE
UWI.   31/4-5   : UNIQUE WELL ID
API.            : API NUMBER
#==================================================================
~Curve
DEPT .m                   : DEPTH
Lithology_geolink ._      : Lithology_geolink
CALI .in                  : CALI
DRHO .g/cm3               : DRHO
SGR .gAPI                 : SGR
NPHI .m3/m3               : NPHI
RHOB .g/cm3               : RHOB
PEF .b/e                  : PEF
GR .gAPI                  : GR
DTC .us/ft                : DTC
DTE .us/ft                : DTE
RDEP .ohm.m               : RDEP
SP .mV                    : SP
RSHA .ohm.m               : RSHA
RMIC .ohm.m               : RMIC
RMED .ohm.m               : RMED
~Parameter
#==================================================================
~Ascii
# ...
 2654.3332520 5.0000000000 8.8959999084 0.1807724237  -999.250000 0.4007000029 2.5882742405  -999.250000 91.587997437 79.497612000 74.700889587 3.1846399307 123.17696381 6.0224499702  -999.250000 6.0351166725
 2654.4855957 5.0000000000 8.7860002518 0.0389198735  -999.250000 0.3941400051 2.5753364563  -999.250000 97.632003784 79.932121277 75.284660339 4.7884616852 124.06200409 6.4601922035  -999.250000 6.4743270874
 2654.6379395 5.0000000000 8.7150001526 -0.010985577  -999.250000 0.3894200027 2.6062760353  -999.250000 100.81900024 81.415298462 76.593635559 6.7908077240 124.90386963 6.5739231110  -999.250000 6.5781893730
 2654.7902832 6.0000000000 8.6879997253 -0.001950321  -999.250000 0.3764899969 2.6574120522  -999.250000 107.70999908 81.184974670 76.400543213 7.7568078041 124.53428650 7.2348461151  -999.250000 7.2623171806
 2654.9428711 6.0000000000 8.6700000763 0.0290319994  -999.250000 0.3678200245 2.6841077805  -999.250000 111.86499786 79.684898376 75.088752747 7.9652543068 124.22090149 8.2605428696  -999.250000 8.2987594604
 2655.0952148 6.0000000000 8.6599998474 0.0389711559  -999.250000 0.3456400037 2.6798415184  -999.250000 109.84200287 78.419090271 73.628913879 8.1843461990 123.80896759 9.2534608841  -999.250000 9.2861175537
 2655.2475586 6.0000000000 8.6400003433 0.0210224353  -999.250000 0.3502399921 2.6651909351  -999.250000 105.73500061 77.924537659 73.183105469 8.3215770721 123.44741058 9.7128849030  -999.250000 9.7259778976
 2655.3999023 6.0000000000 8.6289997101 0.0349551290  -999.250000 0.3418000042 2.6462097168  -999.250000 103.08300018 76.968513489 72.397857666 8.3430767059 123.43498993 10.020730972  -999.250000 10.030218124
 2655.5524902 6.0000000000 8.6289997101 0.0069584004  -999.250000 0.3434599936 2.6145241261  -999.250000 104.13600159 76.701660156 71.902603149 8.5306930542 123.62183380 10.096586227  -999.250000 10.098018646
 2655.7048340 6.0000000000 8.6269998550 -0.006000000  -999.250000 0.3366299868 2.5784816742  -999.250000 106.42400360 76.981506348 72.116500854 8.1197690964 123.44493866 10.102000237  -999.250000 10.100281715
 2655.8571777 6.0000000000 8.6199998856 -0.005985577  -999.250000 0.3297800124 2.5553681850  -999.250000 109.25700378 77.334594727 72.840255737 7.6551923752 123.04857635 9.7561159134  -999.250000 9.7422666550
 2656.0095215 6.0000000000 8.6149997711 0.0030144232  -999.250000 0.3016500175 2.5525205135  -999.250000 106.69699860 78.297653198 73.506103516 7.1596927643 123.48071289 9.2200384140  -999.250000 9.2011280060
 2656.1621094 6.0000000000 8.6239995956 0.0120192003  -999.250000 0.2768799961 2.5647382736  -999.250000 107.46900177 78.870788574 74.131690979 6.6411666870 124.68756104 8.6366758347  -999.250000 8.6166353226
 2656.3144531 5.0000000000 8.6330003738 0.0179727562  -999.250000 0.2597500086 2.5780251026  -999.250000 101.49700165 79.655509949 75.032180786 6.2263102531 125.24139404 8.1417570114  -999.250000 8.1236448288
 2656.4667969 5.0000000000 8.6330003738 0.0010352564  -999.250000 0.2497999966 2.5830447674  -999.250000 96.589996338 80.283477783 75.504096985 6.0968461037 124.34104156 7.4499616623  -999.250000 7.4267501831
 2656.6191406 5.0000000000 8.6260004044 0.0229775645  -999.250000 0.2504400015 2.5786359310  -999.250000 89.094001770 80.468826294 75.672630310 6.0930767059 123.71697998 7.0494232178  -999.250000 7.0384874344
 2656.7714844 5.0000000000 8.6110000610 0.0090224352  -999.250000 0.2587800026 2.5667624474  -999.250000 91.932998657 80.301605225 75.627716064 6.1417689323 123.33237457 7.1840381622  -999.250000 7.1927275658
 2656.9240723 5.0000000000 8.5889997482 0.0229583997  -999.250000 0.2837499976 2.5526459217  -999.250000 100.21499634 80.359443665 75.635543823 6.2382497787 122.92295074 8.0121679306  -999.250000 8.0461778641
 2657.0764160 6.0000000000 8.5570001602 0.0099951923  -999.250000 0.2862100005 2.5397117138  -999.250000 100.36499786 81.179588318 76.515144348 6.2048845291 123.04697418 9.0847692490  -999.250000 9.1211252213
 2657.2287598 5.0000000000 8.5600004196 0.0069951927  -999.250000 0.2812999785 2.5297913551  -999.250000 102.37200165 82.223030090 77.411628723 6.1680383682 123.07018280 9.7497301102  -999.250000 9.7672595978
 2657.3811035 5.0000000000 8.6110000610 0.0039919876  -999.250000 0.2721699774 2.5267856121  -999.250000 100.09799957 82.903678894 78.055076599 6.1949615479 122.68332672 9.2467689514  -999.250000 9.2213716507
 2657.5336914 5.0000000000 8.6309995651 -0.000942400  -999.250000 0.2827399969 2.5330750942  -999.250000 94.833000183 83.112579346 78.489936829 6.2096176147 122.58666229 7.8306431770  -999.250000 7.7785096169
 2657.6860352 5.0000000000 8.5860004425 0.0170064103  -999.250000 0.2894999981 2.5443150997  -999.250000 93.231002808 83.222122192 78.434951782 6.2039232254 123.02094269 7.0756921768  -999.250000 7.0568113327
 2657.8383789 5.0000000000 8.5089998245 0.0210256409  -999.250000 0.3007900119 2.5474619865  -999.250000 89.120002747 82.926406860 78.118392944 6.0614619255 122.89445496 7.2176151276  -999.250000 7.2269358635
 2657.9907227 5.0000000000 8.4460000992 0.0369647443  -999.250000 0.3057599962 2.5317986012  -999.250000 88.005996704 81.975929260 77.429702759 5.7696542740 121.85731506 7.8094997406  -999.250000 7.8295865059
 2658.1433105 5.0000000000 8.4270000458 0.0149487993  -999.250000 0.2998500168 2.5009827614  -999.250000 84.041999817 82.008842468 77.261238098 5.3919200897 121.27024078 8.0070705414  -999.250000 8.0105772018
 2658.2956543 6.0000000000 8.4219999313 -0.000991987  -999.250000 0.2986199856 2.4734134674  -999.250000 83.458999634 82.559173584 77.753524780 4.8427791595 121.78837585 7.7265920639  -999.250000 7.7112627029
 2658.4479980 6.0000000000 8.3999996185 0.0040032053  -999.250000 0.2852700055 2.4565799236  -999.250000 92.475997925 82.544303894 77.951637268 4.0772690773 121.44449615 6.7618074417  -999.250000 6.7259426117
 2658.6003418 6.0000000000 8.3870000839 0.0060176281  -999.250000 0.2940099835 2.4389717579  -999.250000 102.17800140 83.213630676 78.555770874 3.2862691879 120.59790039 5.8041539192  -999.250000 5.7709455490
 2658.7526855 6.0000000000 8.3870000839 0.0169679504  -999.250000 0.2764100134 2.4111120701  -999.250000 112.68199921 85.176765442 80.375030518 2.5890383720 120.19712067 4.5511922836  -999.250000 4.5063271523
 2658.9052734 6.0000000000 8.3879995346 -0.003009600  -999.250000 0.2691799998 2.3778240681  -999.250000 113.67700195 86.814224243 82.275474548 2.0534431934 119.92086029 3.4004063606  -999.250000 3.3589327335
 2659.0576172 6.0000000000 8.3909997940 -0.006000000  -999.250000 0.2651199996 2.3549106121  -999.250000 108.88200378 89.262916565 84.563247681 1.6870384216 119.52848816 2.3420383930  -999.250000 2.3066351414
 2659.2099609 5.0000000000 8.3909997940 -0.005991987  -999.250000 0.2676700056 2.3480663300  -999.250000 95.908996582 91.360855103 86.808815002 1.4346922636 119.17717743 1.6300768852  -999.250000 1.6081314087
 2659.3623047 5.0000000000 8.3909997940 -0.000983974  -999.250000 0.2767100036 2.3489985466  -999.250000 85.941001892 93.005744934 88.301856995 1.2371538877 119.21864319 1.3451153040  -999.250000 1.3377948999
 2659.5148926 5.0000000000 8.3909997940 0.0089839995  -999.250000 0.2731299996 2.3466868401  -999.250000 81.916999817 94.187728882 89.400733948 1.0937823057 119.96571350 1.2755296230  -999.250000 1.2742116451
 2659.6672363 5.0000000000 8.3909997940 0.0040192311  -999.250000 0.2758699954 2.3389623165  -999.250000 80.880996704 94.234046936 89.745674133 0.9662376642 120.22637177 1.3159999847  -999.250000 1.3180816174
 2659.8195801 5.0000000000 8.3909997940 0.0159983989  -999.250000 0.2675299942 2.3328042030  -999.250000 83.787002563 94.684280396 89.986907959 0.8708875179 119.75148773 1.3343845606  -999.250000 1.3348301649
 2659.9719238 5.0000000000 8.3920001984 0.0150304483  -999.250000 0.2633999884 2.3281137943  -999.250000 75.997001648 95.102165222 90.296241760 0.8102464676 118.83418274 1.2838076353  -999.250000 1.2815223932
 2660.1245117 3.0000000000 8.3959999084 0.0339552015  -999.250000 0.2573200166 2.3169474602  -999.250000 68.661003113 94.963058472 90.431915283 0.7561113238 118.21617889 1.1378637552  -999.250000 1.1327500343
