# LAS format log file from PETREL
# Project units are specified as depth units
#==================================================================
~Version information
VERS.   2.0:
WRAP.   NO:
#==================================================================
~Well
STRT .m      950.21093750 :
STOP .m      2894.8349609 :
STEP .m     0.00000000 :
NULL .        -999.250000 :
COMP.           : COMPANY
WELL.  31/4-2   : WELL
FLD.            : FIELD
LOC.            : LOCATION
SRVC.           : SERVICE COMPANY
DATE.  2018-09-11 14:48:36   : Log Export Date {yyyy-MM-dd HH:mm:ss}
PROV.           : PROVINCE
UWI.   31/4-2   : UNIQUE WELL ID
API.            : API NUMBER
#==================================================================
~Curve
DEPT .m                   : DEPTH
Lithology_geolink ._      : Lithology_geolink
CALI .in                  : CALI
DRHO .g/cm3               : DRHO
NPHI .m3/m3               : NPHI
RHOB .g/cm3               : RHOB
GR .gAPI                  : GR
DTC .us/ft                : DTC
DTE .us/ft                : DTE
RDEP .ohm.m               : RDEP
SP .mV                    : SP
RSHA .ohm.m               : RSHA
RMED .ohm.m               : RMED
~Parameter
#==================================================================
~Ascii
# ...
 1081.8845215  -999.250000 18.368999481 -0.009975981  -999.250000 1.9147688150 42.899715424 144.58270264 142.35319519 1.3549679518 21.055164337 0.8990640640 0.8990640640
 1082.0369873  -999.250000 17.919000626 -0.003983974  -999.250000 1.9159321785 42.577781677 143.97204590 141.73652649 1.3469519615 21.096168518 0.9149879813 0.9149879813
 1082.1893311  -999.250000 17.959999084 0.0000080064  -999.250000 1.9189064503 42.023799896 143.71484375 141.45823669 1.3349440098 21.138164520 0.9119679928 0.9119679928
 1082.3417969  -999.250000 18.183000565 0.0020040064  -999.250000 1.9229469299 41.476806641 144.37155151 142.12960815 1.3209358454 21.179164886 0.9039359093 0.9039359093
 1082.4941406  -999.250000 17.743000031 0.0029879904  -999.250000 1.9220750332 41.678527832 145.98103333 143.79826355 1.3049198389 21.220167160 0.8879199624 0.8879199624
 1082.6466064  -999.250000 17.784000397 -0.000012019  -999.250000 1.9126169682 42.059749603 147.87501526 145.59196472 1.2849037647 21.262163162 0.8679839373 0.8679839373
 1082.7989502  -999.250000 17.841999054 -0.003012010  -999.250000 1.8979253769 42.248725891 149.00016785 146.82537842 1.2608799934 21.303163528 0.8639960289 0.8639960289
 1082.9514160  -999.250000 17.951999664 -0.006012019  -999.250000 1.8842382431 42.676849365 149.73872375 147.45996094 1.2309237719 21.344167709 0.8629999757 0.8629999757
 1083.1037598  -999.250000 17.986000061 -0.008987990  -999.250000 1.8781455755 42.387596130 149.89408875 147.62815857 1.2119599581 21.386163712 0.8629719615 0.8629719615
 1083.2561035  -999.250000 18.107000351 -0.005980769  -999.250000 1.8822065592 41.789020538 149.78953552 147.62001038 1.2019935846 21.427045822 0.8559743762 0.8559743762
 1083.4085693  -999.250000 18.068000793 0.0000040064  -999.250000 1.8898187876 41.488388062 150.00683594 147.77006531 1.1999840736 21.441003799 0.8479999900 0.8479999900
 1083.5609131  -999.250000 17.829999924 0.0009879904  -999.250000 1.8907687664 42.582618713 150.24324036 147.84376526 1.1960079670 21.439088821 0.8479999900 0.8479999900
 1083.7133789  -999.250000 18.031000137 -0.002008013  -999.250000 1.8879851103 43.484603882 149.47630310 147.39733887 1.1979959011 20.705236435 0.8480520844 0.8480520844
 1083.8657227  -999.250000 18.370000839 -0.004008007  -999.250000 1.8883625269 43.883823395 148.75360107 146.54997253 1.1969920397 18.265729904 0.8610119820 0.8610119820
 1084.0181885  -999.250000 17.801000595 -0.006008013  -999.250000 1.8890568018 44.088188171 148.26123047 145.83567810 1.1950120926 15.206489563 0.8640160561 0.8640160561
 1084.1705322  -999.250000 17.795999527 -0.008004003  -999.250000 1.8871310949 43.886005402 147.78459167 145.57038879 1.1980199814 13.588191986 0.8679319024 0.8679319024
 1084.3229980  -999.250000 17.791000366 -0.009008013  -999.250000 1.8827776909 43.886093140 148.09051514 145.80819702 1.2030240297 13.643599510 0.8509318829 0.8509318829
 1084.4753418  -999.250000 17.784999847 -0.011004003  -999.250000 1.8766871691 43.659320831 148.44796753 146.15734863 1.2090200186 15.546543121 0.8340160251 0.8340160251
 1084.6278076  -999.250000 17.785999298 -0.012000000  -999.250000 1.8717023134 43.489604950 148.35807800 146.25363159 1.2140280008 18.923917770 0.8381001353 0.8381001353
 1084.7801514  -999.250000 17.833000183 -0.012000000  -999.250000 1.8697111607 43.390205383 148.46319580 146.31291199 1.2210520506 20.895071030 0.8629759550 0.8629759550
 1084.9326172  -999.250000 18.111000061 -0.012000000  -999.250000 1.8700691462 43.190738678 148.80606079 146.50247192 1.2340320349 21.659545898 0.8569198847 0.8569198847
 1085.0849609  -999.250000 18.294000626 -0.012000000  -999.250000 1.8736655712 42.622512817 148.71624756 146.48757935 1.2420279980 21.794042587 0.8370240331 0.8370240331
 1085.2373047  -999.250000 17.870000839 -0.012000000  -999.250000 1.8802753687 41.254329681 148.26159668 145.90020752 1.2490063906 21.554288864 0.8431025743 0.8431025743
 1085.3897705  -999.250000 17.899000168 -0.012000000  -999.250000 1.8874558210 40.112564087 147.11155701 144.99412537 1.2510200739 21.019813538 0.8749920130 0.8749920130
 1085.5421143  -999.250000 18.309000015 -0.012000000  -999.250000 1.8938065767 40.002086639 146.59201050 144.39201355 1.2560129166 20.474601746 0.8729743958 0.8729743958
 1085.6945801  -999.250000 18.006000519 -0.012000000  -999.250000 1.8984223604 39.402957916 146.67254639 144.45019531 1.2599920034 20.039636612 0.8650000095 0.8650000095
 1085.8469238  -999.250000 18.080999374 -0.012004003  -999.250000 1.8994500637 38.399425507 147.01815796 144.99850464 1.2580200434 19.948974609 0.8649599552 0.8649599552
 1085.9993896  -999.250000 17.959999084 -0.013000000  -999.250000 1.8959344625 38.759792328 148.04589844 145.66616821 1.2629840374 19.946750641 0.8549439311 0.8549439311
 1086.1517334  -999.250000 18.129999161 -0.012987991  -999.250000 1.8893246651 40.203727722 148.44793701 146.14421082 1.2589478493 20.880544662 0.8410160542 0.8410160542
 1086.3041992  -999.250000 17.926000595 -0.009991987  -999.250000 1.8815813065 41.384113312 148.69416809 146.53829956 1.2459520102 21.265003204 0.8450000286 0.8450000286
 1086.4565430  -999.250000 18.309000015 -0.008004003  -999.250000 1.8740683794 42.406993866 149.26786804 147.10693359 1.2339359522 21.265811920 0.8450000286 0.8450000286
 1086.6090088  -999.250000 18.167999268 -0.009004006  -999.250000 1.8687207699 42.653217316 149.64082336 147.38903809 1.2179479599 21.218683243 0.8450440764 0.8450440764
 1086.7613525  -999.250000 18.033000946 -0.010016013  -999.250000 1.8655873537 42.208171844 149.66290283 147.32456970 1.2049560547 21.139602661 0.8560200334 0.8560200334
 1086.9138184  -999.250000 18.018999100 -0.014000000  -999.250000 1.8640863895 41.753837585 149.55152893 147.42869568 1.1939679384 21.039934158 0.8609799743 0.8609799743
 1087.0661621  -999.250000 18.274999619 -0.013983987  -999.250000 1.8665335178 41.716056824 149.99121094 147.85746765 1.1859760284 20.774591446 0.8559439778 0.8559439778
 1087.2185059  -999.250000 18.087999344 -0.009996795  -999.250000 1.8694189787 42.474739075 151.02687073 148.70443726 1.1799486876 20.673004150 0.8419871926 0.8419871926
 1087.3709717  -999.250000 17.853000641 -0.009000000  -999.250000 1.8684740067 42.079586029 151.87953186 149.62411499 1.1639840603 20.674007416 0.8379880190 0.8379880190
 1087.5233154  -999.250000 17.802999496 -0.009000000  -999.250000 1.8655873537 41.475559235 152.03825378 149.88435364 1.1599614620 20.676961899 0.8349679112 0.8349679112
 1087.6757813  -999.250000 17.829000473 -0.009008013  -999.250000 1.8630542755 40.403568268 151.71427917 149.57334900 1.1479599476 20.977510452 0.8250400424 0.8250400424
 1087.8281250  -999.250000 17.844999313 -0.011004003  -999.250000 1.8607436419 40.047592163 151.46476746 149.22235107 1.1379719973 21.354177475 0.8349839449 0.8349839449
 1087.9805908  -999.250000 17.784000397 -0.012004007  -999.250000 1.8585357666 39.944797516 151.00558472 148.71333313 1.1309679747 21.646125793 0.8310160041 0.8310160041
 1088.1329346  -999.250000 17.774000168 -0.012995997  -999.250000 1.8556810617 39.642597198 150.52758789 148.29859924 1.1229760647 21.428047180 0.8349239230 0.8349239230
 1088.2854004  -999.250000 17.775999069 -0.011991987  -999.250000 1.8510900736 38.793739319 151.05711365 148.76515198 1.1169919968 21.189853668 0.8160120249 0.8160120249
 1088.4377441  -999.250000 17.801000595 -0.010032025  -999.250000 1.8451746702 38.232112885 152.21202087 150.01837158 1.1149959564 20.903860092 0.8189880252 0.8189880252
 1088.5902100  -999.250000 17.802000046 -0.018008012  -999.250000 1.8403900862 38.514225006 153.63287354 151.32568359 1.1140159369 20.618858337 0.8160160184 0.8160160184
 1088.7425537  -999.250000 17.791999817 -0.019995997  -999.250000 1.8402874470 39.816490173 153.83334351 151.71229553 1.1180200577 20.332145691 0.8199679852 0.8199679852
 1088.8950195  -999.250000 17.780000687 -0.018991986  -999.250000 1.8435840607 40.693576813 153.05375671 150.75367737 1.1230320930 19.611730576 0.8119879365 0.8119879365
 1089.0473633  -999.250000 17.781999588 -0.016987991  -999.250000 1.8443629742 42.831790924 152.10678101 149.78459167 1.1310160160 17.052085876 0.8090400696 0.8090400696
