# LAS format log file from PETREL
# Project units are specified as depth units
#==================================================================
~Version information
VERS.   2.0:
WRAP.   NO:
#==================================================================
~Well
STRT .m      996.03363037 :
STOP .m      2328.0097656 :
STEP .m     0.00000000 :
NULL .        -999.250000 :
COMP.           : COMPANY
WELL.  31/4-10   : WELL
FLD.            : FIELD
LOC.            : LOCATION
SRVC.           : SERVICE COMPANY
DATE.  2018-09-11 14:48:36   : Log Export Date {yyyy-MM-dd HH:mm:ss}
PROV.           : PROVINCE
UWI.   31/4-10   : UNIQUE WELL ID
API.            : API NUMBER
#==================================================================
~Curve
DEPT .m                   : DEPTH
Lithology_geolink ._      : Lithology_geolink
CALI .in                  : CALI
DRHO .g/cm3               : DRHO
NPHI .m3/m3               : NPHI
RHOB .g/cm3               : RHOB
GR .gAPI                  : GR
DTC .us/ft                : DTC
RDEP .ohm.m               : RDEP
SP .mV                    : SP
RSHA .ohm.m               : RSHA
RMED .ohm.m               : RMED
~Parameter
#==================================================================
~Ascii
# ...
 1439.0604248  -999.250000 12.179660797  -999.250000  -999.250000 1.9404909611 77.349136353 153.40280151 0.7901337743 161.83326721 1.1555149555 0.7333825827
 1439.2127686  -999.250000 12.171899796  -999.250000  -999.250000 1.9300819635 72.690826416 153.89990234 0.7064701915 162.16625977 1.1942249537 0.6413893104
 1439.3652344  -999.250000 12.171990395  -999.250000  -999.250000 1.9308069944 73.265007019 153.89939880 0.6679803729 162.87469482 1.1813009977 0.7419471145
 1439.5175781  -999.250000 12.187589645  -999.250000  -999.250000 1.9343919754 76.027648926 153.79829407 0.7014579773 163.70812988 1.1271530390 0.6959595084
 1439.6700439  -999.250000 12.202930450  -999.250000  -999.250000 1.9472429752 80.745613098 153.49859619 0.7978286743 164.08332825 1.1533210278 0.6893392205
 1439.8223877  -999.250000 12.171899796  -999.250000  -999.250000 1.9475350380 79.910499573 153.19430542 0.8214579225 164.58326721 1.1573899984 0.7515370846
 1439.9748535  -999.250000 12.171899796  -999.250000  -999.250000 1.9472290277 75.248458862 152.19390869 0.7968763113 165.00000000 1.1899420023 0.6389914751
 1440.1271973  -999.250000 12.171899796  -999.250000  -999.250000 1.9556779861 74.994323730 151.08999634 0.7766833901 165.62489319 1.1160769463 0.7201521993
 1440.2796631  -999.250000 12.171899796  -999.250000  -999.250000 1.9686449766 74.026130676 149.30299377 0.7392007709 166.00000000 1.0947060585 0.8170896769
 1440.4320068  -999.250000 12.171939850  -999.250000  -999.250000 1.9743520021 78.289268494 149.80599976 0.7724301219 165.95857239 1.0957289934 0.7668439746
 1440.5844727  -999.250000 12.179699898  -999.250000  -999.250000 1.9560199976 74.209243774 150.90660095 0.8136441708 165.16667175 1.1022360325 0.8275160789
 1440.7368164  -999.250000 12.179699898  -999.250000  -999.250000 1.9536670446 77.788482666 152.00830078 0.9043748975 164.58346558 1.3773659468 0.7644599080
 1440.8891602  -999.250000 12.179750443  -999.250000  -999.250000 1.9334590435 73.516326904 153.59330750 0.8457744718 164.33312988 1.1073529720 0.7747744918
 1441.0416260  -999.250000 12.187589645  -999.250000  -999.250000 1.9462620020 76.240699768 152.50109863 0.6935796738 164.41673279 1.0992540121 0.7040454745
 1441.1939697  -999.250000 12.202730179  -999.250000  -999.250000 1.9425580502 74.562866211 152.59228516 0.6720246077 164.29156494 1.0371520519 0.6764361858
 1441.3464355  -999.250000 12.140469551  -999.250000  -999.250000 1.9530580044 74.631813049 151.29698181 0.6935291886 164.29173279 1.0460809469 0.7165511250
 1441.4987793  -999.250000 12.116969109  -999.250000  -999.250000 1.9613059759 75.861938477 150.60479736 0.7726327777 164.04187012 1.0789970160 0.7079057097
 1441.6512451  -999.250000 12.077599525  -999.250000  -999.250000 1.9506779909 73.649566650 151.39729309 0.8296524882 163.99989319 1.0610090494 0.7601773739
 1441.8035889  -999.250000 11.985481262  -999.250000  -999.250000 1.9631539583 78.177436829 151.00920105 0.7835751176 164.08374023 0.9701545835 0.7011197209
 1441.9560547  -999.250000 12.171939850  -999.250000  -999.250000 1.9453639984 76.440818787 152.59948730 0.6936500072 163.41667175 0.8773081899 0.7566934824
 1442.1083984  -999.250000 12.179830551  -999.250000  -999.250000 1.9474899769 77.039726257 152.50459290 0.6844490767 162.58346558 1.0296100378 0.7552446723
 1442.2608643  -999.250000 12.203289986  -999.250000  -999.250000 1.9349440336 73.058723450 153.30119324 0.7110958099 162.29167175 1.0841599703 0.7110090256
 1442.4132080  -999.250000 12.234489441  -999.250000  -999.250000 1.9327869415 72.436790466 153.49989319 0.8100491166 162.49989319 1.1109460592 0.7452464104
 1442.5656738  -999.250000 12.249911308  -999.250000  -999.250000 1.9329609871 72.306900024 153.50419617 0.8006958961 162.83332825 1.2074279785 0.7006819248
 1442.7180176  -999.250000 12.234619141  -999.250000  -999.250000 1.9270908833 71.394493103 154.20021057 0.7339001894 163.33306885 1.1132179499 0.7142410278
 1442.8704834  -999.250000 12.273399353  -999.250000  -999.250000 1.9289219379 74.886512756 154.30470276 0.6629884243 164.29167175 1.0976790190 0.7037460208
 1443.0228271  -999.250000 12.273010254  -999.250000  -999.250000 1.9243680239 76.828643799 155.09629822 0.6780185103 164.99989319 0.9460731149 0.7112048864
 1443.1751709  -999.250000 12.203100204  -999.250000  -999.250000 1.9349579811 79.716979980 154.50010681 0.7180342078 165.16687012 1.0865490437 0.6584200263
 1443.3276367  -999.250000 12.203100204  -999.250000  -999.250000 1.9263629913 74.123970032 154.50000000 0.7921224833 164.75019836 1.0277550220 0.7128745914
 1443.4799805  -999.250000 12.203148842  -999.250000  -999.250000 1.9258329868 73.919723511 154.49420166 0.7775924802 164.04216003 1.1109410524 0.6898223758
 1443.6324463  -999.250000 12.211071014  -999.250000  -999.250000 1.9319900274 70.882736206 153.49899292 0.7081130147 163.62500000 1.0498319864 0.6596534848
 1443.7847900  -999.250000 12.242199898  -999.250000  -999.250000 1.9351710081 72.323646545 153.19721985 0.6553521752 163.87440491 1.0558060408 0.6880943179
 1443.9372559  -999.250000 12.242199898  -999.250000  -999.250000 1.9409899712 74.266937256 152.70050049 0.6822471023 164.79167175 1.0739500523 0.6871023178
 1444.0895996  -999.250000 12.242420197  -999.250000  -999.250000 1.9455790520 77.439613342 152.80220032 0.7853273749 165.91642761 1.0276319981 0.6878898144
 1444.2420654  -999.250000 12.281021118  -999.250000  -999.250000 1.9424760342 77.782623291 153.20179749 0.8073387146 166.41667175 1.0856159925 0.7560536265
 1444.3944092  -999.250000 12.234399796  -999.250000  -999.250000 1.9332120419 72.868690491 153.50270081 0.7480561733 165.70877075 1.0396829844 0.6676068902
 1444.5468750  -999.250000 12.234450340  -999.250000  -999.250000 1.9281810522 71.766113281 154.00059509 0.6701810956 164.33332825 1.1430159807 0.7221161723
 1444.6992188  -999.250000 12.242199898  -999.250000  -999.250000 1.9299060106 74.451393127 154.10600281 0.6840268970 163.79162598 1.0468349457 0.7079514265
 1444.8516846  -999.250000 12.242199898  -999.250000  -999.250000 1.9234420061 76.923423767 155.19749451 0.7609648705 163.75000000 1.0348390341 0.6462445259
 1445.0040283  -999.250000 12.242199898  -999.250000  -999.250000 1.9241080284 74.555282593 154.80079651 0.7717040777 163.41673279 0.9747822285 0.7044036984
 1445.1563721  -999.250000 12.242158890  -999.250000  -999.250000 1.9221440554 73.244873047 154.89469910 0.7359132171 163.37469482 1.0080389977 0.6869794726
 1445.3088379  -999.250000 12.234660149  -999.250000  -999.250000 1.9286509752 72.379409790 154.00000000 0.6540771127 163.70826721 1.0487259626 0.6835625172
 1445.4611816  -999.250000 12.281620026  -999.250000  -999.250000 1.9298599958 73.183532715 153.89601135 0.6317542195 164.08283997 1.0351539850 0.6950623989
 1445.6136475  -999.250000 12.335439682  -999.250000  -999.250000 1.9352740049 72.519798279 153.19450378 0.6586986780 164.25019836 1.0265669823 0.7056251168
 1445.7659912  -999.250000 12.249911308  -999.250000  -999.250000 1.9486869574 76.185348511 152.10319519 0.7516571879 163.66687012 0.8918272257 0.6731665730
 1445.9184570  -999.250000 12.234439850  -999.250000  -999.250000 1.9437279701 75.808837891 152.60321045 0.7615106106 163.45832825 0.9322106838 0.6502044797
 1446.0708008  -999.250000 12.242158890  -999.250000  -999.250000 1.9378190041 75.085273743 153.19979858 0.7443854213 163.25010681 1.1230670214 0.6698979139
 1446.2232666  -999.250000 12.234399796  -999.250000  -999.250000 1.9333029985 68.125770569 153.20060730 0.6721345782 162.87500000 1.1347110271 0.6870061159
 1446.3756104  -999.250000 12.234399796  -999.250000  -999.250000 1.9325369596 68.261596680 153.29600525 0.6452189088 162.58337402 1.1201000214 0.6715714931
 1446.5280762  -999.250000 12.234399796  -999.250000  -999.250000 1.9380389452 70.341651917 152.60119629 0.6846215725 162.58332825 1.1203789711 0.6667377949
 1446.6804199  -999.250000 12.234439850  -999.250000  -999.250000 1.9416129589 75.192703247 152.79769897 0.7723348141 162.91653442 1.1669290066 0.7064138055
