# LAS format log file from PETREL
# Project units are specified as depth units
#==================================================================
~Version information
VERS.   2.0:
WRAP.   NO:
#==================================================================
~Well
STRT .m      821.52105713 :
STOP .m      2574.1203613 :
STEP .m     0.00000000 :
NULL .        -999.250000 :
COMP.           : COMPANY
WELL.  31/4-8   : WELL
FLD.            : FIELD
LOC.            : LOCATION
SRVC.           : SERVICE COMPANY
DATE.  2018-09-11 14:48:38   : Log Export Date {yyyy-MM-dd HH:mm:ss}
PROV.           : PROVINCE
UWI.   31/4-8   : UNIQUE WELL ID
API.            : API NUMBER
#==================================================================
~Curve
DEPT .m                   : DEPTH
Lithology_geolink ._      : Lithology_geolink
CALI .in                  : CALI
DRHO .g/cm3               : DRHO
NPHI .m3/m3               : NPHI
RHOB .g/cm3               : RHOB
GR .gAPI                  : GR
DTC .us/ft                : DTC
DTE .us/ft                : DTE
RDEP .ohm.m               : RDEP
SP .mV                    : SP
RSHA .ohm.m               : RSHA
RMED .ohm.m               : RMED
~Parameter
#==================================================================
~Ascii
# ...
 2569.8530273  -999.250000 11.963998795 0.0249278843 0.2211925983 2.4817693233 0.0000000000  -999.250000  -999.250000 1.0369999409 95.098999023  -999.250000 1.0620000362
 2570.0056152  -999.250000 11.946000099 0.0369615406 0.2245991081 2.4790096283 0.0000000000  -999.250000  -999.250000 1.0000000000 95.890998840  -999.250000 1.0000000000
 2570.1579590  -999.250000 11.940000534 0.0409871824 0.2269823700 2.4341442585 0.0000000000  -999.250000  -999.250000 1.0000000000 94.900001526  -999.250000 1.0000000000
 2570.3103027  -999.250000 11.946000099 0.0350192301 0.2267208695 2.3871507645 0.0000000000  -999.250000  -999.250000 1.0000000000 95.012001038  -999.250000 1.0000000000
 2570.4626465  -999.250000 11.960000038 0.0260432009 0.2240031064 2.3750576973 0.0000000000  -999.250000  -999.250000 1.0000000000 95.930000305  -999.250000 1.0000000000
 2570.6152344  -999.250000 11.975000381 0.0200192295 0.2213385105 2.4088909626 0.0000000000  -999.250000  -999.250000 1.0000000000 95.330001831  -999.250000 1.0000000000
 2570.7675781  -999.250000 11.975000381 0.0209967941 0.2084514052 2.4688076973 0.0000000000  -999.250000  -999.250000 1.0000000000 95.660003662  -999.250000 1.0000000000
 2570.9199219  -999.250000 11.958000183 0.0249871798 0.1722363234 2.5128588676 0.0000000000  -999.250000  -999.250000 1.0000000000 96.139999390  -999.250000 1.0000000000
 2571.0722656  -999.250000 11.927000046 0.0299759991 0.1394276917 2.5100142956 0.0000000000  -999.250000  -999.250000 1.0000000000 95.650001526  -999.250000 1.0000000000
 2571.2246094  -999.250000 11.878000259 0.0349759609 0.1549542248 2.4642212391 0.0000000000  -999.250000  -999.250000 1.0000000000 96.029998779  -999.250000 1.0000000000
 2571.3771973  -999.250000 11.810001373 0.0419775620 0.2331787199 2.4021985531 0.0000000000  -999.250000  -999.250000 1.0000000000 88.997001648  -999.250000 1.0000000000
 2571.5295410  -999.250000 11.743000031 0.0489775613 0.3461774588 2.3491697311 0.0000000000  -999.250000  -999.250000 1.0000000000 30.000000000  -999.250000 1.0000000000
 2571.6818848  -999.250000 11.689000130 0.0519856028 0.3716289997 2.3121776581 0.0000000000  -999.250000  -999.250000 1.0000000000 30.000000000  -999.250000 1.0000000000
 2571.8342285  -999.250000 11.637000084 0.0539903864 0.3006136417 2.2881155014 0.0000000000  -999.250000  -999.250000 1.0000000000 30.000000000  -999.250000 1.0000000000
 2571.9868164  -999.250000 11.567000389 0.0549967960 0.0549288802 2.2730481625 0.0000000000  -999.250000  -999.250000 1.0000000000 30.000000000  -999.250000 1.0000000000
 2572.1391602  -999.250000 11.486000061 0.0559967980 -0.046307024 2.2630319595 0.0000000000  -999.250000  -999.250000 1.0000000000 30.000000000  -999.250000 1.0000000000
 2572.2915039  -999.250000 11.420000076 0.0569952019 -0.046530478 2.2570288181 0.0000000000  -999.250000  -999.250000 1.0000000000 30.000000000  -999.250000 1.0000000000
 2572.4438477  -999.250000 11.375000000 0.0579951890 -0.046500146 2.2540142536 0.0000000000  -999.250000  -999.250000 1.0000000000 30.000000000  -999.250000 1.0000000000
 2572.5964355  -999.250000 11.347999573 0.0579999983 -0.046500001 2.2530031204 0.0000000000  -999.250000  -999.250000 1.0000000000 30.000000000  -999.250000 1.0000000000
 2572.7487793  -999.250000 11.331000328 0.0589967966 -0.046430226 2.2530000210 0.0000000000  -999.250000  -999.250000 1.0000000000 30.000000000  -999.250000 1.0000000000
 2572.9011230  -999.250000 11.317000389 0.0590000004 -0.046400096 2.2539968491 0.0000000000  -999.250000  -999.250000 1.0000000000 30.000000000  -999.250000 1.0000000000
 2573.0534668  -999.250000 11.307000160 0.0599952005 -0.046399999 2.2559905052 0.0000000000  -999.250000  -999.250000 1.0000000000 30.000000000  -999.250000 1.0000000000
 2573.2058105  -999.250000 11.298000336 0.0609951913 -0.046399999 2.2579903603 0.0000000000  -999.250000  -999.250000 1.0000000000 30.000000000  -999.250000 1.0000000000
 2573.3583984  -999.250000 11.286000252 0.0610000007 -0.046330221 2.2579998970 0.0000000000  -999.250000  -999.250000 1.0000000000 30.000000000  -999.250000 1.0000000000
 2573.5107422  -999.250000 11.271999359 0.0610000007 -0.046300098 2.2560064793 0.0000000000  -999.250000  -999.250000 1.0000000000 30.000000000  -999.250000 1.0000000000
 2573.6630859  -999.250000 11.262999535 0.0550287999 -0.046300001 2.2490336895 0.0000000000  -999.250000  -999.250000 1.0000000000 30.000000000  -999.250000 1.0000000000
 2573.8154297  -999.250000 11.255999565 0.0231538471 -0.046300001 2.2191443443 0.0000000000  -999.250000  -999.250000 1.0000000000 30.000000000  -999.250000 1.0000000000
 2573.9680176  -999.250000 10.712999344 -0.041791666 -0.046300001 2.1691601276 0.0000000000  -999.250000  -999.250000 1.0000000000 29.681999207  -999.250000 1.0000000000
 2574.1203613  -999.250000 8.3430004120 -0.100810900 -0.008780641 2.1530513763 0.0000000000  -999.250000  -999.250000  -999.250000 -72.14299774  -999.250000  -999.250000
