# LAS format log file from PETREL
# Project units are specified as depth units
#==================================================================
~Version information
VERS.   2.0:
WRAP.   NO:
#==================================================================
~Well
STRT .m      895.02691650 :
STOP .m      2933.5300293 :
STEP .m     0.00000000 :
NULL .        -999.250000 :
COMP.           : COMPANY
WELL.  31/4-5   : WELL
FLD.            : FIELD
LOC.            : LOCATION
SRVC.           : SERVICE COMPANY
DATE.  2018-09-11 14:48:38   : Log Export Date {yyyy-MM-dd HH:mm:ss}
PROV.           : PROVINCE
UWI.   31/4-5   : UNIQUE WELL ID
API.            : API NUMBER
#==================================================================
~Curve
DEPT .m                   : DEPTH
Lithology_geolink ._      : Lithology_geolink
CALI .in                  : CALI
DRHO .g/cm3               : DRHO
SGR .gAPI                 : SGR
NPHI .m3/m3               : NPHI
RHOB .g/cm3               : RHOB
PEF .b/e                  : PEF
GR .gAPI                  : GR
DTC .us/ft                : DTC
DTE .us/ft                : DTE
RDEP .ohm.m               : RDEP
SP .mV                    : SP
RSHA .ohm.m               : RSHA
RMIC .ohm.m               : RMIC
RMED .ohm.m               : RMED
~Parameter
#==================================================================
~Ascii
# ...
 2113.4653320 5.0000000000 12.140000343 0.0320000015 80.125862122 0.3406600058 2.3498558998 5.9233846664 85.416999817 96.903587341 94.411605835 6.0520048141 109.85267639 4.0277290344 2.9892947674 3.5670287609
 2113.6179199 5.0000000000 12.144000053 0.0289999992 75.501152039 0.3306216002 2.4248471260 5.7514457703 78.426002502 92.354866028 89.790885925 7.6008353233 109.89846039 6.3273282051 48.003097534 3.5875248909
 2113.7702637 5.0000000000 12.147000313 0.0209999997 69.122856140 0.2754043937 2.4860506058 5.6469073296 70.533996582 83.745971680 81.138710022 10.022139549 110.67820740 12.986107826 233.97175598 4.3794407845
 2113.9226074 5.0000000000 12.178999901 0.0109999999 61.412227631 0.1845726818 2.5181846619 5.6883077621 66.780998230 74.155372620 71.522338867 14.182064056 111.09504700 120.36450195 216.31991577 7.7924375534
 2114.0749512 16.000000000 12.208999634 0.0049999999 56.901599884 0.1113699973 2.5260279179 6.0231924057 61.036998749 64.711105347 62.004474640 19.208843231 109.85283661 257.04559326 181.98898315 22.722732544
 2114.2272949 16.000000000 12.211000443 0.0040000002 55.997615814 0.0931000039 2.5120885372 5.8280382156 51.921001434 61.601966858 58.927749634 21.843496323 109.26077271 308.69873047 175.09616089 227.74322510
 2114.3798828 16.000000000 12.211000443 0.0040000002 57.374206543 0.0964493081 2.4681582451 5.2785072327 49.577999115 60.493556976 57.892333984 18.343885422 110.09691620 157.42221069 156.82339478 363.78802490
 2114.5322266 5.0000000000 12.210000038 0.0070000002 58.476177216 0.1085156128 2.3949432373 4.9243845940 55.110000610 61.947486877 59.609279633 12.233336449 108.79901123 57.526969910 62.785358429 199.09072876
 2114.6845703 5.0000000000 12.196999550 0.0099999998 63.507942200 0.1307400018 2.3142826557 4.5826926231 62.270999908 67.467559814 64.983650208 8.2299165726 108.43498230 15.597509384 6.9310755730 57.438438416
 2114.8369141 5.0000000000 12.154000282 0.0140000004 69.123718262 0.1798500121 2.2552840710 4.5049614906 69.739997864 76.465248108 73.842132568 6.1220784187 108.74688721 4.4683599472 2.6165995598 15.955847740
 2114.9895020 5.0000000000 12.126999855 0.0179999992 77.164634705 0.2502928078 2.2343006134 4.4725708961 71.404998779 85.817649841 83.115470886 5.1640992165 109.46532440 3.1700816154 2.3683569431 6.5072956085
 2115.1418457 5.0000000000 12.124000549 0.0199999996 79.993827820 0.3081668615 2.2436945438 4.6344232559 76.026000977 93.714721680 91.115997314 4.5981202126 110.03968811 3.3780736923 2.7914919853 3.7948911190
 2115.2941895 6.0000000000 12.118000031 0.0179999992 81.414093018 0.3436091542 2.2640728951 5.0469999313 77.697998047 99.676513672 97.150817871 4.2066364288 110.53435516 3.8128876686 3.0987884998 3.1041572094
 2115.4465332 6.0000000000 12.124000549 0.0160000008 82.676696777 0.3555499911 2.2811918259 5.2085771561 78.727996826 100.70217896 98.109397888 3.9652049541 111.06973267 4.3075065613 3.5903379917 3.2026937008
 2115.5991211 6.0000000000 12.124000549 0.0120000001 82.822166443 0.3625107110 2.2924659252 5.2850356102 83.388999939 99.658638000 97.116447449 3.8489134312 111.11550140 4.7696223259 3.8010320663 3.6366672516
 2115.7514648 6.0000000000 12.118000031 0.0120000001 83.158760071 0.3691877425 2.3013355732 5.0788784027 85.072998047 98.184661865 95.800483704 3.7522306442 110.80828857 5.0216779709 3.8114280701 4.1568160057
 2115.9038086 6.0000000000 12.118000031 0.0189999994 83.319374084 0.3740225434 2.3036255836 4.6290383339 86.563003540 97.812606812 95.298828125 3.6350386143 110.94376373 4.6630063057 4.0774455070 4.6656808853
 2116.0561523 6.0000000000 12.125000000 0.0320000015 83.805191040 0.3756099939 2.2909481525 4.1909613609 85.197998047 97.988037109 95.292098999 3.4964952469 112.06288147 3.9444422722 3.7304391861 5.0899472237
 2116.2084961 6.0000000000 12.131999969 0.0439999998 82.802093506 0.3656000197 2.2613766193 3.8676538467 86.949996948 98.294410706 95.754409790 3.3442335129 112.19013214 3.1145744324 2.7569422722 5.0557165146
 2116.3610840 6.0000000000 12.126000404 0.0410000011 81.164764404 0.3577309251 2.2269210815 3.7780270576 86.265998840 99.214210510 96.668617249 3.1935482025 111.90245056 2.5752596855 2.0977120399 4.2528929710
 2116.5134277 6.0000000000 12.125000000 0.0329999998 81.531044006 0.3458341658 2.2018806934 3.7798459530 84.697998047 101.05001068 98.397933960 3.0691554546 112.26865387 2.3545255661 2.0079791546 3.2839601040
 2116.6657715 6.0000000000 12.125000000 0.0219999999 81.950622559 0.3484299779 2.1959319115 3.8499999046 85.594001770 103.16844940 100.52781677 2.9764118195 113.90061951 2.2959134579 1.9949871302 2.6355206966
 2116.8181152 6.0000000000 12.126000404 0.0280000009 81.039779663 0.3476999998 2.2084321976 4.0182309151 88.319000244 104.91384888 102.31077576 2.9272096157 113.54224396 2.3377249241 1.9872579575 2.3368813992
 2116.9707031 6.0000000000 12.131999969 0.0359999985 80.168136597 0.3605746329 2.2286524773 4.1531395912 87.647003174 104.98074341 102.63547516 2.9449582100 112.49115753 2.4393653870 2.1482079029 2.2631311417
 2117.1230469 6.0000000000 12.133000374 0.0410000011 80.820968628 0.3634884655 2.2473125458 4.2989230156 84.984001160 104.94290161 102.40859985 3.0080449581 114.53330231 2.6091763973 2.2133655548 2.3041424751
 2117.2753906 6.0000000000 12.133000374 0.0370000005 81.437957764 0.3687759936 2.2622311115 4.4991149902 83.431999207 104.07968903 101.55848694 3.0769279003 115.16714478 2.8154325485 2.4416553974 2.3932242393
 2117.4277344 5.0000000000 12.133000374 0.0350000001 81.843734741 0.3725199997 2.2749998569 4.7379612923 85.199996948 102.57491302 99.913414001 3.1423959732 113.16457367 2.9698028564 2.8503284454 2.5333316326
 2117.5803223 5.0000000000 12.137000084 0.0370000005 81.784095764 0.3769039810 2.2828893661 4.6481328011 79.825996399 100.77912903 98.154624939 3.2038750648 111.66938019 2.9711024761 3.0548753738 2.7407455444
 2117.7326660 5.0000000000 12.140000343 0.0410000011 81.022079468 0.3793842494 2.2847571373 4.3357071877 76.962997437 99.554222107 96.955497742 3.2127661705 110.82727051 2.8338990211 3.0156826973 2.9730770588
 2117.8850098 5.0000000000 12.141000748 0.0410000011 81.029899597 0.3758068979 2.2848999500 4.1519231796 79.155998230 99.444633484 96.840942383 3.1812114716 109.00144196 2.7144534588 2.8180258274 3.0207691193
 2118.0373535 5.0000000000 12.145000458 0.0399999991 79.358009338 0.3738600016 2.2855720520 4.0772695541 88.083000183 99.657623291 97.172225952 3.1231362820 109.33589172 2.6312420368 2.8341474533 2.8767662048
 2118.1896973 6.0000000000 12.147998810 0.0379999988 80.382408142 0.3665000200 2.2863717079 4.2849617004 91.334999084 100.56166077 98.062530518 3.0472352505 113.92160034 2.5788016319 2.9257869720 2.7308604717
 2118.3422852 5.0000000000 12.147998810 0.0430000015 77.566040039 0.3603883982 2.2847330570 4.3988256454 88.696998596 101.40090179 98.867034912 2.9788382053 114.69516754 2.5164871216 2.7927374840 2.6438560486
 2118.4946289 5.0000000000 12.147998810 0.0450000018 78.196266174 0.3593868315 2.2781739235 4.7213845253 83.911003113 101.99309540 99.391563416 2.9383285046 111.84297180 2.4727964401 2.7110784054 2.5988974571
 2118.6469727 5.0000000000 12.147998810 0.0370000005 78.463569641 0.3636500239 2.2696080208 4.8690385818 82.583000183 102.48147583 99.783340454 2.9101586342 111.63993073 2.4759471416 2.7603909969 2.5349023342
 2118.7993164 5.0000000000 12.149000168 0.0219999999 79.416900635 0.3812299967 2.2658486366 5.0386924744 81.985000610 102.75807953 100.04260254 2.8876047134 113.90631866 2.5351855755 3.0038652420 2.4739599228
 2118.9519043 5.0000000000 12.161001205 0.0160000008 81.054367065 0.3881915510 2.2721307278 5.0377645493 82.166000366 102.79630280 100.15926361 2.8805849552 114.02771759 2.6242370605 2.9214305878 2.4491727352
 2119.1042480 5.0000000000 12.178999901 0.0199999996 80.927185059 0.3891319633 2.2840850353 4.9456539154 80.697998047 102.39497375 99.740303040 2.8861811161 114.09776306 2.6606073380 3.3664023876 2.5031714439
 2119.2565918 6.0000000000 12.190999985 0.0230000000 81.570693970 0.3716285527 2.2962801456 5.3134999275 80.963996887 102.05553436 99.679534912 2.8887660503 114.89652252 2.6904904842 2.9944758415 2.6101057529
