# LAS format log file from PETREL
# Project units are specified as depth units
#==================================================================
~Version information
VERS.   2.0:
WRAP.   NO:
#==================================================================
~Well
STRT .m      821.52105713 :
STOP .m      2574.1203613 :
STEP .m     0.00000000 :
NULL .        -999.250000 :
COMP.           : COMPANY
WELL.  31/4-8   : WELL
FLD.            : FIELD
LOC.            : LOCATION
SRVC.           : SERVICE COMPANY
DATE.  2018-09-11 14:48:38   : Log Export Date {yyyy-MM-dd HH:mm:ss}
PROV.           : PROVINCE
UWI.   31/4-8   : UNIQUE WELL ID
API.            : API NUMBER
#==================================================================
~Curve
DEPT .m                   : DEPTH
Lithology_geolink ._      : Lithology_geolink
CALI .in                  : CALI
DRHO .g/cm3               : DRHO
NPHI .m3/m3               : NPHI
RHOB .g/cm3               : RHOB
GR .gAPI                  : GR
DTC .us/ft                : DTC
DTE .us/ft                : DTE
RDEP .ohm.m               : RDEP
SP .mV                    : SP
RSHA .ohm.m               : RSHA
RMED .ohm.m               : RMED
~Parameter
#==================================================================
~Ascii
# ...
 1743.2359619  -999.250000 17.854999542 0.0470056087  -999.250000 2.0659894943 62.677703857 146.65689087 142.65969849 0.7340072393 33.690231323  -999.250000 0.4530024230
 1743.3883057  -999.250000 17.798999786 0.0479983985  -999.250000 2.0839712620 64.414817810 146.09281921 142.15916443 0.7430095673 32.730239868  -999.250000 0.4560039937
 1743.5407715  -999.250000 17.850000381 0.0549943894  -999.250000 2.1069817543 65.538208008 145.32591248 141.36112976 0.7550112009 33.030303955  -999.250000 0.4610039890
 1743.6931152  -999.250000 17.941999435 0.0649919882  -999.250000 2.1389741898 65.839279175 143.23056030 139.21980286 0.7690111995 33.409778595  -999.250000 0.4660055935
 1743.8455811  -999.250000 18.010000229 0.0749919936  -999.250000 2.1769695282 65.162094116 139.84594727 135.94354248 0.7830095887 34.379753113  -999.250000 0.4730047882
 1743.9979248  -999.250000 18.041000366 0.0789967999  -999.250000 2.1949856281 63.774337769 136.91766357 132.99613953 0.7950040102 34.070060730  -999.250000 0.4790024161
 1744.1503906  -999.250000 18.080999374 0.0690080076  -999.250000 2.1690206528 62.561943054 135.40661621 131.43501282 0.7999984026 32.900161743  -999.250000 0.4820031822
 1744.3027344  -999.250000 18.180000305 0.0520136245  -999.250000 2.1150431633 62.379436493 135.95892334 131.90780640 0.7989960313 32.999668121  -999.250000 0.4839991927
 1744.4552002  -999.250000 18.326999664 0.0390104093  -999.250000 2.0720343590 64.254989624 138.38903809 134.43412781 0.7939872146 33.828674316  -999.250000 0.4829936028
 1744.6075439  -999.250000 18.447000504 0.0350032039  -999.250000 2.0670039654 66.754997253 142.11984253 138.15232849 0.7859944105 32.999771118  -999.250000 0.4789975882
 1744.7600098  -999.250000 18.478000641 0.0359991975  -999.250000 2.0989744663 68.068901062 145.76557922 141.71052551 0.7789951563 31.471559525  -999.250000 0.4759936035
 1744.9123535  -999.250000 18.415000916 0.0419951901  -999.250000 2.1459622383 66.545448303 148.22566223 144.30821228 0.7760000229 33.689495087  -999.250000 0.4719991982
 1745.0646973  -999.250000 18.288999557 0.0479903929  -999.250000 2.1819422245 63.012500763 149.32308960 145.38887024 0.7760016322 31.810089111  -999.250000 0.4709999859
 1745.2171631  -999.250000 18.134000778 0.0529959947  -999.250000 2.1879951954 60.334285736 148.74926758 144.74356079 0.7780032158 31.920127869  -999.250000 0.4710032046
 1745.3695068  -999.250000 17.988000870 0.0549967960  -999.250000 2.1690304279 60.886661530 147.21533203 143.15750122 0.7820023894 32.079952240  -999.250000 0.4750024080
 1745.5219727  -999.250000 17.895999908 0.0579975955  -999.250000 2.1390240192 63.684509277 144.92878723 140.99519348 0.7850016356 32.019733429  -999.250000 0.4780015945
 1745.6743164  -999.250000 17.867000580 0.0629919916  -999.250000 2.1090478897 65.474693298 142.89100647 138.97126770 0.7870000005 32.929740906  -999.250000 0.4799999893
 1745.8267822  -999.250000 17.882999420 0.0679959953  -999.250000 2.0840201378 66.218811035 142.57118225 138.57373047 0.7869967818 31.359840393  -999.250000 0.4799975753
 1745.9791260  -999.250000 17.941999435 0.0689991936  -999.250000 2.0620176792 66.240943909 144.53117371 140.58224487 0.7829920053 31.160171509  -999.250000 0.4769967794
 1746.1315918  -999.250000 18.045000076 0.0640040040  -999.250000 2.0430152416 64.603622437 147.12306213 143.18147278 0.7729775906 32.620460510  -999.250000 0.4729887843
 1746.2839355  -999.250000 18.170000076 0.0560064130  -999.250000 2.0300104618 62.794349670 148.16082764 144.08775330 0.7589871883 32.909881592  -999.250000 0.4659951925
 1746.4364014  -999.250000 18.288000107 0.0450088084  -999.250000 2.0270023346 62.908809662 148.11213684 144.14208984 0.7429759502 34.010345459  -999.250000 0.4599888027
 1746.5887451  -999.250000 18.388999939 0.0330096148  -999.250000 2.0319960117 64.855316162 148.49479675 144.55490112 0.7279895544 34.850055695  -999.250000 0.4529952109
 1746.7412109  -999.250000 18.469999313 0.0270048045  -999.250000 2.0399935246 65.230407715 148.26815796 144.35134888 0.7149871588 33.671417236  -999.250000 0.4469919801
 1746.8935547  -999.250000 18.517000198 0.0279991999  -999.250000 2.0509912968 63.632568359 146.94152832 142.95466614 0.7069967985 35.179782867  -999.250000 0.4419960082
 1747.0458984  -999.250000 18.524000168 0.0369855873  -999.250000 2.0799534321 63.140178680 146.06355286 142.15867615 0.7029976249 34.910419464  -999.250000 0.4369975924
 1747.1983643  -999.250000 18.503999710 0.0619799681  -999.250000 2.1389527321 64.476852417 147.19949341 143.28977966 0.6999999881 34.189132690  -999.250000 0.4339999855
 1747.3507080  -999.250000 18.493999481 0.0979423523  -999.250000 2.2088880539 64.999748230 149.15704346 145.16725159 0.7000015974 34.350639343  -999.250000 0.4339999855
 1747.5031738  -999.250000 18.531999588 0.1219807714  -999.250000 2.2349791527 62.925331116 150.18621826 146.19039917 0.7020007968 28.910181046  -999.250000 0.4340007901
 1747.6555176  -999.250000 18.628999710 0.1140128076  -999.250000 2.1890735626 60.297321320 150.05186462 146.13946533 0.7029983997 32.879684448  -999.250000 0.4350024164
 1747.8079834  -999.250000 18.740999222 0.0820256397  -999.250000 2.1090641022 59.480300903 150.10961914 146.16989136 0.7009992003 34.979976654  -999.250000 0.4380016029
 1747.9603271  -999.250000 18.801000595 0.0540224388  -999.250000 2.0590400696 61.472202301 149.35380554 145.30905151 0.6999967694 31.210086823  -999.250000 0.4400016069
 1748.1127930  -999.250000 18.777000427 0.0460064039  -999.250000 2.0570015907 65.290878296 146.92657471 142.96755981 0.6959919930 31.320302963  -999.250000 0.4419983923
 1748.2651367  -999.250000 18.674999237 0.0460000001  -999.250000 2.0739862919 69.010055542 145.56817627 141.57736206 0.6909951568 31.510023117  -999.250000 0.4409984052
 1748.4176025  -999.250000 18.513000488 0.0440016016  -999.250000 2.0819935799 69.969474792 144.11604309 140.05738831 0.6849904060 31.539409637  -999.250000 0.4389968216
 1748.5699463  -999.250000 18.334999084 0.0420016013  -999.250000 2.0879952908 68.535453796 141.06002808 137.14921570 0.6789951921 31.170307159  -999.250000 0.4369967878
 1748.7224121  -999.250000 18.207000732 0.0489943959  -999.250000 2.1099822521 65.828338623 141.18185425 137.26210022 0.6729919910 32.800361633  -999.250000 0.4329952002
 1748.8747559  -999.250000 18.167999268 0.0599911846  -999.250000 2.1369783878 63.294063568 145.47923279 141.48130798 0.6679975986 33.649555206  -999.250000 0.4299960136
 1749.0270996  -999.250000 18.215000153 0.0609983988  -999.250000 2.1370000839 63.338882446 149.10954285 145.08345032 0.6650016308 33.090301514  -999.250000 0.4249968231
 1749.1795654  -999.250000 18.319999695 0.0440136231  -999.250000 2.1050257683 64.746742249 149.65702820 145.73452759 0.6670016050 32.219654083  -999.250000 0.4209983945
 1749.3319092  -999.250000 18.423999786 0.0200384296  -999.250000 2.0760464668 66.156616211 149.36766052 145.40507507 0.6690040231 33.030094147  -999.250000 0.4189983904
 1749.4843750  -999.250000 18.451999664 0.0080096154  -999.250000 2.0869910717 66.639228821 149.77407837 145.78265381 0.6740048528 30.650384903  -999.250000 0.4169991910
 1749.6367188  -999.250000 18.392000198 0.0169855896  -999.250000 2.1289327145 66.002532959 150.48904419 146.51069641 0.6800063848 31.130104065  -999.250000 0.4160016179
 1749.7891846  -999.250000 18.295999527 0.0349855758  -999.250000 2.1539800167 64.972648621 150.11875916 146.18458557 0.6880080104 31.260078430  -999.250000 0.4180024266
 1749.9415283  -999.250000 18.198999405 0.0459911861  -999.250000 2.1370136738 63.772884369 148.58398438 144.64566040 0.6980088353 30.109928131  -999.250000 0.4210031927
 1750.0939941  -999.250000 18.097000122 0.0469991975  -999.250000 2.0960328579 63.570320129 147.00517273 142.96989441 0.7090079784 31.270162582  -999.250000 0.4250040054
 1750.2463379  -999.250000 17.997999191 0.0440024026  -999.250000 2.0650248528 64.208465576 145.39505005 141.43255615 0.7190064192 32.720493317  -999.250000 0.4300048053
 1750.3988037  -999.250000 17.936000824 0.0439999998  -999.250000 2.0620024204 64.181045532 143.61128235 139.63652039 0.7270063758 32.090282440  -999.250000 0.4360080063
