# LAS format log file from PETREL
# Project units are specified as depth units
#==================================================================
~Version information
VERS.   2.0:
WRAP.   NO:
#==================================================================
~Well
STRT .m      898.43609619 :
STOP .m      2454.1354980 :
STEP .m     0.00000000 :
NULL .        -999.250000 :
COMP.           : COMPANY
WELL.  31/4-6   : WELL
FLD.            : FIELD
LOC.            : LOCATION
SRVC.           : SERVICE COMPANY
DATE.  2018-09-11 14:48:38   : Log Export Date {yyyy-MM-dd HH:mm:ss}
PROV.           : PROVINCE
UWI.   31/4-6   : UNIQUE WELL ID
API.            : API NUMBER
#==================================================================
~Curve
DEPT .m                   : DEPTH
Lithology_geolink ._      : Lithology_geolink
CALI .in                  : CALI
DRHO .g/cm3               : DRHO
NPHI .m3/m3               : NPHI
RHOB .g/cm3               : RHOB
GR .gAPI                  : GR
DTC .us/ft                : DTC
DTE .us/ft                : DTE
RDEP .ohm.m               : RDEP
SP .mV                    : SP
RSHA .ohm.m               : RSHA
RMED .ohm.m               : RMED
~Parameter
#==================================================================
~Ascii
# ...
 1827.4665527 19.000000000 17.891000748 -0.008033628  -999.250000 2.2414524555 23.391000748 126.16546631 121.71075439 0.8470000029 48.549999237  -999.250000 0.9810000062
 1827.6190186 19.000000000 18.062999725 0.0159615390  -999.250000 2.2573289871 24.422000885 126.18987274 121.62130737 0.8519999981 47.174999237  -999.250000 1.0039999485
 1827.7713623 19.000000000 17.672000885 0.0249783825  -999.250000 2.2434957027 28.625000000 128.97171021 124.36367798 0.8470000029 46.924999237  -999.250000 0.9449999928
 1827.9238281 19.000000000 17.718999863 0.0070288465  -999.250000 2.2204501629 31.733999252 132.64701843 128.20042419 0.8500000238 47.299999237  -999.250000 0.8719999790
 1828.0761719 19.000000000 17.983999252 -0.002975981  -999.250000 2.2055604458 31.218999863 134.01527405 129.44000244 0.8370000124 47.799999237  -999.250000 0.8600000143
 1828.2286377 19.000000000 18.406000137 -0.000004808  -999.250000 2.1928582191 29.625000000 135.83126831 131.30197144 0.8209999800 47.424999237  -999.250000 0.8379999995
 1828.3809814 19.000000000 17.858999252 -0.002995192  -999.250000 2.1784894466 33.625000000 138.17486572 133.66984558 0.8140000105 46.799999237  -999.250000 0.8159999847
 1828.5333252 19.000000000 17.952999115 -0.006990393  -999.250000 2.1671774387 34.094001770 138.29985046 133.75970459 0.8109999895 45.424999237  -999.250000 0.8140000105
 1828.6857910 19.000000000 18.062999725 -0.008996795  -999.250000 2.1655912399 34.530998230 137.62043762 133.16468811 0.8029999733 45.674999237  -999.250000 0.8270000219
 1828.8381348 19.000000000 17.875000000 -0.007004804  -999.250000 2.1699697971 33.594001770 136.67340088 132.11999512 0.8050000072 44.799999237  -999.250000 0.8619999886
 1828.9906006 19.000000000 17.937999725 -0.003006410  -999.250000 2.1761367321 34.625000000 133.81690979 129.33038330 0.8029999733 44.799999237  -999.250000 0.8830000162
 1829.1429443 19.000000000 17.843999863 -0.004995196  -999.250000 2.1809036732 34.187999725 129.08308411 124.50540161 0.8000000119 45.674999237  -999.250000 0.8880000114
 1829.2954102 19.000000000 17.812999725 -0.004001603  -999.250000 2.1868114471 31.608999252 126.34328461 121.71084595 0.7990000248 44.799999237  -999.250000 0.8820000291
 1829.4477539 19.000000000 17.827999115 -0.004997598  -999.250000 2.1924226284 30.577999115 125.84594727 121.39785004 0.8040000200 46.424999237  -999.250000 0.8590000272
 1829.6002197 19.000000000 17.812999725 -0.001006410  -999.250000 2.1935093403 27.000000000 127.82882690 123.39540100 0.8029999733 47.549999237  -999.250000 0.8370000124
 1829.7525635 19.000000000 17.797000885 -0.001000000  -999.250000 2.1868360043 26.468999863 131.91207886 127.34469604 0.8059999943 47.299999237  -999.250000 0.8190000057
 1829.9050293 19.000000000 17.858999252 -0.008987179  -999.250000 2.1803290844 26.437999725 133.58128357 129.12373352 0.8090000153 48.174999237  -999.250000 0.8100000024
 1830.0573730 19.000000000 17.891000748 -0.009000000  -999.250000 2.1816580296 28.422000885 132.41639709 127.92000580 0.8019999862 48.549999237  -999.250000 0.8230000138
 1830.2098389 19.000000000 17.906000137 -0.008001603  -999.250000 2.1830458641 29.922000885 131.23120117 126.73505402 0.7969999909 48.174999237  -999.250000 0.8659999967
 1830.3621826 19.000000000 17.922000885 -0.002009616  -999.250000 2.1818664074 27.375000000 131.72610474 127.25705719 0.7960000038 47.674999237  -999.250000 0.8849999905
 1830.5146484 19.000000000 18.031000137 0.0049887910  -999.250000 2.1849792004 26.343999863 132.94757080 128.39013672 0.7990000248 48.924999237  -999.250000 0.8539999723
 1830.6669922 19.000000000 17.843999863 0.0049999999  -999.250000 2.1975851059 27.968999863 133.42448425 128.82788086 0.8109999895 46.049999237  -999.250000 0.8159999847
 1830.8193359 19.000000000 18.202999115 0.0139783835  -999.250000 2.2098867893 32.562999725 133.73051453 129.13438416 0.8190000057 46.799999237  -999.250000 0.8180000186
 1830.9718018 19.000000000 18.031000137 0.0050144228  -999.250000 2.2089138031 34.687999725 133.37976074 128.90066528 0.8259999752 47.549999237  -999.250000 0.8309999704
 1831.1241455 19.000000000 17.983999252 0.0030048038  -999.250000 2.2001135349 30.108999252 132.84202576 128.23832703 0.8360000253 45.924999237  -999.250000 0.8379999995
 1831.2766113 19.000000000 17.968999863 -0.002990385  -999.250000 2.1903131008 26.547000885 131.80557251 127.45429230 0.8450000286 44.174999237  -999.250000 0.8560000062
 1831.4289551 19.000000000 17.983999252 -0.001004804  -999.250000 2.1873264313 23.937999725 131.41709900 126.86192322 0.8510000110 43.924999237  -999.250000 0.8870000243
 1831.5814209 19.000000000 17.843999863 0.0029935897  -999.250000 2.1846926212 25.437999725 131.66535950 127.06214142 0.8560000062 44.549999237  -999.250000 0.9039999843
 1831.7337646 19.000000000 17.702999115 0.0000072058  -999.250000 2.1783566475 27.437999725 132.75817871 128.26773071 0.8590000272 44.674999237  -999.250000 0.8909999728
 1831.8862305 19.000000000 17.858999252 0.0099839745  -999.250000 2.1684708595 29.500000000 133.84909058 129.43434143 0.8610000014 44.174999237  -999.250000 0.8650000095
 1832.0385742 19.000000000 17.937999725 0.0040144119  -999.250000 2.1543681622 30.577999115 135.91221619 131.33898926 0.8640000224 45.424999237  -999.250000 0.8579999804
 1832.1910400 19.000000000 18.141000748 0.0010048078  -999.250000 2.1473374367 29.062999725 136.09011841 131.68540955 0.8659999967 47.549999237  -999.250000 0.8519999981
 1832.3433838 19.000000000 17.983999252 -0.009973579  -999.250000 2.1501600742 28.577999115 135.71859741 131.17349243 0.8619999886 48.174999237  -999.250000 0.8539999723
 1832.4958496 19.000000000 17.937999725 -0.009001602  -999.250000 2.1663208008 29.593999863 135.26301575 130.73823547 0.8619999886 47.924999237  -999.250000 0.8679999709
 1832.6481934 19.000000000 17.766000748 -0.006004808  -999.250000 2.1872262955 30.125000000 133.41476440 128.96998596 0.8610000014 48.174999237  -999.250000 0.9020000100
 1832.8005371 19.000000000 17.687999725 -0.001012010  -999.250000 2.2012341022 30.077999115 132.62828064 128.03878784 0.8550000191 48.049999237  -999.250000 0.9210000038
 1832.9530029 19.000000000 17.843999863 -0.002996795  -999.250000 2.1968529224 26.422000885 131.66154480 127.20928192 0.8529999852 47.674999237  -999.250000 0.9160000086
 1833.1053467 19.000000000 17.922000885 -0.004995196  -999.250000 2.1784701347 23.827999115 131.18153381 126.67097473 0.8519999981 46.299999237  -999.250000 0.8999999762
 1833.2578125 19.000000000 17.952999115 -0.012987180  -999.250000 2.1618463993 22.343999863 131.14012146 126.72018433 0.8500000238 46.299999237  -999.250000 0.8809999824
 1833.4101563 19.000000000 17.983999252 -0.017987989  -999.250000 2.1605093479 23.406000137 131.18759155 126.56336975 0.8460000157 47.549999237  -999.250000 0.8659999967
 1833.5626221 19.000000000 18.000000000 -0.012009615  -999.250000 2.1688408852 27.937999725 132.55715942 128.05995178 0.8510000110 48.299999237  -999.250000 0.8489999771
 1833.7149658 19.000000000 18.031000137 -0.007012010  -999.250000 2.1717209816 28.483999252 134.09501648 129.61239624 0.8709999919 47.174999237  -999.250000 0.8320000172
 1833.8674316 19.000000000 17.875000000 -0.004004808  -999.250000 2.1665165424 28.516000748 133.43234253 128.96447754 0.8999999762 48.674999237  -999.250000 0.8349999785
 1834.0197754 19.000000000 17.843999863 -0.004000000  -999.250000 2.1631493568 26.062999725 131.42829895 126.90600586 0.9380000234 48.174999237  -999.250000 0.8769999743
 1834.1722412 5.0000000000 17.875000000 -0.004998398  -999.250000 2.1684582233 29.172000885 128.48051453 123.93850708 0.9729999900 47.924999237  -999.250000 0.9580000043
 1834.3245850 5.0000000000 17.843999863 -0.006995196  -999.250000 2.1819217205 35.187999725 125.33570862 120.82801056 0.9950000048 47.424999237  -999.250000 1.0659999847
 1834.4770508 5.0000000000 17.781000137 -0.014987179  -999.250000 2.2016031742 38.125000000 123.39667511 118.97264862 1.0019999743 47.174999237  -999.250000 1.1579999924
 1834.6293945 5.0000000000 17.827999115 -0.009009615  -999.250000 2.2175521851 39.530998230 124.98015594 120.36027527 1.0060000420 47.174999237  -999.250000 1.1790000200
