# LAS format log file from PETREL
# Project units are specified as depth units
#==================================================================
~Version information
VERS.   2.0:
WRAP.   NO:
#==================================================================
~Well
STRT .m      821.52105713 :
STOP .m      2574.1203613 :
STEP .m     0.00000000 :
NULL .        -999.250000 :
COMP.           : COMPANY
WELL.  31/4-8   : WELL
FLD.            : FIELD
LOC.            : LOCATION
SRVC.           : SERVICE COMPANY
DATE.  2018-09-11 14:48:38   : Log Export Date {yyyy-MM-dd HH:mm:ss}
PROV.           : PROVINCE
UWI.   31/4-8   : UNIQUE WELL ID
API.            : API NUMBER
#==================================================================
~Curve
DEPT .m                   : DEPTH
Lithology_geolink ._      : Lithology_geolink
CALI .in                  : CALI
DRHO .g/cm3               : DRHO
NPHI .m3/m3               : NPHI
RHOB .g/cm3               : RHOB
GR .gAPI                  : GR
DTC .us/ft                : DTC
DTE .us/ft                : DTE
RDEP .ohm.m               : RDEP
SP .mV                    : SP
RSHA .ohm.m               : RSHA
RMED .ohm.m               : RMED
~Parameter
#==================================================================
~Ascii
# ...
 2108.9958496 6.0000000000 13.916998863 0.0279919878 0.3422581255 2.4299983978 86.715446472 96.161788940 96.085884094 4.1068811417 18.420019150  -999.250000 4.0858173370
 2109.1481934 6.0000000000 13.979000092 0.0409791693 0.3358804882 2.4339935780 87.796539307 96.886344910 96.820777893 4.0330638885 17.810554504  -999.250000 3.9720382690
 2109.3005371 6.0000000000 14.043000221 0.0509839728 0.3224531114 2.4340000153 87.819938660 95.749023438 95.630203247 4.0729999542 18.780000687  -999.250000 3.9960000515
 2109.4528809 6.0000000000 14.105999947 0.0470127985 0.3067603111 2.4250288010 88.167877197 93.745178223 93.780929565 4.1490001678 18.600000381  -999.250000 3.9509999752
 2109.6054688 6.0000000000 14.161000252 0.0350192301 0.2962068617 2.4160141945 89.756454468 93.489540100 93.430366516 4.1967067719 18.600049973  -999.250000 3.9599552155
 2109.7578125 6.0000000000 14.197999954 0.0260144230 0.2930700183 2.4159998894 90.104888916 93.846160889 93.815475464 4.0137310028 18.631462097  -999.250000 3.9315791130
 2109.9101563 6.0000000000 14.218000412 0.0240032058 0.2922625542 2.4219903946 88.217071533 93.996704102 93.768295288 3.8459999561 18.920000076  -999.250000 3.6689999104
 2110.0625000 6.0000000000 14.227000237 0.0240000002 0.2895088494 2.4229969978 86.525413513 94.140075684 94.135002136 3.6840000153 19.120000839  -999.250000 3.4449999332
 2110.2150879 6.0000000000 14.232000351 0.0210048072 0.2871537507 2.4160110950 86.798553467 97.667823792 97.587486267 3.4719133377 19.390378952  -999.250000 3.3908958435
 2110.3674316 6.0000000000 14.248999596 0.0170064103 0.2888844311 2.4070143700 87.647277832 100.67630005 100.63792419 3.4178652763 20.250818253  -999.250000 3.3258414268
 2110.5197754 6.0000000000 14.284998894 0.0140048079 0.2930267155 2.4060015678 87.032981873 100.51937103 100.41233063 3.3340704441 20.760690689  -999.250000 3.2270689011
 2110.6721191 6.0000000000 14.324999809 0.0149967996 0.2951033413 2.4129776955 85.296577454 106.67106628 106.68254852 3.3780000210 21.190999985  -999.250000 3.2699999809
 2110.8247070 6.0000000000 14.346000671 0.0179951917 0.2935824394 2.4249806404 83.214332581 115.77814484 115.67881775 3.3471713066 20.169534683  -999.250000 3.2299792767
 2110.9770508 6.0000000000 14.328000069 0.0199967939 0.2914867103 2.4389774799 81.317077637 114.45822906 114.31887054 3.4543173313 19.879743576  -999.250000 3.2172884941
 2111.1293945 5.0000000000 14.255000114 0.0219967943 0.2925864756 2.4499824047 79.402137756 109.72761536 109.50659943 3.6524000168 19.720573425  -999.250000 3.3975248337
 2111.2817383 5.0000000000 14.140000343 0.0200032052 0.2948826551 2.4569888115 77.517044067 104.70336914 104.65528870 3.9019999504 20.079000473  -999.250000 3.7249999046
 2111.4340820 5.0000000000 14.043999672 0.0160128009 0.2947205305 2.4550063610 76.791313171 96.909912109 96.972900391 4.5720000267 21.670000076  -999.250000 4.4120001793
 2111.5866699 5.0000000000 14.000000000 0.0130048078 0.2924871743 2.4490094185 77.716026306 90.023338318 90.001472473 4.9026427269 21.389728546  -999.250000 4.8585238457
 2111.7390137 5.0000000000 13.986000061 0.0130000003 0.2924799919 2.4440081120 78.806503296 85.446762085 85.296340942 5.3036642075 21.220052719  -999.250000 5.1855373383
 2111.8913574 5.0000000000 13.973999977 0.0149967950 0.2988196313 2.4459969997 78.879776001 85.855506897 85.858261108 5.7179999352 20.628999710  -999.250000 5.5209999084
 2112.0437012 5.0000000000 13.958999634 0.0130064003 0.3117783964 2.4579615593 78.720512390 90.273200989 90.183876038 5.3909997940 21.739999771  -999.250000 5.2389998436
 2112.1962891 5.0000000000 13.946000099 0.0090064099 0.3265463710 2.4809629917 78.949630737 93.038291931 93.000091553 4.8165721893 21.210193634  -999.250000 4.6044197083
 2112.3486328 5.0000000000 13.934000015 0.0109967953 0.3353318572 2.5079567432 79.419487000 93.843856812 93.762802124 4.5499825478 21.331480026  -999.250000 4.2430224419
 2112.5009766 5.0000000000 13.896000862 0.0239791665 0.3340542018 2.5229759216 79.660232544 93.208641052 93.288063049 4.5390415192 21.631511688  -999.250000 4.2568845749
 2112.6533203 5.0000000000 13.782999992 0.0389520004 0.3273814321 2.5110383034 80.277015686 91.584701538 91.641197205 4.5650000572 21.950000763  -999.250000 4.1849999428
 2112.8059082 5.0000000000 13.604999542 0.0399983972 0.3226176202 2.4790513515 81.077720642 88.372848511 88.244338989 4.5548219681 22.410160065  -999.250000 4.2860670090
 2112.9582520 5.0000000000 13.453001022 0.0310144220 0.3232479393 2.4480495453 81.837562561 85.655548096 85.401008606 4.4440588951 22.510112762  -999.250000 4.3281874657
 2113.1105957 6.0000000000 13.373000145 0.0200176276 0.3279349208 2.4330241680 82.238716125 87.550407410 87.539009094 4.4812927246 22.579568863  -999.250000 4.4451298714
 2113.2629395 6.0000000000 13.315999985 0.0160064101 0.3345687091 2.4330000877 82.668617249 91.558395386 91.587524414 4.6640000343 22.311000824  -999.250000 4.5260000229
 2113.4152832 6.0000000000 13.245000839 0.0189903993 0.3427437842 2.4369871616 83.466438293 93.226432800 93.088829041 4.7930002213 21.559999466  -999.250000 4.6890001297
 2113.5678711 6.0000000000 13.180001259 0.0209967941 0.3499768674 2.4399952888 85.143623352 97.995933533 97.863868713 4.9357628822 22.159851074  -999.250000 4.8478012085
 2113.7202148 6.0000000000 13.147999763 0.0209999997 0.3497308493 2.4419968128 86.413932800 105.08329010 105.13919830 4.7878031731 22.689792633  -999.250000 4.7238206863
 2113.8725586 6.0000000000 13.140999794 0.0190032050 0.3379478753 2.4449951649 85.493965149 104.82352448 104.78717041 4.6649999619 22.559999466  -999.250000 4.6119999886
 2114.0249023 6.0000000000 13.144000053 0.0170064010 0.3192001581 2.4509806633 83.536285400 98.079483032 97.978141785 4.7649998665 22.270000458  -999.250000 4.5460000038
 2114.1774902 6.0000000000 13.151000023 0.0179983974 0.3058013916 2.4579887390 82.969902039 93.732521057 93.540390015 4.8170561790 22.869646072  -999.250000 4.5060114861
 2114.3298340 6.0000000000 13.160000801 0.0199967939 0.3054710031 2.4629919529 83.626884460 92.790626526 92.788681030 4.8519663811 22.649627686  -999.250000 4.5131955147
 2114.4821777 6.0000000000 13.166000366 0.0219967943 0.3158366680 2.4649968147 83.889160156 92.815361023 92.891151428 4.8313312531 23.039327621  -999.250000 4.6351056099
 2114.6345215 6.0000000000 13.166998863 0.0229968000 0.3271836042 2.4669935703 83.860099792 92.854728699 92.832725525 5.0380001068 22.618999481  -999.250000 4.7010002136
 2114.7871094 6.0000000000 13.164999962 0.0269935913 0.3293166161 2.4660017490 84.517944336 92.320991516 92.240875244 5.1777324677 23.689983368  -999.250000 4.6470513344
 2114.9394531 6.0000000000 13.164999962 0.0349871814 0.3210864365 2.4630048275 85.695220947 91.011779785 91.113433838 5.0109186172 23.680139542  -999.250000 4.6789550781
 2115.0917969 6.0000000000 13.156000137 0.0529711545 0.3096566498 2.4510192871 86.678848267 89.640235901 89.725570679 4.9598770142 24.390045166  -999.250000 4.6508498192
 2115.2441406 6.0000000000 13.107000351 0.0739663467 0.3028118908 2.4200496674 87.317955017 88.873100281 88.821342468 4.8829998970 24.419000626  -999.250000 4.5570001602
 2115.3964844 6.0000000000 13.006999969 0.0779872015 0.3011054397 2.3631823063 86.245452881 89.903312683 89.683822632 4.9450001717 25.718999863  -999.250000 4.4910001755
 2115.5490723 5.0000000000 12.911999702 0.0580320507 0.2965545952 2.2851250172 82.476089478 92.962753296 92.946327209 4.9603428841 27.820669174  -999.250000 4.3354854584
 2115.7014160 5.0000000000 12.878000259 0.0270496793 0.2833823264 2.2121169567 76.961692810 97.883407593 97.839134216 4.5498352051 28.859663010  -999.250000 4.0139808655
 2115.8537598 5.0000000000 12.902000427 0.0070320517 0.2634240389 2.1670720577 70.325279236 102.96807098 102.84378052 3.8229999542 28.649000168  -999.250000 3.3780000210
 2116.0061035 2.0000000000 12.969000816 0.0010192001 0.2448196113 2.1510512829 63.446052551 106.08466339 105.88430023 3.2660000324 30.059999466  -999.250000 3.0079998970
 2116.1586914 2.0000000000 13.058000565 0.0059919874 0.2342768312 2.1579887867 58.020675659 106.43191528 106.35140991 2.7201921940 30.720859528  -999.250000 2.6601779461
