# LAS format log file from PETREL
# Project units are specified as depth units
#==================================================================
~Version information
VERS.   2.0:
WRAP.   NO:
#==================================================================
~Well
STRT .m      996.03363037 :
STOP .m      2328.0097656 :
STEP .m     0.00000000 :
NULL .        -999.250000 :
COMP.           : COMPANY
WELL.  31/4-10   : WELL
FLD.            : FIELD
LOC.            : LOCATION
SRVC.           : SERVICE COMPANY
DATE.  2018-09-11 14:48:36   : Log Export Date {yyyy-MM-dd HH:mm:ss}
PROV.           : PROVINCE
UWI.   31/4-10   : UNIQUE WELL ID
API.            : API NUMBER
#==================================================================
~Curve
DEPT .m                   : DEPTH
Lithology_geolink ._      : Lithology_geolink
CALI .in                  : CALI
DRHO .g/cm3               : DRHO
NPHI .m3/m3               : NPHI
RHOB .g/cm3               : RHOB
GR .gAPI                  : GR
DTC .us/ft                : DTC
RDEP .ohm.m               : RDEP
SP .mV                    : SP
RSHA .ohm.m               : RSHA
RMED .ohm.m               : RMED
~Parameter
#==================================================================
~Ascii
# ...
 1524.5568848  -999.250000 12.156680107  -999.250000  -999.250000 2.0709919930 94.601303101 148.60060120 0.8713176847 171.04167175 1.2190489769 0.8347654939
 1524.7092285  -999.250000 12.210848808  -999.250000  -999.250000 2.0425109863 91.208923340 148.69999695 0.9313920140 170.83337402 1.1249639988 0.8012307286
 1524.8616943  -999.250000 12.202730179  -999.250000  -999.250000 2.0688118935 94.479492188 148.70140076 0.8683674932 171.00000000 0.9686176181 0.8215231895
 1525.0140381  -999.250000 12.148750305  -999.250000  -999.250000 2.0428791046 91.501197815 148.90240479 0.7772734165 171.37510681 1.2366089821 0.8536378145
 1525.1663818  -999.250000 12.203309059  -999.250000  -999.250000 2.0398869514 91.683708191 149.29920959 0.7893220782 171.12500000 1.1295880079 0.7825645208
 1525.3188477  -999.250000 12.234700203  -999.250000  -999.250000 2.0367619991 91.144416809 149.19749451 0.8960117102 171.00010681 1.0833660364 0.8359298110
 1525.4711914  -999.250000 12.281250000  -999.250000  -999.250000 2.0653069019 94.177017212 148.79739380 0.8819047213 170.83312988 0.9853227735 0.7781351209
 1525.6236572  -999.250000 12.272569656  -999.250000  -999.250000 2.0569760799 92.625389099 148.40339661 0.8379545212 171.12489319 1.1231780052 0.7835519910
 1525.7760010  -999.250000 12.140649796  -999.250000  -999.250000 2.0510280132 92.674217224 148.90179443 0.7677280903 171.79066467 1.1495829821 0.8231109977
 1525.9284668  -999.250000 12.148790359  -999.250000  -999.250000 2.0334119797 90.703826904 149.19439697 0.7721443176 172.70826721 0.8842002749 0.7656589746
 1526.0808105  -999.250000 12.210901260  -999.250000  -999.250000 2.0633850098 93.313743591 148.30299377 0.8119124770 173.12440491 1.1885730028 0.8390685916
 1526.2332764  -999.250000 12.210470200  -999.250000  -999.250000 2.0603399277 93.503479004 148.70759583 0.9202101231 173.62500000 0.9179596901 0.8189523816
 1526.3856201  -999.250000 12.148549080  -999.250000  -999.250000 2.0522580147 94.002433777 149.78558350 0.9356704950 173.83316040 1.0560179949 0.7698763013
 1526.5380859  -999.250000 12.171580315  -999.250000  -999.250000 2.0785982609 94.357772827 147.69470215 0.8850700259 174.16667175 0.9677404165 0.8270729780
 1526.6904297  -999.250000 12.125300407  -999.250000  -999.250000 2.0674059391 91.869346619 146.90049744 0.7950596809 173.95837402 0.9600712061 0.7805159092
 1526.8428955  -999.250000 12.171899796  -999.250000  -999.250000 2.0605049133 91.003837585 146.89790344 0.8047074080 173.58332825 1.1256389618 0.8447030783
 1526.9952393  -999.250000 12.171601295  -999.250000  -999.250000 2.0682179928 91.554496765 146.59829712 0.8794748783 172.66693115 1.0739779472 0.8448364139
 1527.1475830  -999.250000 12.124838829  -999.250000  -999.250000 2.0620830059 90.317558289 146.30349731 0.9690679908 171.87530518 1.1950559616 0.7892385125
 1527.3000488  -999.250000 12.101699829  -999.250000  -999.250000 2.0617039204 91.045883179 146.80529785 0.9641795754 171.74989319 1.1595879793 0.8984705806
 1527.4523926  -999.250000 12.117620468  -999.250000  -999.250000 2.0347199440 88.469352722 147.69569397 0.9291545153 172.16625977 1.2185599804 0.8783187270
 1527.6048584  -999.250000 12.179360390  -999.250000  -999.250000 2.0759909153 93.200057983 147.10360718 0.8487964272 172.87469482 0.9094437957 0.8954430819
 1527.7572021  -999.250000 12.124951363  -999.250000  -999.250000 2.0837988853 95.206169128 147.59979248 0.8485295177 173.74969482 1.2674479485 0.8082501292
 1527.9096680  -999.250000 12.115890503  -999.250000  -999.250000 2.0837891102 97.982147217 147.60060120 0.8985257149 174.12489319 1.0965119600 0.9213652015
 1528.0620117  -999.250000 11.907180786  -999.250000  -999.250000 2.0823020935 95.160369873 147.70060730 0.9990237951 174.16716003 1.0670650005 0.9317319989
 1528.2144775  -999.250000 12.040109634  -999.250000  -999.250000 2.0816519260 100.51460266 147.79190063 1.0172200203 173.33332825 1.1671689749 0.9212297201
 1528.3668213  -999.250000 12.203201294  -999.250000  -999.250000 2.0963859558 102.92549896 146.50709534 0.9233750105 172.04203796 1.0339100361 0.8776705861
 1528.5192871  -999.250000 12.219389915  -999.250000  -999.250000 2.0845038891 110.60739899 147.50329590 0.8590624928 170.95832825 1.1430139542 0.8888092041
 1528.6716309  -999.250000 12.304300308  -999.250000  -999.250000 2.0794050694 108.05680084 147.99259949 0.8974729180 170.58337402 1.2015839815 0.9476295710
 1528.8240967  -999.250000 12.242250443  -999.250000  -999.250000 2.0919489861 107.16239929 146.90359497 0.9709662795 170.54167175 0.9745864868 0.8605864048
 1528.9764404  -999.250000 12.249400139  -999.250000  -999.250000 2.0860469341 103.53839874 147.39779663 1.0391880274 170.50010681 1.6332060099 0.9171794057
 1529.1289063  -999.250000 12.156249046  -999.250000  -999.250000 2.0889880657 109.53510284 147.10209656 1.0366100073 170.29167175 1.2511910200 0.9299011827
 1529.2812500  -999.250000 12.148449898  -999.250000  -999.250000 2.0860970020 114.70369720 147.39340210 0.9354962707 170.45826721 1.4285069704 0.9884623885
 1529.4335938  -999.250000 12.156608582  -999.250000  -999.250000 2.0970189571 117.22319794 146.41619873 0.8722928762 170.66656494 1.5549720526 0.8734865189
 1529.5860596  -999.250000 12.202811241  -999.250000  -999.250000 2.0696310997 113.21469879 148.80000305 0.8714854717 170.75000000 1.4482079744 0.9162420034
 1529.7384033  -999.250000 12.156249046  -999.250000  -999.250000 2.0695610046 107.60549927 148.80589294 0.9172288179 170.66687012 1.5898560286 0.9384049773
 1529.8908691  -999.250000 12.148349762  -999.250000  -999.250000 2.0592710972 104.66619873 149.69380188 0.9815955758 170.00039673 1.1590969563 0.8793607950
 1530.0432129  -999.250000 12.140600204  -999.250000  -999.250000 2.0711190701 101.25289917 148.70050049 0.9645851851 168.91687012 1.4648070335 0.8568438888
 1530.1956787  -999.250000 12.140600204  -999.250000  -999.250000 2.0710909367 101.67520142 148.70239258 0.9165679812 168.70832825 1.4659680128 0.8185086250
 1530.3480225  -999.250000 12.140600204  -999.250000  -999.250000 2.0666370392 99.706199646 149.10040283 0.8145011067 168.70826721 1.4931999445 0.8685616255
 1530.5004883  -999.250000 12.140600204  -999.250000  -999.250000 2.0651400089 102.53410339 149.20127869 0.7996249795 169.04167175 1.4927220345 0.8775411248
 1530.6528320  -999.250000 12.140600204  -999.250000  -999.250000 2.0629620552 98.438690186 149.39599609 0.8324549794 169.29173279 1.4242080450 0.8118914962
 1530.8052979  -999.250000 12.140600204  -999.250000  -999.250000 2.0695960522 98.593528748 148.79879761 0.8722351789 169.20832825 1.4865520000 0.8571982980
 1530.9576416  -999.250000 12.140600204  -999.250000  -999.250000 2.0654289722 94.047882080 148.60009766 0.9359058738 169.54153442 1.3788130283 0.9004548192
 1531.1101074  -999.250000 12.140600204  -999.250000  -999.250000 2.0718688965 101.50340271 148.59930420 0.9209573269 169.70832825 1.5214329958 0.8312854171
 1531.2624512  -999.250000 12.140600204  -999.250000  -999.250000 2.0732769966 101.98690033 148.50630188 0.8702465892 169.25010681 1.5111429691 0.8147202730
 1531.4147949  -999.250000 12.140600204  -999.250000  -999.250000 2.0621960163 99.898200989 149.49359131 0.7835881710 168.79216003 1.4235910177 0.8648372293
 1531.5672607  -999.250000 12.140600204  -999.250000  -999.250000 2.0660750866 94.058990479 148.60000610 0.7821288109 168.29173279 1.3923310041 0.8117291927
 1531.7196045  -999.250000 12.140600204  -999.250000  -999.250000 2.0611579418 93.521942139 148.60130310 0.8350089192 168.16656494 1.3496010303 0.9116097093
 1531.8720703  -999.250000 12.140600204  -999.250000  -999.250000 2.0696330070 96.807853699 148.79879761 0.9271908998 168.16673279 1.3504990339 0.8534566760
 1532.0244141  -999.250000 12.140600204  -999.250000  -999.250000 2.0718250275 96.069473267 148.60270691 0.9896944165 167.91687012 1.4950549603 0.8786982298
 1532.1768799  -999.250000 12.140600204  -999.250000  -999.250000 2.0673549175 97.113502502 149.00239563 0.9431105852 167.75000000 1.4882999659 0.8933526278
