# LAS format log file from PETREL
# Project units are specified as depth units
#==================================================================
~Version information
VERS.   2.0:
WRAP.   NO:
#==================================================================
~Well
STRT .m      898.43609619 :
STOP .m      2454.1354980 :
STEP .m     0.00000000 :
NULL .        -999.250000 :
COMP.           : COMPANY
WELL.  31/4-6   : WELL
FLD.            : FIELD
LOC.            : LOCATION
SRVC.           : SERVICE COMPANY
DATE.  2018-09-11 14:48:38   : Log Export Date {yyyy-MM-dd HH:mm:ss}
PROV.           : PROVINCE
UWI.   31/4-6   : UNIQUE WELL ID
API.            : API NUMBER
#==================================================================
~Curve
DEPT .m                   : DEPTH
Lithology_geolink ._      : Lithology_geolink
CALI .in                  : CALI
DRHO .g/cm3               : DRHO
NPHI .m3/m3               : NPHI
RHOB .g/cm3               : RHOB
GR .gAPI                  : GR
DTC .us/ft                : DTC
DTE .us/ft                : DTE
RDEP .ohm.m               : RDEP
SP .mV                    : SP
RSHA .ohm.m               : RSHA
RMED .ohm.m               : RMED
~Parameter
#==================================================================
~Ascii
# ...
 1000.8488770  -999.250000 18.062999725 -0.002975971  -999.250000 1.9711784124 43.875000000 140.14550781 141.36936951 1.7539999485 33.049999237  -999.250000 1.4789999723
 1001.0012817  -999.250000 18.047000885 -0.005987986  -999.250000 1.9570500851 45.155998230 140.92567444 142.23397827 1.7369999886 33.549999237  -999.250000 1.5010000467
 1001.1536865  -999.250000 18.047000885 -0.009983980  -999.250000 1.9509561062 46.812999725 141.11921692 142.28582764 1.7180000544 34.174999237  -999.250000 1.5060000420
 1001.3060913  -999.250000 18.108999252 -0.004024029  -999.250000 1.9564914703 48.530998230 141.42266846 142.66517639 1.7170000076 33.549999237  -999.250000 1.5160000324
 1001.4584961  -999.250000 18.093999863 -0.000016019  -999.250000 1.9646769762 52.469001770 141.22549438 142.51048279 1.7209999561 33.674999237  -999.250000 1.5410000086
 1001.6109009  -999.250000 18.266000748 0.0079679620  -999.250000 1.9654889107 52.469001770 141.51704407 142.73338318 1.7070000172 34.174999237  -999.250000 1.5180000067
 1001.7633057  -999.250000 18.858999252 0.0000320384  -999.250000 1.9510263205 51.937999725 141.67568970 142.96949768 1.6729999781 34.174999237  -999.250000 1.5369999409
 1001.9157104  -999.250000 18.233999252 -0.006974760  -999.250000 1.9350762367 51.780998230 143.23020935 144.46534729 1.6540000439 34.174999237  -999.250000 1.4889999628
 1002.0681152  -999.250000 18.187999725 -0.014971165  -999.250000 1.9204301834 52.344001770 144.79711914 146.05097961 1.6139999628 34.299999237  -999.250000 1.4819999933
 1002.2205200  -999.250000 18.312999725 -0.012010813  -999.250000 1.9056100845 50.530998230 145.21310425 146.40554810 1.5759999752 34.424999237  -999.250000 1.4259999990
 1002.3729248  -999.250000 18.031000137 -0.008014417  -999.250000 1.8832608461 41.655998230 147.90898132 149.20098877 1.5629999638 34.674999237  -999.250000 1.3910000324
 1002.5252686  -999.250000 18.327999115 -0.006008010  -999.250000 1.8559350967 34.405998230 149.94357300 151.26637268 1.5750000477 35.174999237  -999.250000 1.3930000067
 1002.6776733  -999.250000 17.937999725 -0.007991991  -999.250000 1.8397364616 36.750000000 149.46150208 150.77751160 1.5540000200 34.549999237  -999.250000 1.3919999599
 1002.8300781  -999.250000 17.891000748 -0.008000000  -999.250000 1.8461598158 42.937999725 149.25604248 150.57424927 1.5599999428 32.799999237  -999.250000 1.4069999456
 1002.9824829  -999.250000 18.468999863 -0.010987986  -999.250000 1.8698495626 48.469001770 147.19078064 148.44032288 1.5590000153 33.549999237  -999.250000 1.4099999666
 1003.1348877  -999.250000 18.108999252 -0.007016019  -999.250000 1.8933695555 45.094001770 144.40744019 145.65129089 1.5340000391 33.799999237  -999.250000 1.3960000277
 1003.2872925  -999.250000 18.016000748 -0.008991990  -999.250000 1.9010074139 43.375000000 144.79452515 146.06085205 1.5520000458 33.174999237  -999.250000 1.4440000057
 1003.4396973  -999.250000 17.858999252 -0.013979976  -999.250000 1.8932266235 42.875000000 145.98348999 147.27232361 1.5889999866 33.174999237  -999.250000 1.4060000181
 1003.5921021  -999.250000 18.125000000 -0.018979976  -999.250000 1.8813048601 46.719001770 147.62329102 148.92303467 1.6109999418 33.674999237  -999.250000 1.4299999475
 1003.7445068  -999.250000 18.422000885 -0.019995995  -999.250000 1.8706961870 45.030998230 147.45228577 148.71133423 1.6269999743 33.549999237  -999.250000 1.3899999857
 1003.8969116  -999.250000 17.937999725 -0.018008009  -999.250000 1.8684784174 42.719001770 146.31013489 147.64472961 1.6399999857 33.799999237  -999.250000 1.4210000038
 1004.0493164  -999.250000 18.922000885 -0.017999999  -999.250000 1.8795610666 41.594001770 142.97920227 144.26380920 1.6210000515 33.799999237  -999.250000 1.4550000429
 1004.2017212  -999.250000 17.812999725 -0.017003605  -999.250000 1.8965985775 42.750000000 139.94207764 141.12422180 1.5900000334 34.049999237  -999.250000 1.4780000448
 1004.3541260  -999.250000 19.327999115 -0.008032439  -999.250000 1.9101290703 42.844001770 140.35432434 141.60629272 1.5970000029 34.299999237  -999.250000 1.5169999599
 1004.5064697  -999.250000 18.937999725 -0.004016019  -999.250000 1.9088591337 36.780998230 143.41497803 144.74211121 1.6440000534 34.174999237  -999.250000 1.4190000296
 1004.6588745  -999.250000 19.452999115 -0.004995995  -999.250000 1.8982889652 34.594001770 146.16136169 147.38995361 1.6740000248 34.424999237  -999.250000 1.4500000477
 1004.8112793  -999.250000 18.641000748 -0.006991990  -999.250000 1.8869383335 37.375000000 147.83967590 149.18884277 1.7059999704 34.674999237  -999.250000 1.3860000372
 1004.9636841  -999.250000 19.656000137 -0.013971967  -999.250000 1.8783882856 44.594001770 147.26510620 148.57807922 1.6950000525 34.424999237  -999.250000 1.4639999866
 1005.1160889  -999.250000 20.952999115 -0.011012014  -999.250000 1.8780313730 46.219001770 143.94741821 145.27119446 1.6610000134 34.049999237  -999.250000 1.4379999638
 1005.2684937  -999.250000 20.766000748 -0.011000000  -999.250000 1.8827588558 45.719001770 140.84666443 142.07690430 1.6390000582 34.174999237  -999.250000 1.4789999723
 1005.4208984  -999.250000 19.812999725 -0.009008009  -999.250000 1.8906745911 44.562999725 140.22215271 141.41601563 1.6419999599 34.299999237  -999.250000 1.4650000334
 1005.5733032  -999.250000 19.281000137 -0.009995995  -999.250000 1.8999459743 46.719001770 140.96885681 142.24668884 1.6369999647 34.174999237  -999.250000 1.4839999676
 1005.7257080  -999.250000 18.172000885 -0.012987986  -999.250000 1.9066832066 46.625000000 143.65690613 144.90599060 1.6840000153 33.674999237  -999.250000 1.4670000076
 1005.8781128  -999.250000 19.172000885 -0.016983982  -999.250000 1.9047300816 43.905998230 145.17248535 146.45414734 1.7289999723 34.174999237  -999.250000 1.4609999657
 1006.0305176  -999.250000 18.437999725 -0.008036043  -999.250000 1.8923307657 37.937999725 145.61181641 146.85440063 1.7589999437 33.674999237  -999.250000 1.4450000525
 1006.1829224  -999.250000 20.250000000 -0.005010817  -999.250000 1.8766463995 38.030998230 145.23883057 146.54837036 1.7760000229 34.049999237  -999.250000 1.4490000010
 1006.3353271  -999.250000 20.766000748 -0.004003604  -999.250000 1.8728952408 41.905998230 142.35644531 143.66729736 1.7589999437 34.174999237  -999.250000 1.4539999962
 1006.4877319  -999.250000 19.641000748 -0.015956748  -999.250000 1.8809697628 49.655998230 140.17256165 141.34844971 1.7029999495 33.174999237  -999.250000 1.4730000496
 1006.6400757  -999.250000 21.266000748 -0.015004004  -999.250000 1.8931212425 49.562999725 139.98706055 141.15951538 1.7039999962 34.799999237  -999.250000 1.5019999743
 1006.7924805  -999.250000 21.202999115 -0.019979976  -999.250000 1.9015862942 48.437999725 139.81738281 141.02290344 1.6879999638 34.299999237  -999.250000 1.5290000439
 1006.9448853  -999.250000 20.766000748 -0.018008009  -999.250000 1.9127318859 45.062999725 142.30389404 143.55418396 1.6879999638 32.549999237  -999.250000 1.4889999628
 1007.0972900  -999.250000 18.952999115 -0.016008010  -999.250000 1.9227274656 44.000000000 146.84111023 148.05198669 1.7660000324 32.174999237  -999.250000 1.4609999657
 1007.2496948  -999.250000 20.312999725 -0.012016020  -999.250000 1.9240866899 41.125000000 146.99581909 148.29264832 1.8129999638 31.174999237  -999.250000 1.4409999847
 1007.4020996  -999.250000 19.218999863 -0.008016020  -999.250000 1.9186583757 40.062999725 145.53849792 146.85713196 1.8070000410 33.549999237  -999.250000 1.4700000286
 1007.5545044  -999.250000 19.562999725 -0.015967961  -999.250000 1.9220125675 40.094001770 142.49275208 143.69252014 1.7960000038 34.049999237  -999.250000 1.5269999504
 1007.7069092  -999.250000 18.172000885 -0.010024029  -999.250000 1.9395170212 40.750000000 139.56018066 140.80621338 1.7589999437 32.924999237  -999.250000 1.5690000057
 1007.8593140  -999.250000 18.016000748 -0.007012015  -999.250000 1.9561370611 40.219001770 139.04335022 140.20701599 1.7380000353 33.299999237  -999.250000 1.5520000458
 1008.0117188  -999.250000 18.500000000 -0.004012015  -999.250000 1.9588878155 42.939350128 139.36787415 140.53503418 1.7299923897 34.049999237  -999.250000 1.5329971313
