# LAS format log file from PETREL
# Project units are specified as depth units
#==================================================================
~Version information
VERS.   2.0:
WRAP.   NO:
#==================================================================
~Well
STRT .m      898.43609619 :
STOP .m      2454.1354980 :
STEP .m     0.00000000 :
NULL .        -999.250000 :
COMP.           : COMPANY
WELL.  31/4-6   : WELL
FLD.            : FIELD
LOC.            : LOCATION
SRVC.           : SERVICE COMPANY
DATE.  2018-09-11 14:48:38   : Log Export Date {yyyy-MM-dd HH:mm:ss}
PROV.           : PROVINCE
UWI.   31/4-6   : UNIQUE WELL ID
API.            : API NUMBER
#==================================================================
~Curve
DEPT .m                   : DEPTH
Lithology_geolink ._      : Lithology_geolink
CALI .in                  : CALI
DRHO .g/cm3               : DRHO
NPHI .m3/m3               : NPHI
RHOB .g/cm3               : RHOB
GR .gAPI                  : GR
DTC .us/ft                : DTC
DTE .us/ft                : DTE
RDEP .ohm.m               : RDEP
SP .mV                    : SP
RSHA .ohm.m               : RSHA
RMED .ohm.m               : RMED
~Parameter
#==================================================================
~Ascii
# ...
 1725.0538330  -999.250000 17.625000000 0.0079871900  -999.250000 2.0625848770 34.220653534 148.89225769 144.30310059 0.5889871716 44.049999237  -999.250000 0.5779880285
 1725.2062988  -999.250000 17.812999725 0.0020048078  -999.250000 2.0455031395 36.280624390 147.65858459 143.18225098 0.5729799867 43.049999237  -999.250000 0.5630264878
 1725.3586426  -999.250000 17.547000885 -0.017983973  -999.250000 2.0625214577 35.812923431 145.11605835 140.53234863 0.5479903817 43.049999237  -999.250000 0.5960400701
 1725.5111084  -999.250000 17.437999725 -0.022995997  -999.250000 2.1091947556 35.720581055 143.55282593 138.88424683 0.5359992385 43.049999237  -999.250000 0.6459960341
 1725.6634521  -999.250000 17.375000000 -0.007012821  -999.250000 2.1447865963 37.689228058 143.08155823 138.57649231 0.5350040197 43.924999237  -999.250000 0.6409775615
 1725.8159180  -999.250000 17.500000000 0.0159815867  -999.250000 2.1351718903 39.221454620 143.86415100 139.42526245 0.5400160551 43.424999237  -999.250000 0.6129791737
 1725.9682617  -999.250000 17.766000748 0.0209959932  -999.250000 2.0941681862 40.745567322 145.61936951 141.16079712 0.5500032306 42.549999237  -999.250000 0.6000016332
 1726.1204834  -999.250000 17.891000748 0.0000504404  -999.250000 2.0556569099 35.219001770 146.58847046 142.17143250 0.5540000200 41.676399231  -999.250000 0.6019999981
 1726.2729492  -999.250000 17.891000748 -0.005990385  -999.250000 2.0398089886 32.625000000 146.85551453 142.24571228 0.5509999990 41.549999237  -999.250000 0.5979999900
 1726.4252930  -999.250000 17.968999863 -0.009990392  -999.250000 2.0359904766 34.719001770 147.81416321 143.16384888 0.5500000119 41.799999237  -999.250000 0.5879999995
 1726.5777588  -999.250000 17.656000137 -0.010998397  -999.250000 2.0306727886 36.250000000 149.02186584 144.55435181 0.5529999733 43.674999237  -999.250000 0.5879999995
 1726.7301025  -999.250000 17.766000748 0.0049615693  -999.250000 2.0200209618 39.937999725 149.35449219 144.82861328 0.5529999733 44.424999237  -999.250000 0.5950000286
 1726.8825684  -999.250000 18.343999863 0.0159823727  -999.250000 2.0110957623 42.437999725 149.49351501 144.96385193 0.5590000153 44.799999237  -999.250000 0.6010000110
 1727.0349121  -999.250000 17.891000748 0.0209879894  -999.250000 2.0103404522 44.500000000 149.13137817 144.59443665 0.5749999881 45.299999237  -999.250000 0.6039999723
 1727.1873779  -999.250000 18.016000748 0.0060240384  -999.250000 2.0189709663 44.437999725 148.34632874 143.84773254 0.5889999866 45.424999237  -999.250000 0.5989999771
 1727.3397217  -999.250000 18.062999725 -0.000983187  -999.250000 2.0325601101 39.344001770 147.75024414 143.31962585 0.6029999852 44.799999237  -999.250000 0.6029999852
 1727.4921875  -999.250000 18.250000000 -0.002996795  -999.250000 2.0474915504 36.750000000 146.98020935 142.46188354 0.6169999838 44.924999237  -999.250000 0.6269999743
 1727.6445313  -999.250000 18.156000137 -0.007991987  -999.250000 2.0636012554 37.219001770 145.42372131 140.86489868 0.6290000081 44.174999237  -999.250000 0.6610000134
 1727.7968750  -999.250000 18.156000137 -0.008000000  -999.250000 2.0797073841 40.812999725 143.87216187 139.53439331 0.6420000196 44.049999237  -999.250000 0.6899999976
 1727.9493408  -999.250000 18.437999725 0.0049791667  -999.250000 2.0884628296 45.437999725 144.23242188 139.63800049 0.6620000005 43.924999237  -999.250000 0.6890000105
 1728.1016846  -999.250000 18.202999115 0.0049999999  -999.250000 2.0850775242 43.469001770 145.06848145 140.54302979 0.6819999814 43.674999237  -999.250000 0.6669999957
 1728.2541504  -999.250000 18.422000885 0.0079951929  -999.250000 2.0780837536 41.875000000 145.80242920 141.29228210 0.6819999814 42.424999237  -999.250000 0.6549999714
 1728.4064941  -999.250000 18.406000137 -0.001975981  -999.250000 2.0777451992 42.437999725 145.98750305 141.48265076 0.6729999781 42.924999237  -999.250000 0.6790000200
 1728.5589600  -999.250000 17.968999863 0.0089823715  -999.250000 2.0825831890 42.405998230 145.45729065 140.97193909 0.6629999876 44.674999237  -999.250000 0.6880000234
 1728.7113037  -999.250000 18.047000885 -0.000975981  -999.250000 2.0813229084 42.405998230 145.19020081 140.88909912 0.6579999924 41.549999237  -999.250000 0.6719999909
 1728.8637695  -999.250000 17.577999115 -0.002996795  -999.250000 2.0737166405 39.312999725 146.69805908 142.14739990 0.6579999924 42.549999237  -999.250000 0.6389999986
 1729.0161133  -999.250000 17.781000137 -0.006990393  -999.250000 2.0673668385 43.937999725 148.13751221 143.49768066 0.6570000052 44.049999237  -999.250000 0.6359999776
 1729.1685791  -999.250000 18.141000748 -0.005003205  -999.250000 2.0670166016 42.405998230 148.15766907 143.61671448 0.6539999843 44.424999237  -999.250000 0.6470000148
 1729.3209229  -999.250000 18.172000885 -0.002007206  -999.250000 2.0724358559 46.062999725 147.75024414 143.27926636 0.6489999890 44.674999237  -999.250000 0.6600000262
 1729.4733887  -999.250000 18.327999115 -0.003996795  -999.250000 2.0822374821 43.062999725 146.93048096 142.38682556 0.6489999890 44.299999237  -999.250000 0.6639999747
 1729.6257324  -999.250000 18.062999725 0.0029887820  -999.250000 2.0932903290 43.062999725 145.33390808 140.73178101 0.6510000229 44.549999237  -999.250000 0.6620000005
 1729.7780762  -999.250000 18.500000000 0.0020024020  -999.250000 2.1002244949 37.375000000 144.39834595 140.03791809 0.6560000181 44.674999237  -999.250000 0.6629999876
 1729.9305420  -999.250000 18.452999115 0.0089887818  -999.250000 2.0991802216 34.812999725 144.99742126 140.46043396 0.6529999971 44.799999237  -999.250000 0.6769999862
 1730.0828857  -999.250000 18.500000000 0.0040120096  -999.250000 2.0909512043 33.250000000 146.02192688 141.41304016 0.6510000229 44.174999237  -999.250000 0.6769999862
 1730.2353516  -999.250000 18.358999252 0.0030016026  -999.250000 2.0794558525 32.687999725 146.85551453 142.38113403 0.6489999890 43.049999237  -999.250000 0.6769999862
 1730.3876953  -999.250000 18.187999725 -0.000990392  -999.250000 2.0699925423 32.030998230 147.41789246 142.81802368 0.6480000019 44.674999237  -999.250000 0.6560000181
 1730.5401611  -999.250000 18.202999115 0.0009967949  -999.250000 2.0640008450 32.125000000 146.69065857 142.22584534 0.6510000229 44.299999237  -999.250000 0.6470000148
 1730.6925049  -999.250000 18.358999252 0.0000024019  -999.250000 2.0594112873 33.125000000 145.07362366 140.64610291 0.6570000052 44.424999237  -999.250000 0.6290000081
 1730.8449707  -999.250000 18.343999863 -0.002995192  -999.250000 2.0572743416 36.719001770 143.51985168 139.00299072 0.6600000262 45.174999237  -999.250000 0.6209999919
 1730.9973145  -999.250000 18.843999863 -0.011978383  -999.250000 2.0665354729 38.219001770 141.78892517 137.31330872 0.6600000262 45.924999237  -999.250000 0.6309999824
 1731.1497803  -999.250000 18.375000000 -0.010003204  -999.250000 2.0988459587 36.312999725 141.69259644 137.26647949 0.6579999924 45.799999237  -999.250000 0.6650000215
 1731.3021240  -999.250000 18.093999863 -0.000024019  -999.250000 2.1411621571 34.687999725 143.37771606 138.76023865 0.6549999714 44.799999237  -999.250000 0.6980000138
 1731.4545898  -999.250000 18.093999863 0.0309503209  -999.250000 2.1565957069 32.687999725 144.84049988 140.32629395 0.6570000052 46.049999237  -999.250000 0.6959999800
 1731.6069336  -999.250000 17.577999115 0.0359919854  -999.250000 2.1201813221 34.625000000 146.31788635 141.83709717 0.6650000215 44.299999237  -999.250000 0.6610000134
 1731.7593994  -999.250000 17.593999863 0.0090432344  -999.250000 2.0604000092 36.187999725 145.42634583 140.92082214 0.6719999909 44.549999237  -999.250000 0.6259999871
 1731.9117432  -999.250000 18.687999725 -0.003979167  -999.250000 2.0223641396 37.655998230 144.44044495 140.02239990 0.6679999828 44.299999237  -999.250000 0.6029999852
 1732.0640869  -999.250000 18.937999725 -0.009985588  -999.250000 2.0177810192 36.125000000 147.37129211 142.81828308 0.6669999957 44.424999237  -999.250000 0.6060000062
 1732.2165527  -999.250000 18.422000885 -0.008003205  -999.250000 2.0313768387 34.062999725 149.76672363 145.17715454 0.6669999957 44.549999237  -999.250000 0.6219999790
