# LAS format log file from PETREL
# Project units are specified as depth units
#==================================================================
~Version information
VERS.   2.0:
WRAP.   NO:
#==================================================================
~Well
STRT .m      860.54608154 :
STOP .m      3158.4321289 :
STEP .m     0.00000000 :
NULL .        -999.250000 :
COMP.           : COMPANY
WELL.  31/4-4   : WELL
FLD.            : FIELD
LOC.            : LOCATION
SRVC.           : SERVICE COMPANY
DATE.  2018-09-11 14:48:37   : Log Export Date {yyyy-MM-dd HH:mm:ss}
PROV.           : PROVINCE
UWI.   31/4-4   : UNIQUE WELL ID
API.            : API NUMBER
#==================================================================
~Curve
DEPT .m                   : DEPTH
Lithology_geolink ._      : Lithology_geolink
CALI .in                  : CALI
DRHO .g/cm3               : DRHO
NPHI .m3/m3               : NPHI
RHOB .g/cm3               : RHOB
GR .gAPI                  : GR
DTC .us/ft                : DTC
DTE .us/ft                : DTE
RDEP .ohm.m               : RDEP
SP .mV                    : SP
RSHA .ohm.m               : RSHA
RMED .ohm.m               : RMED
~Parameter
#==================================================================
~Ascii
# ...
 2235.8029785 13.000000000 13.068000793 0.1400000006 0.3410525322 2.5183365345 113.96263885 109.80473328 104.10560608 1.2908333540 34.713405609 1.9992531538 1.9992531538
 2235.9553223 13.000000000 13.068000793 0.2189999968 0.3928169012 2.5343441963 121.64019775 114.43872070 108.68425751 1.2389647961 35.588806152 1.7659183741 1.7659183741
 2236.1076660 13.000000000 13.237000465 0.1790000051 0.4200065136 2.4918000698 126.37610626 121.26909637 115.49624634 1.2279134989 36.712554932 1.4287339449 1.4287339449
 2236.2602539 13.000000000 13.006999969 0.0909999982 0.4360200167 2.3929359913 127.03675842 126.06769562 120.20323181 1.1737308502 37.049098969 1.2631121874 1.2631121874
 2236.4125977 13.000000000 12.994000435 0.0480000004 0.4469200075 2.3293735981 118.88521576 127.77873230 121.91681671 1.0897853374 34.897598267 1.2985576391 1.2985576391
 2236.5649414 13.000000000 13.038999557 0.0189999994 0.4283597469 2.3278110027 122.06060028 123.94160461 118.23800659 1.0229455233 33.399398804 1.4724071026 1.4724071026
 2236.7172852 13.000000000 13.069999695 0.0160000008 0.4508538544 2.3698313236 121.32559967 118.02783966 112.37831879 1.0060927868 33.023696899 1.5984112024 1.5984112024
 2236.8698730 13.000000000 13.093000412 -0.004000000 0.3949399889 2.4225916862 125.22296143 114.24464417 108.56381226 1.0352051258 32.218605042 1.4148718119 1.4148718119
 2237.0222168 13.000000000 13.093999863 0.0030000000 0.3935399950 2.4639410973 116.81861115 112.77429962 107.09091187 1.0992019176 34.273399353 1.3748749495 1.3748749495
 2237.1745605 13.000000000 13.086000443 0.0080000004 0.4299516380 2.4767730236 118.58143616 111.36213684 105.62603760 1.1620832682 33.278205872 1.3362660408 1.3362660408
 2237.3269043 13.000000000 13.093999863 0.0120000001 0.4547802210 2.4483404160 124.33480072 112.39668274 106.61811066 1.1878495216 35.273998260 1.4192848206 1.4192848206
 2237.4792480 13.000000000 13.116000175 0.0109999999 0.4442369938 2.4132769108 131.13140869 113.62886047 107.93334961 1.1409407854 34.651203156 1.5081907511 1.5081907511
 2237.6318359 13.000000000 13.118000031 0.0179999992 0.3961099982 2.3927562237 135.11778259 115.61268616 109.91342926 1.1038236618 35.397399902 1.6271730661 1.6271730661
 2237.7841797 13.000000000 13.135999680 0.0439999998 0.3780190051 2.3919591904 132.86499023 119.49115753 113.81288910 1.0489391088 34.584899902 1.6803781986 1.6803781986
 2237.9365234 13.000000000 13.237000465 0.0390000008 0.3878441751 2.3825457096 129.74560547 123.95480347 118.26856995 1.0300480127 33.272094727 1.4867184162 1.4867184162
 2238.0888672 13.000000000 13.180999756 0.0599999987 0.3929018974 2.3782682419 128.37580872 128.70642090 122.94602966 1.0450720787 31.469009399 1.3987548351 1.3987548351
 2238.2414551 13.000000000 13.610000610 0.0430000015 0.4081900120 2.3658926487 128.87620544 133.06298828 127.27961731 1.0899615288 35.842803955 1.2458269596 1.2458269596
 2238.3937988 13.000000000 13.111000061 0.0570000000 0.4294900000 2.3517565727 129.23136902 137.66990662 131.95230103 1.0780800581 37.650203705 1.1919615269 1.1919615269
 2238.5461426 13.000000000 13.093999863 0.0399999991 0.4514448047 2.3373763561 123.41596985 139.20986938 133.45417786 1.1029808521 37.774097443 1.1804871559 1.1804871559
 2238.6984863 13.000000000 13.083999634 0.0179999992 0.4422348440 2.3257985115 116.51840210 133.53846741 127.82265472 1.0969775915 37.212501526 1.3328703642 1.3328703642
 2238.8510742 13.000000000 13.024999619 0.0130000003 0.4272399843 2.3512415886 102.63902283 123.48680115 117.77561951 1.0900096893 37.523403168 1.6049423218 1.6049423218
 2239.0034180 13.000000000 13.022999763 -0.002000000 0.3984000087 2.3946366310 106.99759674 114.98651123 109.21176910 1.0932917595 37.027004242 1.8977756500 1.8977756500
 2239.1557617 13.000000000 13.024999619 0.0099999998 0.4064470828 2.4327421188 106.28866577 113.79460144 107.98497772 1.1842788458 38.276004791 1.8278172016 1.8278172016
 2239.3081055 13.000000000 13.060000420 -0.005000000 0.3996509314 2.4318604469 118.27180481 114.98286438 109.22676849 1.2713232040 38.900001526 1.7703280449 1.7703280449
 2239.4604492 13.000000000 13.024999619 -0.011000000 0.3880885243 2.4162113667 105.43029022 115.79265594 110.06256104 1.3721345663 38.895694733 1.5609695911 1.5609695911
 2239.6130371 13.000000000 13.022999763 -0.023000000 0.3772999942 2.4066188335 100.60396576 115.00212097 109.07649231 1.4560992718 36.201004028 1.5421987772 1.5421987772
 2239.7653809 13.000000000 13.015999794 -0.008000000 0.3812037110 2.4252274036 94.053588867 110.57540131 104.77790833 1.4869711399 32.775402069 1.6047147512 1.6047147512
 2239.9177246 13.000000000 13.015000343 0.0109999999 0.4116012156 2.4577648640 91.105796814 107.23825836 101.60956573 1.4781056643 33.023296356 1.8278287649 1.8278287649
 2240.0700684 13.000000000 12.998999596 0.0390000008 0.4017458856 2.4914965630 85.119293213 106.33491516 100.62512207 1.5110465288 31.957191467 2.0862307549 2.0862307549
 2240.2226563 13.000000000 12.969000816 0.0289999992 0.3848199844 2.5009024143 81.562599182 106.13539886 100.35985565 1.5402275324 28.966400146 2.2302532196 2.2302532196
 2240.3750000 13.000000000 12.954000473 0.0149999997 0.3341799974 2.4938893318 81.433395386 105.71916962 100.03538513 1.6112467051 30.340404510 2.3089039326 2.3089039326
 2240.5273438 13.000000000 12.969000816 0.0309999995 0.3329918981 2.5054471493 79.989799500 106.29145050 100.57045746 1.6881375313 32.461299896 2.2787439823 2.2787439823
 2240.6796875 13.000000000 12.977000237 0.0160000008 0.3330099583 2.5004730225 76.817710876 106.04654694 100.23249054 1.7308589220 32.024501801 2.1990351677 2.1990351677
 2240.8322754 13.000000000 12.991999626 0.0170000009 0.3315899968 2.4821081161 79.759414673 105.83727264 100.06570435 1.6427276134 31.718799591 2.2210128307 2.2210128307
 2240.9846191 13.000000000 12.991999626 -0.002000000 0.3211500049 2.4571225643 82.694015503 106.41320801 100.73471832 1.5577371120 33.839805603 2.2248814106 2.2248814106
 2241.1369629 13.000000000 12.991999626 -0.004000000 0.3302553892 2.4338760376 84.561599731 106.37464905 100.65072632 1.4758300781 35.582393646 2.1878044605 2.1878044605
 2241.2893066 13.000000000 12.991999626 -0.014000000 0.3367096782 2.4187231064 84.139396667 106.85774231 101.04080963 1.4229264259 32.711200714 2.1263055801 2.1263055801
 2241.4416504 13.000000000 12.991999626 -0.022000000 0.3647550046 2.4138052464 88.628402710 108.71543121 102.94342804 1.3999646902 32.213401794 1.9096875191 1.9096875191
 2241.5942383 13.000000000 12.991999626 -0.009000000 0.3666700125 2.4190845490 90.760414124 109.57409668 103.91377258 1.3779455423 33.086299896 1.7145993710 1.7145993710
 2241.7465820 13.000000000 12.977000237 0.0060000001 0.3874566853 2.4266631603 93.979568481 111.03493500 105.32279968 1.3609646559 32.647495270 1.5903494358 1.5903494358
 2241.8989258 13.000000000 12.976000786 0.0089999996 0.3834564686 2.4190380573 87.614196777 112.12269592 106.37028503 1.3499840498 31.093261719 1.6995408535 1.6995408535
 2242.0512695 13.000000000 12.954000473 -0.003000000 0.3738653660 2.4157211781 84.244590759 111.95935822 106.24282074 1.3450480700 34.994899750 1.8680480719 1.8680480719
 2242.2038574 13.000000000 12.946000099 -0.001000000 0.3636099994 2.4287426472 80.885017395 111.44288635 105.66677856 1.3751890659 35.560298920 1.8980159760 1.8980159760
 2242.3562012 13.000000000 12.944999695 0.0080000004 0.3519400060 2.4556951523 84.026840210 110.31158447 104.56023407 1.4341570139 36.899902344 1.9031186104 1.9031186104
 2242.5085449 13.000000000 12.944999695 0.0179999992 0.3737750053 2.4732577801 92.377998352 109.85173798 104.20424652 1.4831696749 36.837001801 1.9402432442 1.9402432442
 2242.6608887 13.000000000 12.944999695 0.0000000000 0.3763958514 2.4707715511 93.313606262 109.53527069 103.81494141 1.5360736847 36.836399078 2.0161843300 2.0161843300
 2242.8134766 13.000000000 12.946000099 -0.004000000 0.3622899950 2.4843916893 93.670776367 107.56644440 101.75586700 1.5821186304 36.463203430 2.1314070225 2.1314070225
 2242.9658203 13.000000000 12.954000473 0.0020000001 0.3826100230 2.5212354660 88.283958435 106.37390137 100.42575836 1.6190512180 36.828689575 2.2582499981 2.2582499981
