# LAS format log file from PETREL
# Project units are specified as depth units
#==================================================================
~Version information
VERS.   2.0:
WRAP.   NO:
#==================================================================
~Well
STRT .m      996.03363037 :
STOP .m      2328.0097656 :
STEP .m     0.00000000 :
NULL .        -999.250000 :
COMP.           : COMPANY
WELL.  31/4-10   : WELL
FLD.            : FIELD
LOC.            : LOCATION
SRVC.           : SERVICE COMPANY
DATE.  2018-09-11 14:48:36   : Log Export Date {yyyy-MM-dd HH:mm:ss}
PROV.           : PROVINCE
UWI.   31/4-10   : UNIQUE WELL ID
API.            : API NUMBER
#==================================================================
~Curve
DEPT .m                   : DEPTH
Lithology_geolink ._      : Lithology_geolink
CALI .in                  : CALI
DRHO .g/cm3               : DRHO
NPHI .m3/m3               : NPHI
RHOB .g/cm3               : RHOB
GR .gAPI                  : GR
DTC .us/ft                : DTC
RDEP .ohm.m               : RDEP
SP .mV                    : SP
RSHA .ohm.m               : RSHA
RMED .ohm.m               : RMED
~Parameter
#==================================================================
~Ascii
# ...
 2053.0803223 5.0000000000 8.0315685272 -0.010150400 0.3492560387 2.3261156082 100.10684967 97.498840332 1.8242969513 -68.52033234 1.2155067921 1.1063767672
 2053.2326660 5.0000000000 8.0169687271 -0.005028205 0.3451012671 2.3271856308 97.845100403 97.425827026 1.7169051170 -68.31250000 1.1591376066 1.1797407866
 2053.3850098 5.0000000000 8.0253496170 -0.003670353 0.3449904323 2.3045065403 105.08970642 100.19154358 1.5672353506 -68.54239655 1.0877255201 1.1525793076
 2053.5373535 5.0000000000 8.0195693970 -0.005735897 0.3235445917 2.2948741913 105.09629822 99.595306396 1.4273738861 -69.20833588 0.9969452024 1.0366970301
 2053.6896973 5.0000000000 8.0864667892 -0.008772960 0.3407281041 2.2924823761 111.86699677 99.090690613 1.4755074978 -69.64583588 0.8726099730 0.9310125709
 2053.8422852 6.0000000000 8.0486993790 -0.013202404 0.3553403616 2.3195779324 107.84896088 98.186210632 1.6112532616 -69.81310272 0.8208010793 0.9897873402
 2053.9946289 6.0000000000 8.0482816696 -0.014970353 0.3682875037 2.3339021206 106.32699585 97.102111816 1.6806550026 -70.31330109 1.1700925827 1.0543948412
 2054.1469727 6.0000000000 7.9956259727 -0.016533494 0.3669163883 2.3445527554 104.82910156 97.193992615 1.7932623625 -71.18750000 1.2440999746 1.1797109842
 2054.2993164 6.0000000000 7.9752950668 -0.016733760 0.3567936122 2.3500297070 104.58489990 96.603225708 2.1034150124 -72.02083588 1.4975960255 1.2784899473
 2054.4519043 6.0000000000 8.0548686981 -0.015358815 0.3445333838 2.3722457886 104.69793701 96.888984680 2.3090708256 -72.12470245 1.5819213390 1.4523677826
 2054.6042480 6.0000000000 8.0411100388 -0.012401442 0.3383547664 2.3677833080 101.97964478 96.001106262 2.3396239281 -71.97910309 2.0195331573 1.6465549469
 2054.7565918 6.0000000000 8.1560306549 -0.013502404 0.3441956639 2.3554019928 102.25433350 96.011558533 2.4153769016 -71.70833588 2.0519366264 1.6217185259
 2054.9089355 6.0000000000 8.0871419907 -0.016610095 0.3540303111 2.3454675674 101.70999908 97.192344666 2.3509376049 -71.04166412 1.5699189901 1.6744580269
 2055.0615234 6.0000000000 8.1259107590 -0.020027200 0.3690164387 2.3520684242 97.755897522 96.504898071 2.2181515694 -70.68779755 1.5492730141 1.6803976297
 2055.2138672 6.0000000000 8.0046072006 -0.018700961 0.3515830338 2.3493649960 98.666320801 96.906890869 2.2465496063 -70.81250000 1.5841081142 1.5947462320
 2055.3662109 6.0000000000 8.0167245865 -0.020071313 0.3388770819 2.3350517750 100.48571014 97.704017639 2.1873934269 -71.08333588 1.5218000412 1.5138112307
 2055.5185547 5.0000000000 8.1182518005 -0.022133974 0.3262772858 2.3299429417 101.80680084 98.204681396 1.9899636507 -71.52083588 1.4575610161 1.4927289486
 2055.6708984 5.0000000000 8.0881223679 -0.022065600 0.3355034888 2.3143019676 98.457717896 98.701934814 1.8376400471 -73.00000000 1.1013070345 1.2487210035
 2055.8234863 5.0000000000 8.0001935959 -0.022974199 0.3473442495 2.3049397469 95.063865662 98.888740540 1.8025605679 -74.21884918 0.9910634756 1.1387836933
 2055.9758301 5.0000000000 8.0210323334 -0.026468430 0.3608580232 2.3002500534 96.077568054 97.997138977 1.7355591059 -69.79119873 1.1378947496 1.1654242277
 2056.1281738 5.0000000000 8.0000000000 -0.025290865 0.3877173066 2.3264348507 96.168167114 97.599296570 1.7874566317 -69.52083588 1.3049939871 1.2210470438
 2056.2805176 5.0000000000 8.0001649857 -0.019426720 0.3776704073 2.3401646614 96.218826294 97.506103516 2.2630114555 -70.14583588 1.3889310360 1.3486340046
 2056.4331055 5.0000000000 8.0196285248 -0.013625321 0.3626851141 2.3561921120 98.345443726 98.080360413 2.9039232731 -71.83583832 1.4653569460 1.5627417564
 2056.5854492 5.0000000000 8.0888986588 -0.008893269 0.3521363139 2.3636868000 101.85955048 96.506622314 3.3392992020 -73.10489655 1.8614684343 1.7745889425
 2056.7377930 6.0000000000 8.0896072388 -0.004693269 0.3769195676 2.3728561401 105.31787872 96.993713379 3.4010813236 -73.41666412 2.2052001953 1.8905380964
 2056.8901367 6.0000000000 8.1758060455 -0.001799519 0.3688957989 2.3785166740 105.42539978 96.403312683 3.0428454876 -72.85416412 1.9420100451 1.9455009699
 2057.0427246 6.0000000000 8.1878252029 -0.002708800 0.3916813731 2.3802208900 103.66120911 96.704788208 2.9215950966 -71.91476440 2.0477521420 1.9687886238
 2057.1950684 6.0000000000 8.1461391449 -0.004833013 0.3900154531 2.3901762962 104.16124725 97.106872559 3.0794951916 -71.31310272 1.9959862232 1.9493836164
 2057.3474121 6.0000000000 8.1628227234 -0.004365064 0.4019151628 2.3985400200 101.45233917 97.898277283 3.3994917870 -71.45833588 1.9951959848 2.0206670761
 2057.4997559 6.0000000000 8.1406507492 -0.003298077 0.3723776937 2.4128606319 104.03559875 97.797050476 3.6035337448 -70.20833588 2.1798689365 1.9657839537
 2057.6520996 6.0000000000 8.1109266281 -0.003469760 0.3461366892 2.3988888264 104.91979980 97.499023438 3.4367535114 -70.64583588 2.0809979439 1.9753509760
 2057.8046875 6.0000000000 8.0913362503 -0.005567468 0.3502188325 2.3881113529 103.45764923 97.397476196 3.2389032841 -74.93870544 1.9902383089 1.9362059832
 2057.9570313 6.0000000000 8.0953350067 -0.006268430 0.3427767158 2.3729493618 101.61695862 97.192573547 2.9897766113 -75.10310364 1.9770706892 1.9735126495
 2058.1093750 6.0000000000 8.1123743057 -0.007803846 0.3507165909 2.3780856133 101.34179688 96.397613525 2.7895936966 -74.04166412 2.2146220207 1.9432990551
 2058.2617188 6.0000000000 8.1335926056 -0.010570400 0.3408407867 2.3765869141 106.70369720 96.105171204 2.8613424301 -73.06250000 2.2518060207 1.9196729660
 2058.4140625 6.0000000000 8.1671228409 -0.013900001 0.3571617007 2.3752741814 108.42189789 96.587196350 3.0906009674 -72.56250000 2.0804369450 1.9732029438
 2058.5664063 6.0000000000 8.1586999893 -0.017133335 0.3748570979 2.3729190826 107.98560333 95.401481628 3.2777049541 -72.10449982 2.0409240723 1.8634910583
 2058.7187500 6.0000000000 8.1588029861 -0.019833334 0.3567031026 2.3753459454 106.73950195 95.391777039 3.1777420044 -71.70823669 2.1072030067 1.8241980076
 2058.8713379 6.0000000000 8.1715450287 -0.020266507 0.3446601927 2.3810570240 101.41059875 94.384025574 3.1707615852 -71.77083588 2.1081569195 1.8848270178
 2059.0236816 6.0000000000 8.1887178421 -0.021470720 0.3166350126 2.3866777420 99.954658508 92.759208679 3.1866734028 -72.02083588 2.1882319450 1.8763229847
 2059.1760254 6.0000000000 8.2240467072 -0.024200000 0.3091715872 2.3939871788 101.01770020 88.994560242 3.1943750381 -72.12550354 2.5948510170 1.8784669638
 2059.3283691 6.0000000000 8.1925668716 -0.023966666 0.2798677981 2.3923320770 100.30750275 87.616264343 3.3291249275 -71.04386902 2.1268839836 1.8100930452
 2059.4809570 6.0000000000 8.1883468628 -0.023202404 0.2636468112 2.3709692955 95.899551392 89.532806396 3.0779561996 -69.83333588 1.9731830359 1.7208620310
 2059.6333008 6.0000000000 8.1817226410 -0.024400640 0.2811410129 2.3175377846 87.227821350 93.044197083 2.3780364990 -70.18750000 1.5682890415 1.5004400015
 2059.7856445 6.0000000000 8.1497983932 -0.024966666 0.2973043919 2.2343423367 85.358383179 97.545120239 1.7093944550 -70.12500000 1.1061730385 1.0251950026
 2059.9379883 6.0000000000 8.0952005386 -0.027533334 0.3197224140 2.1640372276 82.494041443 101.79850006 1.3883090019 -66.39559937 0.5095993280 0.6959955096
 2060.0905762 2.0000000000 8.0952005386 -0.031732053 0.3478139043 2.1311039925 80.709152222 102.19374084 1.2004911900 -67.14583588 0.4720447958 0.5064973831
 2060.2429199 2.0000000000 8.0954198837 -0.031333759 0.3614748120 2.1416351795 81.742584229 101.59510040 1.1496056318 -68.29166412 0.5015043020 0.4346210957
 2060.3952637 2.0000000000 8.1209049225 -0.032066666 0.3582530022 2.1548695564 77.542068481 101.09680939 1.1808190346 -68.77083588 0.5019243956 0.4603224099
 2060.5476074 2.0000000000 8.1542835236 -0.031700000 0.3199096918 2.1707220078 76.199417114 100.79249573 1.3623939753 -68.81250000 0.4948948920 0.4811654091
 2060.6999512 2.0000000000 8.1271896362 -0.027400000 0.3083105981 2.1735661030 67.876258850 99.800842285 1.4512109756 -68.62590027 0.6839069724 0.4771152139
