# LAS format log file from PETREL
# Project units are specified as depth units
#==================================================================
~Version information
VERS.   2.0:
WRAP.   NO:
#==================================================================
~Well
STRT .m      950.21093750 :
STOP .m      2894.8349609 :
STEP .m     0.00000000 :
NULL .        -999.250000 :
COMP.           : COMPANY
WELL.  31/4-2   : WELL
FLD.            : FIELD
LOC.            : LOCATION
SRVC.           : SERVICE COMPANY
DATE.  2018-09-11 14:48:36   : Log Export Date {yyyy-MM-dd HH:mm:ss}
PROV.           : PROVINCE
UWI.   31/4-2   : UNIQUE WELL ID
API.            : API NUMBER
#==================================================================
~Curve
DEPT .m                   : DEPTH
Lithology_geolink ._      : Lithology_geolink
CALI .in                  : CALI
DRHO .g/cm3               : DRHO
NPHI .m3/m3               : NPHI
RHOB .g/cm3               : RHOB
GR .gAPI                  : GR
DTC .us/ft                : DTC
DTE .us/ft                : DTE
RDEP .ohm.m               : RDEP
SP .mV                    : SP
RSHA .ohm.m               : RSHA
RMED .ohm.m               : RMED
~Parameter
#==================================================================
~Ascii
# ...
 1981.6541748 5.0000000000 11.232000351 0.0000032051 0.4066713750 2.1682374477 44.788864136 125.69792175 123.26717377 0.9910512567 51.789550781 1.0031344891 1.0031344891
 1981.8065186 5.0000000000 11.390999794 0.0020048078 0.3950429261 2.1833124161 44.079498291 125.37402344 123.22084808 1.0070673227 51.648662567 1.0450936556 1.0450936556
 1981.9589844 5.0000000000 11.723999977 0.0049927942 0.3843902051 2.2054884434 43.140750885 125.65438843 123.40957642 1.0350255966 51.508712769 1.0839807987 1.0839807987
 1982.1113281 5.0000000000 12.049000740 0.0019887821 0.3803474307 2.2239625454 42.204273224 125.80358887 123.57857513 1.0429879427 51.420124054 1.0779374838 1.0779374838
 1982.2637939 5.0000000000 12.194999695 -0.005014412 0.3912023604 2.2302565575 41.124179840 125.47683716 123.45492554 1.0379455090 51.472164154 1.0519168377 1.0519168377
 1982.4161377 5.0000000000 12.154998779 -0.011000000 0.3921718895 2.2248811722 39.953170776 125.11906433 122.84852600 1.0209615231 51.523124695 1.0259302855 1.0259302855
 1982.5686035 5.0000000000 11.970998764 -0.010995196 0.3808733821 2.2125933170 39.440330505 124.07176971 121.79098511 1.0049679279 51.575168610 0.9968334436 0.9968334436
 1982.7209473 5.0000000000 11.843999863 -0.008993589 0.3739808500 2.1961438656 40.411296844 122.79234314 120.48147583 0.9949976206 51.627124786 0.9448701739 0.9448701739
 1982.8734131 5.0000000000 11.840000153 -0.004985588 0.3807704151 2.1802868843 41.843906403 121.92902374 119.82033539 0.9940000176 51.678855896 0.8911538124 0.8911538124
 1983.0257568 5.0000000000 11.940000534 0.0010080129 0.3975527883 2.1725499630 42.635932922 122.65943146 120.42004395 0.9940000176 51.633476257 0.9392530322 0.9392530322
 1983.1782227 5.0000000000 12.166000366 0.0060072057 0.4055089653 2.1764128208 42.590843201 123.92282104 121.63332367 0.9939872026 51.470478058 1.0180929899 1.0180929899
 1983.3305664 5.0000000000 12.404999733 0.0089951921 0.4009164274 2.1866374016 41.278411865 125.14022064 122.97767639 0.9899936318 51.307559967 1.0469647646 1.0469647646
 1983.4830322 5.0000000000 12.496999741 0.0059927944 0.3924832940 2.1942379475 40.915939331 126.22217560 123.90871429 0.9880256057 51.171169281 1.0359134674 1.0359134674
 1983.6353760 5.0000000000 12.472000122 0.0030064103 0.3979965746 2.1976060867 42.141372681 126.16039276 123.87444305 0.9960224032 51.223163605 1.0089230537 1.0089230537
 1983.7877197 5.0000000000 12.383999825 0.0069871796 0.3896626830 2.1985499859 44.246875763 125.29220581 123.07762146 1.0030071735 51.274124146 0.9850336909 0.9850336909
 1983.9401855 5.0000000000 12.102999687 -0.001014412 0.3975911736 2.1938185692 46.663990021 124.19234467 121.95281219 1.0059840679 51.326168060 0.9990512729 0.9990512729
 1984.0925293 5.0000000000 11.937000275 -0.006998398 0.4063675106 2.1834688187 47.489555359 123.37796021 121.06183624 1.0009903908 51.378124237 1.0148509741 1.0148509741
 1984.2449951 5.0000000000 11.920999527 -0.005990393 0.3985718489 2.1738932133 46.584396362 123.06616211 120.87641144 0.9969871640 51.430362701 0.9529199600 0.9529199600
 1984.3973389 5.0000000000 12.059000969 -0.001996795 0.3951941431 2.1704852581 45.085929871 123.29189301 120.98357391 0.9930095673 51.543621063 0.9280672669 0.9280672669
 1984.5498047 5.0000000000 12.273999214 0.0000048038 0.4040446281 2.1755547523 44.414386749 123.19604492 121.05904388 0.9970288277 51.802330017 0.9560031891 0.9560031891
 1984.7021484 5.0000000000 12.517999649 0.0020016027 0.4267470539 2.1898806095 43.327613831 123.63626862 121.41358185 1.0060120821 51.906040192 0.9569832087 0.9569832087
 1984.8546143 5.0000000000 12.711999893 0.0030048038 0.4311501086 2.2095820904 42.461856842 124.56159973 122.16139984 1.0110032558 51.924053192 0.9500833154 0.9500833154
 1985.0069580 5.0000000000 13.079000473 0.0050016022 0.4311874807 2.2303178310 40.737674713 125.17924500 123.07534027 1.0120031834 51.940700531 0.9759007096 0.9759007096
 1985.1594238 5.0000000000 13.511000633 0.0060000001 0.4295965433 2.2499125004 38.662681580 125.87065125 123.61246490 1.0130192041 51.846508026 0.9449422956 0.9449422956
 1985.3117676 5.0000000000 13.697999954 0.0059983977 0.4156953692 2.2621726990 37.699970245 125.81842041 123.41023254 1.0190321207 51.692508698 0.9270960689 0.9270960689
 1985.4642334 5.0000000000 13.720000267 0.0049999999 0.4128156900 2.2634634972 38.305267334 124.91629791 122.72785950 1.0290448666 51.538505554 0.9570064545 0.9570064545
 1985.6165771 5.0000000000 13.791000366 0.0050016022 0.4109952450 2.2565560341 39.246303558 124.39221954 122.13950348 1.0430512428 51.383506775 0.9589519501 0.9589519501
 1985.7689209 5.0000000000 13.942000389 0.0059951926 0.3955566585 2.2462477684 39.433963776 124.28653717 121.98632050 1.0590336323 51.230121613 0.9440192580 0.9440192580
 1985.9213867 5.0000000000 13.939000130 0.0029735789 0.3872532547 2.2352781296 38.161975861 124.24462128 122.07064819 1.0730415583 51.280170441 0.9521152973 0.9521152973
 1986.0737305 5.0000000000 13.796999931 -0.007998398 0.3886334300 2.2258739471 36.489513397 124.16732025 121.95903778 1.0860335827 51.334129333 0.9879494905 0.9879494905
 1986.2261963 5.0000000000 13.666999817 -0.006987991 0.3970296681 2.2218282223 36.193359375 123.78932190 121.62831879 1.1000416279 51.388172150 0.9670063853 0.9670063853
 1986.3785400 5.0000000000 13.565999985 -0.002008013 0.4093711078 2.2231013775 39.250442505 123.67181396 121.41165924 1.1130360365 51.442131042 0.9690672755 0.9690672755
 1986.5310059 5.0000000000 13.647999763 -0.007014412 0.4225418568 2.2228245735 39.523689270 123.75869751 121.47875214 1.1280544996 51.496315002 0.9970800281 0.9970800281
 1986.6833496 5.0000000000 13.371999741 -0.013008013 0.4357565045 2.2169823647 38.562717438 123.91426849 121.73902893 1.1450264454 51.595348358 1.0220071077 1.0220071077
 1986.8358154 5.0000000000 13.411000252 -0.017992793 0.4273454249 2.2102191448 38.388458252 123.99860382 121.77653503 1.1560224295 51.739459991 1.0248558521 1.0248558521
 1986.9881592 5.0000000000 13.210999489 -0.014995192 0.4296178818 2.2058591843 38.577793121 123.46276093 121.15937805 1.1630144119 51.883384705 0.9800144434 0.9800144434
 1987.1406250 5.0000000000 13.203999519 -0.011968775 0.4407447577 2.2038156986 38.447891235 122.51138306 120.23725128 1.1689840555 52.043609619 0.9860416651 0.9860416651
 1987.2929688 5.0000000000 13.475999832 0.0009951923 0.4344038665 2.2087671757 37.985980988 122.02420807 119.71308899 1.1639647484 52.233612061 0.9989167452 0.9989167452
 1987.4454346 5.0000000000 13.843999863 -0.002012010 0.4305905998 2.2228109837 37.351707458 121.99610138 119.78015900 1.1529647112 52.424827576 0.9729807377 0.9729807377
 1987.5977783 5.0000000000 13.789999962 -0.007003205 0.4349859059 2.2375876904 37.232727051 122.44370270 120.15837097 1.1419935226 52.682273865 0.9671217203 0.9671217203
 1987.7501221 5.0000000000 13.824998856 -0.009000000 0.4262000322 2.2474138737 39.554534912 122.58503723 120.48342896 1.1399952173 52.767467499 1.0050264597 1.0050264597
 1987.9025879 5.0000000000 14.043999672 -0.009001602 0.4262054265 2.2526917458 39.888656616 122.79658508 120.67031860 1.1379903555 52.545288086 1.0160000324 1.0160000324
 1988.0549316 5.0000000000 14.103999138 -0.009995192 0.4233330190 2.2514050007 40.920860291 123.07272339 120.67914581 1.1349855661 52.323375702 1.0162596703 1.0162596703
 1988.2073975 5.0000000000 13.755000114 -0.006990393 0.4002436399 2.2450129986 41.459678650 122.71531677 120.49658203 1.1289646626 52.479698181 1.1240960360 1.1240960360
 1988.3597412 5.0000000000 13.307000160 -0.002995192 0.3809834421 2.2396271229 41.741451263 122.26273346 120.14492798 1.1179735661 52.696636200 1.1536514759 1.1536514759
 1988.5122070 5.0000000000 13.218999863 -0.000007206 0.3769179881 2.2380800247 42.025070190 121.87868500 119.52430725 1.1069872379 52.545333862 1.0089167356 1.0089167356
 1988.6645508 5.0000000000 13.913999557 -0.003003205 0.3885639310 2.2377185822 42.884384155 120.55414581 118.25874329 1.1029952765 52.337474823 0.9830816984 0.9830816984
 1988.8170166 5.0000000000 13.555999756 -0.005004804 0.4035161734 2.2346971035 42.500881195 118.74597168 116.72891235 1.1009902954 52.118152618 1.0169775486 1.0169775486
