# LAS format log file from PETREL
# Project units are specified as depth units
#==================================================================
~Version information
VERS.   2.0:
WRAP.   NO:
#==================================================================
~Well
STRT .m      895.02691650 :
STOP .m      2933.5300293 :
STEP .m     0.00000000 :
NULL .        -999.250000 :
COMP.           : COMPANY
WELL.  31/4-5   : WELL
FLD.            : FIELD
LOC.            : LOCATION
SRVC.           : SERVICE COMPANY
DATE.  2018-09-11 14:48:38   : Log Export Date {yyyy-MM-dd HH:mm:ss}
PROV.           : PROVINCE
UWI.   31/4-5   : UNIQUE WELL ID
API.            : API NUMBER
#==================================================================
~Curve
DEPT .m                   : DEPTH
Lithology_geolink ._      : Lithology_geolink
CALI .in                  : CALI
DRHO .g/cm3               : DRHO
SGR .gAPI                 : SGR
NPHI .m3/m3               : NPHI
RHOB .g/cm3               : RHOB
PEF .b/e                  : PEF
GR .gAPI                  : GR
DTC .us/ft                : DTC
DTE .us/ft                : DTE
RDEP .ohm.m               : RDEP
SP .mV                    : SP
RSHA .ohm.m               : RSHA
RMIC .ohm.m               : RMIC
RMED .ohm.m               : RMED
~Parameter
#==================================================================
~Ascii
# ...
 1846.0032959 6.0000000000 18.093999863 0.0080104172  -999.250000  -999.250000 2.2556970119  -999.250000 88.995002747 130.65141296 128.03962708 0.7320221066 112.77980042 0.8750832677  -999.250000 0.8749960065
 1846.1557617 6.0000000000 18.093999863 0.0239871908  -999.250000  -999.250000 2.2482202053  -999.250000 92.853996277 129.59562683 126.98338318 0.7341467142 113.09307098 0.8706307411  -999.250000 0.8700176477
 1846.3081055 6.0000000000 18.090000153 0.0200032052  -999.250000  -999.250000 2.2479724884  -999.250000 92.786003113 130.07907104 127.44441986 0.7317878008 112.87421417 0.8808959126  -999.250000 0.8810095787
 1846.4605713 6.0000000000 18.083000183 0.0110072056  -999.250000  -999.250000 2.2539052963  -999.250000 93.379997253 130.92459106 128.36434937 0.7241152525 112.12834930 0.8922421336  -999.250000 0.8930032253
 1846.6129150 6.0000000000 18.077999115 0.0020072116  -999.250000  -999.250000 2.2636590004  -999.250000 86.567001343 131.64938354 129.04499817 0.7196950316 111.41922760 0.8952795267  -999.250000 0.8949863315
 1846.7652588 6.0000000000 18.077999115 0.0099871894  -999.250000  -999.250000 2.2695026398  -999.250000 83.703002930 131.97319031 129.39187622 0.7213925719 111.33536530 0.8787062764  -999.250000 0.8779880404
 1846.9177246 5.0000000000 18.077999115 0.0109991990  -999.250000  -999.250000 2.2666008472  -999.250000 79.491996765 131.50042725 128.85752869 0.7225418091 111.62253571 0.8630988598  -999.250000 0.8629927635
 1847.0700684 5.0000000000 18.077999115 0.0030128104  -999.250000  -999.250000 2.2620334625  -999.250000 78.666999817 130.82565308 128.31872559 0.7261031270 111.78618622 0.8540039659  -999.250000 0.8540055752
 1847.2225342 5.0000000000 18.080999374 0.0059975963  -999.250000  -999.250000 2.2634859085  -999.250000 78.739997864 130.49104309 127.89003754 0.7269939184 112.93262482 0.8603568673  -999.250000 0.8610056043
 1847.3748779 5.0000000000 18.086000443 0.0199775808  -999.250000  -999.250000 2.2692794800  -999.250000 79.495002747 130.34803772 127.72871399 0.7253278494 113.45191193 0.8677899837  -999.250000 0.8680079579
 1847.5273438 5.0000000000 18.083000183 0.0219983980  -999.250000  -999.250000 2.2739179134  -999.250000 77.901000977 130.04049683 127.56092072 0.7276843190 113.35307312 0.8781381845  -999.250000 0.8780088425
 1847.6796875 5.0000000000 18.080999374 0.0180032048  -999.250000  -999.250000 2.2735071182  -999.250000 73.452003479 129.97340393 127.33943176 0.7258732915 112.99340820 0.8884413242  -999.250000 0.8890039921
 1847.8321533 5.0000000000 18.086000443 0.0140032033  -999.250000  -999.250000 2.2658960819  -999.250000 73.120002747 130.39738464 127.76478577 0.7268796563 112.81420898 0.8935288787  -999.250000 0.8939855695
 1847.9844971 5.0000000000 18.083000183 0.0030088141  -999.250000  -999.250000 2.2526464462  -999.250000 75.989997864 130.55337524 127.92428589 0.7313627601 113.62823486 0.8854194880  -999.250000 0.8849863410
 1848.1369629 6.0000000000 18.077999115 -0.002995196  -999.250000  -999.250000 2.2405562401  -999.250000 80.662002563 130.27902222 127.73254395 0.7358143926 114.34493256 0.8687537313  -999.250000 0.8679823279
 1848.2893066 6.0000000000 18.077999115 -0.007995994  -999.250000  -999.250000 2.2362620831  -999.250000 82.322998047 130.61341858 128.02787781 0.7397770882 114.23134613 0.8576446176  -999.250000 0.8570023775
 1848.4417725 6.0000000000 18.077999115 -0.003004003  -999.250000  -999.250000 2.2407639027  -999.250000 84.155998230 130.79968262 128.14218140 0.7458399534 114.35103607 0.8594634533  -999.250000 0.8600176573
 1848.5941162 6.0000000000 18.077999115 0.0079911863  -999.250000  -999.250000 2.2475845814  -999.250000 84.541000366 130.20671082 127.59721375 0.7526183128 114.55483246 0.8706419468  -999.250000 0.8710144162
 1848.7464600 6.0000000000 18.077999115 0.0149887903  -999.250000  -999.250000 2.2505493164  -999.250000 84.563003540 129.30104065 126.77696228 0.7611725926 114.18824768 0.8880106211  -999.250000 0.8890184164
 1848.8989258 5.0000000000 18.077999115 0.0110032046  -999.250000  -999.250000 2.2525813580  -999.250000 78.608001709 128.43571472 125.86149597 0.7660878301 114.22276306 0.9112639427  -999.250000 0.9120104313
 1849.0512695 5.0000000000 18.077999115 0.0169903934  -999.250000  -999.250000 2.2592041492  -999.250000 76.916999817 127.91294861 125.34319305 0.7726334333 114.20504761 0.9248332977  -999.250000 0.9250048399
 1849.2037354 5.0000000000 18.077999115 0.0170000009  -999.250000  -999.250000 2.2692270279  -999.250000 71.029998779 128.24049377 125.57680511 0.7755934596 113.99309540 0.9305808544  -999.250000 0.9309976101
 1849.3560791 5.0000000000 18.077999115 0.0299791824  -999.250000  -999.250000 2.2740941048  -999.250000 76.515998840 128.40299988 125.88589478 0.7745864391 114.47712708 0.9277057052  -999.250000 0.9279967546
 1849.5085449 5.0000000000 18.077999115 0.0190088134  -999.250000  -999.250000 2.2699081898  -999.250000 80.041999817 128.03218079 125.41372681 0.7765694261 114.87889099 0.9237969518  -999.250000 0.9239912033
 1849.6608887 5.0000000000 18.077999115 0.0150032043  -999.250000  -999.250000 2.2627799511  -999.250000 85.813003540 128.34596252 125.67041779 0.7785790563 114.97608948 0.9134308696  -999.250000 0.9129976034
 1849.8133545 6.0000000000 18.077999115 0.0060072057  -999.250000  -999.250000 2.2606744766  -999.250000 84.822998047 128.43319702 125.88074493 0.7792398930 114.54283142 0.9103844762  -999.250000 0.9100096226
 1849.9656982 6.0000000000 18.077999115 -0.000994391  -999.250000  -999.250000 2.2674775124  -999.250000 78.613998413 128.22143555 125.64044952 0.7780033350 115.04039764 0.9161922932  -999.250000 0.9160072207
 1850.1181641 6.0000000000 18.077999115 0.0079927947  -999.250000  -999.250000 2.2780547142  -999.250000 79.552001953 128.19467163 125.60890198 0.7774010301 115.42096710 0.9251854420  -999.250000 0.9250063896
 1850.2705078 6.0000000000 18.077999115 0.0169927888  -999.250000  -999.250000 2.2855167389  -999.250000 79.916999817 127.28037262 124.70256042 0.7799303532 115.41571045 0.9284254313  -999.250000 0.9290016294
 1850.4229736 6.0000000000 18.080999374 0.0269919951  -999.250000  -999.250000 2.2912273407  -999.250000 85.322998047 126.92057800 124.40835571 0.7811357975 115.34665680 0.9308666587  -999.250000 0.9309967756
 1850.5753174 6.0000000000 18.086000443 0.0230032057  -999.250000  -999.250000 2.3015997410  -999.250000 81.002998352 127.07137299 124.44660187 0.7846990824 114.77415466 0.9289965630  -999.250000 0.9290056229
 1850.7276611 6.0000000000 18.083000183 0.0160112102  -999.250000  -999.250000 2.3176052570  -999.250000 78.786003113 126.72029114 124.12366486 0.7903262973 114.48324585 0.9360350370  -999.250000 0.9360111952
 1850.8801270 6.0000000000 18.077999115 0.0419791676  -999.250000  -999.250000 2.3251760006  -999.250000 76.391998291 126.44650269 123.84371948 0.7953268886 114.96819305 0.9495154619  -999.250000 0.9500111938
 1851.0324707 6.0000000000 18.077999115 0.0449951962  -999.250000  -999.250000 2.3123991489  -999.250000 76.989997864 126.29309845 123.76068115 0.8019294739 114.65145874 0.9636654258  -999.250000 0.9640039802
 1851.1849365 6.0000000000 18.077999115 0.0450000018  -999.250000  -999.250000 2.2848320007  -999.250000 77.749000549 124.08083344 121.46270752 0.8117883801 114.69888306 0.9692128301  -999.250000 0.9690127969
 1851.3372803 6.0000000000 18.077999115 0.0140496399  -999.250000  -999.250000 2.2596747875  -999.250000 75.635002136 122.32654572 119.74124146 0.8172962666 114.12154388 0.9848046899  -999.250000 0.9850400686
 1851.4897461 6.0000000000 18.077999115 0.0080048079  -999.250000  -999.250000 2.2485702038  -999.250000 77.556999207 121.50706482 118.99822998 0.8161464930 114.08159637 1.0328952074  -999.250000 1.0350272655
 1851.6420898 6.0000000000 18.077999115 0.0030040063  -999.250000  -999.250000 2.2485449314  -999.250000 77.806999207 120.87976837 118.29875946 0.8085939884 114.83132172 1.0681160688  -999.250000 1.0689640045
 1851.7945557 6.0000000000 18.077999115 0.0079959976  -999.250000  -999.250000 2.2533433437  -999.250000 75.063003540 123.91031647 121.28141785 0.8033052683 114.33478546 1.0260833502  -999.250000 1.0239599943
