# LAS format log file from PETREL
# Project units are specified as depth units
#==================================================================
~Version information
VERS.   2.0:
WRAP.   NO:
#==================================================================
~Well
STRT .m      821.52105713 :
STOP .m      2574.1203613 :
STEP .m     0.00000000 :
NULL .        -999.250000 :
COMP.           : COMPANY
WELL.  31/4-8   : WELL
FLD.            : FIELD
LOC.            : LOCATION
SRVC.           : SERVICE COMPANY
DATE.  2018-09-11 14:48:38   : Log Export Date {yyyy-MM-dd HH:mm:ss}
PROV.           : PROVINCE
UWI.   31/4-8   : UNIQUE WELL ID
API.            : API NUMBER
#==================================================================
~Curve
DEPT .m                   : DEPTH
Lithology_geolink ._      : Lithology_geolink
CALI .in                  : CALI
DRHO .g/cm3               : DRHO
NPHI .m3/m3               : NPHI
RHOB .g/cm3               : RHOB
GR .gAPI                  : GR
DTC .us/ft                : DTC
DTE .us/ft                : DTE
RDEP .ohm.m               : RDEP
SP .mV                    : SP
RSHA .ohm.m               : RSHA
RMED .ohm.m               : RMED
~Parameter
#==================================================================
~Ascii
# ...
 1399.4216309  -999.250000 17.923000336 0.0419999994  -999.250000 2.0329999924 70.419837952 138.76225281 138.02601624 1.3090023994 95.930221558  -999.250000 0.6869999766
 1399.5739746  -999.250000 17.892999649 0.0439999998  -999.250000 2.0269999504 71.826873779 139.66073608 138.87237549 1.3120000362 93.710617065  -999.250000 0.6869983673
 1399.7264404  -999.250000 17.861999512 0.0419999994  -999.250000 2.0179998875 75.095382690 140.70512390 139.90270996 1.3120000362 95.731239319  -999.250000 0.6849983931
 1399.8787842  -999.250000 17.849000931 0.0370000005  -999.250000 2.0090000629 77.886764526 141.34236145 140.49551392 1.3120032549 97.130599976  -999.250000 0.6840000153
 1400.0312500  -999.250000 17.871000290 0.0340000018  -999.250000 2.0060000420 78.550476074 140.61581421 139.76707458 1.3160144091 99.129127502  -999.250000 0.6840000153
 1400.1835938  -999.250000 17.924999237 0.0379999988  -999.250000 2.0090000629 77.112152100 138.75476074 137.94099426 1.3250080347 98.589469910  -999.250000 0.6840000153
 1400.3360596  -999.250000 17.990999222 0.0450000018  -999.250000 2.0139999390 76.330627441 136.77819824 135.89581299 1.3350256681 99.179206848  -999.250000 0.6840048432
 1400.4884033  -999.250000 18.076999664 0.0500000007  -999.250000 2.0160000324 76.619773865 134.05892944 133.20578003 1.3510119915 97.439842224  -999.250000 0.6869999766
 1400.6407471  -999.250000 18.221000671 0.0520000011  -999.250000 2.0169999599 76.739807129 130.75907898 129.95669556 1.3660120964 99.729804993  -999.250000 0.6870007515
 1400.7932129  -999.250000 18.402999878 0.0529999994  -999.250000 2.0199999809 76.082527161 128.36915588 127.58645630 1.3810080290 100.74086761  -999.250000 0.6879992485
 1400.9455566  -999.250000 18.513000488 0.0549999997  -999.250000 2.0260000229 75.001731873 128.08975220 127.33199310 1.3910040855 99.330162048  -999.250000 0.6869983673
 1401.0980225  -999.250000 18.468999863 0.0579999983  -999.250000 2.0309998989 75.148880005 129.54977417 128.70881653 1.3959935904 99.529685974  -999.250000 0.6849976182
 1401.2503662  -999.250000 18.330999374 0.0599999987  -999.250000 2.0290000439 76.745437622 130.92839050 130.10649109 1.3879872561 99.139648438  -999.250000 0.6819943786
 1401.4028320  -999.250000 18.254999161 0.0610000007  -999.250000 2.0199999809 79.206031799 130.99559021 130.16416931 1.3719823360 101.20007324  -999.250000 0.6749935746
 1401.5551758  -999.250000 18.319000244 0.0610000007  -999.250000 2.0039999485 81.098480225 129.89533997 129.09387207 1.3499799967 100.05028534  -999.250000 0.6669911742
 1401.7076416  -999.250000 18.465000153 0.0599999987  -999.250000 1.9850000143 80.842208862 129.24748230 128.40258789 1.3249784708 97.909698486  -999.250000 0.6559904218
 1401.8599854  -999.250000 18.589000702 0.0610000007  -999.250000 1.9720000029 78.244079590 130.11625671 129.26635742 1.2979807854 98.780029297  -999.250000 0.6439895630
 1402.0124512  -999.250000 18.670999527 0.0649999976  -999.250000 1.9720000029 75.941848755 133.07078552 132.22827148 1.2739632130 97.569297791  -999.250000 0.6309823394
 1402.1647949  -999.250000 18.792999268 0.0710000023  -999.250000 1.9789999723 76.617454529 137.23138428 136.38508606 1.2509824038 96.509925842  -999.250000 0.6199920177
 1402.3172607  -999.250000 18.986000061 0.0780000016  -999.250000 1.9839999676 79.755485535 140.04951477 139.21954346 1.2289727926 97.661094666  -999.250000 0.6099839807
 1402.4696045  -999.250000 19.131000519 0.0799999982  -999.250000 1.9809999466 82.108116150 140.79997253 140.06875610 1.2119864225 98.970085144  -999.250000 0.5999935865
 1402.6220703  -999.250000 19.120000839 0.0729999989  -999.250000 1.9709999561 82.071029663 141.34016418 140.53764343 1.1949791908 97.830718994  -999.250000 0.5919904113
 1402.7744141  -999.250000 19.017999649 0.0610000007  -999.250000 1.9579999447 80.615165710 142.51797485 141.68740845 1.1819944382 98.278312683  -999.250000 0.5859951973
 1402.9267578  -999.250000 18.964000702 0.0500000007  -999.250000 1.9509999752 77.736618042 143.88883972 143.02012634 1.1749975681 99.909912109  -999.250000 0.5799975991
 1403.0792236  -999.250000 18.979999542 0.0489999987  -999.250000 1.9570000172 75.261985779 144.70292664 143.88613892 1.1720000505 99.790626526  -999.250000 0.5769976377
 1403.2315674  -999.250000 18.981000900 0.0570000000  -999.250000 1.9730000496 74.950492859 145.30392456 144.46444702 1.1720000505 98.080459595  -999.250000 0.5740000010
 1403.3840332  -999.250000 18.920000076 0.0649999976  -999.250000 1.9859999418 75.399642944 145.51603699 144.70211792 1.1720000505 99.900451660  -999.250000 0.5740000010
 1403.5363770  -999.250000 18.846000671 0.0659999996  -999.250000 1.9900000095 75.409988403 145.60716248 144.79750061 1.1720000505 101.71002960  -999.250000 0.5740000010
 1403.6888428  -999.250000 18.847999573 0.0630000010  -999.250000 1.9869999886 75.767707825 145.46340942 144.66600037 1.1719976664 101.74964142  -999.250000 0.5739992261
 1403.8411865  -999.250000 18.972000122 0.0649999976  -999.250000 1.9819999933 78.525787354 144.90368652 144.09764099 1.1689959764 101.30013275  -999.250000 0.5729984045
 1403.9936523  -999.250000 19.149000168 0.0719999969  -999.250000 1.9739999771 81.487625122 144.56930542 143.77670288 1.1639903784 101.46070099  -999.250000 0.5709936023
 1404.1459961  -999.250000 19.231000900 0.0780000016  -999.250000 1.9650000334 81.142280579 144.65476990 143.77713013 1.1579935551 102.51942444  -999.250000 0.5669983625
 1404.2984619  -999.250000 19.153999329 0.0769999996  -999.250000 1.9579999447 78.593048096 144.82667542 143.95755005 1.1499919891 99.301788330  -999.250000 0.5649951696
 1404.4508057  -999.250000 18.993999481 0.0710000023  -999.250000 1.9570000172 76.701515198 145.68324280 144.83306885 1.1449935436 101.03949738  -999.250000 0.5619983673
 1404.6032715  -999.250000 18.868999481 0.0659999996  -999.250000 1.9659999609 76.719985962 146.67015076 145.86891174 1.1369872093 100.40970612  -999.250000 0.5600000024
 1404.7556152  -999.250000 18.815000534 0.0659999996  -999.250000 1.9819999933 76.840904236 146.59442139 145.78967285 1.1289943457 99.599983215  -999.250000 0.5600007772
 1404.9079590  -999.250000 18.792999268 0.0640000030  -999.250000 2.0000000000 76.220993042 146.26911926 145.45506287 1.1219959259 99.579856873  -999.250000 0.5610023737
 1405.0604248  -999.250000 18.770999908 0.0570000000  -999.250000 2.0139999390 75.560523987 146.00071716 145.11720276 1.1169975996 99.400047302  -999.250000 0.5640007854
 1405.2127686  -999.250000 18.770999908 0.0500000007  -999.250000 2.0230000019 76.207962036 145.64497375 144.77983093 1.1140007973 99.460258484  -999.250000 0.5650007725
 1405.3652344  -999.250000 18.832000732 0.0480000004  -999.250000 2.0290000439 77.169227600 145.25524902 144.44190979 1.1150023937 99.780441284  -999.250000 0.5660015941
 1405.5175781  -999.250000 18.954000473 0.0509999990  -999.250000 2.0350000858 76.900436401 144.84149170 144.10452271 1.1180064678 97.840232849  -999.250000 0.5680016279
 1405.6700439  -999.250000 19.062999725 0.0579999983  -999.250000 2.0420000553 76.998924255 144.56903076 143.76660156 1.1260129213 98.139350891  -999.250000 0.5700023770
 1405.8223877  -999.250000 19.075000763 0.0649999976  -999.250000 2.0480000973 77.998199463 144.15457153 143.34432983 1.1420176029 97.330284119  -999.250000 0.5730056167
 1405.9748535  -999.250000 18.982999802 0.0680000037  -999.250000 2.0490000248 78.810348511 143.27009583 142.40499878 1.1640496254 95.191932678  -999.250000 0.5800160170
 1406.1271973  -999.250000 18.849000931 0.0640000030  -999.250000 2.0559999943 77.752845764 141.46795654 140.63088989 1.1950289011 97.639907837  -999.250000 0.5900111794
 1406.2796631  -999.250000 18.732000351 0.0579999983  -999.250000 2.0910000801 75.125106812 139.55546570 138.68858337 1.2310559750 96.280075073  -999.250000 0.6040272117
 1406.4320068  -999.250000 18.646999359 0.0570000000  -999.250000 2.1570000648 71.266090393 137.03764343 136.16668701 1.2660297155 96.949661255  -999.250000 0.6210128069
 1406.5844727  -999.250000 18.572999954 0.0649999976  -999.250000 2.2170000076 67.065361023 132.06405640 131.26213074 1.3030527830 96.530479431  -999.250000 0.6370192170
