# LAS format log file from PETREL
# Project units are specified as depth units
#==================================================================
~Version information
VERS.   2.0:
WRAP.   NO:
#==================================================================
~Well
STRT .m      821.52105713 :
STOP .m      2574.1203613 :
STEP .m     0.00000000 :
NULL .        -999.250000 :
COMP.           : COMPANY
WELL.  31/4-8   : WELL
FLD.            : FIELD
LOC.            : LOCATION
SRVC.           : SERVICE COMPANY
DATE.  2018-09-11 14:48:38   : Log Export Date {yyyy-MM-dd HH:mm:ss}
PROV.           : PROVINCE
UWI.   31/4-8   : UNIQUE WELL ID
API.            : API NUMBER
#==================================================================
~Curve
DEPT .m                   : DEPTH
Lithology_geolink ._      : Lithology_geolink
CALI .in                  : CALI
DRHO .g/cm3               : DRHO
NPHI .m3/m3               : NPHI
RHOB .g/cm3               : RHOB
GR .gAPI                  : GR
DTC .us/ft                : DTC
DTE .us/ft                : DTE
RDEP .ohm.m               : RDEP
SP .mV                    : SP
RSHA .ohm.m               : RSHA
RMED .ohm.m               : RMED
~Parameter
#==================================================================
~Ascii
# ...
 2226.0388184 2.0000000000 12.269000053 0.0200064089 0.2634508610 2.2940030098 72.768905640 90.079254150 89.991752625 1.2640000582 40.680999756  -999.250000 1.1619999409
 2226.1914063 2.0000000000 12.266999245 0.0209983978 0.2621442676 2.2949984074 73.480857849 90.799026489 90.769462585 1.2289999723 39.660999298  -999.250000 1.1169999838
 2226.3437500 2.0000000000 12.262999535 0.0229936000 0.2610634565 2.2920095921 74.207672119 91.537132263 91.429641724 1.2510000467 40.119998932  -999.250000 1.0980000496
 2226.4960938 2.0000000000 12.260999680 0.0230000000 0.2607614398 2.2900063992 74.141220093 92.355476379 92.208961487 1.2130000591 39.558998108  -999.250000 1.0889999866
 2226.6484375 2.0000000000 12.262999535 0.0239967946 0.2587497234 2.2919936180 72.437477112 93.124496460 93.054191589 1.2500000000 41.049999237  -999.250000 1.1069999933
 2226.8010254 2.0000000000 12.266999245 0.0269951932 0.2551116645 2.2999870777 69.805221558 93.374534607 93.310676575 1.2120000124 41.340999603  -999.250000 1.1569999456
 2226.9533691 2.0000000000 12.270001411 0.0309871994 0.2536745965 2.3109648228 67.907081604 93.022201538 93.018692017 1.2239999771 39.930000305  -999.250000 1.1779999733
 2227.1057129 2.0000000000 12.270001411 0.0339903869 0.2572285533 2.3179776669 67.081634521 93.039199829 92.949966431 1.1890000105 40.229999542  -999.250000 1.0909999609
 2227.2580566 2.0000000000 12.270999908 0.0320064127 0.2634201944 2.3130159378 68.025955200 93.315292358 93.399429321 1.2380000353 40.490001678  -999.250000 1.1770000458
 2227.4106445 2.0000000000 12.277001381 0.0230144225 0.2666696608 2.2990224361 70.175552368 94.116127014 94.133537292 1.2619999647 40.469001770  -999.250000 1.1590000391
 2227.5629883 2.0000000000 12.284999847 0.0140288007 0.2651050687 2.2910254002 70.825927734 94.557334900 94.446571350 1.2749999762 41.119998932  -999.250000 1.2640000582
 2227.7153320 2.0000000000 12.288999557 0.0080192313 0.2649105787 2.3019647598 70.083396912 93.894546509 93.657196045 1.3450000286 41.201000214  -999.250000 1.2589999437
 2227.8676758 2.0000000000 12.289999962 0.0099935895 0.2724336982 2.3299102783 68.973564148 91.634963989 91.684928894 1.2500000000 40.349998474  -999.250000 1.0549999475
 2228.0200195 2.0000000000 12.289999962 0.0159807708 0.2846212983 2.3549199104 68.849388123 89.650474548 89.649795532 1.2799999714 40.671001434  -999.250000 1.1720000505
 2228.1726074 2.0000000000 12.289999962 0.0239871796 0.2911691368 2.3609905243 70.396514893 88.967262268 88.915168762 1.4110000134 39.509998322  -999.250000 1.3380000591
 2228.3249512 2.0000000000 12.289999962 0.0269904006 0.2871828675 2.3500351906 72.382629395 89.981521606 89.739830017 1.5279999971 39.679000854  -999.250000 1.5729999542
 2228.4772949 2.0000000000 12.289999962 0.0230128206 0.2763820291 2.3330545425 74.243041992 91.275268555 91.195320129 1.6840000153 40.311000824  -999.250000 1.6469999552
 2228.6296387 2.0000000000 12.290999413 0.0160224363 0.2642384171 2.3280160427 75.574737549 92.289085388 92.294700623 1.6069999933 39.569999695  -999.250000 1.6019999981
 2228.7822266 2.0000000000 12.293000221 0.0120064104 0.2547204196 2.3509631157 75.143699646 91.724723816 91.722900391 1.4010000229 40.229999542  -999.250000 1.3789999485
 2228.9345703 2.0000000000 12.293999672 0.0159872007 0.2498555332 2.3948590755 72.581222534 88.552307129 88.298614502 1.2920000553 40.408000946  -999.250000 1.2649999857
 2229.0869141 2.0000000000 12.291999817 0.0259679500 0.2483348399 2.4298877716 69.600563049 83.055877686 83.030754089 1.3780000210 39.699001312  -999.250000 1.3320000172
 2229.2392578 2.0000000000 12.288000107 0.0329775624 0.2474940419 2.4319934845 68.840408325 79.143119812 79.155532837 1.6499999762 40.540000916  -999.250000 1.6269999743
 2229.3918457 2.0000000000 12.286000252 0.0310032051 0.2468620390 2.4080383778 71.431831360 79.458114624 79.352760315 2.1740000248 39.849105835  -999.250000 2.1170001030
 2229.5441895 2.0000000000 12.288000107 0.0240224004 0.2479066402 2.3850736618 75.694328308 83.698341370 83.561256409 2.5880000591 38.671340942  -999.250000 2.6470000744
 2229.6965332 2.0000000000 12.289999962 0.0170224365 0.2493055165 2.3840031624 78.501022339 88.262519836 88.296501160 2.7530000210 40.128944397  -999.250000 2.8680000305
 2229.8488770 2.0000000000 12.289999962 0.0120160254 0.2465433478 2.4109134674 78.352500916 90.614471436 90.513793945 2.4509999752 39.470001221  -999.250000 2.5969998837
 2230.0012207 2.0000000000 12.290999413 0.0070160259 0.2367273420 2.4608397484 75.750358582 89.475036621 89.369537354 2.0090000629 39.238998413  -999.250000 1.9869999886
 2230.1538086 2.0000000000 12.290999413 0.0070000002 0.2198341787 2.5247952938 72.152519226 85.111389160 84.991600037 1.7009999752 39.496677399  -999.250000 1.6540000439
 2230.3061523 2.0000000000 12.286999702 0.0099903848 0.1979801059 2.5748398304 68.592414856 79.014770508 79.111129761 1.8569999933 38.672893524  -999.250000 1.7369999886
 2230.4584961 16.000000000 12.277999878 0.0149839744 0.1777870357 2.5899517536 64.535011292 73.290679932 73.349571228 2.4660000801 39.229999542  -999.250000 2.4309999943
 2230.6108398 16.000000000 12.270999908 0.0179903843 0.1671907306 2.5670735836 60.982383728 68.930679321 68.945388794 3.8970000744 38.580001831  -999.250000 3.8689999580
 2230.7634277 16.000000000 12.270001411 0.0199967939 0.1712567806 2.5200753212 59.920684814 68.851898193 68.631454468 7.9510002136 38.530670166  -999.250000 7.7239999771
 2230.9157715 16.000000000 12.270001411 0.0190031994 0.1894914061 2.4721534252 61.373329163 72.962966919 72.907127380 12.859000206 39.568946838  -999.250000 12.475000381
 2231.0681152 2.0000000000 12.270001411 0.0189999994 0.2138917148 2.4381089211 65.284439087 78.702232361 78.714080811 10.135999680 38.289619446  -999.250000 9.7659997940
 2231.2204590 2.0000000000 12.270001411 0.0199967939 0.2334075123 2.4230482578 70.231132507 83.476493835 83.467643738 6.3119997978 37.429000854  -999.250000 6.2100000381
 2231.3730469 2.0000000000 12.270001411 0.0239935908 0.2415270656 2.4230000973 74.551086426 86.534393311 86.268531799 4.4400000572 38.599918365  -999.250000 4.4990000725
 2231.5253906 2.0000000000 12.270001411 0.0289839990 0.2390180826 2.4329681396 76.820739746 87.110717773 87.072235107 3.2869999409 38.548248291  -999.250000 3.3090000153
 2231.6777344 2.0000000000 12.269000053 0.0309935901 0.2331588119 2.4439647198 75.924903870 86.146934509 86.119407654 2.9709999561 38.079681396  -999.250000 2.9360001087
 2231.8300781 2.0000000000 12.266999245 0.0300032049 0.2279666364 2.4469904900 73.091102600 84.418716431 84.276107788 3.1029999256 37.880001068  -999.250000 3.1449999809
 2231.9824219 2.0000000000 12.265000343 0.0299999993 0.2259963006 2.4320480824 70.021842957 83.253677368 83.043159485 3.5169999599 37.828998566  -999.250000 3.4869999886
 2232.1350098 2.0000000000 12.265000343 0.0299999993 0.2311833352 2.4060831070 68.483901978 83.990509033 83.997337341 3.7039999962 38.859184265  -999.250000 3.7369999886
 2232.2873535 2.0000000000 12.265999794 0.0290032048 0.2448859960 2.3790864944 70.381881714 87.259544373 87.167716980 3.4260001183 37.730777740  -999.250000 3.3399999142
 2232.4396973 2.0000000000 12.267999649 0.0280032065 0.2611079812 2.3580672741 73.100280762 90.939338684 90.850357056 2.6960000992 38.840000153  -999.250000 2.6010000706
 2232.5920410 2.0000000000 12.270001411 0.0240128208 0.2723839283 2.3400576115 74.126724243 93.399848938 93.176651001 2.1659998894 38.349998474  -999.250000 2.1909999847
 2232.7446289 2.0000000000 12.270001411 0.0190080125 0.2792091072 2.3230271339 74.522369385 94.022377014 94.040260315 1.9739999771 38.779792786  -999.250000 2.0009999275
 2232.8969727 2.0000000000 12.270999908 0.0150127998 0.2849316895 2.3110384941 75.799903870 94.149940491 94.183227539 1.6349999905 38.651847839  -999.250000 1.6490000486
 2233.0493164 2.0000000000 12.273999214 0.0130064106 0.2895551920 2.3080096245 77.712867737 93.937248230 93.913459778 1.4639999866 39.180328369  -999.250000 1.4459999800
 2233.2016602 2.0000000000 12.281000137 0.0149935894 0.2908957303 2.3129839897 78.806503296 93.859062195 93.685966492 1.4769999981 40.008998871  -999.250000 1.4620000124
