# LAS format log file from PETREL
# Project units are specified as depth units
#==================================================================
~Version information
VERS.   2.0:
WRAP.   NO:
#==================================================================
~Well
STRT .m      895.02691650 :
STOP .m      2933.5300293 :
STEP .m     0.00000000 :
NULL .        -999.250000 :
COMP.           : COMPANY
WELL.  31/4-5   : WELL
FLD.            : FIELD
LOC.            : LOCATION
SRVC.           : SERVICE COMPANY
DATE.  2018-09-11 14:48:38   : Log Export Date {yyyy-MM-dd HH:mm:ss}
PROV.           : PROVINCE
UWI.   31/4-5   : UNIQUE WELL ID
API.            : API NUMBER
#==================================================================
~Curve
DEPT .m                   : DEPTH
Lithology_geolink ._      : Lithology_geolink
CALI .in                  : CALI
DRHO .g/cm3               : DRHO
SGR .gAPI                 : SGR
NPHI .m3/m3               : NPHI
RHOB .g/cm3               : RHOB
PEF .b/e                  : PEF
GR .gAPI                  : GR
DTC .us/ft                : DTC
DTE .us/ft                : DTE
RDEP .ohm.m               : RDEP
SP .mV                    : SP
RSHA .ohm.m               : RSHA
RMIC .ohm.m               : RMIC
RMED .ohm.m               : RMED
~Parameter
#==================================================================
~Ascii
 895.02691650  -999.250000 19.391000748 -1.435448289  -999.250000  -999.250000 1.9688831568  -999.250000 60.340114594 142.15332031 141.25122070 1.6178834438 121.84030151 1.4055546522  -999.250000 1.4069038630
 895.17932129  -999.250000 19.386999130 -1.416072130  -999.250000  -999.250000 1.9687427282  -999.250000 56.237644196 142.20429993 141.28958130 1.6220388412 121.81290436 1.3607280254  -999.250000 1.3591537476
 895.33172607  -999.250000 19.382999420 -1.363191009  -999.250000  -999.250000 1.9654824734  -999.250000 51.812774658 143.11737061 142.18463135 1.6089166403 121.63480377 1.4015312195  -999.250000 1.4038559198
 895.48406982  -999.250000 19.385999680 -1.359015942  -999.250000  -999.250000 1.9556841850  -999.250000 53.785415649 145.73117065 144.83825684 1.6193180084 121.60061646 1.3930424452  -999.250000 1.3920432329
 895.63647461  -999.250000 19.391000748 -1.342068076  -999.250000  -999.250000 1.9595971107  -999.250000 57.720844269 144.65757751 143.78153992 1.6060423851 121.30084229 1.4561094046  -999.250000 1.4587584734
 895.78887939  -999.250000 19.391000748 -1.366899848  -999.250000  -999.250000 1.9698321819  -999.250000 60.695621490 141.95851135 141.00770569 1.5916820765 121.30927277 1.3462195396  -999.250000 1.3414252996
 895.94128418  -999.250000 19.391000748 -1.360028028  -999.250000  -999.250000 1.9748674631  -999.250000 58.131031036 140.54769897 139.65440369 1.5592050552 121.39952087 1.4188654423  -999.250000 1.4217081070
 896.09368896  -999.250000 19.391000748 -1.348048091  -999.250000  -999.250000 1.9716461897  -999.250000 55.355110168 141.41317749 140.53028870 1.5470813513 121.46257782 1.3403748274  -999.250000 1.3373063803
 896.24609375  -999.250000 19.391000748 -1.451583505  -999.250000  -999.250000 1.9592545033  -999.250000 55.897781372 144.76098633 143.86540222 1.5266431570 121.21662903 1.4142258167  -999.250000 1.4177080393
 896.39849854  -999.250000 19.391000748 -1.391244292  -999.250000  -999.250000 1.9488732815  -999.250000 54.880409241 147.66798401 146.73388672 1.5583143234 121.19011688 1.3300957680  -999.250000 1.3263316154
 896.55090332  -999.250000 19.386999130 -1.382035971  -999.250000  -999.250000 1.9436136484  -999.250000 53.607509613 149.11157227 148.21192932 1.5418834686 121.40872955 1.3935475349  -999.250000 1.3967440128
 896.70330811  -999.250000 19.379999161 -1.246544719  -999.250000  -999.250000 1.9443242550  -999.250000 51.639789581 148.90542603 147.99607849 1.5407596827 121.14809418 1.3520885706  -999.250000 1.3501507044
 896.85571289  -999.250000 19.375000000 -1.153372407  -999.250000  -999.250000 1.9434270859  -999.250000 54.158988953 149.17779541 148.25444031 1.5216431618 120.92548370 1.4039503336  -999.250000 1.4058206081
 897.00811768  -999.250000 19.375000000 -1.186863899  -999.250000  -999.250000 1.9462999105  -999.250000 56.181190491 148.34654236 147.45808411 1.5154805183 121.11483765 1.3618482351  -999.250000 1.3601473570
 897.16052246  -999.250000 19.375000000 -1.189989209  -999.250000  -999.250000 1.9519288540  -999.250000 57.087638855 146.77297974 145.87239075 1.4798058271 121.34911346 1.4148302078  -999.250000 1.4168174267
 897.31292725  -999.250000 19.378000259 -1.395257592  -999.250000  -999.250000 1.9528162479  -999.250000 59.274124146 146.50270081 145.61416626 1.4732403755 121.54631805 1.3288553953  -999.250000 1.3252948523
 897.46533203  -999.250000 19.382999420 -1.734774470  -999.250000  -999.250000 1.9551470280  -999.250000 58.753208160 145.90397644 144.98628235 1.4747604132 121.82379150 1.3019165993  -999.250000 1.3010768890
 897.61767578  -999.250000 19.382999420 -2.025834560  -999.250000  -999.250000 1.9528352022  -999.250000 58.944847107 146.53739929 145.63259888 1.4468445778 122.27372742 1.2155338526  -999.250000 1.2123208046
 897.77008057  -999.250000 19.379999161 -1.796925068  -999.250000  -999.250000 1.9463515282  -999.250000 55.734573364 148.33020020 147.43127441 1.4447597265 122.11674500 1.2427136898  -999.250000 1.2438845634
 897.92248535  -999.250000 19.375000000 -1.451385736  -999.250000  -999.250000 1.9482998848  -999.250000 53.347911835 147.80033875 146.87268066 1.4581978321 121.86611176 1.2286431789  -999.250000 1.2270612717
 898.07489014  -999.250000 19.381999969 -1.567527413  -999.250000  -999.250000 1.9533404112  -999.250000 51.237842560 146.38766479 145.48135376 1.4547208548 121.98709869 1.2717524767  -999.250000 1.2738306522
 898.22729492  -999.250000 19.391000748 -1.917594314  -999.250000  -999.250000 1.9567134380  -999.250000 52.064666748 145.44692993 144.55798340 1.4742367268 121.76074219 1.3413496017  -999.250000 1.3437477350
 898.37969971  -999.250000 19.391000748 -2.079355240  -999.250000  -999.250000 1.9587918520  -999.250000 53.015617371 144.86212158 143.98080444 1.5183532238 121.32627106 1.3148057461  -999.250000 1.3131116629
 898.53210449  -999.250000 19.391000748 -1.785185456  -999.250000  -999.250000 1.9657186270  -999.250000 51.834472656 143.02534485 142.10566711 1.5389575958 120.99205017 1.4481374025  -999.250000 1.4534918070
 898.68450928  -999.250000 19.391000748 -1.666472554  -999.250000  -999.250000 1.9644865990  -999.250000 53.321403503 143.33782959 142.43524170 1.5445194244 120.62599945 1.3631769419  -999.250000 1.3593044281
 898.83691406  -999.250000 19.391000748 -1.828347206  -999.250000  -999.250000 1.9593082666  -999.250000 54.699447632 144.71223450 143.84098816 1.5705158710 120.82411957 1.4484237432  -999.250000 1.4517021179
 898.98931885  -999.250000 19.391000748 -1.931587577  -999.250000  -999.250000 1.9546298981  -999.250000 55.585643768 146.10244751 145.14201355 1.5722403526 121.07411957 1.3537777662  -999.250000 1.3493299484
 899.14172363  -999.250000 19.391000748 -1.726742744  -999.250000  -999.250000 1.9444290400  -999.250000 56.772521973 148.87266541 147.98791504 1.5728797913 121.32411957 1.3645159006  -999.250000 1.3659455776
 899.29412842  -999.250000 19.391000748 -1.520742416  -999.250000  -999.250000 1.9479645491  -999.250000 57.389751434 147.91535950 147.01095581 1.6002755165 121.16046143 1.3477632999  -999.250000 1.3470609188
 899.44653320  -999.250000 19.391000748 -1.424346089  -999.250000  -999.250000 1.9622436762  -999.250000 57.838821411 143.93902588 143.05984497 1.6110416651 120.41502380 1.3652448654  -999.250000 1.3659391403
 899.59887695  -999.250000 19.391000748 -1.500691652  -999.250000  -999.250000 1.9735969305  -999.250000 56.358184814 140.92840576 139.98797607 1.5732862949 120.11611176 1.3908762932  -999.250000 1.3909099102
 899.75128174  -999.250000 19.391000748 -1.493032098  -999.250000  -999.250000 1.9782323837  -999.250000 58.852001190 139.68167114 138.77960205 1.5354453325 120.32411957 1.3112934828  -999.250000 1.3082991838
 899.90368652  -999.250000 19.391000748 -1.483040094  -999.250000  -999.250000 1.9793865681  -999.250000 59.093811035 139.37969971 138.48283386 1.5169223547 120.33481598 1.3607100248  -999.250000 1.3628017902
 900.05609131  -999.250000 19.391000748 -1.435192227  -999.250000  -999.250000 1.9707868099  -999.250000 55.371490479 141.69824219 140.76876831 1.4833251238 119.97631073 1.2730957270  -999.250000 1.2693388462
 900.20849609  -999.250000 19.391000748 -1.480815768  -999.250000  -999.250000 1.9569518566  -999.250000 50.793834686 145.39842224 144.50328064 1.4622827768 119.85314941 1.3110315800  -999.250000 1.3128414154
 900.36090088  -999.250000 19.391000748 -1.765854597  -999.250000  -999.250000 1.9443787336  -999.250000 47.801197052 148.92324829 148.02430725 1.4863957167 120.07408142 1.2388130426  -999.250000 1.2352811098
 900.51330566  -999.250000 19.386999130 -1.716204166  -999.250000  -999.250000 1.9377920628  -999.250000 45.415954590 150.78208923 149.87913513 1.4900000095 120.41102600 1.2851905823  -999.250000 1.2868125439
 900.66571045  -999.250000 19.385999680 -1.656240344  -999.250000  -999.250000 1.9435186386  -999.250000 44.188491821 149.18579102 148.23783875 1.4961589575 120.89812469 1.3053179979  -999.250000 1.3049350977
 900.81811523  -999.250000 19.396999359 -1.386085272  -999.250000  -999.250000 1.9527591467  -999.250000 46.212188721 146.58009338 145.65550232 1.4820424318 121.13695526 1.2814841270  -999.250000 1.2810769081
