# LAS format log file from PETREL
# Project units are specified as depth units
#==================================================================
~Version information
VERS.   2.0:
WRAP.   NO:
#==================================================================
~Well
STRT .m      996.03363037 :
STOP .m      2328.0097656 :
STEP .m     0.00000000 :
NULL .        -999.250000 :
COMP.           : COMPANY
WELL.  31/4-10   : WELL
FLD.            : FIELD
LOC.            : LOCATION
SRVC.           : SERVICE COMPANY
DATE.  2018-09-11 14:48:36   : Log Export Date {yyyy-MM-dd HH:mm:ss}
PROV.           : PROVINCE
UWI.   31/4-10   : UNIQUE WELL ID
API.            : API NUMBER
#==================================================================
~Curve
DEPT .m                   : DEPTH
Lithology_geolink ._      : Lithology_geolink
CALI .in                  : CALI
DRHO .g/cm3               : DRHO
NPHI .m3/m3               : NPHI
RHOB .g/cm3               : RHOB
GR .gAPI                  : GR
DTC .us/ft                : DTC
RDEP .ohm.m               : RDEP
SP .mV                    : SP
RSHA .ohm.m               : RSHA
RMED .ohm.m               : RMED
~Parameter
#==================================================================
~Ascii
# ...
 1703.3221436  -999.250000 12.273399353  -999.250000  -999.250000 2.0056416988 56.732757568 138.39468384 0.8668083549 152.58233643 1.6826295853 1.0742900372
 1703.4744873  -999.250000 12.273460388  -999.250000  -999.250000 2.0103328228 58.273872375 137.89297485 0.8459607363 151.49960327 1.4684460163 0.7825787067
 1703.6269531  -999.250000 12.281240463  -999.250000  -999.250000 2.0203137398 61.344108582 136.96838379 0.8539286256 150.79116821 1.4235454798 0.8683083057
 1703.7792969  -999.250000 12.273399353  -999.250000  -999.250000 2.0624659061 68.230010986 133.52290344 0.8903882504 150.41673279 1.3958580494 0.8597911596
 1703.9316406  -999.250000 12.273339272  -999.250000  -999.250000 2.0336809158 65.666770935 136.38909912 0.9401167631 150.79167175 1.4420922995 1.1129293442
 1704.0841064  -999.250000 12.265489578  -999.250000  -999.250000 2.0348918438 63.099273682 135.27014160 0.9790497422 151.12440491 1.5261441469 0.9821897745
 1704.2364502  -999.250000 12.250168800  -999.250000  -999.250000 2.0422718525 55.796703339 131.46940613 1.0373778343 150.66673279 1.4939318895 0.8168861270
 1704.3889160  -999.250000 12.273399353  -999.250000  -999.250000 2.0696563721 57.656566620 127.49205017 1.1208274364 150.83352661 1.5823203325 1.1726315022
 1704.5412598  -999.250000 12.273339272  -999.250000  -999.250000 2.0651922226 53.653038025 126.30812073 1.1501680613 150.95826721 1.3645042181 0.9824346900
 1704.6937256  -999.250000 12.265389442  -999.250000  -999.250000 2.0592675209 53.255977631 127.20645142 1.1339049339 150.87500000 1.2814561129 0.9373562932
 1704.8460693  -999.250000 12.234399796  -999.250000  -999.250000 2.0563821793 54.042533875 128.13931274 1.1475416422 150.91673279 1.6932590008 0.9329260588
 1704.9985352  -999.250000 12.234450340  -999.250000  -999.250000 2.0316188335 55.460994720 133.27381897 1.1521066427 150.95823669 1.9211889505 1.1214746237
 1705.1508789  -999.250000 12.242199898  -999.250000  -999.250000 2.0550858974 58.533298492 130.31121826 1.0618609190 150.79153442 1.3251186609 0.8218337297
 1705.3033447  -999.250000 12.242199898  -999.250000  -999.250000 2.0474278927 58.812175751 131.70111084 1.0442392826 150.54147339 1.4406481981 0.8769096732
 1705.4556885  -999.250000 12.242259979  -999.250000  -999.250000 2.0548715591 62.173992157 131.88722229 1.0157018900 150.16633606 1.4675397873 0.9551945329
 1705.6081543  -999.250000 12.249939919  -999.250000  -999.250000 2.0603866577 60.452121735 130.28173828 1.0030765533 149.91706848 1.4349465370 1.0428528786
 1705.7604980  -999.250000 12.242259979  -999.250000  -999.250000 2.0682272911 58.591415405 128.18861389 0.9791060090 150.50039673 1.4712396860 1.0174704790
 1705.9129639  -999.250000 12.250000954  -999.250000  -999.250000 2.0648226738 54.322254181 126.70095825 1.0694950819 151.37590027 1.1748132706 1.3058234453
 1706.0653076  -999.250000 12.250000954  -999.250000  -999.250000 2.0678107738 55.389644623 126.68431854 1.1132210493 152.33383179 1.6113425493 1.1096010208
 1706.2176514  -999.250000 12.250000954  -999.250000  -999.250000 2.0724945068 53.251022339 124.71973419 1.1033270359 152.91693115 1.4901300669 1.0351209641
 1706.3701172  -999.250000 12.250000954  -999.250000  -999.250000 2.0607266426 53.379833221 127.00452423 1.1433513165 153.12469482 1.7190749645 1.3567521572
 1706.5224609  -999.250000 12.249550819  -999.250000  -999.250000 2.0588834286 54.049949646 127.65954590 1.1236619949 152.70806885 2.2684121132 1.0540273190
 1706.6749268  -999.250000 12.187400818  -999.250000  -999.250000 2.1078886986 60.240535736 122.84742737 1.0700458288 152.16616821 1.6569403410 1.2053725719
 1706.8272705  -999.250000 12.171730995  -999.250000  -999.250000 2.1685435772 63.078090668 116.01574707 1.1422896385 151.66653442 1.6212979555 1.0863389969
 1706.9797363  -999.250000 12.148349762  -999.250000  -999.250000 2.2304368019 61.104167938 106.20999146 1.3568762541 151.33293152 1.6490242481 1.2204954624
 1707.1320801  -999.250000 12.140708923  -999.250000  -999.250000 2.3138339520 58.342136383 94.835037231 1.8733220100 150.83306885 2.1281023026 1.8915741444
 1707.2845459  -999.250000 12.156530380  -999.250000  -999.250000 2.4361402988 54.204277039 77.533706665 3.2127912045 150.75059509 5.0890932083 2.8433518410
 1707.4368896  -999.250000 12.187439919  -999.250000  -999.250000 2.2915258408 52.589473724 93.173355103 4.1317701340 151.45866394 16.036560059 3.7694933414
 1707.5893555  -999.250000 12.180109024  -999.250000  -999.250000 2.1938331127 48.104248047 103.77950287 3.1270296574 151.87500000 14.693986893 2.6957595348
 1707.7416992  -999.250000 12.234890938  -999.250000  -999.250000 2.1421451569 49.273117065 113.95297241 2.4498965740 151.87500000 10.252740860 2.3490960598
 1707.8941650  -999.250000 12.304759026  -999.250000  -999.250000 2.1112053394 52.238159180 121.42061615 1.8739095926 151.58262634 2.7460536957 1.9242513180
 1708.0465088  -999.250000 12.312499046  -999.250000  -999.250000 2.0784316063 54.418899536 124.29764557 1.4775704145 150.91647339 2.5292143822 1.3919526339
 1708.1988525  -999.250000 12.312499046  -999.250000  -999.250000 2.0989158154 60.064792633 124.10496521 1.2934507132 150.45787048 2.2574300766 1.3714133501
 1708.3513184  -999.250000 12.312499046  -999.250000  -999.250000 2.0962507725 60.356227875 124.68583679 1.2380627394 149.70793152 1.7381886244 1.1535403728
 1708.5036621  -999.250000 12.312499046  -999.250000  -999.250000 2.1148173809 61.947254181 122.85894012 1.1815224886 149.50019836 1.8524730206 1.1977812052
 1708.6561279  -999.250000 12.312499046  -999.250000  -999.250000 2.1376943588 59.294540405 117.78127289 1.2096414566 150.08413696 1.7265162468 1.2219207287
 1708.8084717  -999.250000 12.312499046  -999.250000  -999.250000 2.1645197868 61.031368256 115.11949158 1.2937986851 150.87519836 1.8480980396 1.4707927704
 1708.9609375  -999.250000 12.312068939  -999.250000  -999.250000 2.1666665077 64.963356018 117.60846710 1.3683518171 151.12500000 2.2737126350 1.3332378864
 1709.1132813  -999.250000 12.249939919  -999.250000  -999.250000 2.1745834351 68.399681091 118.94964600 1.3493435383 150.95806885 2.3234794140 1.3493472338
 1709.2657471  -999.250000 12.242199898  -999.250000  -999.250000 2.1390211582 71.514694214 125.49284363 1.2414277792 150.70852661 2.7180535793 1.3420480490
 1709.4180908  -999.250000 12.242420197  -999.250000  -999.250000 2.1509444714 73.109306335 125.08255768 1.1902168989 150.95846558 2.0095589161 1.2590295076
 1709.5705566  -999.250000 12.273630142  -999.250000  -999.250000 2.1576187611 71.081642151 122.91286469 1.2562836409 151.33383179 1.9747213125 1.1128195524
 1709.7229004  -999.250000 12.304759026  -999.250000  -999.250000 2.1239080429 66.275810242 124.19969940 1.3314253092 151.95866394 1.4522391558 1.3363987207
 1709.8753662  -999.250000 12.312499046  -999.250000  -999.250000 2.1040389538 61.584865570 124.19820404 1.2708092928 152.58383179 1.2171404362 1.3080867529
 1710.0277100  -999.250000 12.312609673  -999.250000  -999.250000 2.1014842987 60.591617584 124.01451874 1.2603780031 152.95826721 1.4844830036 0.9874415994
 1710.1800537  -999.250000 12.327988625  -999.250000  -999.250000 2.0880234241 60.297851563 125.91227722 1.2054522038 153.00000000 2.4966509342 0.9551445246
 1710.3325195  -999.250000 12.312499046  -999.250000  -999.250000 2.0711057186 58.486122131 127.63346100 1.1258215904 153.29176331 1.8436458111 1.0823698044
 1710.4848633  -999.250000 12.312499046  -999.250000  -999.250000 2.0396902561 56.667457581 132.19880676 1.1029086113 153.54193115 1.5779745579 0.8590043783
 1710.6373291  -999.250000 12.312450409  -999.250000  -999.250000 2.0336408615 54.180938721 132.47096252 1.1287212372 153.83323669 1.6859657764 1.0097366571
 1710.7896729  -999.250000 12.304530144  -999.250000  -999.250000 2.0509340763 53.320209503 128.80867004 1.1315176487 153.66653442 1.6171998978 1.1714656353
 1710.9421387  -999.250000 12.281250000  -999.250000  -999.250000 2.0473649502 54.283107758 129.89093018 1.1210646629 153.58352661 1.6170719862 1.1548554897
