# LAS format log file from PETREL
# Project units are specified as depth units
#==================================================================
~Version information
VERS.   2.0:
WRAP.   NO:
#==================================================================
~Well
STRT .m      996.03363037 :
STOP .m      2328.0097656 :
STEP .m     0.00000000 :
NULL .        -999.250000 :
COMP.           : COMPANY
WELL.  31/4-10   : WELL
FLD.            : FIELD
LOC.            : LOCATION
SRVC.           : SERVICE COMPANY
DATE.  2018-09-11 14:48:36   : Log Export Date {yyyy-MM-dd HH:mm:ss}
PROV.           : PROVINCE
UWI.   31/4-10   : UNIQUE WELL ID
API.            : API NUMBER
#==================================================================
~Curve
DEPT .m                   : DEPTH
Lithology_geolink ._      : Lithology_geolink
CALI .in                  : CALI
DRHO .g/cm3               : DRHO
NPHI .m3/m3               : NPHI
RHOB .g/cm3               : RHOB
GR .gAPI                  : GR
DTC .us/ft                : DTC
RDEP .ohm.m               : RDEP
SP .mV                    : SP
RSHA .ohm.m               : RSHA
RMED .ohm.m               : RMED
~Parameter
#==================================================================
~Ascii
 996.03363037  -999.250000 12.124771118  -999.250000  -999.250000  -999.250000 49.695968628  -999.250000 1.6569499969 175.45869446 1.3937840462 0.0747930408
 996.18603516  -999.250000 12.069569588  -999.250000  -999.250000  -999.250000 51.757640839  -999.250000 1.9131870270 177.00050354 0.1312963963 0.0732062235
 996.33843994  -999.250000 11.890889168  -999.250000  -999.250000  -999.250000 53.653820038  -999.250000 2.1312799454 179.08399963 0.1305952072 0.0999410823
 996.49084473  -999.250000 11.963520050  -999.250000  -999.250000  -999.250000 60.758831024  -999.250000 2.3742868900 181.41720581 0.1877370030 0.2626906931
 996.64324951  -999.250000 12.554051399  -999.250000  -999.250000  -999.250000 62.755458832  -999.250000 2.6444609165 183.45890808 2.4337539673 0.9105833769
 996.79565430  -999.250000 12.405719757  -999.250000  -999.250000  -999.250000 63.962890625  -999.250000 2.8408999443 185.16690063 3.3688039780 1.8944560289
 996.94799805  -999.250000 12.273159981  -999.250000  -999.250000  -999.250000 55.450580597  -999.250000 2.8408999443 185.99989319 2.8482630253 1.5461289883
 997.10040283  -999.250000 12.218500137  -999.250000  -999.250000  -999.250000 51.250541687  -999.250000 2.8408889771 186.12515259 2.9766631126 1.9023460150
 997.25280762  -999.250000 12.148630142  -999.250000  -999.250000  -999.250000 51.386970520  -999.250000 2.8386940956 185.04179382 2.5542790890 1.9588500261
 997.40521240  -999.250000 12.205080032  -999.250000  -999.250000  -999.250000 54.206119537  -999.250000 2.9061439037 183.91667175 2.9266400337 1.7832310200
 997.55761719  -999.250000 12.680709839  -999.250000  -999.250000  -999.250000 58.604030609  -999.250000 2.5395150185 182.12429810 3.1248490810 1.5546920300
 997.71002197  -999.250000 14.780131340  -999.250000  -999.250000  -999.250000 61.054061890  -999.250000 2.1168720722 180.08309937 3.0771789551 1.1997870207
 997.86242676  -999.250000 16.395570755  -999.250000  -999.250000 2.0387818813 66.511100769  -999.250000 1.7292560339 179.62510681 0.3172434866 1.1723140478
 998.01483154  -999.250000 17.595079422  -999.250000  -999.250000 2.0280361176 69.207740784 121.10089874 1.5991590023 179.87500000 0.1621741056 1.0554870367
 998.16723633  -999.250000 17.903699875  -999.250000  -999.250000 2.0709679127 74.131607056 151.56120300 1.8094840050 180.04179382 0.1804213971 1.0774140358
 998.31964111  -999.250000 17.270839691  -999.250000  -999.250000 2.1004769802 75.748741150 144.00939941 2.0996840000 180.29159546 0.2346602976 1.2526370287
 998.47204590  -999.250000 18.566419601  -999.250000  -999.250000 2.0808260441 75.434471130 145.90339661 1.9971079826 179.91650391 0.1760054976 1.2368279696
 998.62445068  -999.250000 19.448450089  -999.250000  -999.250000 2.0694599152 74.742897034 146.79750061 1.9761680365 179.29150391 0.2227680981 1.1980949640
 998.77685547  -999.250000 18.392160416  -999.250000  -999.250000 2.0675399303 73.123367310 146.31089783 1.9235850573 179.04179382 0.1488775015 1.1969740391
 998.92919922  -999.250000 18.751480103  -999.250000  -999.250000 2.0422279835 72.739486694 148.80259705 1.9436249733 179.41665649 0.1449155062 1.2144099474
 999.08160400  -999.250000 19.095270157  -999.250000  -999.250000 2.0293099880 70.322128296 149.38960266 2.0657289028 179.54165649 0.4626432955 1.3325099945
 999.23400879  -999.250000 19.439229965  -999.250000  -999.250000 2.0573139191 72.555603027 146.99960327 2.2122859955 179.58334351 0.4030376077 1.2880899906
 999.38641357  -999.250000 19.845048904  -999.250000  -999.250000 2.0518970490 70.949096680 146.91119385 2.1151380539 179.58332825 0.3434008956 1.2391890287
 999.53881836  -999.250000 20.141580582  -999.250000  -999.250000 2.0356650352 73.680961609 149.59930420 2.0292320251 179.87510681 0.7293667793 1.3076920509
 999.69122314  -999.250000 20.374610901  -999.250000  -999.250000 2.0314080715 72.139793396 149.48770142 1.8705739975 180.29179382 0.3513284922 1.3054419756
 999.84362793  -999.250000 20.279819489  -999.250000  -999.250000 2.0702569485 75.672042847 146.58349609 1.8166890144 180.70840454 0.4071109891 1.2201319933
 999.99603271  -999.250000 19.921449661  -999.250000  -999.250000 2.0906369686 71.928550720 142.58219910 1.8624240160 180.91670227 0.6036834121 1.3000129461
 1000.1484375  -999.250000 19.811859131  -999.250000  -999.250000 2.1186120510 69.755073547 138.22430420 1.8676819801 181.04170227 0.2890107036 1.1812180281
 1000.3008423  -999.250000 19.657180786  -999.250000  -999.250000 2.0718789101 71.013092041 144.19889832 1.7400460243 181.16670227 0.2680748105 1.0633909702
 1000.4532471  -999.250000 19.879930496  -999.250000  -999.250000 2.0828540325 74.265487671 144.29919434 1.5535010099 181.33340454 0.5110340118 1.1102290154
 1000.6056519  -999.250000 21.109539032  -999.250000  -999.250000 2.1003420353 78.115440369 144.12860107 1.4292664528 181.54170227 0.4703867137 0.9930282235
 1000.7580566  -999.250000 21.142629623  -999.250000  -999.250000 2.0272610188 75.909057617 150.89460754 1.4423456192 181.62500000 0.6284127831 1.0223059654
 1000.9104614  -999.250000 21.608661652  -999.250000  -999.250000 2.0121729374 69.365043640 150.19909668 1.4905537367 181.33309937 0.4069443941 1.0234090090
 1001.0628052  -999.250000 21.438499451  -999.250000  -999.250000 2.0077829361 67.053161621 149.99568176 1.5987545252 180.58340454 0.4631456137 0.9561144710
 1001.2152100  -999.250000 21.671699524  -999.250000  -999.250000 2.0100970268 64.900177002 148.99530029 1.5674116611 180.33329773 0.2908545136 0.9133399129
 1001.3676147  -999.250000 21.625061035  -999.250000  -999.250000 2.0342590809 70.819343567 147.89540100 1.4841961861 180.54165649 0.2574656904 1.0167620182
 1001.5200195  -999.250000 21.638898849  -999.250000  -999.250000 2.0485169888 72.451599121 146.80220032 1.4621584415 180.41667175 0.4182367027 0.9375317097
 1001.6724243  -999.250000 21.234590530  -999.250000  -999.250000 2.0559289455 75.811462402 147.30200195 1.5408687592 180.08340454 0.5972247720 1.0646619797
 1001.8248291  -999.250000 21.281690598  -999.250000  -999.250000 2.0495560169 75.564559937 147.80079651 1.7099314928 180.20829773 0.9667922258 1.0317389965
 1001.9772339  -999.250000 21.371559143  -999.250000  -999.250000 2.0493450165 76.057647705 148.00559998 1.7610646486 180.29179382 0.6074395180 1.0892859697
 1002.1296387  -999.250000 20.532819748  -999.250000  -999.250000 2.0313239098 74.868423462 149.39849854 1.7527428865 180.79179382 0.8622000217 1.0131499767
 1002.2820435  -999.250000 20.905740738  -999.250000  -999.250000 2.0274369717 73.253013611 149.09559631 1.6501758099 180.99989319 0.7140886784 1.0747640133
 1002.4344482  -999.250000 20.765850067  -999.250000  -999.250000 2.0389258862 73.998756409 148.00390625 1.5323518515 180.45809937 0.4178077877 1.1151330471
 1002.5868530  -999.250000 20.831317902  -999.250000  -999.250000 2.0286490917 73.685516357 148.90480042 1.5444235802 179.79159546 0.7463936210 1.0485700369
 1002.7392578  -999.250000 21.640802383  -999.250000  -999.250000 2.0148940086 73.186958313 150.21229553 1.5960001945 179.62500000 0.8201221824 1.0411050320
 1002.8916626  -999.250000 21.685220718  -999.250000  -999.250000 1.9885809422 73.060630798 153.10260010 1.6935043335 179.58329773 0.7793520093 1.0651450157
 1003.0440674  -999.250000 21.157501221  -999.250000  -999.250000 1.9818079472 72.648384094 153.69659424 1.7138204575 179.50000000 0.7905086279 1.0288579464
 1003.1964111  -999.250000 21.435779572  -999.250000  -999.250000 2.0030701160 77.238143921 152.88699341 1.6782426834 179.70825195 0.5619925857 0.9494234920
 1003.3488159  -999.250000 21.030839920  -999.250000  -999.250000 2.0200910568 74.697845459 149.89169312 1.5800722837 180.29159546 0.4430992007 1.0022749901
 1003.5012207  -999.250000 20.922487259  -999.250000  -999.250000 2.0459010601 76.930351257 147.89729309 1.5309878588 180.87500000 0.2801010907 1.0437649488
 1003.6536255  -999.250000 21.058038712  -999.250000  -999.250000 2.0445349216 75.369323730 147.21899414 1.5505738258 181.70860291 0.3527578115 1.0116089582
