# LAS format log file from PETREL
# Project units are specified as depth units
#==================================================================
~Version information
VERS.   2.0:
WRAP.   NO:
#==================================================================
~Well
STRT .m      950.21093750 :
STOP .m      2894.8349609 :
STEP .m     0.00000000 :
NULL .        -999.250000 :
COMP.           : COMPANY
WELL.  31/4-2   : WELL
FLD.            : FIELD
LOC.            : LOCATION
SRVC.           : SERVICE COMPANY
DATE.  2018-09-11 14:48:36   : Log Export Date {yyyy-MM-dd HH:mm:ss}
PROV.           : PROVINCE
UWI.   31/4-2   : UNIQUE WELL ID
API.            : API NUMBER
#==================================================================
~Curve
DEPT .m                   : DEPTH
Lithology_geolink ._      : Lithology_geolink
CALI .in                  : CALI
DRHO .g/cm3               : DRHO
NPHI .m3/m3               : NPHI
RHOB .g/cm3               : RHOB
GR .gAPI                  : GR
DTC .us/ft                : DTC
DTE .us/ft                : DTE
RDEP .ohm.m               : RDEP
SP .mV                    : SP
RSHA .ohm.m               : RSHA
RMED .ohm.m               : RMED
~Parameter
#==================================================================
~Ascii
# ...
 1337.9165039  -999.250000 18.320999146 0.0149871893  -999.250000 2.0520811081 46.008499146 144.49000549 142.37268066 1.0340000391 28.636934280 0.8020672202 0.8020672202
 1338.0688477  -999.250000 18.569999695 0.0109951925  -999.250000 2.0474998951 45.225009918 142.85054016 140.46737671 1.0340144634 29.241884232 0.8230360746 0.8230360746
 1338.2213135  -999.250000 18.068000793 0.0090064099  -999.250000 2.0431685448 43.153877258 140.95726013 138.69087219 1.0400063992 30.442239761 0.8379743695 0.8379743695
 1338.3736572  -999.250000 17.975999832 0.0109967971  -999.250000 2.0401811600 43.117931366 139.48941040 137.35791016 1.0420128107 31.451290131 0.8299327493 0.8299327493
 1338.5261230  -999.250000 18.020000458 0.0099967951  -999.250000 2.0374686718 43.721580505 139.52540588 137.26318359 1.0460128784 31.853670120 0.8089615703 0.8089615703
 1338.6784668  -999.250000 18.118000031 0.0089967968  -999.250000 2.0357062817 44.525932312 140.86251831 138.63293457 1.0499967337 32.062004089 0.7969807982 0.7969807982
 1338.8309326  -999.250000 18.253999710 0.0080096154  -999.250000 2.0359749794 45.130294800 142.19175720 140.00987244 1.0489583015 32.062988281 0.7910128236 0.7910128236
 1338.9832764  -999.250000 18.388999939 0.0110096075  -999.250000 2.0360937119 45.846588135 142.82406616 140.58177185 1.0359776020 32.058883667 0.7950096130 0.7950096130
 1339.1356201  -999.250000 18.603000641 0.0139903855  -999.250000 2.0323500633 46.654083252 142.97694397 140.73072815 1.0289784670 32.022914886 0.7979879379 0.7979879379
 1339.2880859  -999.250000 18.653999329 0.0099807847  -999.250000 2.0231931210 47.518611908 142.98469543 140.87707520 1.0199743509 31.987890244 0.7929839492 0.7929839492
 1339.4404297  -999.250000 18.492000580 0.0039903848  -999.250000 2.0106937885 47.396034241 143.54373169 141.25070190 1.0119879246 31.952913284 0.7879903913 0.7879903913
 1339.5928955  -999.250000 18.739999771 0.0000032026  -999.250000 2.0002431870 46.992435455 143.91636658 141.76261902 1.0070127249 31.916885376 0.7840191722 0.7840191722
 1339.7452393  -999.250000 18.620000839 0.0010024039  -999.250000 1.9964125156 46.192672729 144.27067566 142.02638245 1.0110071898 31.882095337 0.7900288701 0.7900288701
 1339.8977051  -999.250000 18.320999146 0.0019935949  -999.250000 1.9998563528 45.222866058 143.84906006 141.72087097 1.0140097141 31.922231674 0.8020319939 0.8020319939
 1340.0500488  -999.250000 18.038999557 0.0000120192  -999.250000 2.0091936588 43.932636261 143.26046753 140.98736572 1.0170071125 31.994173050 0.8119927645 0.8119927645
 1340.2025146  -999.250000 18.094999313 0.0050032050  -999.250000 2.0186131001 42.542514801 142.55238342 140.12283325 1.0199999809 32.065467834 0.8090032339 0.8090032339
 1340.3548584  -999.250000 18.320999146 0.0059935949  -999.250000 2.0233252048 44.263679504 141.61323547 139.47468567 1.0200064182 31.897998810 0.8100000024 0.8100000024
 1340.5073242  -999.250000 18.506000519 0.0040096156  -999.250000 2.0297877789 46.034740448 141.44184875 139.32803345 1.0220159292 31.584999084 0.8100032210 0.8100032210
 1340.6596680  -999.250000 18.340999603 0.0070064054  -999.250000 2.0409810543 46.888065338 142.10021973 139.71839905 1.0270127058 31.273725510 0.8109711409 0.8109711409
 1340.8121338  -999.250000 18.115999222 0.0089871790  -999.250000 2.0506067276 47.530487061 142.60147095 140.48809814 1.0310159922 31.188726425 0.8019807339 0.8019807339
 1340.9644775  -999.250000 17.978000641 0.0049935947  -999.250000 2.0546686649 47.369392395 143.51774597 141.12194824 1.0359903574 31.104064941 0.7960160375 0.7960160375
 1341.1168213  -999.250000 17.923000336 0.0030072115  -999.250000 2.0543375015 46.869274139 143.13345337 141.06724548 1.0329831839 31.124135971 0.8010553122 0.8010553122
 1341.2692871  -999.250000 17.895000458 0.0060032024  -999.250000 2.0501749516 46.567268372 142.54493713 140.18495178 1.0259584188 31.180179596 0.8240960836 0.8240960836
 1341.4216309  -999.250000 17.860000610 0.0069951927  -999.250000 2.0425875187 46.338523865 141.16613770 138.92106628 1.0129808187 31.236145020 0.8539687395 0.8539687395
 1341.5740967  -999.250000 17.837999344 0.0049871895  -999.250000 2.0340371132 46.142501831 140.17562866 138.02859497 1.0049872398 31.296278000 0.8409039378 0.8409039378
 1341.7264404  -999.250000 17.840999603 0.0009903846  -999.250000 2.0248751640 46.925125122 140.67510986 138.55668640 1.0009952784 31.383209229 0.8109230399 0.8109230399
 1341.8789063  -999.250000 17.815999985 -0.003006405  -999.250000 2.0140807629 48.638763428 142.95895386 140.68557739 0.9989904165 31.470972061 0.7789583802 0.7789583802
 1342.0312500  -999.250000 17.767999649 -0.004995192  -999.250000 2.0048689842 49.501663208 145.11399841 142.81481934 0.9959879518 31.773763657 0.7660288215 0.7660288215
 1342.1837158  -999.250000 17.812999725 -0.002987190  -999.250000 2.0008311272 51.023849487 145.92114258 143.65817261 0.9909808040 32.090003967 0.7780448198 0.7780448198
 1342.3360596  -999.250000 17.969999313 0.0009927885  -999.250000 1.9997562170 51.599922180 145.40705872 143.11083984 0.9850000143 32.090702057 0.7920288444 0.7920288444
 1342.4885254  -999.250000 17.868999481 -0.002009616  -999.250000 1.9988561869 51.563255310 144.02807617 141.87657166 0.9850096107 31.966142654 0.8040000200 0.8040000200
 1342.6408691  -999.250000 17.712999344 -0.005006405  -999.250000 1.9988938570 50.083198547 143.26370239 141.10156250 0.9880447984 31.699516296 0.8040000200 0.8040000200
 1342.7933350  -999.250000 17.638999939 -0.007009616  -999.250000 2.0012438297 48.582752228 143.78573608 141.45300293 1.0020641088 31.548833847 0.8039776087 0.8039776087
 1342.9456787  -999.250000 17.728000641 -0.009990392  -999.250000 2.0063688755 46.953433990 144.71112061 142.42796326 1.0220639706 31.497003555 0.7970319986 0.7970319986
 1343.0980225  -999.250000 17.829000473 -0.006995193  -999.250000 2.0146622658 48.022720337 144.66154480 142.49130249 1.0420216322 31.499185562 0.8070744872 0.8070744872
 1343.2504883  -999.250000 18.059000015 -0.004990392  -999.250000 2.0258874893 48.315238953 143.20079041 140.89726257 1.0510096550 31.575553894 0.8380480409 0.8380480409
 1343.4028320  -999.250000 17.927999496 -0.001997596  -999.250000 2.0347561836 46.208705902 140.97972107 138.65556335 1.0540047884 31.747644424 0.8529471159 0.8529471159
 1343.5552979  -999.250000 17.936000824 -0.001019215  -999.250000 2.0322997570 45.260013580 139.37748718 137.16659546 1.0560159683 32.015289307 0.8309262991 0.8309262991
 1343.7076416  -999.250000 18.004999161 -0.007021635  -999.250000 2.0207562447 45.890457153 139.39204407 137.16249084 1.0609999895 31.793277740 0.8079928160 0.8079928160
 1343.8601074  -999.250000 17.955999374 -0.015942354  -999.250000 2.0147497654 47.327167511 140.41918945 138.18571472 1.0609967709 31.492797852 0.8050096035 0.8050096035
 1344.0124512  -999.250000 17.856000900 0.0020240385  -999.250000 2.0217125416 48.314098358 141.59344482 139.27854919 1.0599927902 31.429849625 0.8080000281 0.8080000281
 1344.1649170  -999.250000 17.990999222 0.0119871898  -999.250000 2.0287628174 48.769172668 142.00799561 139.89433289 1.0569776297 31.367786407 0.8079904318 0.8079904318
 1344.3172607  -999.250000 18.086000443 0.0079903854  -999.250000 2.0264811516 48.508876801 141.91886902 139.81417847 1.0499734879 31.301643372 0.8050023913 0.8050023913
 1344.4697266  -999.250000 18.072999954 0.0039935899  -999.250000 2.0233936310 47.213333130 141.57594299 139.21780396 1.0389744043 31.152519226 0.8060288429 0.8060288429
 1344.6220703  -999.250000 18.240999222 0.0020032027  -999.250000 2.0259187222 47.320274353 140.76498413 138.61647034 1.0309840441 31.002712250 0.8149904013 0.8149904013
 1344.7745361  -999.250000 18.395000458 0.0030000000  -999.250000 2.0295689106 48.652599335 141.17141724 138.88812256 1.0260000229 30.913003922 0.8119422793 0.8119422793
 1344.9268799  -999.250000 18.176000595 0.0030000000  -999.250000 2.0277376175 49.459400177 142.64509583 140.41780090 1.0259935856 30.914703369 0.7939904332 0.7939904332
 1345.0793457  -999.250000 18.114999771 0.0029967949  -999.250000 2.0205683708 49.271049500 144.20274353 142.05279541 1.0239968300 31.134834290 0.7909904122 0.7909904122
