# LAS format log file from PETREL
# Project units are specified as depth units
#==================================================================
~Version information
VERS.   2.0:
WRAP.   NO:
#==================================================================
~Well
STRT .m      950.21093750 :
STOP .m      2894.8349609 :
STEP .m     0.00000000 :
NULL .        -999.250000 :
COMP.           : COMPANY
WELL.  31/4-2   : WELL
FLD.            : FIELD
LOC.            : LOCATION
SRVC.           : SERVICE COMPANY
DATE.  2018-09-11 14:48:36   : Log Export Date {yyyy-MM-dd HH:mm:ss}
PROV.           : PROVINCE
UWI.   31/4-2   : UNIQUE WELL ID
API.            : API NUMBER
#==================================================================
~Curve
DEPT .m                   : DEPTH
Lithology_geolink ._      : Lithology_geolink
CALI .in                  : CALI
DRHO .g/cm3               : DRHO
NPHI .m3/m3               : NPHI
RHOB .g/cm3               : RHOB
GR .gAPI                  : GR
DTC .us/ft                : DTC
DTE .us/ft                : DTE
RDEP .ohm.m               : RDEP
SP .mV                    : SP
RSHA .ohm.m               : RSHA
RMED .ohm.m               : RMED
~Parameter
#==================================================================
~Ascii
# ...
 2501.0334473 2.0000000000 12.097000122 0.0249904003 0.2737774849 2.3632242680 49.363246918 87.323165894 87.311088562 1.3849264383 46.414989471 2.1803393364 2.1803393364
 2501.1857910 2.0000000000 12.097000122 0.0219903849 0.2574388385 2.3693625927 49.441627502 87.608955383 87.623046875 1.3619855642 47.346870422 2.2858350277 2.2858350277
 2501.3381348 2.0000000000 12.097000122 0.0159951933 0.2691835761 2.3765501976 50.462661743 88.789588928 88.455795288 1.3529888391 47.265487671 2.1826922894 2.1826922894
 2501.4904785 2.0000000000 12.097999573 0.0130096152 0.2776564360 2.3802814484 54.611930847 89.180587769 89.295043945 1.3459743261 46.322528839 1.9907420874 1.9907420874
 2501.6430664 2.0000000000 12.097999573 0.0190095995 0.2816917002 2.3845317364 55.182380676 89.648735046 89.731628418 1.3299040794 44.778625488 1.8297792673 1.8297792673
 2501.7954102 2.0000000000 12.097999573 0.0220096149 0.2884628773 2.3797376156 52.494014740 89.678497314 89.710418701 1.2999325991 43.726741791 1.7610129118 1.7610129118
 2501.9477539 5.0000000000 12.097999573 0.0279791672 0.2964804769 2.3643064499 50.632148743 89.678497314 89.637451172 1.2579438686 43.568649292 1.7690529823 1.7690529823
 2502.1000977 5.0000000000 12.097999573 0.0149919866 0.2905291915 2.3464250565 50.726676941 89.678497314 89.749702454 1.2229744196 45.219814301 1.8020015955 1.8020015955
 2502.2526855 5.0000000000 12.098999977 0.0099967998 0.2837789655 2.3314235210 51.144245148 90.125740051 89.910140991 1.2070096731 45.723846436 1.8029519320 1.8029519320
 2502.4050293 5.0000000000 12.098999977 0.0090064099 0.2803330421 2.3245000839 50.285026550 90.020217896 89.928176880 1.2100208998 45.050125122 1.7880128622 1.7880128622
 2502.5573730 5.0000000000 12.095000267 0.0130128209 0.2759878337 2.3305687904 49.678878784 89.834205627 89.791824341 1.2230336666 43.883358002 1.7960673571 1.7960673571
 2502.7097168 5.0000000000 12.090999603 0.0210032053 0.2808958590 2.3423438072 48.980487823 89.687492371 89.658203125 1.2440561056 43.485065460 1.8381090164 1.8381090164
 2502.8620605 5.0000000000 12.086999893 0.0229887813 0.2907914817 2.3463811874 49.912075043 89.678497314 89.607902527 1.2790673971 44.147918701 1.9062196016 1.9062196016
 2503.0146484 5.0000000000 12.082999229 0.0160192009 0.2979658842 2.3465061188 53.073898315 89.678497314 89.597785950 1.3211759329 44.096363068 2.0434639454 2.0434639454
 2503.1669922 5.0000000000 12.079998970 0.0220048074 0.3029094040 2.3492188454 53.349552155 89.097427368 89.369491577 1.3761634827 43.587123871 2.1882050037 2.1882050037
 2503.3193359 5.0000000000 12.076001167 0.0249791667 0.3025330901 2.3556814194 51.200202942 88.745391846 88.851799011 1.4782308340 43.665142059 2.3160576820 2.3160576820
 2503.4716797 5.0000000000 12.071999550 0.0119903851 0.2982134521 2.3653812408 50.079502106 88.724502563 88.488586426 1.6222660542 45.002872467 2.3521859646 2.3521859646
 2503.6242676 5.0000000000 12.067999840 0.0060288003 0.2940872312 2.3789389133 49.140464783 87.962036133 88.163101196 1.7886047363 46.169940948 2.4691231251 2.4691231251
 2503.7766113 2.0000000000 12.064000130 0.0150272436 0.2838548720 2.3981750011 47.728149414 87.201049805 87.224716187 1.9773701429 46.152359009 2.8195834160 2.8195834160
 2503.9289551 2.0000000000 12.135000229 0.0320288464 0.2681763768 2.4219000340 47.823833466 85.495918274 85.593467712 2.2085144520 46.373935699 3.1834070683 3.1834070683
 2504.0812988 2.0000000000 12.187000275 0.0500144251 0.2534528077 2.4473061562 49.591503143 84.043746948 83.979415894 2.5296459198 45.711494446 3.4373540878 3.4373540878
 2504.2338867 2.0000000000 12.215000153 0.0589327998 0.2489473969 2.4653079510 50.525096893 83.059829712 82.972702026 2.9334142208 46.023456573 3.6606912613 3.6606912613
 2504.3862305 2.0000000000 12.243000984 0.0380096138 0.2450100183 2.4756813049 49.303882599 82.105926514 81.822463989 3.3747677803 46.789142609 4.5028686523 4.5028686523
 2504.5385742 2.0000000000 12.270999908 0.0440368578 0.2387705445 2.4926126003 46.111835480 79.363067627 79.559425354 3.8536601067 46.877300262 6.9204936028 6.9204936028
 2504.6909180 2.0000000000 12.300000191 0.0669775680 0.2266270369 2.5194811821 43.513908386 76.053794861 76.165153503 4.2651185989 47.689140320 11.600672722 11.600672722
 2504.8432617 16.000000000 12.293999672 0.0529999994 0.2060571909 2.5511999130 42.211872101 72.375885010 72.239753723 4.3384728432 49.023338318 18.877809525 18.877809525
 2504.9958496 16.000000000 12.286000252 0.0530319996 0.1855783761 2.5832970142 42.764728546 69.352706909 69.454605103 4.0083456039 49.236015320 21.861917496 21.861917496
 2505.1481934 16.000000000 12.279000282 0.0630224347 0.1726261973 2.6160500050 45.485321045 69.956085205 69.985916138 3.4920272827 49.240848541 17.774238586 17.774238586
 2505.3005371 16.000000000 12.270999908 0.0769727528 0.1827370077 2.6293499470 46.932796478 73.691474915 73.861625671 2.8852145672 49.144870758 9.8148927689 9.8148927689
 2505.4528809 2.0000000000 12.263998985 0.0599695481 0.1933798790 2.5995376110 48.678890228 78.856239319 78.758560181 2.3954870701 48.442787170 4.7608075142 4.7608075142
 2505.6054688 2.0000000000 12.246998787 0.0410128012 0.2183082402 2.5500574112 51.112556458 83.783035278 83.492721558 2.0750622749 49.554203033 2.7700257301 2.7700257301
 2505.7578125 2.0000000000 12.229000092 0.0450208336 0.2458556443 2.4983375072 53.780788422 87.408683777 87.661231995 1.7826298475 48.993701935 2.1547067165 2.1547067165
 2505.9101563 2.0000000000 12.211000443 0.0579679459 0.2867797613 2.4426000118 55.518730164 90.892028809 90.635810852 1.5517677069 48.808895111 1.9718718529 1.9718718529
 2506.0625000 2.0000000000 12.192999840 0.0379967950 0.3053260148 2.4007563591 55.972507477 92.451156616 92.452369690 1.4068604708 48.743949890 1.8919967413 1.8919967413
 2506.2150879 2.0000000000 12.174999237 0.0359551981 0.3090763092 2.3788855076 56.291576385 92.987838745 93.112052917 1.3198720217 48.713825226 1.8902015686 1.8902015686
 2506.3674316 2.0000000000 12.163999557 0.0219839737 0.3110437691 2.3628814220 57.405368805 93.157569885 92.966362000 1.2799887657 48.659450531 1.9531394243 1.9531394243
 2506.5197754 2.0000000000 12.163000107 0.0120192310 0.3133852184 2.3544938564 57.010440826 92.440902710 92.591018677 1.2730224133 48.939105988 2.0401937962 2.0401937962
 2506.6721191 2.0000000000 12.161999702 0.0240016021 0.3166436851 2.3594377041 55.416584015 92.531349182 92.280021667 1.2870320082 49.004981995 2.1611506939 2.1611506939
 2506.8244629 2.0000000000 12.161001205 0.0250112191 0.3189463019 2.3716125488 55.782173157 92.231887817 92.116058350 1.3070368767 48.993816376 2.2550258636 2.2550258636
 2506.9770508 2.0000000000 12.161001205 0.0319776013 0.3166384697 2.3795258999 57.135410309 92.072814941 92.074806213 1.3301024437 48.879711151 2.2709102631 2.2709102631
 2507.1293945 2.0000000000 12.159999847 0.0250016022 0.3130466640 2.3810312748 56.638355255 91.925415039 92.180793762 1.3620609045 48.788703918 2.2429535389 2.2429535389
 2507.2817383 2.0000000000 12.159000397 0.0260272436 0.3109680414 2.3897249699 55.611835480 92.501579285 92.308372498 1.4000608921 48.602737427 2.2138876915 2.2138876915
 2507.4340820 2.0000000000 12.158000946 0.0430032052 0.3159735203 2.3979873657 54.883865356 92.093414307 92.226203918 1.4380561113 48.437713623 2.1438815594 2.1438815594
 2507.5866699 2.0000000000 12.158000946 0.0449328013 0.3119709492 2.3867800236 53.549343109 91.754096985 91.766029358 1.4731184244 48.261199951 2.0699615479 2.0699615479
 2507.7390137 2.0000000000 12.156999588 0.0239887815 0.3215976059 2.3686563969 52.410167694 91.011810303 91.091735840 1.5100736618 48.635147095 2.0582132339 2.0582132339
 2507.8913574 2.0000000000 12.156000137 0.0170064103 0.3138524294 2.3593437672 52.515541077 90.653198242 90.491920471 1.5560848713 48.727336884 2.1912450790 2.1912450790
 2508.0437012 2.0000000000 12.154998779 0.0210048072 0.3029138446 2.3584251404 52.854572296 89.738121033 90.004707336 1.6091089249 48.312667847 2.3440754414 2.3440754414
 2508.1962891 2.0000000000 12.154998779 0.0239744000 0.3052991331 2.3687133789 53.836845398 89.678497314 89.706626892 1.6773040295 48.104713440 2.3909711838 2.3909711838
