# LAS format log file from PETREL
# Project units are specified as depth units
#==================================================================
~Version information
VERS.   2.0:
WRAP.   NO:
#==================================================================
~Well
STRT .m      860.54608154 :
STOP .m      3158.4321289 :
STEP .m     0.00000000 :
NULL .        -999.250000 :
COMP.           : COMPANY
WELL.  31/4-4   : WELL
FLD.            : FIELD
LOC.            : LOCATION
SRVC.           : SERVICE COMPANY
DATE.  2018-09-11 14:48:37   : Log Export Date {yyyy-MM-dd HH:mm:ss}
PROV.           : PROVINCE
UWI.   31/4-4   : UNIQUE WELL ID
API.            : API NUMBER
#==================================================================
~Curve
DEPT .m                   : DEPTH
Lithology_geolink ._      : Lithology_geolink
CALI .in                  : CALI
DRHO .g/cm3               : DRHO
NPHI .m3/m3               : NPHI
RHOB .g/cm3               : RHOB
GR .gAPI                  : GR
DTC .us/ft                : DTC
DTE .us/ft                : DTE
RDEP .ohm.m               : RDEP
SP .mV                    : SP
RSHA .ohm.m               : RSHA
RMED .ohm.m               : RMED
~Parameter
#==================================================================
~Ascii
# ...
 1167.7843018  -999.250000 17.797000885 -0.003000000  -999.250000 1.8600072861 71.931991577 152.61323547 150.35095215 1.1139879227 19.726503372 0.9389679432 0.9389679432
 1167.9366455  -999.250000 17.797000885 0.0000000000  -999.250000 1.8555884361 70.429740906 152.69239807 150.51550293 1.1109639406 20.101503372 0.9309719205 0.9309719205
 1168.0891113  -999.250000 17.797000885 0.0000000000  -999.250000 1.8448683023 68.355186462 153.13101196 150.89878845 1.1019183397 20.480703354 0.9239568114 0.9239568114
 1168.2414551  -999.250000 17.797000885 -0.004000000  -999.250000 1.8283385038 64.246246338 153.89622498 151.66180420 1.0849438906 21.665758133 0.9149679542 0.9149679542
 1168.3939209  -999.250000 17.797000885 -0.008000000  -999.250000 1.8139396906 63.328910828 154.47389221 152.21711731 1.0709519386 22.603900909 0.9069471359 0.9069471359
 1168.5462646  -999.250000 17.797000885 -0.014000000  -999.250000 1.7999942303 66.648536682 154.32255554 152.13665771 1.0609278679 23.411251068 0.8959399462 0.8959399462
 1168.6987305  -999.250000 17.797000885 -0.014000000  -999.250000 1.7888312340 72.487388611 153.93560791 151.71054077 1.0429230928 23.210886002 0.8809038997 0.8809038997
 1168.8510742  -999.250000 17.812999725 -0.021000000  -999.250000 1.7738360167 69.848709106 154.11340332 151.81056213 1.0269558430 20.309288025 0.8609118462 0.8609118462
 1169.0035400  -999.250000 17.844999313 -0.016000001  -999.250000 1.7639770508 63.300388336 154.45167542 152.24452209 1.0159856081 25.867414474 0.8389711380 0.8389711380
 1169.1558838  -999.250000 17.893999100 -0.018999999  -999.250000 1.7576326132 60.694381714 155.03778076 152.84240723 1.0130320787 29.459724426 0.8330320716 0.8330320716
 1169.3083496  -999.250000 18.002000809 -0.017000001  -999.250000 1.7609874010 62.287303925 155.66430664 153.51121521 1.0210480690 25.656597137 0.8410865068 0.8410865068
 1169.4606934  -999.250000 18.052000046 -0.020000000  -999.250000 1.7695701122 63.610652924 156.13975525 153.97285461 1.0310040712 24.535751343 0.8590561152 0.8590561152
 1169.6131592  -999.250000 17.726999283 -0.012000000  -999.250000 1.7838146687 67.747299194 156.19891357 154.01907349 1.0319999456 24.226499557 0.8730240464 0.8730240464
 1169.7655029  -999.250000 17.962999344 -0.011000000  -999.250000 1.7934460640 67.195266724 155.47151184 153.23750305 1.0320920944 24.530241013 0.8780080080 0.8780080080
 1169.9178467  -999.250000 17.806999207 -0.009000000  -999.250000 1.7980850935 69.000000000 154.74821472 152.51785278 1.0550761223 22.849246979 0.8800240159 0.8800240159
 1170.0703125  -999.250000 18.099000931 -0.014000000  -999.250000 1.8005830050 69.012313843 154.41014099 152.20561218 1.0740383863 22.662601471 0.8860912323 0.8860912323
 1170.2226563  -999.250000 17.799999237 -0.011000000  -999.250000 1.8060568571 71.573265076 153.96318054 151.68855286 1.0820280313 22.783246994 0.9050480723 0.9050480723
 1170.3751221  -999.250000 17.909000397 -0.009000000  -999.250000 1.8131629229 74.114791870 153.99690247 151.76119995 1.0890096426 21.850000381 0.9170336127 0.9170336127
 1170.5274658  -999.250000 17.982000351 -0.009000000  -999.250000 1.8148146868 72.013771057 154.47366333 152.24455261 1.0910199881 21.847244263 0.9239679575 0.9239679575
 1170.6799316  -999.250000 17.905000687 -0.009000000  -999.250000 1.8136970997 75.439498901 155.02078247 152.84880066 1.0960624218 21.159900665 0.9159039259 0.9159039259
 1170.8322754  -999.250000 17.860000610 -0.009000000  -999.250000 1.8109759092 75.739982605 155.82269287 153.64599609 1.1089799404 20.732761383 0.8959318995 0.8959318995
 1170.9847412  -999.250000 17.889999390 -0.010000000  -999.250000 1.8084627390 73.232589722 156.00984192 153.81866455 1.1039566994 22.660200119 0.8790096045 0.8790096045
 1171.1370850  -999.250000 17.877000809 -0.008000000  -999.250000 1.8089705706 69.616737366 155.16336060 152.95332336 1.0950080156 22.285999298 0.8810320497 0.8810320497
 1171.2895508  -999.250000 17.941999435 -0.006000000  -999.250000 1.8120257854 67.573509216 153.69166565 151.44418335 1.0970144272 22.023189545 0.8890672326 0.8890672326
 1171.4418945  -999.250000 18.097000122 -0.001000000  -999.250000 1.8215011358 69.745246887 152.93029785 150.76861572 1.1000320911 19.188795090 0.9030520916 0.9030520916
 1171.5943604  -999.250000 18.666999817 -0.001000000  -999.250000 1.8269243240 68.540931702 153.44023132 151.24212646 1.1080144644 25.847295761 0.9160336256 0.9160336256
 1171.7467041  -999.250000 18.531000137 0.0020000001  -999.250000 1.8307213783 63.977146149 154.67129517 152.49464417 1.1109919548 25.271728516 0.9229758978 0.9229758978
 1171.8991699  -999.250000 18.524999619 -0.007000000  -999.250000 1.8222538233 65.988441467 155.68476868 153.48344421 1.1089719534 21.477102280 0.9169439673 0.9169439673
 1172.0515137  -999.250000 18.329000473 -0.013000000  -999.250000 1.8055794239 63.973754883 155.49179077 153.28546143 1.1039519310 21.910799026 0.9069423079 0.9069423079
 1172.2038574  -999.250000 18.356000900 -0.012000000  -999.250000 1.7967677116 71.352783203 154.93719482 152.69563293 1.0939375162 21.660999298 0.8949951530 0.8949951530
 1172.3563232  -999.250000 18.243000031 -0.007000000  -999.250000 1.7952514887 66.756607056 154.72091675 152.42764282 1.0809230804 21.418605804 0.8939807415 0.8939807415
 1172.5086670  -999.250000 18.045000076 -0.004000000  -999.250000 1.7993042469 68.102630615 154.67149353 152.44100952 1.0649183989 22.785497665 0.8899663687 0.8899663687
 1172.6611328  -999.250000 17.992000580 -0.008000000  -999.250000 1.7964940071 63.471256256 154.53179932 152.27986145 1.0479326248 22.416805267 0.8829374909 0.8829374909
 1172.8134766  -999.250000 18.229000092 -0.009000000  -999.250000 1.7893223763 63.921031952 154.50012207 152.29113770 1.0340048075 23.415506363 0.8699471354 0.8699471354
 1172.9659424  -999.250000 18.563999176 -0.011000000  -999.250000 1.7783896923 60.418018341 154.96949768 152.77033997 1.0349855423 24.283998489 0.8589615822 0.8589615822
 1173.1182861  -999.250000 18.590999603 -0.020000000  -999.250000 1.7640477419 62.924465179 155.68322754 153.46739197 1.0319279432 23.664756775 0.8509663939 0.8509663939
 1173.2707520  -999.250000 18.009000778 -0.021000000  -999.250000 1.7616558075 66.802284241 156.40003967 154.13011169 1.0169422626 24.345195770 0.8439951539 0.8439951539
 1173.4230957  -999.250000 17.812999725 -0.026000001  -999.250000 1.7681382895 77.615394592 156.62539673 154.42234802 1.0049760342 23.353004456 0.8430144191 0.8430144191
 1173.5755615  -999.250000 17.829000473 -0.016000001  -999.250000 1.7817189693 75.599159241 156.01817322 153.78158569 1.0000144243 24.100601196 0.8460384607 0.8460384607
 1173.7279053  -999.250000 17.843999863 -0.020000000  -999.250000 1.7843252420 70.221153259 154.64599609 152.38656616 1.0030673742 24.220741272 0.8540048003 0.8540048003
 1173.8803711  -999.250000 17.843999863 -0.013000000  -999.250000 1.7840214968 64.262962341 153.67491150 151.52688599 1.0170335770 23.162902832 0.8550000191 0.8550000191
 1174.0327148  -999.250000 17.843999863 -0.021000000  -999.250000 1.7803888321 66.567504883 153.61628723 151.45036316 1.0230047703 23.341485977 0.8550432920 0.8550432920
 1174.1850586  -999.250000 17.858999252 -0.017999999  -999.250000 1.7821078300 67.503601074 153.71586609 151.52481079 1.0240000486 21.228754044 0.8640624881 0.8640624881
 1174.3375244  -999.250000 17.858999252 -0.016000001  -999.250000 1.7875300646 68.251205444 154.34617615 152.09416199 1.0240097046 22.156297684 0.8770336509 0.8770336509
 1174.4898682  -999.250000 17.860000610 -0.011000000  -999.250000 1.7903898954 68.490989685 154.50904846 152.28956604 1.0260720253 20.969991684 0.8839423656 0.8839423656
 1174.6423340  -999.250000 17.896999359 -0.010000000  -999.250000 1.7901014090 66.611030579 154.73106384 152.50816345 1.0410913229 19.725898743 0.8719471097 0.8719471097
 1174.7946777  -999.250000 18.555000305 -0.011000000  -999.250000 1.7872612476 63.714649200 155.16584778 152.87892151 1.0600863695 19.908996582 0.8610768914 0.8610768914
 1174.9471436  -999.250000 18.766000748 -0.015000000  -999.250000 1.7865099907 62.818256378 154.70686340 152.47210693 1.0781297684 19.159900665 0.8771442175 0.8771442175
