# LAS format log file from PETREL
# Project units are specified as depth units
#==================================================================
~Version information
VERS.   2.0:
WRAP.   NO:
#==================================================================
~Well
STRT .m      405.00000000 :
STOP .m      1938.8748779 :
STEP .m     0.00000000 :
NULL .        -999.250000 :
COMP.           : COMPANY
WELL.  31/5-5 R   : WELL
FLD.            : FIELD
LOC.            : LOCATION
SRVC.           : SERVICE COMPANY
DATE.  2018-09-11 14:48:39   : Log Export Date {yyyy-MM-dd HH:mm:ss}
PROV.           : PROVINCE
UWI.   31/5-5 R   : UNIQUE WELL ID
API.            : API NUMBER
#==================================================================
~Curve
DEPT .m                   : DEPTH
Lithology_geolink ._      : Lithology_geolink
CALI .in                  : CALI
DRHO .g/cm3               : DRHO
NPHI .m3/m3               : NPHI
RHOB .g/cm3               : RHOB
GR .gAPI                  : GR
DTC .us/ft                : DTC
RDEP .ohm.m               : RDEP
SP .mV                    : SP
RSHA .ohm.m               : RSHA
~Parameter
#==================================================================
~Ascii
# ...
 930.00000000  -999.250000 22.569200516 -0.065850258  -999.250000 1.5882568359 82.657798767 158.92492676 2.4603404999  -999.250000  -999.250000
 930.12506104  -999.250000 22.566499710 -0.058918253  -999.250000 1.6008958817 82.634101868 158.92057800 2.4998545647  -999.250000  -999.250000
 930.25000000  -999.250000 22.566600800 -0.047880173  -999.250000 1.6172151566 82.589302063 158.91333008 2.5393567085  -999.250000  -999.250000
 930.37500000  -999.250000 22.569799423 -0.034599058  -999.250000 1.6374022961 82.354400635 158.90483093 2.5662627220  -999.250000  -999.250000
 930.50000000  -999.250000 22.575099945 -0.021754265  -999.250000 1.6600942612 82.011199951 158.89588928 2.5320839882  -999.250000  -999.250000
 930.62500000  -999.250000 22.582000732 -0.011557689  -999.250000 1.6832969189 81.836898804 158.88693237 2.3996744156  -999.250000  -999.250000
 930.75006104  -999.250000 22.589899063 -0.003259659  -999.250000 1.7053933144 81.837600708 158.87797546 2.2148799896  -999.250000  -999.250000
 930.87500000  -999.250000 22.597700119 0.0041916994  -999.250000 1.7251334190 81.832603455 158.86897278 2.0384159088  -999.250000  -999.250000
 931.00000000  -999.250000 22.603200912 0.0111150742  -999.250000 1.7411661148 81.717796326 158.86001587 1.9023361206  -999.250000  -999.250000
 931.12500000  -999.250000 22.604000092 0.0162795000  -999.250000 1.7513713837 81.770301819 158.85243225 1.8315472603  -999.250000  -999.250000
 931.25000000  -999.250000 22.601299286 0.0189456940  -999.250000 1.7561020851 82.334396362 158.84671021 1.7989585400  -999.250000  -999.250000
 931.37493896  -999.250000 22.596700668 0.0190466344  -999.250000 1.7556536198 83.446098328 158.84259033 1.7755072117  -999.250000  -999.250000
 931.50000000  -999.250000 22.591699600 0.0169219971  -999.250000 1.7507066727 84.774803162 158.83871460 1.7594211102  -999.250000  -999.250000
 931.62500000  -999.250000 22.586999893 0.0122166481  -999.250000 1.7415516376 85.630096436 158.83493042 1.7442862988  -999.250000  -999.250000
 931.75000000  -999.250000 22.582298279 0.0045890808  -999.250000 1.7293829918 85.844398499 158.83110046 1.7291560173  -999.250000  -999.250000
 931.87500000  -999.250000 22.577699661 -0.006396485  -999.250000 1.7143170834 85.612998962 158.82720947 1.7140247822  -999.250000  -999.250000
 932.00000000  -999.250000 22.574399948 -0.019965172  -999.250000 1.6967277527 85.115997314 158.82312012 1.6993546486  -999.250000  -999.250000
 932.12500000  -999.250000 22.573799133 -0.033662960  -999.250000 1.6781487465 84.383300781 158.81848145 1.6864612103  -999.250000  -999.250000
 932.25000000  -999.250000 22.575599670 -0.044537544  -999.250000 1.6612577438 83.401199341 158.81109619 1.6753001213  -999.250000  -999.250000
 932.37500000  -999.250000 22.578699112 -0.050567828  -999.250000 1.6481990814 82.131797791 158.80345154 1.6610546112  -999.250000  -999.250000
 932.50006104  -999.250000 22.582399368 -0.051017761  -999.250000 1.6407976151 80.811798096 158.79577637 1.6380717754  -999.250000  -999.250000
 932.62500000  -999.250000 22.585399628 -0.045890287  -999.250000 1.6415059566 80.210197449 158.78811646 1.6094498634  -999.250000  -999.250000
 932.75000000  -999.250000 22.586900711 -0.037902832  -999.250000 1.6485390663 80.611503601 158.78042603 1.5813028812  -999.250000  -999.250000
 932.87500000  -999.250000 22.586200714 -0.029258579  -999.250000 1.6590890884 81.649002075 158.77270508 1.5531907082  -999.250000  -999.250000
 933.00000000  -999.250000 22.582599640 -0.022303581  -999.250000 1.6690807343 82.704299927 158.76499939 1.5231428146  -999.250000  -999.250000
 933.12493896  -999.250000 22.573799133 -0.020175550  -999.250000 1.6739060879 83.224800110 158.75706482 1.4900925159  -999.250000  -999.250000
 933.25000000  -999.250000 22.561000824 -0.022613525  -999.250000 1.6731853485 83.257598877 158.74897766 1.4588642120  -999.250000  -999.250000
 933.37500000  -999.250000 22.546800613 -0.028282795  -999.250000 1.6679196358 83.238700867 158.74089050 1.4369738102  -999.250000  -999.250000
 933.50000000  -999.250000 22.535499573 -0.036567688  -999.250000 1.6592674255 83.402603149 158.73284912 1.4226109982  -999.250000  -999.250000
 933.62500000  -999.250000 22.531999588 -0.047167674  -999.250000 1.6478083134 83.583602905 158.72463989 1.4092204571  -999.250000  -999.250000
 933.75000000  -999.250000 22.534902573 -0.056564331  -999.250000 1.6357235909 83.560699463 158.71650696 1.3958337307  -999.250000  -999.250000
 933.87500000  -999.250000 22.540100098 -0.061054885  -999.250000 1.6255753040 83.270103455 158.70848083 1.3824462891  -999.250000  -999.250000
 934.00000000  -999.250000 22.543100357 -0.059309959  -999.250000 1.6194915771 82.698402405 158.70185852 1.3690545559  -999.250000  -999.250000
 934.12500000  -999.250000 22.540700912 -0.053754978  -999.250000 1.6180057526 81.623497009 158.69775391 1.3556640148  -999.250000  -999.250000
 934.25006104  -999.250000 22.535100937 -0.049553394  -999.250000 1.6177821159 80.220298767 158.69569397 1.3424122334  -999.250000  -999.250000
 934.37500000  -999.250000 22.528999329 -0.049050942  -999.250000 1.6162197590 78.991699219 158.69404602 1.3303256035  -999.250000  -999.250000
 934.50000000  -999.250000 22.525100708 -0.051377296  -999.250000 1.6124734879 78.374397278 158.69235229 1.3208205700  -999.250000  -999.250000
 934.62500000  -999.250000 22.524999619 -0.053294532  -999.250000 1.6076092720 78.648300171 158.69062805 1.3139634132  -999.250000  -999.250000
 934.75000000  -999.250000 22.526700974 -0.054638386  -999.250000 1.6029500961 79.250503540 158.68894958 1.3102271557  -999.250000  -999.250000
 934.87493896  -999.250000 22.528499603 -0.058082260  -999.250000 1.5982725620 79.668197632 158.68780518 1.3090984821  -999.250000  -999.250000
 935.00000000  -999.250000 22.528999329 -0.064537048  -999.250000 1.5932397842 80.020896912 158.69224548 1.3065741062  -999.250000  -999.250000
 935.12500000  -999.250000 22.527999878 -0.070799336  -999.250000 1.5889117718 81.007400513 158.70764160 1.3005053997  -999.250000  -999.250000
 935.25000000  -999.250000 22.526500702 -0.073498726  -999.250000 1.5864667892 82.590400696 158.72587585 1.2901959419  -999.250000  -999.250000
 935.37500000  -999.250000 22.524900436 -0.073641330  -999.250000 1.5854775906 84.027198792 158.74468994 1.2750847340  -999.250000  -999.250000
 935.49993896  -999.250000 22.523700714 -0.074685097  -999.250000 1.5842618942 84.310897827 158.76353455 1.2634720802  -999.250000  -999.250000
 935.62500000  -999.250000 22.523199081 -0.078836784  -999.250000 1.5816125870 82.974502563 158.78233337 1.2662775517  -999.250000  -999.250000
 935.75000000  -999.250000 22.524299622 -0.082958691  -999.250000 1.5790925026 81.072998047 158.80110168 1.2776532173  -999.250000  -999.250000
 935.87500000  -999.250000 22.527200699 -0.083107665  -999.250000 1.5788311958 79.475997925 158.81903076 1.2890264988  -999.250000  -999.250000
 936.00006104  -999.250000 22.530799866 -0.078136444  -999.250000 1.5816097260 78.606201172 158.82272339 1.2966239452  -999.250000  -999.250000
 936.12500000  -999.250000 22.533000946 -0.070945308  -999.250000 1.5858316422 78.256896973 158.81333923 1.2849802971  -999.250000  -999.250000
 936.25000000  -999.250000 22.533000946 -0.065914154  -999.250000 1.5886602402 77.938796997 158.80177307 1.2396104336  -999.250000  -999.250000
 936.37500000  -999.250000 22.531000137 -0.064169019  -999.250000 1.5891902447 77.755897522 158.79020691 1.1719532013  -999.250000  -999.250000
 936.50000000  -999.250000 22.527999878 -0.064589500  -999.250000 1.5879316330 77.936096191 158.77864075 1.1009120941  -999.250000  -999.250000
 936.62493896  -999.250000 22.525699615 -0.065814823  -999.250000 1.5854756832 78.695503235 158.76713562 1.0298552513  -999.250000  -999.250000
 936.75000000  -999.250000 22.524900436 -0.066676140  -999.250000 1.5825080872 79.713096619 158.75567627 0.9588122368  -999.250000  -999.250000
 936.87500000  -999.250000 22.525999069 -0.066073328  -999.250000 1.5800480843 80.624496460 158.74591064 0.8877837658  -999.250000  -999.250000
