# LAS format log file from PETREL
# Project units are specified as depth units
#==================================================================
~Version information
VERS.   2.0:
WRAP.   NO:
#==================================================================
~Well
STRT .m      405.00000000 :
STOP .m      1938.8748779 :
STEP .m     0.00000000 :
NULL .        -999.250000 :
COMP.           : COMPANY
WELL.  31/5-5 R   : WELL
FLD.            : FIELD
LOC.            : LOCATION
SRVC.           : SERVICE COMPANY
DATE.  2018-09-11 14:48:39   : Log Export Date {yyyy-MM-dd HH:mm:ss}
PROV.           : PROVINCE
UWI.   31/5-5 R   : UNIQUE WELL ID
API.            : API NUMBER
#==================================================================
~Curve
DEPT .m                   : DEPTH
Lithology_geolink ._      : Lithology_geolink
CALI .in                  : CALI
DRHO .g/cm3               : DRHO
NPHI .m3/m3               : NPHI
RHOB .g/cm3               : RHOB
GR .gAPI                  : GR
DTC .us/ft                : DTC
RDEP .ohm.m               : RDEP
SP .mV                    : SP
RSHA .ohm.m               : RSHA
~Parameter
#==================================================================
~Ascii
 405.00000000  -999.250000 16.000000000 -0.500000000  -999.250000 1.9499998093 7.1251997948 159.33090210 1.9570686817  -999.250000  -999.250000
 405.12500000  -999.250000 16.000000000 -0.500000000  -999.250000 1.9499998093 7.2423000336 159.33090210 1.9403519630  -999.250000  -999.250000
 405.25000000  -999.250000 16.000000000 -0.500000000  -999.250000 1.9499998093 7.4217000008 159.33090210 2.0128598213  -999.250000  -999.250000
 405.37500000  -999.250000 16.000000000 -0.500000000  -999.250000 1.9499998093 7.5100002289 159.33090210 2.1993122101  -999.250000  -999.250000
 405.50000000  -999.250000 16.000000000 -0.500000000  -999.250000 1.9499998093 7.5567998886 159.33090210 2.3126635551  -999.250000  -999.250000
 405.62496948  -999.250000 16.000000000 -0.500000000  -999.250000 1.9499998093 7.6623001099 159.33090210 2.4580202103  -999.250000  -999.250000
 405.75000000  -999.250000 16.000000000 -0.500000000  -999.250000 1.9499998093 7.7607002258 159.33090210 2.7567768097  -999.250000  -999.250000
 405.87500000  -999.250000 16.000000000 -0.500000000  -999.250000 1.9499998093 7.7406997681 159.33090210 2.9543142319  -999.250000  -999.250000
 406.00000000  -999.250000 16.000000000 -0.500000000  -999.250000 1.9499998093 7.5651998520 159.33090210 3.1726255417  -999.250000  -999.250000
 406.12500000  -999.250000 16.000000000 -0.500000000  -999.250000 1.9499998093 7.3102002144 159.33090210 3.4552216530  -999.250000  -999.250000
 406.25000000  -999.250000 16.000000000 -0.500000000  -999.250000 1.9499998093 7.1539998055 159.33090210 3.5718178749  -999.250000  -999.250000
 406.37500000  -999.250000 16.000000000 -0.500000000  -999.250000 1.9499998093 7.2347002029 159.33090210 3.6260361671  -999.250000  -999.250000
 406.49996948  -999.250000 16.000000000 -0.500000000  -999.250000 1.9499998093 7.5555000305 159.33090210 3.7130622864  -999.250000  -999.250000
 406.62500000  -999.250000 16.000000000 -0.500000000  -999.250000 1.9499998093 7.9886999130 159.33090210 3.7518329620  -999.250000  -999.250000
 406.75000000  -999.250000 16.000000000 -0.500000000  -999.250000 1.9499998093 8.4239997864 159.33090210 3.7015357018  -999.250000  -999.250000
 406.87500000  -999.250000 16.000000000 -0.500000000  -999.250000 1.9499998093 8.7749004364 159.33090210 3.6392416954  -999.250000  -999.250000
 407.00000000  -999.250000 16.000000000 -0.500000000  -999.250000 1.9499998093 8.8886995316 159.33090210 3.5405139923  -999.250000  -999.250000
 407.12500000  -999.250000 16.000000000 -0.500000000  -999.250000 1.9499998093 8.7375001907 159.33090210 3.5210838318  -999.250000  -999.250000
 407.25000000  -999.250000 16.000000000 -0.500000000  -999.250000 1.9499998093 8.5950002670 159.33090210 3.6921405792  -999.250000  -999.250000
 407.37496948  -999.250000 16.000000000 -0.500000000  -999.250000 1.9499998093 8.6438999176 159.33090210 3.9124450684  -999.250000  -999.250000
 407.50000000  -999.250000 16.000000000 -0.500000000  -999.250000 1.9499998093 8.9363002777 159.33090210 4.0193901062  -999.250000  -999.250000
 407.62500000  -999.250000 16.000000000 -0.500000000  -999.250000 1.9499998093 9.3709001541 159.33090210 4.0593509674  -999.250000  -999.250000
 407.75000000  -999.250000 16.000000000 -0.500000000  -999.250000 1.9499998093 9.6448001862 159.33090210 4.0792922974  -999.250000  -999.250000
 407.87500000  -999.250000 16.000000000 -0.500000000  -999.250000 1.9499998093 9.4645004272 159.33090210 4.1797990799  -999.250000  -999.250000
 408.00000000  -999.250000 16.000000000 -0.500000000  -999.250000 1.9499998093 8.7769002914 159.33090210 4.3340787888  -999.250000  -999.250000
 408.12500000  -999.250000 16.000000000 -0.500000000  -999.250000 1.9499998093 7.9300999641 159.33090210 4.3668489456  -999.250000  -999.250000
 408.25003052  -999.250000 16.000000000 -0.500000000  -999.250000 1.9499998093 7.4203000069 159.33090210 4.3208036423  -999.250000  -999.250000
 408.37500000  -999.250000 16.000000000 -0.500000000  -999.250000 1.9499998093 7.5032000542 159.33090210 4.3622074127  -999.250000  -999.250000
 408.50000000  -999.250000 16.000000000 -0.500000000  -999.250000 1.9499998093 8.1199998856 159.33090210 4.4932146072  -999.250000  -999.250000
 408.62500000  -999.250000 16.000000000 -0.500000000  -999.250000 1.9499998093 8.9504995346 159.33090210 4.5714263916  -999.250000  -999.250000
 408.75000000  -999.250000 16.000000000 -0.500000000  -999.250000 1.9499998093 9.5530004501 159.33090210 4.6245660782  -999.250000  -999.250000
 408.87500000  -999.250000 16.000000000 -0.500000000  -999.250000 1.9499998093 9.7215995789 159.33090210 4.7451744080  -999.250000  -999.250000
 409.00000000  -999.250000 16.000000000 -0.500000000  -999.250000 1.9499998093 9.5198001862 159.33090210 4.9091959000  -999.250000  -999.250000
 409.12503052  -999.250000 16.000000000 -0.500000000  -999.250000 1.9499998093 9.1565999985 159.33090210 5.0668783188  -999.250000  -999.250000
 409.25000000  -999.250000 16.000000000 -0.500000000  -999.250000 1.9499998093 8.8569002151 159.33090210 5.1689186096  -999.250000  -999.250000
 409.37500000  -999.250000 16.000000000 -0.500000000  -999.250000 1.9499998093 8.7215995789 159.33090210 5.0997314453  -999.250000  -999.250000
 409.50000000  -999.250000 16.000000000 -0.500000000  -999.250000 1.9499998093 8.7454996109 159.33090210 4.9538040161  -999.250000  -999.250000
 409.62500000  -999.250000 16.000000000 -0.500000000  -999.250000 1.9499998093 8.8390998840 159.33090210 4.9599161148  -999.250000  -999.250000
 409.75000000  -999.250000 16.000000000 -0.500000000  -999.250000 1.9499998093 8.8691997528 159.33090210 5.0234003067  -999.250000  -999.250000
 409.87500000  -999.250000 16.000000000 -0.500000000  -999.250000 1.9499998093 8.8135995865 159.33090210 5.0793294907  -999.250000  -999.250000
 410.00003052  -999.250000 16.000000000 -0.500000000  -999.250000 1.9499998093 8.6927003860 159.33090210 4.9975061417  -999.250000  -999.250000
 410.12500000  -999.250000 16.000000000 -0.500000000  -999.250000 1.9499998093 8.5689001083 159.33090210 4.8805198669  -999.250000  -999.250000
 410.25000000  -999.250000 16.000000000 -0.500000000  -999.250000 1.9499998093 8.6097002029 159.33090210 4.8016090393  -999.250000  -999.250000
 410.37500000  -999.250000 16.000000000 -0.500000000  -999.250000 1.9499998093 8.9196996689 159.33090210 4.6213188171  -999.250000  -999.250000
 410.50000000  -999.250000 16.000000000 -0.500000000  -999.250000 1.9499998093 9.4371995926 159.33090210 4.4158763885  -999.250000  -999.250000
 410.62500000  -999.250000 16.000000000 -0.500000000  -999.250000 1.9499998093 9.8662004471 159.33090210 4.4795217514  -999.250000  -999.250000
 410.75000000  -999.250000 16.000000000 -0.500000000  -999.250000 1.9499998093 9.9414997101 159.33090210 4.6769990921  -999.250000  -999.250000
 410.87503052  -999.250000 16.000000000 -0.500000000  -999.250000 1.9499998093 9.6163997650 159.33090210 4.5706233978  -999.250000  -999.250000
 411.00000000  -999.250000 16.000000000 -0.500000000  -999.250000 1.9499998093 9.1164999008 159.33090210 4.4782781601  -999.250000  -999.250000
 411.12500000  -999.250000 16.000000000 -0.500000000  -999.250000 1.9499998093 8.8845996857 159.33090210 4.4123830795  -999.250000  -999.250000
 411.25000000  -999.250000 16.000000000 -0.500000000  -999.250000 1.9499998093 9.0703001022 159.33090210 4.4044103622  -999.250000  -999.250000
 411.37500000  -999.250000 16.000000000 -0.500000000  -999.250000 1.9499998093 9.6124000549 159.33090210 4.5624513626  -999.250000  -999.250000
 411.49996948  -999.250000 16.000000000 -0.500000000  -999.250000 1.9499998093 10.317799568 159.33090210 4.3373069763  -999.250000  -999.250000
 411.62500000  -999.250000 16.000000000 -0.500000000  -999.250000 1.9499998093 10.879599571 159.33090210 3.5478172302  -999.250000  -999.250000
 411.75003052  -999.250000 16.000000000 -0.500000000  -999.250000 1.9499998093 11.132699966 159.33090210 3.0215964317  -999.250000  -999.250000
 411.87500000  -999.250000 16.000000000 -0.500000000  -999.250000 1.9499998093 11.078900337 159.33090210 2.7403526306  -999.250000  -999.250000
