# LAS format log file from PETREL
# Project units are specified as depth units
#==================================================================
~Version information
VERS.   2.0:
WRAP.   NO:
#==================================================================
~Well
STRT .m      815.00012207 :
STOP .m      2497.5000000 :
STEP .m     0.00000000 :
NULL .        -999.250000 :
COMP.           : COMPANY
WELL.  31/5-2R   : WELL
FLD.            : FIELD
LOC.            : LOCATION
SRVC.           : SERVICE COMPANY
DATE.  2018-09-11 14:48:39   : Log Export Date {yyyy-MM-dd HH:mm:ss}
PROV.           : PROVINCE
UWI.   31/5-2 R   : UNIQUE WELL ID
API.            : API NUMBER
#==================================================================
~Curve
DEPT .m                   : DEPTH
Lithology_geolink ._      : Lithology_geolink
CALI .in                  : CALI
DRHO .g/cm3               : DRHO
NPHI .m3/m3               : NPHI
RHOB .g/cm3               : RHOB
GR .gAPI                  : GR
DTC .us/ft                : DTC
DTE .us/ft                : DTE
RDEP .ohm.m               : RDEP
SP .mV                    : SP
RSHA .ohm.m               : RSHA
RMED .ohm.m               : RMED
~Parameter
#==================================================================
~Ascii
# ...
 1379.0000000 5.0000000000 18.048999786 0.0619999990  -999.250000 2.1860001087 67.472000122 150.37516785 144.90031433 0.7609999776 13.803999901 0.8790000081 0.8790000081
 1379.1250000 5.0000000000 18.007999420 0.0549999997  -999.250000 2.1800000668 68.292999268 150.90454102 145.43605042 0.7620000243 13.762000084 0.8930000067 0.8930000067
 1379.2500000 5.0000000000 17.931999207 0.0479951166  -999.250000 2.1730000973 68.896003723 151.21261597 145.72386169 0.7609990239 13.706999779 0.9100234509 0.9100234509
 1379.3750000 5.0000000000 17.854000092 0.0429990254  -999.250000 2.1679999828 69.038002014 151.13752747 145.64280701 0.7600019574 13.652000427 0.9340293407 0.9340293407
 1379.5000000 5.0000000000 17.798000336 0.0420048833  -999.250000 2.1679999828 68.780998230 150.65020752 145.13351440 0.7620058656 13.607999802 0.9640293121 0.9640293121
 1379.6250000 5.0000000000 17.767999649 0.0470048822  -999.250000 2.1730000973 68.370803833 149.88710022 144.37181091 0.7680117488 13.578982353 0.9940176010 0.9940176010
 1379.7500000 5.0000000000 17.746999741 0.0520000011  -999.250000 2.1789999008 68.170150757 149.03529358 143.53567505 0.7800185084 13.559984207 1.0120018721 1.0120018721
 1379.8751221 5.0000000000 17.719999313 0.0519882925  -999.250000 2.1840000153 68.328170776 148.05825806 142.57766724 0.7990468740 13.542951584 1.0139844418 1.0139844418
 1380.0000000 5.0000000000 17.688999176 0.0460000001  -999.250000 2.1900000572 68.414001465 146.87635803 141.40599060 0.8230000138 13.517999649 1.0060000420 1.0060000420
 1380.1250000 5.0000000000 17.673000336 0.0399999991  -999.250000 2.1930000782 67.872001648 145.39802551 139.92195129 0.8479999900 13.479999542 1.0080000162 1.0080000162
 1380.2500000 5.0000000000 17.690999985 0.0379999988  -999.250000 2.1860001087 66.427001953 143.73460388 138.29716492 0.8690000176 13.423999786 1.0360000134 1.0360000134
 1380.3750000 5.0000000000 17.735000610 0.0419999994  -999.250000 2.1670000553 64.851997375 142.64733887 137.21054077 0.8820000291 13.361000061 1.0880000591 1.0880000591
 1380.5000000 5.0000000000 17.780000687 0.0480029285  -999.250000 2.1389999390 63.928001404 142.45281982 137.00460815 0.8869980574 13.305000305 1.1400067806 1.1400067806
 1380.6250000 5.0000000000 17.809000015 0.0510019511  -999.250000 2.1110000610 64.391998291 143.21150208 137.75968933 0.8849980235 13.277000427 1.1469589472 1.1469589472
 1380.7500000 5.0000000000 17.826999664 0.0530009754  -999.250000 2.0920000076 65.582069397 144.78569031 139.34327698 0.8829970956 13.275012970 1.1049228907 1.1049228907
 1380.8750000 5.0000000000 17.841999054 0.0540029295  -999.250000 2.0820000172 66.678176880 146.83590698 141.38832092 0.8799951077 13.289013863 1.0259238482 1.0259238482
 1381.0001221 5.0000000000 17.847999573 0.0570097640  -999.250000 2.0769999027 66.855293274 148.61064148 143.14030457 0.8749843836 13.304011345 0.9478808641 0.9478808641
 1381.1248779 5.0000000000 17.840000153 0.0619999990  -999.250000 2.0750000477 66.490997314 149.57247925 144.07479858 0.8669999838 13.310000420 0.8870000243 0.8870000243
 1381.2500000 5.0000000000 17.823999405 0.0649999976  -999.250000 2.0710000992 66.132003784 149.44300842 143.95645142 0.8560000062 13.305000305 0.8519999981 0.8519999981
 1381.3750000 5.0000000000 17.836999893 0.0640000030  -999.250000 2.0659999847 66.305999756 148.23805237 142.78666687 0.8439999819 13.295999527 0.8320000172 0.8320000172
 1381.5000000 5.0000000000 17.889999390 0.0570000000  -999.250000 2.0590000153 67.031997681 146.29084778 140.84138489 0.8330000043 13.284999847 0.8209999800 0.8209999800
 1381.6250000 5.0000000000 17.978000641 0.0449853539  -999.250000 2.0469999313 68.194000244 144.43475342 138.94549561 0.8269990683 13.274000168 0.8129951358 0.8129951358
 1381.7500000 5.0000000000 18.058000565 0.0299873035  -999.250000 2.0339999199 69.450996399 143.67190552 138.14691162 0.8260009289 13.267000198 0.8079980612 0.8079980612
 1381.8750000 5.0000000000 18.118999481 0.0169951189  -999.250000 2.0220000744 70.800003052 144.09318542 138.56481934 0.8270000219 13.269000053 0.8060019612 0.8060019612
 1382.0000000 6.0000000000 18.186000824 0.0120068360  -999.250000 2.0169999599 72.197280884 145.48709106 139.98165894 0.8269960880 13.283016205 0.8080058694 0.8080058694
 1382.1251221 6.0000000000 18.287000656 0.0190234371  -999.250000 2.0199999809 73.508346558 147.46270752 141.98930359 0.8229746222 13.300009727 0.8140058517 0.8140058517
 1382.2498779 6.0000000000 18.420000076 0.0309999995  -999.250000 2.0239999294 74.709999084 149.51348877 144.06149292 0.8100000024 13.305000305 0.8169999719 0.8169999719
 1382.3750000 6.0000000000 18.520000458 0.0379999988  -999.250000 2.0230000019 75.863998413 151.18127441 145.72309875 0.7900000215 13.291000366 0.8109999895 0.8109999895
 1382.5000000 6.0000000000 18.562000275 0.0329999998  -999.250000 2.0139999390 76.803001404 152.47029114 147.02876282 0.7659999728 13.262999535 0.7979999781 0.7979999781
 1382.6250000 6.0000000000 18.559999466 0.0179999992  -999.250000 2.0030000210 77.144996643 153.53611755 148.06553650 0.7419999838 13.241999626 0.7820000052 0.7820000052
 1382.7500000 6.0000000000 18.548999786 0.0030000000  -999.250000 1.9980000257 76.763999939 154.41659546 148.90660095 0.7220000029 13.246000290 0.7689999938 0.7689999938
 1382.8750000 6.0000000000 18.541000366 -0.000992188  -999.250000 2.0060000420 75.646003723 155.09301758 149.60406494 0.7079931498 13.279000282 0.7640087605 0.7640087605
 1383.0000000 6.0000000000 18.538000107 0.0070175785  -999.250000 2.0250000954 74.260002136 155.67556763 150.14872742 0.7009999752 13.326000214 0.7730205059 0.7730205059
 1383.1250000 5.0000000000 18.544000626 0.0250146482  -999.250000 2.0499999523 73.315078735 156.00457764 150.48124695 0.7010058165 13.370028496 0.7940293550 0.7940293550
 1383.2500000 5.0000000000 18.576000214 0.0400087871  -999.250000 2.0720000267 73.391891479 156.03378296 150.56028748 0.7070127130 13.399009705 0.8240293264 0.8240293264
 1383.3751221 5.0000000000 18.643999100 0.0489999987  -999.250000 2.0880000591 74.306152344 155.84680176 150.37568665 0.7200332284 13.408972740 0.8540390134 0.8540390134
 1383.4998779 5.0000000000 18.722999573 0.0489999987  -999.250000 2.0950000286 75.403999329 155.48872375 149.97584534 0.7369999886 13.395000458 0.8740000129 0.8740000129
 1383.6250000 5.0000000000 18.752000809 0.0410000011  -999.250000 2.0950000286 76.082000732 154.89991760 149.46823120 0.7580000162 13.364000320 0.8809999824 0.8809999824
 1383.7500000 5.0000000000 18.686000824 0.0309999995  -999.250000 2.0920000076 76.068000793 154.51277161 149.04682922 0.7810000181 13.331000328 0.8820000291 0.8820000291
 1383.8750000 5.0000000000 18.538000107 0.0240000002  -999.250000 2.0889999866 75.665000916 154.11959839 148.67895508 0.8050000072 13.307999611 0.8880000114 0.8880000114
 1384.0000000 5.0000000000 18.361999512 0.0200009756  -999.250000 2.0889999866 75.329002380 153.67263794 148.21197510 0.8270205259 13.300999641 0.9020097852 0.9020097852
 1384.1250000 5.0000000000 18.224000931 0.0210019536  -999.250000 2.0929999352 75.269996643 153.04667664 147.53373718 0.8480175734 13.307999611 0.9119980335 0.9119980335
 1384.2500000 5.0000000000 18.159999847 0.0230029300  -999.250000 2.0989999771 75.260864258 152.13926697 146.60646057 0.8660166264 13.323018074 0.9099833965 0.9099833965
 1384.3750000 5.0000000000 18.162000656 0.0260048825  -999.250000 2.1059999466 75.122955322 151.06239319 145.56976318 0.8830166459 13.342017174 0.8929785490 0.8929785490
 1384.5001221 5.0000000000 18.174999237 0.0310156252  -999.250000 2.1110000610 75.077697754 150.25640869 144.79075623 0.9000293016 13.360025406 0.8709726334 0.8709726334
 1384.6248779 5.0000000000 18.159000397 0.0390000008  -999.250000 2.1129999161 75.432998657 149.81597900 144.31677246 0.9150000215 13.373000145 0.8569999933 0.8569999933
 1384.7500000 5.0000000000 18.104000092 0.0500000007  -999.250000 2.1140000820 76.370002747 149.52182007 144.03251648 0.9269999862 13.378999710 0.8619999886 0.8619999886
 1384.8750000 5.0000000000 18.042999268 0.0619999990  -999.250000 2.1159999371 77.467002869 149.20343018 143.77690125 0.9399999976 13.383000374 0.8830000162 0.8830000162
