# LAS format log file from PETREL
# Project units are specified as depth units
#==================================================================
~Version information
VERS.   2.0:
WRAP.   NO:
#==================================================================
~Well
STRT .m      405.00000000 :
STOP .m      1938.8748779 :
STEP .m     0.00000000 :
NULL .        -999.250000 :
COMP.           : COMPANY
WELL.  31/5-5 R   : WELL
FLD.            : FIELD
LOC.            : LOCATION
SRVC.           : SERVICE COMPANY
DATE.  2018-09-11 14:48:39   : Log Export Date {yyyy-MM-dd HH:mm:ss}
PROV.           : PROVINCE
UWI.   31/5-5 R   : UNIQUE WELL ID
API.            : API NUMBER
#==================================================================
~Curve
DEPT .m                   : DEPTH
Lithology_geolink ._      : Lithology_geolink
CALI .in                  : CALI
DRHO .g/cm3               : DRHO
NPHI .m3/m3               : NPHI
RHOB .g/cm3               : RHOB
GR .gAPI                  : GR
DTC .us/ft                : DTC
RDEP .ohm.m               : RDEP
SP .mV                    : SP
RSHA .ohm.m               : RSHA
~Parameter
#==================================================================
~Ascii
# ...
 706.00000000  -999.250000 24.686000824 0.0097751617  -999.250000 2.2783327103 49.616901398 159.33090210 6.6471405029  -999.250000  -999.250000
 706.12500000  -999.250000 24.709699631 0.0219325051  -999.250000 2.2695865631 50.432998657 159.33090210 6.6261014938  -999.250000  -999.250000
 706.25000000  -999.250000 24.702699661 0.0455186218  -999.250000 2.2531604767 50.525501251 159.33090210 6.6981878281  -999.250000  -999.250000
 706.37493896  -999.250000 24.658102036 0.0682187006  -999.250000 2.2332472801 50.005298615 159.33090210 6.8017988205  -999.250000  -999.250000
 706.50000000  -999.250000 24.570800781 0.0797519684  -999.250000 2.2157287598 49.456001282 159.33090210 6.7720890045  -999.250000  -999.250000
 706.62500000  -999.250000 24.434600830 0.0740587264  -999.250000 2.2086811066 49.405601501 159.33090210 6.5865535736  -999.250000  -999.250000
 706.75000000  -999.250000 24.271198273 0.0586571023  -999.250000 2.2129149437 49.647201538 159.33090210 6.4407396317  -999.250000  -999.250000
 706.87500000  -999.250000 24.111200333 0.0427193642  -999.250000 2.2254247665 49.853000641 159.33090210 6.4383172989  -999.250000  -999.250000
 707.00000000  -999.250000 23.997098923 0.0334320068  -999.250000 2.2403078079 49.859298706 159.33090210 6.5738563538  -999.250000  -999.250000
 707.12500000  -999.250000 23.996799469 0.0323352665  -999.250000 2.2505874634 49.879699707 159.33090210 6.7135944366  -999.250000  -999.250000
 707.25000000  -999.250000 24.115499496 0.0321999714  -999.250000 2.2544593811 50.209999084 159.33090210 6.7677583694  -999.250000  -999.250000
 707.37500000  -999.250000 24.319700241 0.0285089016  -999.250000 2.2532854080 50.815101624 159.33090210 6.8240098953  -999.250000  -999.250000
 707.50006104  -999.250000 24.532901764 0.0231275558  -999.250000 2.2492675781 51.359199524 159.33090210 7.1000270844  -999.250000  -999.250000
 707.62500000  -999.250000 24.638702393 0.0194388814  -999.250000 2.2440366745 51.455001831 159.33090210 7.3921737671  -999.250000  -999.250000
 707.75000000  -999.250000 24.596601486 0.0194669664  -999.250000 2.2391695976 51.270801544 159.33090210 7.4048032761  -999.250000  -999.250000
 707.87500000  -999.250000 24.423500061 0.0254957676  -999.250000 2.2342605591 51.113498688 159.33090210 7.3736715317  -999.250000  -999.250000
 708.00000000  -999.250000 24.177600861 0.0410728455  -999.250000 2.2252206802 51.167499542 159.33090210 7.4653053284  -999.250000  -999.250000
 708.12493896  -999.250000 23.934501648 0.0586686879  -999.250000 2.2025160789 51.458198547 159.33090210 7.5488214493  -999.250000  -999.250000
 708.25000000  -999.250000 23.751899719 0.0658554733  -999.250000 2.1664171219 51.972301483 159.33090210 7.4515438080  -999.250000  -999.250000
 708.37500000  -999.250000 23.694000244 0.0588295422  -999.250000 2.1249594688 52.985900879 159.33090210 7.1950750351  -999.250000  -999.250000
 708.50000000  -999.250000 23.870500565 0.0404548645  -999.250000 2.0904474258 54.764099121 159.33090210 7.0884895325  -999.250000  -999.250000
 708.62500000  -999.250000 24.484500885 0.0181933567  -999.250000 2.0763888359 57.281898499 159.33090210 7.0760040283  -999.250000  -999.250000
 708.75000000  -999.250000 25.479000092 0.0032250690  -999.250000 2.0820593834 59.871200562 159.33090210 6.6906833649  -999.250000  -999.250000
 708.87500000  -999.250000 26.662300110 -0.007701635  -999.250000 2.1022071838 61.998401642 159.33090210 6.2026605606  -999.250000  -999.250000
 709.00000000  -999.250000 27.715402603 -0.012016296  -999.250000 2.1271533966 63.452899933 159.33090210 5.9996347427  -999.250000  -999.250000
 709.12500000  -999.250000 28.238300323 -0.006456090  -999.250000 2.1425533295 64.317398071 159.33090210 5.8721847534  -999.250000  -999.250000
 709.25006104  -999.250000 28.214998245 0.0074922601  -999.250000 2.1401019096 64.786201477 159.33090210 5.7381057739  -999.250000  -999.250000
 709.37500000  -999.250000 27.800199509 0.0269072056  -999.250000 2.1186466217 64.841003418 159.33090210 5.4498367310  -999.250000  -999.250000
 709.50000000  -999.250000 27.242202759 0.0423727036  -999.250000 2.0856208801 64.611801147 159.33090210 5.0356597900  -999.250000  -999.250000
 709.62500000  -999.250000 26.764999390 0.0402994454  -999.250000 2.0553560257 64.443298340 159.33090210 4.6568689346  -999.250000  -999.250000
 709.75000000  -999.250000 26.400398254 0.0262211747  -999.250000 2.0375375748 64.708801270 159.33090210 4.4542770386  -999.250000  -999.250000
 709.87493896  -999.250000 26.108501434 0.0125651360  -999.250000 2.0333786011 65.478599548 159.33090210 4.3939447403  -999.250000  -999.250000
 710.00000000  -999.250000 25.888298035 0.0041761398  -999.250000 2.0388460159 66.421501160 159.33090210 4.3680772781  -999.250000  -999.250000
 710.12500000  -999.250000 25.826900482 0.0016130486  -999.250000 2.0481009483 66.629402161 159.33090210 4.3711147308  -999.250000  -999.250000
 710.25000000  -999.250000 25.945602417 0.0033772411  -999.250000 2.0560560226 65.528900146 159.33090210 4.3886003494  -999.250000  -999.250000
 710.37500000  -999.250000 26.193799973 0.0081100464  -999.250000 2.0612306595 63.203300476 159.33090210 4.4360828400  -999.250000  -999.250000
 710.49993896  -999.250000 26.439697266 0.0149688721  -999.250000 2.0635595322 60.471900940 159.33090210 4.5170278549  -999.250000  -999.250000
 710.62500000  -999.250000 26.499599457 0.0240401141  -999.250000 2.0631003380 58.652599335 159.33090210 4.6099109650  -999.250000  -999.250000
 710.75000000  -999.250000 26.335597992 0.0332048535  -999.250000 2.0614476204 58.073600769 159.33090210 4.6887502670  -999.250000  -999.250000
 710.87500000  -999.250000 26.020599365 0.0385854281  -999.250000 2.0606975555 58.324401855 159.33090210 4.7537031174  -999.250000  -999.250000
 711.00006104  -999.250000 25.678100586 0.0393600464  -999.250000 2.0632839203 58.846801758 159.33090210 4.8156089783  -999.250000  -999.250000
 711.12500000  -999.250000 25.374300003 0.0342885554  -999.250000 2.0714855194 59.616500854 159.33090210 4.8778553009  -999.250000  -999.250000
 711.25000000  -999.250000 25.091800690 0.0251923949  -999.250000 2.0835871696 60.929698944 159.33090210 4.9441967010  -999.250000  -999.250000
 711.37500000  -999.250000 24.821601868 0.0167632103  -999.250000 2.0970768929 62.632099152 159.33090210 5.0246486664  -999.250000  -999.250000
 711.50000000  -999.250000 24.590600967 0.0124435425  -999.250000 2.1090774536 64.000099182 159.33090210 5.1198797226  -999.250000  -999.250000
 711.62493896  -999.250000 24.474399567 0.0140283015  -999.250000 2.1164340973 63.833301544 159.33090210 5.2192955017  -999.250000  -999.250000
 711.75000000  -999.250000 24.486799240 0.0236280523  -999.250000 2.1187839508 62.180698395 159.33090210 5.3186826706  -999.250000  -999.250000
 711.87500000  -999.250000 24.591100693 0.0408067703  -999.250000 2.1163201332 59.798500061 159.33090210 5.4372444153  -999.250000  -999.250000
 712.00000000  -999.250000 24.693500519 0.0559434891  -999.250000 2.1102180481 57.546501160 159.33090210 5.6481399536  -999.250000  -999.250000
 712.12500000  -999.250000 24.690099716 0.0605206266  -999.250000 2.1029767990 56.101001740 159.33090210 6.0254745483  -999.250000  -999.250000
 712.24993896  -999.250000 24.601200104 0.0564802960  -999.250000 2.0977234840 55.430400848 159.33090210 6.4520521164  -999.250000  -999.250000
 712.37500000  -999.250000 24.478900909 0.0498235263  -999.250000 2.0955591202 55.450199127 159.33090210 6.6679391861  -999.250000  -999.250000
 712.50000000  -999.250000 24.361099243 0.0477523804  -999.250000 2.0953350067 56.113399506 159.33090210 6.7036724091  -999.250000  -999.250000
 712.62500000  -999.250000 24.266599655 0.0523058400  -999.250000 2.0942554474 57.176300049 159.33090210 6.7553634644  -999.250000  -999.250000
 712.75006104  -999.250000 24.196599960 0.0560637489  -999.250000 2.0912680626 58.074501038 159.33090210 6.8295135498  -999.250000  -999.250000
 712.87500000  -999.250000 24.145799637 0.0528531075  -999.250000 2.0878481865 58.351898193 159.33090210 6.9308071136  -999.250000  -999.250000
