# LAS format log file from PETREL
# Project units are specified as depth units
#==================================================================
~Version information
VERS.   2.0:
WRAP.   NO:
#==================================================================
~Well
STRT .m      815.00012207 :
STOP .m      2497.5000000 :
STEP .m     0.00000000 :
NULL .        -999.250000 :
COMP.           : COMPANY
WELL.  31/5-2R   : WELL
FLD.            : FIELD
LOC.            : LOCATION
SRVC.           : SERVICE COMPANY
DATE.  2018-09-11 14:48:39   : Log Export Date {yyyy-MM-dd HH:mm:ss}
PROV.           : PROVINCE
UWI.   31/5-2 R   : UNIQUE WELL ID
API.            : API NUMBER
#==================================================================
~Curve
DEPT .m                   : DEPTH
Lithology_geolink ._      : Lithology_geolink
CALI .in                  : CALI
DRHO .g/cm3               : DRHO
NPHI .m3/m3               : NPHI
RHOB .g/cm3               : RHOB
GR .gAPI                  : GR
DTC .us/ft                : DTC
DTE .us/ft                : DTE
RDEP .ohm.m               : RDEP
SP .mV                    : SP
RSHA .ohm.m               : RSHA
RMED .ohm.m               : RMED
~Parameter
#==================================================================
~Ascii
# ...
 1157.0000000  -999.250000 18.056999207 -0.004001953  -999.250000 2.1300001144 75.732002258 143.00953674 137.53263855 1.1319969893 10.140999794 1.4780126810 1.4780126810
 1157.1251221  -999.250000 18.045999527 -0.005994141  -999.250000 2.1329998970 75.197891235 142.32809448 136.84991455 1.1290018559 10.131996155 1.4910117388 1.4910117388
 1157.2501221  -999.250000 18.013999939 -0.002986328  -999.250000 2.1449999809 75.085189819 141.71434021 136.25720215 1.1300137043 10.127988815 1.4969882965 1.4969882965
 1157.3750000  -999.250000 17.955999374 0.0040117190  -999.250000 2.1710000038 75.181999207 141.28286743 135.81007385 1.1370106936 10.121999741 1.4909814596 1.4909814596
 1157.5000000  -999.250000 17.881000519 0.0160156265  -999.250000 2.2160000801 75.045997620 141.04975891 135.55191040 1.1480165720 10.109000206 1.4719804525 1.4719804525
 1157.6250000  -999.250000 17.805999756 0.0320146494  -999.250000 2.2760000229 74.502998352 140.96049500 135.50314331 1.1650185585 10.092000008 1.4519990683 1.4519990683
 1157.7501221  -999.250000 17.749000549 0.0470117182  -999.250000 2.3329999447 73.706214905 141.06875610 135.62002563 1.1840273142 10.077980995 1.4510605335 1.4510605335
 1157.8751221  -999.250000 17.716999054 0.0529902354  -999.250000 2.3619999886 73.305267334 141.16342163 135.65838623 1.1980078220 10.067990303 1.4821113348 1.4821113348
 1158.0000000  -999.250000 17.701000214 0.0479912125  -999.250000 2.3450000286 73.443000793 141.00894165 135.47802734 1.2019883394 10.062999725 1.5390683413 1.5390683413
 1158.1250000  -999.250000 17.694999695 0.0389931649  -999.250000 2.2980000973 73.957000732 140.59019470 135.07150269 1.1899814606 10.064999580 1.6090526581 1.6090526581
 1158.2500000  -999.250000 17.690999985 0.0319951177  -999.250000 2.2479999065 74.277000427 140.02116394 134.54054260 1.1709814072 10.071999550 1.6630175114 1.6630175114
 1158.3751221  -999.250000 17.687999725 0.0269882828  -999.250000 2.2130000591 74.260910034 139.53756714 134.11026001 1.1519726515 10.079999924 1.6809629202 1.6809629202
 1158.5000000  -999.250000 17.687000275 0.0209931638  -999.250000 2.1919999123 74.214141846 139.62464905 134.17459106 1.1379892826 10.079990387 1.6619687080 1.6619687080
 1158.6250000  -999.250000 17.684999466 0.0139921876  -999.250000 2.1809999943 74.363998413 140.09852600 134.61463928 1.1269901991 10.069999695 1.6299736500 1.6299736500
 1158.7500000  -999.250000 17.677999496 0.0059931641  -999.250000 2.1710000038 74.718002319 140.74215698 135.26814270 1.1169873476 10.050000191 1.6029902697 1.6029902697
 1158.8750000  -999.250000 17.669000626 -0.001002930  -999.250000 2.1589999199 74.867996216 141.42843628 135.97483826 1.1039843559 10.031000137 1.5930030346 1.5930030346
 1159.0001221  -999.250000 17.656999588 -0.003998047  -999.250000 2.1489999294 74.532562256 142.08753967 136.60430908 1.0879648924 10.018003464 1.5960057974 1.5960057974
 1159.1250000  -999.250000 17.646999359 -0.002995117  -999.250000 2.1449999809 73.797996521 142.58035278 137.10295105 1.0699834824 10.020000458 1.5989892483 1.5989892483
 1159.2500000  -999.250000 17.638999939 0.0020039063  -999.250000 2.1480000019 73.259002686 143.06602478 137.56764221 1.0529873371 10.034000397 1.5879716873 1.5879716873
 1159.3750000  -999.250000 17.631999969 0.0060000001  -999.250000 2.1519999504 73.205001831 143.55606079 138.04452515 1.0399931669 10.055999756 1.5589678288 1.5589678288
 1159.5001221  -999.250000 17.620000839 0.0059882812  -999.250000 2.1510000229 73.508827209 143.95492554 138.51448059 1.0329941511 10.075016975 1.5259550810 1.5259550810
 1159.6251221  -999.250000 17.600000381 -0.000011719  -999.250000 2.1429998875 73.929878235 144.29142761 138.93159485 1.0299999714 10.083993912 1.5030000210 1.5030000210
 1159.7500000  -999.250000 17.565999985 -0.006000977  -999.250000 2.1319999695 74.377998352 144.77665710 139.23483276 1.0300029516 10.081000328 1.5030195713 1.5030195713
 1159.8750000  -999.250000 17.520999908 -0.006992188  -999.250000 2.1250000000 74.776000977 144.77403259 139.34394836 1.0330058336 10.071999550 1.5230400562 1.5230400562
 1160.0000000  -999.250000 17.471000671 0.0010097657  -999.250000 2.1280000210 75.095001221 144.77560425 139.35292053 1.0390098095 10.067000389 1.5640507936 1.5640507936
 1160.1251221  -999.250000 17.422000885 0.0110136718  -999.250000 2.1370000839 75.402740479 144.83201599 139.36010742 1.0490214825 10.074024200 1.6160860062 1.6160860062
 1160.2500000  -999.250000 17.381000519 0.0179960933  -999.250000 2.1480000019 75.781517029 144.96331787 139.45162964 1.0600125790 10.086008072 1.6600048542 1.6600048542
 1160.3750000  -999.250000 17.350999832 0.0139882816  -999.250000 2.1519999504 76.316001892 145.18667603 139.68980408 1.0730106831 10.093999863 1.6649521589 1.6649521589
 1160.5000000  -999.250000 17.329999924 0.0019833986  -999.250000 2.1480000019 77.220001221 145.57775879 140.09095764 1.0840097666 10.093000412 1.6159160137 1.6159160137
 1160.6250000  -999.250000 17.318000793 -0.015013671  -999.250000 2.1370000839 78.540000916 145.96910095 140.51768494 1.0940107107 10.081999779 1.5299179554 1.5299179554
 1160.7501221  -999.250000 17.312999725 -0.029011717  -999.250000 2.1250000000 79.943168640 146.29287720 140.80935669 1.1050214767 10.064968109 1.4458905458 1.4458905458
 1160.8750000  -999.250000 17.312999725 -0.034996092  -999.250000 2.1180000305 81.051002502 146.39686584 140.87940979 1.1160126925 10.048999786 1.3899853230 1.3899853230
 1161.0000000  -999.250000 17.316999435 -0.030991210  -999.250000 2.1199998856 81.541000366 146.19485474 140.69158936 1.1290125847 10.036999702 1.3750107288 1.3750107288
 1161.1250000  -999.250000 17.325000763 -0.021988282  -999.250000 2.1310000420 81.400001526 145.70747375 140.26470947 1.1420165300 10.027999878 1.3860224485 1.3860224485
 1161.2501221  -999.250000 17.340000153 -0.009982422  -999.250000 2.1459999084 80.670219421 145.21614075 139.70649719 1.1590410471 10.023001671 1.4090352058 1.4090352058
 1161.3751221  -999.250000 17.364999771 -0.000992188  -999.250000 2.1600000858 79.760459900 144.72891235 139.21842957 1.1800448895 10.024024010 1.4270137548 1.4270137548
 1161.5000000  -999.250000 17.402000427 0.0029990235  -999.250000 2.1689999104 78.972000122 144.35852051 138.86338806 1.2030214071 10.036000252 1.4339951277 1.4339951277
 1161.6250000  -999.250000 17.447000504 0.0019990236  -999.250000 2.1700000763 78.526000977 144.14048767 138.64360046 1.2250175476 10.057000160 1.4289911985 1.4289911985
 1161.7500000  -999.250000 17.490999222 0.0010068360  -999.250000 2.1659998894 78.419998169 144.04475403 138.52188110 1.2430107594 10.076000214 1.4199852943 1.4199852943
 1161.8751221  -999.250000 17.524999619 0.0080312500  -999.250000 2.1659998894 78.507560730 143.94372559 138.42045593 1.2540097237 10.081972122 1.4049394131 1.4049394131
 1162.0000000  -999.250000 17.538999557 0.0240224618  -999.250000 2.1730000973 78.282348633 143.75613403 138.24826050 1.2590029240 10.067975044 1.3739540577 1.3739540577
 1162.1250000  -999.250000 17.538999557 0.0470205061  -999.250000 2.1870000362 77.619003296 143.48762512 138.02377319 1.2620029449 10.043000221 1.3269453049 1.3269453049
 1162.2500000  -999.250000 17.533000946 0.0680097714  -999.250000 2.1989998817 76.632003784 143.24250793 137.79150391 1.2650039196 10.012999535 1.2709550858 1.2709550858
 1162.3750000  -999.250000 17.531000137 0.0779931620  -999.250000 2.2030000687 75.916999817 143.07649231 137.60127258 1.2690019608 9.9870004654 1.2249727249 1.2249727249
 1162.5001221  -999.250000 17.535999298 0.0709726587  -999.250000 2.1989998817 75.795463562 142.98883057 137.49821472 1.2710039616 9.9639806747 1.1969941854 1.1969941854
 1162.6250000  -999.250000 17.548000336 0.0569873042  -999.250000 2.1979999542 76.544998169 142.98112488 137.50648499 1.2730009556 9.9540004730 1.1940078735 1.1940078735
 1162.7500000  -999.250000 17.559999466 0.0440029278  -999.250000 2.2090001106 77.482002258 142.98657227 137.53610229 1.2740019560 9.9630002975 1.2020195723 1.2020195723
 1162.8750000  -999.250000 17.568000793 0.0470126942  -999.250000 2.2369999886 78.110000610 142.98695374 137.51464844 1.2760039568 9.9980001450 1.2220342159 1.2220342159
