# LAS format log file from PETREL
# Project units are specified as depth units
#==================================================================
~Version information
VERS.   2.0:
WRAP.   NO:
#==================================================================
~Well
STRT .m      405.00000000 :
STOP .m      1938.8748779 :
STEP .m     0.00000000 :
NULL .        -999.250000 :
COMP.           : COMPANY
WELL.  31/5-5 R   : WELL
FLD.            : FIELD
LOC.            : LOCATION
SRVC.           : SERVICE COMPANY
DATE.  2018-09-11 14:48:39   : Log Export Date {yyyy-MM-dd HH:mm:ss}
PROV.           : PROVINCE
UWI.   31/5-5 R   : UNIQUE WELL ID
API.            : API NUMBER
#==================================================================
~Curve
DEPT .m                   : DEPTH
Lithology_geolink ._      : Lithology_geolink
CALI .in                  : CALI
DRHO .g/cm3               : DRHO
NPHI .m3/m3               : NPHI
RHOB .g/cm3               : RHOB
GR .gAPI                  : GR
DTC .us/ft                : DTC
RDEP .ohm.m               : RDEP
SP .mV                    : SP
RSHA .ohm.m               : RSHA
~Parameter
#==================================================================
~Ascii
# ...
 608.00000000  -999.250000 23.456899643 0.0388307571  -999.250000 2.1855888367 65.385299683 159.33090210 7.1769485474  -999.250000  -999.250000
 608.12500000  -999.250000 23.463300705 0.0429034978  -999.250000 2.1747679710 65.093200684 159.33090210 7.4258346558  -999.250000  -999.250000
 608.25000000  -999.250000 23.466899872 0.0437868983  -999.250000 2.1642284393 64.919898987 159.33090210 7.6677160263  -999.250000  -999.250000
 608.37500000  -999.250000 23.478399277 0.0409455299  -999.250000 2.1622200012 64.754302979 159.33090210 7.7906417847  -999.250000  -999.250000
 608.50000000  -999.250000 23.553800583 0.0373640060  -999.250000 2.1737585068 64.473503113 159.33090210 7.8307485580  -999.250000  -999.250000
 608.62500000  -999.250000 23.799400330 0.0393798873  -999.250000 2.1976013184 64.089202881 159.33090210 7.8307514191  -999.250000  -999.250000
 608.75000000  -999.250000 24.206399918 0.0478634238  -999.250000 2.2211885452 63.805599213 159.33090210 7.8307533264  -999.250000  -999.250000
 608.87500000  -999.250000 24.697998047 0.0562682152  -999.250000 2.2343540192 63.665699005 159.33090210 7.8128499985  -999.250000  -999.250000
 609.00000000  -999.250000 25.150899887 0.0548753738  -999.250000 2.2332782745 63.579498291 159.33090210 7.6997346878  -999.250000  -999.250000
 609.12500000  -999.250000 25.430599213 0.0439015031  -999.250000 2.2221970558 63.381801605 159.33090210 7.4631681442  -999.250000  -999.250000
 609.25000000  -999.250000 25.550500870 0.0319784209  -999.250000 2.2115168571 62.921901703 159.33090210 7.2753028870  -999.250000  -999.250000
 609.37500000  -999.250000 25.580900192 0.0227239132  -999.250000 2.2061839104 62.236698151 159.33090210 7.2690105438  -999.250000  -999.250000
 609.50000000  -999.250000 25.600198746 0.0182352066  -999.250000 2.2067222595 61.471900940 159.33090210 7.4430179596  -999.250000  -999.250000
 609.62500000  -999.250000 25.645099640 0.0198217295  -999.250000 2.2092781067 60.854400635 159.33090210 7.7512292862  -999.250000  -999.250000
 609.75000000  -999.250000 25.711700439 0.0251324363  -999.250000 2.2079982758 60.476501465 159.33090210 7.9343996048  -999.250000  -999.250000
 609.87500000  -999.250000 25.779699326 0.0282747746  -999.250000 2.2012057304 60.268001556 159.33090210 7.8428449631  -999.250000  -999.250000
 610.00000000  -999.250000 25.777500153 0.0254125595  -999.250000 2.1918888092 60.076198578 159.33090210 7.6140537262  -999.250000  -999.250000
 610.12500000  -999.250000 25.568901062 0.0164566487  -999.250000 2.1866598129 59.630699158 159.33090210 7.3686246872  -999.250000  -999.250000
 610.25000000  -999.250000 25.149799347 0.0078287721  -999.250000 2.1883988380 58.992900848 159.33090210 7.1300458908  -999.250000  -999.250000
 610.37500000  -999.250000 24.591701508 0.0006792545  -999.250000 2.1958327293 58.649101257 159.33090210 6.8945102692  -999.250000  -999.250000
 610.50000000  -999.250000 24.028499603 -0.002273560  -999.250000 2.2050321102 59.060100555 159.33090210 6.6820278168  -999.250000  -999.250000
 610.62500000  -999.250000 23.621799469 -0.000513329  -999.250000 2.2110886574 60.224098206 159.33090210 6.5654287338  -999.250000  -999.250000
 610.75000000  -999.250000 23.392999649 0.0021359310  -999.250000 2.2127871513 61.287300110 159.33090210 6.5798416138  -999.250000  -999.250000
 610.87500000  -999.250000 23.297100067 0.0043458939  -999.250000 2.2112712860 61.601600647 159.33090210 6.6309566498  -999.250000  -999.250000
 611.00000000  -999.250000 23.266099930 0.0069999695  -999.250000 2.2080478668 61.174400330 159.33090210 6.6192283630  -999.250000  -999.250000
 611.12500000  -999.250000 23.262701035 0.0114813522  -999.250000 2.2027812004 60.731399536 159.33090210 6.5650720596  -999.250000  -999.250000
 611.25000000  -999.250000 23.267799377 0.0192749612  -999.250000 2.1935796738 60.969299316 159.33090210 6.6097335815  -999.250000  -999.250000
 611.37500000  -999.250000 23.270200729 0.0321397781  -999.250000 2.1783809662 61.854000092 159.33090210 6.8324146271  -999.250000  -999.250000
 611.50000000  -999.250000 23.267999649 0.0456771851  -999.250000 2.1578845978 62.852298737 159.33090210 6.9587078094  -999.250000  -999.250000
 611.62500000  -999.250000 23.262899399 0.0528968200  -999.250000 2.1376948357 63.372299194 159.33090210 6.8595590591  -999.250000  -999.250000
 611.75000000  -999.250000 23.257099152 0.0507585928  -999.250000 2.1250095367 63.294200897 159.33090210 6.7603921890  -999.250000  -999.250000
 611.87500000  -999.250000 23.253900528 0.0389883481  -999.250000 2.1234235764 62.703800201 159.33090210 6.6782884598  -999.250000  -999.250000
 612.00000000  -999.250000 23.264200211 0.0209159851  -999.250000 2.1319284439 61.802200317 159.33090210 6.6798915863  -999.250000  -999.250000
 612.12500000  -999.250000 23.308900833 0.0088340137  -999.250000 2.1454796791 60.709899902 159.33090210 6.7834253311  -999.250000  -999.250000
 612.25000000  -999.250000 23.388099670 0.0013809728  -999.250000 2.1570291519 59.629600525 159.33090210 6.8583517075  -999.250000  -999.250000
 612.37500000  -999.250000 23.488899231 -0.000565767  -999.250000 2.1638302803 58.803001404 159.33090210 6.8570337296  -999.250000  -999.250000
 612.50000000  -999.250000 23.588499069 0.0022745132  -999.250000 2.1661901474 58.431701660 159.33090210 6.8557167053  -999.250000  -999.250000
 612.62500000  -999.250000 23.659297943 0.0076705255  -999.250000 2.1655521393 58.596500397 159.33090210 6.8322715759  -999.250000  -999.250000
 612.75000000  -999.250000 23.696300507 0.0124263279  -999.250000 2.1639924049 59.020599365 159.33090210 6.7284698486  -999.250000  -999.250000
 612.87500000  -999.250000 23.705999374 0.0146892071  -999.250000 2.1624150276 59.396800995 159.33090210 6.5536308289  -999.250000  -999.250000
 613.00000000  -999.250000 23.701799393 0.0138158798  -999.250000 2.1613712311 59.352401733 159.33090210 6.4205226898  -999.250000  -999.250000
 613.12500000  -999.250000 23.694599152 0.0106123891  -999.250000 2.1613740921 58.597000122 159.33090210 6.3674192429  -999.250000  -999.250000
 613.25000000  -999.250000 23.692697525 0.0078626033  -999.250000 2.1624665260 57.566501617 159.33090210 6.3394517899  -999.250000  -999.250000
 613.37500000  -999.250000 23.698499680 0.0073561668  -999.250000 2.1645221710 56.812400818 159.33090210 6.3337326050  -999.250000  -999.250000
 613.50000000  -999.250000 23.709199905 0.0097551346  -999.250000 2.1670951843 56.636501312 159.33090210 6.4165477753  -999.250000  -999.250000
 613.62500000  -999.250000 23.719299316 0.0146029424  -999.250000 2.1693944931 56.983100891 159.33090210 6.6280126572  -999.250000  -999.250000
 613.75000000  -999.250000 23.725000381 0.0195211507  -999.250000 2.1707491875 57.377399445 159.33090210 6.9137773514  -999.250000  -999.250000
 613.87500000  -999.250000 23.725900650 0.0221979618  -999.250000 2.1708436012 57.418399811 159.33090210 7.1639223099  -999.250000  -999.250000
 614.00000000  -999.250000 23.724899292 0.0195569992  -999.250000 2.1697988510 57.034698486 159.33090210 7.2486829758  -999.250000  -999.250000
 614.12500000  -999.250000 23.729501724 0.0141822621  -999.250000 2.1680650711 56.613998413 159.33090210 7.1246051788  -999.250000  -999.250000
 614.25000000  -999.250000 23.744800568 0.0085487328  -999.250000 2.1665525436 56.542301178 159.33090210 6.9733095169  -999.250000  -999.250000
 614.37500000  -999.250000 23.769800186 0.0058081150  -999.250000 2.1659164429 56.825599670 159.33090210 6.9847555161  -999.250000  -999.250000
 614.50000000  -999.250000 23.798299789 0.0082178116  -999.250000 2.1663475037 57.240898132 159.33090210 7.1289968491  -999.250000  -999.250000
 614.62500000  -999.250000 23.820800781 0.0166145042  -999.250000 2.1672482491 57.554599762 159.33090210 7.2355546951  -999.250000  -999.250000
 614.75000000  -999.250000 23.833200455 0.0298626311  -999.250000 2.1672978401 57.674900055 159.33090210 7.2829732895  -999.250000  -999.250000
 614.87500000  -999.250000 23.836999893 0.0427956581  -999.250000 2.1655263901 57.563201904 159.33090210 7.4184389114  -999.250000  -999.250000
