# LAS format log file from PETREL
# Project units are specified as depth units
#==================================================================
~Version information
VERS.   2.0:
WRAP.   NO:
#==================================================================
~Well
STRT .m      1704.1855469 :
STOP .m      2348.0756836 :
STEP .m     0.00000000 :
NULL .        -999.250000 :
COMP.           : COMPANY
WELL.  31/5-6   : WELL
FLD.            : FIELD
LOC.            : LOCATION
SRVC.           : SERVICE COMPANY
DATE.  2018-09-11 14:48:40   : Log Export Date {yyyy-MM-dd HH:mm:ss}
PROV.           : PROVINCE
UWI.   31/5-6   : UNIQUE WELL ID
API.            : API NUMBER
#==================================================================
~Curve
DEPT .m                   : DEPTH
Lithology_geolink ._      : Lithology_geolink
CALI .in                  : CALI
BS .in                    : BS
ROP .m/h                  : ROP
DRHO .g/cm3               : DRHO
NPHI .m3/m3               : NPHI
RHOB .g/cm3               : RHOB
PEF .b/e                  : PEF
GR .gAPI                  : GR
RDEP .ohm.m               : RDEP
RMED .ohm.m               : RMED
~Parameter
#==================================================================
~Ascii
# ...
 1914.0404053 5.0000000000 8.3902997971 8.5000000000 107.77695465 0.0156963933 0.3165000081 2.2701001167 3.8989999294 147.97500610 1.3236999512 1.2575000525
 1914.1927490 5.0000000000 8.3576002121 8.5000000000 181.85205078 0.0112080127 0.3046999872 2.2697999477 3.9367001057 151.29789734 1.6065000296 1.4808000326
 1914.3452148 5.0000000000 8.3541002274 8.5000000000 181.91142273 0.0212068856 0.3100999892 2.3043000698 4.0170001984 152.72019958 1.7475999594 1.6066999435
 1914.4975586 5.0000000000 8.3267002106 8.5000000000 169.89610291 0.0255073719 0.2969999909 2.3303999901 4.3680000305 149.63000488 2.2409999371 1.9536000490
 1914.6500244 5.0000000000 8.4047002792 8.5000000000 171.49739075 0.0346979164 0.3018000126 2.3475000858 4.3797998428 147.25489807 2.2523999214 2.0690999031
 1914.8023682 5.0000000000 8.3998003006 8.5000000000 180.07055664 0.0334104151 0.2976000011 2.3817000389 4.6138000488 148.20759583 1.5972000360 1.5436999798
 1914.9548340 5.0000000000 8.3486003876 8.5000000000 180.07742310 0.0463969558 0.3082999885 2.3863000870 4.1789999008 154.61770630 1.1973999739 1.1748000383
 1915.1071777 6.0000000000 8.3140001297 8.5000000000 181.86700439 0.0444941521 0.3161999881 2.3554000854 4.1978001595 158.65649414 1.0678000450 1.0351999998
 1915.2595215 6.0000000000 8.3480997086 8.5000000000 189.51594543 0.0371882319 0.3361000121 2.2797000408 3.9307999611 159.36639404 1.0923000574 1.0435999632
 1915.4119873 6.0000000000 8.3824996948 8.5000000000 202.33454895 0.0224968754 0.3282999992 2.2476000786 4.0833997726 155.33140564 1.0942000151 1.0378999710
 1915.5643311 6.0000000000 8.3646001816 8.5000000000 202.34481812 0.0186031219 0.3274999857 2.2585999966 4.3947000504 152.71609497 0.9713000059 0.9438999891
 1915.7167969 6.0000000000 8.4012002945 8.5000000000 214.38569641 0.0224992000 0.3219000101 2.2857000828 4.5897002220 150.34100342 0.8909000158 0.8817999959
 1915.8691406 5.0000000000 8.3576002121 8.5000000000 230.82369995 0.0215001609 0.3319999874 2.2969000340 4.7508001328 149.63110352 1.0836000443 1.0587999821
 1916.0216064 5.0000000000 8.4047002792 8.5000000000 230.85005188 0.0216979180 0.3319000006 2.3006000519 4.6170001030 152.24110413 1.3583999872 1.3221000433
 1916.1739502 5.0000000000 8.3794002533 8.5000000000 204.62994385 0.0191000793 0.3321999907 2.2978000641 4.5300002098 154.61610413 1.3184000254 1.2889000177
 1916.3264160 5.0000000000 8.3480997086 8.5000000000 193.59773254 0.0192008018 0.3303000033 2.3064999580 4.4668998718 155.32600403 1.2516000271 1.2121000290
 1916.4787598 5.0000000000 8.3254995346 8.5000000000 183.71789551 0.0197028052 0.3285000026 2.3141999245 4.4035000801 152.00619507 1.2015000582 1.2171000242
 1916.6312256 5.0000000000 8.3549995422 8.5000000000 171.47665405 0.0232044831 0.3138999939 2.3234999180 4.3498997688 153.66990662 1.2323999405 1.2156000137
 1916.7835693 5.0000000000 8.3592996597 8.5000000000 171.46685791 0.0260031261 0.3231000006 2.3203999996 4.4007000923 156.75869751 1.2184000015 1.1991000175
 1916.9360352 5.0000000000 8.3912000656 8.5000000000 160.75660706 0.0299065653 0.3300000131 2.3183000088 4.4219999313 156.75869751 1.1927000284 1.1763000488
 1917.0883789 6.0000000000 8.3576002121 8.5000000000 146.38552856 0.0339975171 0.3542000055 2.3197000027 4.5132999420 155.09500122 1.2098000050 1.1832000017
 1917.2407227 6.0000000000 8.3587999344 8.5000000000 140.66433716 0.0309002399 0.3413000107 2.3197999001 4.5935997963 152.71870422 1.2292000055 1.2099000216
 1917.3931885 6.0000000000 8.4119997025 8.5000000000 140.65058899 0.0311964732 0.3546999991 2.3194999695 4.6637997627 155.80520630 1.1879999638 1.1644999981
 1917.5455322 6.0000000000 8.3955001831 8.5000000000 140.65058899 0.0267985575 0.3402000070 2.3122999668 4.7326998711 155.80520630 1.1640000343 1.1384999752
 1917.6979980 6.0000000000 8.4169998169 8.5000000000 148.78251648 0.0249983184 0.3393999934 2.3141999245 4.5644001961 155.80259705 1.1389000416 1.1250000000
 1917.8503418 6.0000000000 8.3690996170 8.5000000000 147.58558655 0.0229027215 0.3280000091 2.3120000362 4.4871001244 152.71609497 1.1815999746 1.1526999474
 1918.0028076 6.0000000000 8.3811998367 8.5000000000 148.78807068 0.0263052080 0.3366000056 2.3138000965 4.4614000320 155.09120178 1.2653000355 1.2475999594
 1918.1551514 6.0000000000 8.3902997971 8.5000000000 148.78903198 0.0328047276 0.3377999961 2.3094000816 4.4695000648 157.46780396 1.4019000530 1.3582999706
 1918.3076172 6.0000000000 8.1189002991 8.5000000000 144.02645874 0.0387052819 0.3346000016 2.3196001053 4.4479999542 159.84289551 1.4118000269 1.3643000126
 1918.4599609 6.0000000000 8.3826999664 8.5000000000 141.75148010 0.0420001596 0.3255999982 2.3238000870 4.4569997787 159.84289551 1.4648000002 1.4380999804
 1918.6124268 6.0000000000 8.4139003754 8.5000000000 141.74966431 0.0421915129 0.3246999979 2.3264000416 4.4644999504 159.84140015 1.4373999834 1.4071999788
 1918.7647705 6.0000000000 8.3921003342 8.5000000000 139.54934692 0.0368951894 0.3134000003 2.3204998970 4.3970999718 159.84140015 1.4486000538 1.4244999886
 1918.9172363 6.0000000000 8.4110002518 8.5000000000 136.39031982 0.0308961570 0.3179999888 2.3152000904 4.3028001785 158.17880249 1.4663000107 1.4416999817
 1919.0695801 6.0000000000 8.4265003204 8.5000000000 136.38778687 0.0285018422 0.3111999929 2.3143000603 4.2467999458 157.46890259 1.3983000517 1.3745000362
 1919.2219238 6.0000000000 8.4024000168 8.5000000000 134.35102844 0.0308054443 0.3251000047 2.3218998909 4.3471999168 158.18150330 1.3897999525 1.3753999472
 1919.3743896 6.0000000000 8.3921003342 8.5000000000 131.40786743 0.0376059301 0.3262999952 2.3373000622 4.5451002121 155.80369568 1.4624999762 1.4416999817
 1919.5267334 6.0000000000 8.4196996689 8.5000000000 131.40550232 0.0450041667 0.3386999965 2.3554000854 4.7888998985 155.80369568 1.4651000500 1.4490000010
 1919.6791992 5.0000000000 8.5247001648 8.5000000000 111.14615631 0.0501991175 0.3398000002 2.3585999012 4.8168997765 152.00619507 1.7761000395 1.7263000011
 1919.8315430 5.0000000000 8.4092998505 8.5000000000 111.12991333 0.0490958393 0.3391999900 2.3471000195 4.7231998444 150.58270264 2.2139000893 2.0483999252
 1919.9840088 5.0000000000 8.4247999191 8.5000000000 106.52993774 0.0438945517 0.3540000021 2.3317999840 4.5418000221 150.58270264 2.3568000793 2.2825000286
 1920.1363525 5.0000000000 8.3921003342 8.5000000000 109.76642609 0.0370981582 0.3765999973 2.3241999149 4.5146999359 152.00390625 2.1171000004 2.0878000259
 1920.2888184 5.0000000000 8.4110002518 8.5000000000 101.13716888 0.0347995199 0.3926999867 2.3285999298 4.4477000237 154.38020325 1.9399000406 1.9055999517
 1920.4411621 5.0000000000 8.3794002533 8.5000000000 101.13024902 0.0341978371 0.3801000118 2.3361001015 4.4388999939 152.00509644 1.8636000156 1.8724999428
 1920.5936279 5.0000000000 8.3937997818 8.5000000000 96.787933350 0.0315041654 0.3655000031 2.3364000320 4.4049000740 156.04389954 1.8693000078 1.8594000340
 1920.7459717 6.0000000000 8.4139003754 8.5000000000 91.849761963 0.0341021642 0.3583000004 2.3382000923 4.3864998817 156.75639343 1.8236999512 1.8212000132
 1920.8984375 6.0000000000 8.4161996841 8.5000000000 90.918716431 0.0367988795 0.3564999998 2.3436000347 4.4769001007 159.84669495 1.7043999434 1.6529999971
 1921.0507813 6.0000000000 8.4139003754 8.5000000000 87.389640808 0.0360993594 0.3565999866 2.3517999649 4.6044001579 159.84669495 1.6028000116 1.5427999496
 1921.2032471 6.0000000000 8.3908996582 8.5000000000 87.386810303 0.0352903940 0.3641000092 2.3515000343 4.6423997879 164.59689331 1.5715999603 1.4932999611
 1921.3555908 6.0000000000 8.3576002121 8.5000000000 89.562561035 0.0293035265 0.3709999919 2.3306000233 4.5067000389 165.54310608 1.6930999756 1.6467000246
 1921.5079346 6.0000000000 8.3805999756 8.5000000000 91.376693726 0.0336974375 0.3709000051 2.3203999996 4.3790998459 164.82940674 1.6816999912 1.6414999962
 1921.6604004 6.0000000000 8.3703002930 8.5000000000 92.793487549 0.0305019226 0.3517999947 2.3157999516 4.4135999680 160.78720093 1.6571999788 1.6184999943
