# LAS format log file from PETREL
# Project units are specified as depth units
#==================================================================
~Version information
VERS.   2.0:
WRAP.   NO:
#==================================================================
~Well
STRT .m      815.00012207 :
STOP .m      2497.5000000 :
STEP .m     0.00000000 :
NULL .        -999.250000 :
COMP.           : COMPANY
WELL.  31/5-2R   : WELL
FLD.            : FIELD
LOC.            : LOCATION
SRVC.           : SERVICE COMPANY
DATE.  2018-09-11 14:48:39   : Log Export Date {yyyy-MM-dd HH:mm:ss}
PROV.           : PROVINCE
UWI.   31/5-2 R   : UNIQUE WELL ID
API.            : API NUMBER
#==================================================================
~Curve
DEPT .m                   : DEPTH
Lithology_geolink ._      : Lithology_geolink
CALI .in                  : CALI
DRHO .g/cm3               : DRHO
NPHI .m3/m3               : NPHI
RHOB .g/cm3               : RHOB
GR .gAPI                  : GR
DTC .us/ft                : DTC
DTE .us/ft                : DTE
RDEP .ohm.m               : RDEP
SP .mV                    : SP
RSHA .ohm.m               : RSHA
RMED .ohm.m               : RMED
~Parameter
#==================================================================
~Ascii
# ...
 1823.0000000 5.0000000000 12.583000183 -0.079000004 0.3082999885 2.2950000763 92.748001099 104.95626831 102.69937897 1.5709999800 10.145999908 1.6160000563 1.6160000563
 1823.1250000 5.0000000000 12.578000069 -0.079999998 0.3012599945 2.2920000553 93.055999756 105.18067932 102.89884949 1.5880000591 10.171999931 1.5859999657 1.5859999657
 1823.2500000 6.0000000000 12.572999954 -0.074000001 0.2970800102 2.2950000763 93.653999329 105.27451324 103.08019257 1.5980000496 10.208000183 1.5679999590 1.5679999590
 1823.3748779 6.0000000000 12.569999695 -0.066007815 0.2999199927 2.2999999523 94.450218201 105.37905121 103.19506836 1.6039941311 10.253954887 1.5590088367 1.5590088367
 1823.4998779 6.0000000000 12.569999695 -0.059006836 0.3074100018 2.3029999733 95.126335144 105.44322968 103.22225952 1.6119921207 10.298955917 1.5540049076 1.5540049076
 1823.6248779 6.0000000000 12.569999695 -0.053005859 0.3162400126 2.3059999943 95.528610229 105.40205383 103.15847778 1.6229892969 10.333965302 1.5530009270 1.5530009270
 1823.7498779 6.0000000000 12.569999695 -0.048000000 0.3223100007 2.3080000877 95.705825806 105.30432129 103.01705170 1.6360000372 10.357975960 1.5579999685 1.5579999685
 1823.8748779 6.0000000000 12.571000099 -0.046000000 0.3245300055 2.3080000877 95.679000854 105.04574585 102.82518768 1.6519999504 10.378000259 1.5700000525 1.5700000525
 1823.9998779 6.0000000000 12.572999954 -0.046000000 0.3223400116 2.3080000877 95.589996338 104.88386536 102.62057495 1.6710000038 10.399000168 1.5859999657 1.5859999657
 1824.1248779 6.0000000000 12.576000214 -0.048000000 0.3172999918 2.3080000877 95.752998352 104.73630524 102.42515564 1.6929999590 10.418000221 1.6000000238 1.6000000238
 1824.2500000 6.0000000000 12.576999664 -0.048000000 0.3100599945 2.3120000362 96.501998901 104.58170319 102.26421356 1.7200000286 10.428999901 1.6009999514 1.6009999514
 1824.3750000 6.0000000000 12.576999664 -0.045000002 0.3016600013 2.3190000057 97.754997253 104.45143127 102.16481781 1.7480000257 10.430999756 1.5900000334 1.5900000334
 1824.4998779 6.0000000000 12.576000214 -0.038006835 0.2928799987 2.3269999027 98.931846619 104.28520203 102.16497803 1.7779706717 10.424006462 1.5720175505 1.5720175505
 1824.6248779 6.0000000000 12.574999809 -0.031006835 0.2840999961 2.3359999657 99.238700867 104.49202728 102.23674011 1.8109678030 10.411012650 1.5540175438 1.5540175438
 1824.7498779 6.0000000000 12.574000359 -0.025005860 0.2759900093 2.3410000801 98.596626282 104.60395050 102.31015015 1.8499619961 10.390021324 1.5440098047 1.5440098047
 1824.8748779 6.0000000000 12.571999550 -0.025000000 0.2696100175 2.3429999352 97.446121216 104.52429199 102.30571747 1.8999999762 10.361028671 1.5410000086 1.5410000086
 1824.9998779 6.0000000000 12.569000244 -0.028000001 0.2662700117 2.3420000076 96.496925354 104.27098083 102.12472534 1.9539999962 10.332028389 1.5429999828 1.5429999828
 1825.1248779 6.0000000000 12.565999985 -0.032000002 0.2652899921 2.3389999866 95.884002686 103.90913391 101.64251709 1.9919999838 10.312000275 1.5449999571 1.5449999571
 1825.2498779 6.0000000000 12.564999580 -0.029999999 0.2636899948 2.3399999142 95.439002991 102.90824127 100.65513611 1.9659999609 10.300999641 1.5479999781 1.5479999781
 1825.3750000 6.0000000000 12.569999695 -0.020000000 0.2572000027 2.3469998837 94.887001038 101.62021637 99.356910706 1.8550000191 10.289999962 1.5559999943 1.5559999943
 1825.5000000 6.0000000000 12.581999779 -0.005000000 0.2454700023 2.3570001125 93.957000732 100.16022491 97.924667358 1.6599999666 10.269000053 1.5720000267 1.5720000267
 1825.6248779 6.0000000000 12.602999687 0.0089863278 0.2337799966 2.3619999886 92.165756226 98.802856445 96.580039978 1.4362187386 10.237031937 1.5630087852 1.5630087852
 1825.7498779 6.0000000000 12.630000114 0.0119970702 0.2274900079 2.3519999981 89.127967834 97.866477966 95.563575745 1.2282031775 10.203033447 1.4900712967 1.4900712967
 1825.8748779 6.0000000000 12.661999702 0.0020097657 0.2292400002 2.3220000267 84.301712036 97.508819580 95.209358215 1.0581660271 10.181021690 1.3161698580 1.3161698580
 1825.9998779 1.0000000000 12.697999954 -0.018999999 0.2362000048 2.2769999504 78.556610107 97.878204346 95.609611511 0.9190000296 10.182997704 1.1080000401 1.1080000401
 1826.1248779 1.0000000000 12.734999657 -0.041999999 0.2436800003 2.2269999981 73.193237305 98.774452209 96.555656433 0.8080000281 10.210972786 0.9269999862 0.9269999862
 1826.2498779 1.0000000000 12.769000053 -0.059999999 0.2476000041 2.1849999428 69.921997070 100.07619476 97.862495422 0.7229999900 10.265999794 0.8169999719 0.8169999719
 1826.3748779 1.0000000000 12.795999527 -0.071000002 0.2474799901 2.1559998989 68.598999023 101.55377960 99.292053223 0.6560000181 10.328000069 0.7530000210 0.7530000210
 1826.5000000 1.0000000000 12.814000130 -0.072999999 0.2460600138 2.1429998875 68.668998718 102.84352112 100.56651306 0.6039999723 10.381999969 0.7279999852 0.7279999852
 1826.6250000 1.0000000000 12.817999840 -0.071999997 0.2461199909 2.1389999390 68.971000671 103.39997101 101.26815033 0.5659999847 10.414999962 0.7229999900 0.7229999900
 1826.7500000 1.0000000000 12.814999580 -0.070000000 0.2477599978 2.1389999390 69.035003662 103.61376190 101.44338989 0.5379999876 10.428999901 0.7239999771 0.7239999771
 1826.8748779 1.0000000000 12.807000160 -0.070999026 0.2505500019 2.1429998875 69.061973572 103.48023224 101.21973419 0.5190185308 10.427001953 0.7279960513 0.7279960513
 1826.9998779 1.0000000000 12.800000191 -0.068002932 0.2545100152 2.1540000439 69.425643921 103.03810883 100.74655914 0.5080107450 10.423004150 0.7349931598 0.7349931598
 1827.1248779 1.0000000000 12.795999527 -0.054013673 0.2602199912 2.1760001183 70.074363708 102.40267181 100.18379211 0.5040039420 10.424998283 0.7419931293 0.7419931293
 1827.2498779 1.0000000000 12.796999931 -0.034000002 0.2660399973 2.1989998817 70.638450623 101.88337708 99.683845520 0.5080000162 10.433991432 0.7480000257 0.7480000257
 1827.3748779 1.0000000000 12.802000999 -0.018999999 0.2691400051 2.2119998932 70.809997559 101.57201385 99.321578979 0.5149999857 10.442999840 0.7500000000 0.7500000000
 1827.4998779 1.0000000000 12.808999062 -0.023000000 0.2654500008 2.2019999027 70.542999268 101.30046844 99.064064026 0.5239999890 10.444999695 0.7490000129 0.7490000129
 1827.6248779 1.0000000000 12.812001228 -0.044000000 0.2575100064 2.1770000458 70.127998352 101.14986420 98.895957947 0.5320000052 10.442999840 0.7450000048 0.7450000048
 1827.7500000 1.0000000000 12.812001228 -0.074000001 0.2489899993 2.1470000744 69.878997803 101.08334351 98.808151245 0.5400000215 10.437000275 0.7400000095 0.7400000095
 1827.8750000 1.0000000000 12.803999901 -0.093999997 0.2441099882 2.1310000420 69.806999207 100.93421936 98.800621033 0.5450000167 10.428000450 0.7350000143 0.7350000143
 1827.9998779 1.0000000000 12.788000107 -0.097996093 0.2422699928 2.1310000420 69.709098816 101.09812164 98.899330139 0.5479970574 10.413014412 0.7290058136 0.7290058136
 1828.1248779 1.0000000000 12.767000198 -0.088009767 0.2419800013 2.1429998875 69.329376221 101.31401062 99.073074341 0.5509970784 10.394018173 0.7230058312 0.7230058312
 1828.2498779 1.0000000000 12.744999886 -0.075012699 0.2414299995 2.1540000439 68.601707458 101.50298309 99.286170959 0.5529980063 10.378015518 0.7150077820 0.7150077820
 1828.3748779 1.0000000000 12.725999832 -0.063000001 0.2404299974 2.1630001068 67.770805359 101.72923279 99.505905151 0.5550000072 10.370007515 0.7089999914 0.7089999914
 1828.4998779 1.0000000000 12.715999603 -0.048999999 0.2395499945 2.1710000038 67.305458069 102.01035309 99.698539734 0.5580000281 10.361008644 0.7039999962 0.7039999962
 1828.6248779 1.0000000000 12.713000298 -0.028999999 0.2393800020 2.1849999428 67.464996338 102.07733154 99.824386597 0.5590000153 10.340000153 0.7030000091 0.7030000091
 1828.7498779 1.0000000000 12.715000153 -0.005000000 0.2400999963 2.2030000687 68.160003662 102.10997772 99.820549011 0.5600000024 10.295000076 0.7020000219 0.7020000219
 1828.8750000 1.0000000000 12.718999863 0.0149999997 0.2417300045 2.2149999142 69.097999573 101.88162231 99.662132263 0.5590000153 10.237999916 0.7009999752 0.7009999752
