# LAS format log file from PETREL
# Project units are specified as depth units
#==================================================================
~Version information
VERS.   2.0:
WRAP.   NO:
#==================================================================
~Well
STRT .m      815.00012207 :
STOP .m      2497.5000000 :
STEP .m     0.00000000 :
NULL .        -999.250000 :
COMP.           : COMPANY
WELL.  31/5-2R   : WELL
FLD.            : FIELD
LOC.            : LOCATION
SRVC.           : SERVICE COMPANY
DATE.  2018-09-11 14:48:39   : Log Export Date {yyyy-MM-dd HH:mm:ss}
PROV.           : PROVINCE
UWI.   31/5-2 R   : UNIQUE WELL ID
API.            : API NUMBER
#==================================================================
~Curve
DEPT .m                   : DEPTH
Lithology_geolink ._      : Lithology_geolink
CALI .in                  : CALI
DRHO .g/cm3               : DRHO
NPHI .m3/m3               : NPHI
RHOB .g/cm3               : RHOB
GR .gAPI                  : GR
DTC .us/ft                : DTC
DTE .us/ft                : DTE
RDEP .ohm.m               : RDEP
SP .mV                    : SP
RSHA .ohm.m               : RSHA
RMED .ohm.m               : RMED
~Parameter
#==================================================================
~Ascii
# ...
 1600.9998779 2.0000000000 12.479000092 -0.075000003 0.2650619447 2.1800000668 91.108871460 122.19859314 119.88835907 1.2710000277 10.601012230 1.1900000572 1.1900000572
 1601.1248779 2.0000000000 12.482000351 -0.071000002 0.2662299871 2.1900000572 91.425003052 125.67304230 123.37216187 1.2519999743 10.605999947 1.1599999666 1.1599999666
 1601.2498779 2.0000000000 12.482000351 -0.068000004 0.2719599903 2.1930000782 90.977996826 127.25278473 125.04264069 1.2359999418 10.628000259 1.0959999561 1.0959999561
 1601.3748779 2.0000000000 12.480999947 -0.067000002 0.2811399996 2.1879999638 90.285003662 124.81408691 122.63840485 1.2300000191 10.652000427 1.0249999762 1.0249999762
 1601.5000000 2.0000000000 12.477000237 -0.068000004 0.2915800214 2.1749999523 89.811996460 120.09961700 117.88861847 1.2330000401 10.666999817 0.9689999819 0.9689999819
 1601.6250000 2.0000000000 12.473999977 -0.070000000 0.3009299934 2.1589999199 89.680999756 114.60897827 112.35720062 1.2439999580 10.670999527 0.9359999895 0.9359999895
 1601.7500000 2.0000000000 12.472999573 -0.070000000 0.3077700138 2.1459999084 89.643997192 109.61616516 107.37678528 1.2580000162 10.671999931 0.9250000119 0.9250000119
 1601.8750000 2.0000000000 12.474999428 -0.068000004 0.3095000088 2.1410000324 89.373001099 106.08330536 103.91167450 1.2690000534 10.675999641 0.9319999814 0.9319999814
 1602.0000000 2.0000000000 12.477999687 -0.064000003 0.3042600155 2.1449999809 88.776000977 104.64469910 102.34777832 1.2730000019 10.673999786 0.9570000172 0.9570000172
 1602.1250000 2.0000000000 12.482999802 -0.059999023 0.2921899855 2.1549999714 88.147003174 104.21107483 101.91223145 1.2699931860 10.656999588 1.0070693493 1.0070693493
 1602.2498779 2.0000000000 12.486000061 -0.059000000 0.2770000100 2.1649999619 87.871269226 104.39391327 102.13250732 1.2630000114 10.630026817 1.0779999495 1.0779999495
 1602.3748779 2.0000000000 12.487000465 -0.063000001 0.2641500235 2.1689999104 88.402999878 105.28317261 103.07073975 1.2589999437 10.602000237 1.1440000534 1.1440000534
 1602.4998779 2.0000000000 12.487000465 -0.068999998 0.2580200136 2.1649999619 89.407997131 106.99379730 104.80458069 1.2569999695 10.585000038 1.1660000086 1.1660000086
 1602.6248779 2.0000000000 12.486000061 -0.075000003 0.2596899867 2.1549999714 90.444999695 109.56690216 107.32310486 1.2569999695 10.581000328 1.1319999695 1.1319999695
 1602.7500000 2.0000000000 12.484000206 -0.078000002 0.2660700083 2.1440000534 91.110000610 112.28131104 110.02890015 1.2519999743 10.581999779 1.0629999638 1.0629999638
 1602.8750000 2.0000000000 12.482999802 -0.078000002 0.2736099958 2.1400001049 91.486999512 114.24705505 111.95523834 1.2350000143 10.576000214 1.0039999485 1.0039999485
 1603.0000000 2.0000000000 12.484000206 -0.072999999 0.2816799879 2.1449999809 91.837997437 115.08868408 112.86366272 1.2029999495 10.553000450 0.9729999900 0.9729999900
 1603.1250000 2.0000000000 12.486000061 -0.066000000 0.2903300226 2.1579999924 92.417999268 115.02821350 112.84121704 1.1640000343 10.512999535 0.9729999900 0.9729999900
 1603.2500000 2.0000000000 12.487000465 -0.057995114 0.2987599969 2.1740000248 93.183998108 114.51194000 112.20075226 1.1279814243 10.465999603 0.9890244603 0.9890244603
 1603.3748779 2.0000000000 12.486000061 -0.052999999 0.3055000007 2.1849999428 94.069137573 113.70811462 111.43592072 1.1089999676 10.422042847 1.0140000582 1.0140000582
 1603.4998779 2.0000000000 12.482999802 -0.054000001 0.3099600077 2.1870000362 95.027000427 113.12669373 110.92120361 1.1069999933 10.387999535 1.0410000086 1.0410000086
 1603.6248779 5.0000000000 12.479999542 -0.059000000 0.3116900027 2.1819999218 96.061996460 112.80670929 110.59619141 1.1219999790 10.362999916 1.0650000572 1.0650000572
 1603.7498779 5.0000000000 12.479000092 -0.064999998 0.3120799959 2.1760001183 96.940002441 112.64669800 110.38666534 1.1460000277 10.350000381 1.0800000429 1.0800000429
 1603.8750000 5.0000000000 12.479999542 -0.068000004 0.3118900061 2.1740000248 97.361999512 112.52881622 110.22253418 1.1740000248 10.343999863 1.0900000334 1.0900000334
 1604.0000000 5.0000000000 12.482000351 -0.068000004 0.3094199896 2.1760001183 97.242996216 112.35465240 110.05683899 1.1990000010 10.348999977 1.0989999771 1.0989999771
 1604.1250000 5.0000000000 12.482000351 -0.068000004 0.3035100102 2.1800000668 96.764999390 112.13517761 109.96107483 1.2200000286 10.366999626 1.1130000353 1.1130000353
 1604.2500000 5.0000000000 12.482000351 -0.067000002 0.2953900099 2.1860001087 96.222000122 112.52441406 110.25733948 1.2389999628 10.397000313 1.1310000420 1.1310000420
 1604.3750000 5.0000000000 12.480999947 -0.065999024 0.2888299823 2.1919999123 95.785003662 113.48704529 111.20057678 1.2600272894 10.432999611 1.1480088234 1.1480088234
 1604.4998779 2.0000000000 12.482000351 -0.064999998 0.2849637866 2.1989998817 95.396385193 115.05761719 112.81047058 1.2879999876 10.463969231 1.1569999456 1.1569999456
 1604.6248779 2.0000000000 12.484999657 -0.063000001 0.2835199833 2.2049999237 94.943443298 117.05834198 114.83545685 1.3300000429 10.483981133 1.1579999924 1.1579999924
 1604.7498779 2.0000000000 12.487999916 -0.063000001 0.2816799879 2.2109999657 94.322998047 118.69937897 116.54534912 1.3899999857 10.491999626 1.1579999924 1.1579999924
 1604.8748779 2.0000000000 12.489999771 -0.066000000 0.2773800194 2.2179999352 93.348999023 118.60870361 116.37438202 1.4670000076 10.496000290 1.1679999828 1.1679999828
 1605.0000000 2.0000000000 12.489999771 -0.071999997 0.2702800035 2.2320001125 91.764999390 116.39053345 114.12111664 1.5559999943 10.501999855 1.2089999914 1.2089999914
 1605.1250000 2.0000000000 12.489000320 -0.079999998 0.2630600035 2.2539999485 89.531997681 112.29976654 110.07764435 1.6490000486 10.508000374 1.3099999428 1.3099999428
 1605.2500000 2.0000000000 12.489000320 -0.086000003 0.2571800053 2.2829999924 87.300003052 107.06765747 104.88222504 1.7359999418 10.506999969 1.5060000420 1.5060000420
 1605.3750000 16.000000000 12.489000320 -0.083999999 0.2524999976 2.3129999638 85.940002441 101.74373627 99.444023132 1.8059999943 10.503000259 1.8049999475 1.8049999475
 1605.5000000 16.000000000 12.487999916 -0.074000001 0.2470000088 2.3350000381 86.237998962 97.374748230 95.142242432 1.8480000496 10.506999969 2.1189999580 2.1189999580
 1605.6250000 16.000000000 12.487999916 -0.059990235 0.2399900109 2.3389999866 88.103996277 94.964317322 92.680305481 1.8589833975 10.524999619 2.2158300877 2.2158300877
 1605.7498779 5.0000000000 12.491000175 -0.050000001 0.2330500036 2.3220000267 90.651512146 94.147727966 91.911804199 1.8420000076 10.546977997 2.0420000553 2.0420000553
 1605.8748779 5.0000000000 12.496000290 -0.048000000 0.2295199931 2.2909998894 92.847000122 94.842628479 92.635910034 1.8009999990 10.553000450 1.7410000563 1.7410000563
 1605.9998779 5.0000000000 12.501000404 -0.054000001 0.2326899916 2.2560000420 94.112998962 96.798934937 94.530288696 1.7460000515 10.534000397 1.5019999743 1.5019999743
 1606.1248779 5.0000000000 12.503999710 -0.063000001 0.2422699928 2.2269999981 94.475997925 99.406272888 97.191619873 1.6870000362 10.498999596 1.3539999723 1.3539999723
 1606.2500000 5.0000000000 12.503000259 -0.070000000 0.2569600046 2.2100000381 94.386001587 102.36775970 100.12412262 1.6289999485 10.470000267 1.2879999876 1.2879999876
 1606.3750000 5.0000000000 12.499000549 -0.072999999 0.2723900080 2.2030000687 94.445999146 105.06195831 102.89191437 1.5729999542 10.456000328 1.2610000372 1.2610000372
 1606.5000000 5.0000000000 12.491000175 -0.072999999 0.2833099961 2.2019999027 94.978996277 107.47665405 105.30662537 1.5210000277 10.451999664 1.2619999647 1.2619999647
 1606.6250000 5.0000000000 12.484000206 -0.071000002 0.2893700004 2.2019999027 95.751998901 109.44129944 107.21639252 1.4739999771 10.439000130 1.2810000181 1.2810000181
 1606.7500000 5.0000000000 12.479999542 -0.067996100 0.2924700081 2.2049999237 96.253997803 110.73101807 108.52537537 1.4329696894 10.409999847 1.3120342493 1.3120342493
 1606.8748779 5.0000000000 12.480999947 -0.064000003 0.2938700020 2.2100000381 95.993247986 111.34210205 109.17810822 1.4019999504 10.364045143 1.3470000029 1.3470000029
