# LAS format log file from PETREL
# Project units are specified as depth units
#==================================================================
~Version information
VERS.   2.0:
WRAP.   NO:
#==================================================================
~Well
STRT .m      164.79321289 :
STOP .m      1907.4873047 :
STEP .m     0.00000000 :
NULL .        -999.250000 :
COMP.           : COMPANY
WELL.  31/5-4 S   : WELL
FLD.            : FIELD
LOC.            : LOCATION
SRVC.           : SERVICE COMPANY
DATE.  2018-09-11 14:48:39   : Log Export Date {yyyy-MM-dd HH:mm:ss}
PROV.           : PROVINCE
UWI.   31/5-4 S   : UNIQUE WELL ID
API.            : API NUMBER
#==================================================================
~Curve
DEPT .m                   : DEPTH
Lithology_geolink ._      : Lithology_geolink
CALI .in                  : CALI
DRHO .g/cm3               : DRHO
NPHI .m3/m3               : NPHI
RHOB .g/cm3               : RHOB
GR .gAPI                  : GR
DTC .us/ft                : DTC
RDEP .ohm.m               : RDEP
SP .mV                    : SP
RSHA .ohm.m               : RSHA
RMED .ohm.m               : RMED
~Parameter
#==================================================================
~Ascii
# ...
 1897.8869629  -999.250000 3.4960937500  -999.250000  -999.250000  -999.250000 81.375000000  -999.250000 1.7225098610 70.750000000 1.4003906250 1.6749646664
 1898.0394287  -999.250000 3.4960937500  -999.250000  -999.250000  -999.250000 81.375000000  -999.250000 1.8143763542 70.750000000 1.3398437500 1.6993966103
 1898.1916504  -999.250000 3.4960937500  -999.250000  -999.250000  -999.250000 81.375000000  -999.250000 1.8328378201 70.750000000 1.5087890625 1.7215690613
 1898.3439941  -999.250000 3.4960937500  -999.250000  -999.250000  -999.250000 81.375000000  -999.250000 1.8504891396 70.750000000 1.5771484375 1.7578620911
 1898.4964600  -999.250000 3.4960937500  -999.250000  -999.250000  -999.250000 81.375000000  -999.250000 1.8386380672 70.750000000 1.3515625000 1.7790439129
 1898.6488037  -999.250000 3.4960937500  -999.250000  -999.250000  -999.250000 81.375000000  -999.250000 1.9127476215 70.750000000 1.3496093750 1.7832953930
 1898.8012695  -999.250000 3.4960937500  -999.250000  -999.250000  -999.250000 81.375000000  -999.250000 1.8769130707 70.750000000 1.2939453125 1.7811384201
 1898.9536133  -999.250000 3.4960937500  -999.250000  -999.250000  -999.250000 81.375000000  -999.250000 1.9486117363 70.750000000 1.2763671875 1.7902185917
 1899.1060791  -999.250000 3.4960937500  -999.250000  -999.250000  -999.250000 81.375000000  -999.250000 1.9529316425 70.750000000 1.3085937500 1.7837669849
 1899.2584229  -999.250000 3.4960937500  -999.250000  -999.250000  -999.250000 81.375000000  -999.250000 1.8195989132 70.750000000 1.3330078125 1.7703793049
 1899.4108887  -999.250000 3.4960937500  -999.250000  -999.250000  -999.250000 81.375000000  -999.250000 1.9117221832 70.750000000 1.3193359375 1.7392823696
 1899.5632324  -999.250000 3.4960937500  -999.250000  -999.250000  -999.250000 81.375000000  -999.250000 1.7909615040 70.750000000 1.2978515625 1.7077724934
 1899.7156982  -999.250000 3.4960937500  -999.250000  -999.250000  -999.250000 81.375000000  -999.250000 1.7892897129 70.750000000 1.2841796875 1.7235033512
 1899.8679199  -999.250000 3.4960937500  -999.250000  -999.250000  -999.250000 81.375000000  -999.250000 1.8353328705 70.750000000 1.2841796875 1.7314376831
 1900.0202637  -999.250000 3.4960937500  -999.250000  -999.250000  -999.250000 81.375000000  -999.250000 1.8474812508 70.750000000 1.2753906250 1.7242071629
 1900.1727295  -999.250000 3.4960937500  -999.250000  -999.250000  -999.250000 81.375000000  -999.250000 1.8015427589 70.750000000 1.2861328125 1.7454197407
 1900.3250732  -999.250000 3.4960937500  -999.250000  -999.250000  -999.250000 81.375000000  -999.250000 1.9377007484 70.750000000 1.2880859375 1.7175264359
 1900.4775391  -999.250000 3.4960937500  -999.250000  -999.250000  -999.250000 81.375000000  -999.250000 1.8320343494 70.750000000 1.2890625000 1.6714594364
 1900.6298828  -999.250000 3.4960937500  -999.250000  -999.250000  -999.250000 81.375000000  -999.250000 1.7769424915 70.750000000 1.2919921875 1.6083960533
 1900.7823486  -999.250000 3.4980466366  -999.250000  -999.250000  -999.250000 81.375000000  -999.250000 1.6762449741 70.750000000 1.2958984375 1.5169873238
 1900.9346924  -999.250000 3.4980466366  -999.250000  -999.250000  -999.250000 81.375000000  -999.250000 1.5641243458 70.750000000 1.2988281250 1.4257538319
 1901.0870361  -999.250000 3.5000000000  -999.250000  -999.250000  -999.250000 81.375000000  -999.250000 1.5274507999 70.750000000 1.3007812500 1.4344508648
 1901.2395020  -999.250000 3.4980466366  -999.250000  -999.250000  -999.250000 81.375000000  -999.250000 1.6325538158 70.750000000 1.2958984375 1.5013129711
 1901.3918457  -999.250000 3.4960937500  -999.250000  -999.250000  -999.250000 81.375000000  -999.250000 1.7984001637 70.750000000 1.2929687500 1.6454524994
 1901.5441895  -999.250000 3.4960937500  -999.250000  -999.250000  -999.250000 81.375000000  -999.250000 1.8645856380 70.750000000 1.2929687500 1.6742713451
 1901.6965332  -999.250000 3.4960937500  -999.250000  -999.250000  -999.250000 81.375000000  -999.250000 1.5963478088 70.750000000 1.2939453125 1.3830029964
 1901.8489990  -999.250000 3.4960937500  -999.250000  -999.250000  -999.250000 81.375000000  -999.250000 1.2571985722 70.750000000 1.2939453125 1.1240530014
 1902.0013428  -999.250000 3.4960937500  -999.250000  -999.250000  -999.250000 81.375000000  -999.250000 1.1126213074 70.750000000 1.2958984375 0.9431219101
 1902.1536865  -999.250000 3.4960937500  -999.250000  -999.250000  -999.250000 81.375000000  -999.250000 0.9234869480 70.750000000 1.3007812500 0.8113181591
 1902.3061523  -999.250000 3.4960937500  -999.250000  -999.250000  -999.250000 81.375000000  -999.250000 0.9159139395 70.750000000 1.3007812500 0.7804443836
 1902.4584961  -999.250000 3.4960937500  -999.250000  -999.250000  -999.250000 81.375000000  -999.250000 0.8517792225 70.750000000 1.3007812500 0.7951257229
 1902.6109619  -999.250000 3.4960937500  -999.250000  -999.250000  -999.250000 81.375000000  -999.250000 0.9764374495 70.750000000 1.3007812500 0.8086485863
 1902.7633057  -999.250000 3.4960937500  -999.250000  -999.250000  -999.250000 81.375000000  -999.250000 0.9061588049 70.750000000 1.3007812500 0.8328129053
 1902.9157715  -999.250000 3.4960937500  -999.250000  -999.250000  -999.250000 81.375000000  -999.250000 1.0114452839 70.750000000 1.3007812500 0.8524252176
 1903.0681152  -999.250000 3.4960937500  -999.250000  -999.250000  -999.250000 81.375000000  -999.250000 1.0113451481 70.750000000 1.3007812500 0.8629181385
 1903.2204590  -999.250000 3.4960937500  -999.250000  -999.250000  -999.250000 81.375000000  -999.250000 0.9701137543 70.750000000 1.3007812500 0.8674843311
 1903.3728027  -999.250000 3.4960937500  -999.250000  -999.250000  -999.250000 81.375000000  -999.250000 0.9863916636 70.750000000 1.3007812500 0.8858342171
 1903.5251465  -999.250000 3.4960937500  -999.250000  -999.250000  -999.250000 81.375000000  -999.250000 1.0788335800 70.750000000 1.3007812500 0.9153182507
 1903.6776123  -999.250000 3.4960937500  -999.250000  -999.250000  -999.250000 81.375000000  -999.250000 1.1057839394 70.750000000 1.3007812500 0.9458314180
 1903.8299561  -999.250000 3.4960937500  -999.250000  -999.250000  -999.250000 81.375000000  -999.250000 1.1218383312 70.750000000 1.3007812500 0.9796744585
 1903.9824219  -999.250000 3.4960937500  -999.250000  -999.250000  -999.250000 81.375000000  -999.250000 1.1669991016 70.750000000 1.3007812500 1.0113229752
 1904.1347656  -999.250000 3.4960937500  -999.250000  -999.250000  -999.250000 81.375000000  -999.250000 1.1795682907 70.750000000 1.3007812500 1.0459079742
 1904.2872314  -999.250000 3.4960937500  -999.250000  -999.250000  -999.250000 81.375000000  -999.250000 1.2390215397 70.750000000 1.3007812500 1.0539889336
 1904.4395752  -999.250000 3.4960937500  -999.250000  -999.250000  -999.250000 81.375000000  -999.250000 1.2239277363 70.750000000 1.3007812500 1.0726604462
 1904.5920410  -999.250000 3.4960937500  -999.250000  -999.250000  -999.250000 81.375000000  -999.250000 1.2630746365 70.750000000 1.3007812500 1.0723447800
 1904.7443848  -999.250000 3.4960937500  -999.250000  -999.250000  -999.250000 81.375000000  -999.250000 1.2154681683 70.750000000 1.3007812500 1.0724451542
 1904.8966064  -999.250000 3.4960937500  -999.250000  -999.250000  -999.250000 81.375000000  -999.250000 1.2189204693 70.750000000 1.3007812500 1.0808596611
 1905.0490723  -999.250000 3.4960937500  -999.250000  -999.250000  -999.250000 81.375000000  -999.250000 1.2745716572 70.750000000 1.3007812500 1.0793120861
 1905.2014160  -999.250000 3.4960937500  -999.250000  -999.250000  -999.250000 81.375000000  -999.250000 1.2694382668 70.750000000 1.3007812500 1.0768744946
 1905.3538818  -999.250000 3.4960937500  -999.250000  -999.250000  -999.250000 81.375000000  -999.250000 1.2163538933 70.750000000 1.3007812500 1.0788424015
 1905.5062256  -999.250000 3.4960937500  -999.250000  -999.250000  -999.250000 81.375000000  -999.250000 1.3147649765 70.750000000 1.3007812500 1.0811731815
