# LAS format log file from PETREL
# Project units are specified as depth units
#==================================================================
~Version information
VERS.   2.0:
WRAP.   NO:
#==================================================================
~Well
STRT .m      815.00012207 :
STOP .m      2497.5000000 :
STEP .m     0.00000000 :
NULL .        -999.250000 :
COMP.           : COMPANY
WELL.  31/5-2R   : WELL
FLD.            : FIELD
LOC.            : LOCATION
SRVC.           : SERVICE COMPANY
DATE.  2018-09-11 14:48:39   : Log Export Date {yyyy-MM-dd HH:mm:ss}
PROV.           : PROVINCE
UWI.   31/5-2 R   : UNIQUE WELL ID
API.            : API NUMBER
#==================================================================
~Curve
DEPT .m                   : DEPTH
Lithology_geolink ._      : Lithology_geolink
CALI .in                  : CALI
DRHO .g/cm3               : DRHO
NPHI .m3/m3               : NPHI
RHOB .g/cm3               : RHOB
GR .gAPI                  : GR
DTC .us/ft                : DTC
DTE .us/ft                : DTE
RDEP .ohm.m               : RDEP
SP .mV                    : SP
RSHA .ohm.m               : RSHA
RMED .ohm.m               : RMED
~Parameter
#==================================================================
~Ascii
# ...
 2380.9997559 6.0000000000 8.4049997330 0.0669960976 0.3681499958 2.5220000744 115.81405640 87.182563782 84.843116760 3.4323475361 4.8660178185 3.0761034489 3.0761034489
 2381.1247559 6.0000000000 8.4230003357 0.0689960942 0.3497600257 2.5079998970 108.99333191 87.150878906 84.863235474 3.3192207813 4.8640036583 3.0021445751 3.0021445751
 2381.2497559 6.0000000000 8.4379997253 0.0620136708 0.3275199831 2.4949998856 101.08943939 87.456169128 85.121582031 3.2431485653 4.8719844818 2.8952090740 2.8952090740
 2381.3747559 5.0000000000 8.4479999542 0.0390449241 0.3067600131 2.4849998951 92.767257690 87.962432861 85.806709290 3.1861114502 4.8849749565 2.7652540207 2.7652540207
 2381.4997559 5.0000000000 8.4569997787 0.0040683597 0.2924099863 2.4839999676 85.059051514 89.075347900 86.926727295 3.1321053505 4.8999710083 2.6452343464 2.6452343464
 2381.6247559 5.0000000000 8.4670000076 -0.025941407 0.2868100107 2.4990000725 78.427947998 90.384445190 88.137825012 3.0801014900 4.9189629555 2.5551757813 2.5551757813
 2381.7497559 5.0000000000 8.4770002365 -0.032986328 0.2841700017 2.5320000648 73.430747986 91.385833740 89.116180420 3.0390801430 4.9539318085 2.5120840073 2.5120840073
 2381.8747559 5.0000000000 8.4829998016 -0.016033204 0.2781900167 2.5699999332 69.864959717 91.745536804 89.552047729 3.0180408955 5.0068964958 2.5090060234 2.5090060234
 2381.9997559 5.0000000000 8.4809999466 0.0099492185 0.2649199963 2.5910000801 67.559501648 91.400947571 89.193542480 3.0189981461 5.0708751678 2.5439314842 2.5439314842
 2382.1247559 5.0000000000 8.4619998932 0.0189824216 0.2475699931 2.5829999447 66.866348267 90.151313782 87.854225159 3.0479433537 5.1268906593 2.6517889500 2.6517889500
 2382.2497559 5.0000000000 8.4329996109 0.0090195313 0.2319799960 2.5510001183 67.160423279 88.326934814 86.128562927 3.0949082375 5.1629300117 2.8246622086 2.8246622086
 2382.3747559 5.0000000000 8.3959999084 -0.007966797 0.2198800147 2.5160000324 68.018318176 86.369972229 84.258750916 3.1638653278 5.1779708862 3.0655293465 3.0655293465
 2382.4997559 5.0000000000 8.3629999161 -0.015984375 0.2090099901 2.4949998856 68.381294250 84.560722351 82.368728638 3.2498319149 5.1819925308 3.3165097237 3.3165097237
 2382.6247559 3.0000000000 8.3380002975 -0.007017578 0.1986500025 2.4920001030 67.617492676 82.936836243 80.518142700 3.3358318806 5.1800036430 3.5215997696 3.5215997696
 2382.7497559 3.0000000000 8.3229999542 0.0089687500 0.1902800053 2.4979999065 64.894325256 80.979827881 78.724510193 3.3749239445 5.1700196266 3.6407675743 3.6407675743
 2382.8747559 3.0000000000 8.3100004196 0.0239707027 0.1860100031 2.5020000935 60.732131958 79.205986023 77.126686096 3.3051366806 5.1490411758 3.7158536911 3.7158536911
 2382.9997559 3.0000000000 8.2889995575 0.0319843777 0.1890500039 2.4949998856 55.914409637 78.005783081 75.835075378 3.0894217491 5.1180605888 3.7778789997 3.7778789997
 2383.1247559 3.0000000000 8.2519998550 0.0349941403 0.1968899965 2.4790000916 51.679271698 77.172531128 74.946838379 2.7416796684 5.0780782700 3.8059453964 3.8059453964
 2383.2497559 3.0000000000 8.2010002136 0.0340019539 0.2062899917 2.4549999237 48.711791992 76.812713623 74.574760437 2.3737187386 5.0390763283 3.7321445942 3.7321445942
 2383.3747559 3.0000000000 8.1429996490 0.0310058594 0.2120700032 2.4249999523 47.491374969 77.333435059 74.859069824 2.0526270866 5.0100569725 3.4285936356 3.4285936356
 2383.4997559 3.0000000000 8.0880002975 0.0300019532 0.2141200006 2.3970000744 47.953090668 78.311973572 76.220718384 1.7935057878 4.9850487709 2.8720879555 2.8720879555
 2383.6247559 3.0000000000 8.0419998169 0.0359882787 0.2146100104 2.3750000000 49.382202148 80.605331421 78.572120667 1.5993788242 4.9610466957 2.2472207546 2.2472207546
 2383.7497559 3.0000000000 8.0089998245 0.0459804684 0.2177700102 2.3610000610 50.988861084 83.757125854 81.603027344 1.4712499380 4.9360485077 1.7369960546 1.7369960546
 2383.8747559 3.0000000000 7.9869999886 0.0559804700 0.2224300057 2.3529999256 51.995037079 87.072891235 84.835395813 1.3891601563 4.9100503922 1.3946679831 1.3946679831
 2383.9997559 3.0000000000 7.9720005989 0.0579960905 0.2231900096 2.3499999046 52.224552155 89.805213928 87.644371033 1.3520722389 4.8910369873 1.2043710947 1.2043710947
 2384.1247559 3.0000000000 7.9609999657 0.0510136709 0.2175000012 2.3540000916 52.029380798 91.292793274 89.201133728 1.3619804382 4.8870077133 1.1301444769 1.1301444769
 2384.2497559 3.0000000000 7.9510002136 0.0390234366 0.2076099962 2.3650000095 51.790466309 90.971138000 88.684997559 1.4248769283 4.9069609642 1.1559492350 1.1559492350
 2384.3747559 3.0000000000 7.9400000572 0.0290195309 0.1979599893 2.3880000114 51.676219940 89.123474121 86.906410217 1.5467617512 4.9489178658 1.2927323580 1.2927323580
 2384.4997559 3.0000000000 7.9279994965 0.0250078123 0.1913100034 2.4189999104 51.553241730 86.469100952 84.364151001 1.7286444902 4.9999003410 1.5634707212 1.5634707212
 2384.6247559 3.0000000000 7.9169998169 0.0269960947 0.1885499954 2.4549999237 51.456192017 83.596527100 81.437149048 1.9775136709 5.0429162979 2.0540411472 2.0540411472
 2384.7497559 3.0000000000 7.9070000648 0.0299941394 0.1880699992 2.4939999580 51.761402130 80.789489746 78.345581055 2.2844004631 5.0689492226 2.8763926029 2.8763926029
 2384.8747559 5.0000000000 7.9000000954 0.0299999993 0.1875499934 2.5299999714 52.704158783 77.266944885 75.012741089 2.6792285442 5.0809764862 4.2832498550 4.2832498550
 2384.9997559 5.0000000000 7.8949999809 0.0230136719 0.1856100112 2.5539999008 53.727001190 73.744392395 71.384254456 3.2009804249 5.0939745903 6.9577713013 6.9577713013
 2385.1247559 5.0000000000 7.8909997940 0.0110234376 0.1818199903 2.5559999943 54.008453369 70.167495728 67.861335754 3.8148007393 5.1119647026 10.955187798 10.955187798
 2385.2497559 5.0000000000 7.8880000114 0.0020175781 0.1765599996 2.5350000858 52.730503082 67.137535095 64.907402039 4.3868827820 5.1329588890 12.146683693 12.146683693
 2385.3747559 5.0000000000 7.8860001564 0.0010019531 0.1720499992 2.5069999695 50.232883453 65.228111267 62.957912445 4.6894102097 5.1489686966 7.7496094704 7.7496094704
 2385.4997559 5.0000000000 7.8850007057 0.0089843748 0.1713699847 2.4809999466 47.343647003 64.641029358 62.343105316 4.6171426773 5.1599783897 3.8166797161 3.8166797161
 2385.6247559 5.0000000000 7.8869996071 0.0209765621 0.1761199981 2.4590001106 45.236110687 65.216644287 63.123516083 4.0930252075 5.1699805260 2.3648262024 2.3648262024
 2385.7497559 5.0000000000 7.8860001564 0.0299824215 0.1854100078 2.4309999943 44.296829224 66.556724548 64.384201050 3.4013516903 5.1779842377 1.7142676115 1.7142676115
 2385.8747559 3.0000000000 7.8819994926 0.0290019531 0.1978700012 2.3900001049 44.597408295 68.178794861 65.867912292 2.7253203392 5.1779999733 1.4744668007 1.4744668007
 2385.9997559 3.0000000000 7.8740000725 0.0210156254 0.2110899985 2.3420000076 45.625988007 69.779502869 67.455764771 2.1940371990 5.1680197716 1.4051346779 1.4051346779
 2386.1247559 3.0000000000 7.8670001030 0.0080253910 0.2237899899 2.2950000763 46.595108032 71.296676636 69.151199341 1.7728222609 5.1480388641 1.3820449114 1.3820449114
 2386.2497559 3.0000000000 7.8660001755 -0.006970703 0.2351700068 2.2569999695 46.612968445 73.253601074 71.138229370 1.4805703163 5.1140661240 1.3430762291 1.3430762291
 2386.3747559 3.0000000000 7.8689999580 -0.017978515 0.2449600101 2.2279999256 45.552074432 75.910812378 73.632293701 1.2833848000 5.0700860023 1.2751327753 1.2751327753
 2386.4997559 3.0000000000 7.8730001450 -0.021992188 0.2525300086 2.2109999657 43.887252808 78.911689758 76.643753052 1.1512578726 5.0181016922 1.1911640167 1.1911640167
 2386.6247559 3.0000000000 7.8740000725 -0.019005859 0.2577899992 2.2060000896 42.619476318 82.307319641 80.044548035 1.0851289034 4.9670996666 1.1141504049 1.1141504049
 2386.7497559 3.0000000000 7.8709998131 -0.012013672 0.2602599859 2.2119998932 42.329559326 85.840621948 83.522933960 1.0570547581 4.9280762672 1.0601054430 1.0601054430
 2386.8747559 3.0000000000 7.8660001755 -0.005013672 0.2603600025 2.2339999676 43.364974976 88.752021790 86.570022583 1.0570000410 4.9100351334 1.0550097227 1.0550097227
