# LAS format log file from PETREL
# Project units are specified as depth units
#==================================================================
~Version information
VERS.   2.0:
WRAP.   NO:
#==================================================================
~Well
STRT .m      1704.1855469 :
STOP .m      2348.0756836 :
STEP .m     0.00000000 :
NULL .        -999.250000 :
COMP.           : COMPANY
WELL.  31/5-6   : WELL
FLD.            : FIELD
LOC.            : LOCATION
SRVC.           : SERVICE COMPANY
DATE.  2018-09-11 14:48:40   : Log Export Date {yyyy-MM-dd HH:mm:ss}
PROV.           : PROVINCE
UWI.   31/5-6   : UNIQUE WELL ID
API.            : API NUMBER
#==================================================================
~Curve
DEPT .m                   : DEPTH
Lithology_geolink ._      : Lithology_geolink
CALI .in                  : CALI
BS .in                    : BS
ROP .m/h                  : ROP
DRHO .g/cm3               : DRHO
NPHI .m3/m3               : NPHI
RHOB .g/cm3               : RHOB
PEF .b/e                  : PEF
GR .gAPI                  : GR
RDEP .ohm.m               : RDEP
RMED .ohm.m               : RMED
~Parameter
#==================================================================
~Ascii
# ...
 1960.6749268 5.0000000000 8.3576002121 8.5000000000 132.41371155 0.0278959963 0.3154999912 2.2758998871 4.5626001358 145.83590698 1.1294198036 1.0866999626
 1960.8272705 5.0000000000 8.3576002121 8.5000000000 126.81298828 0.0253997594 0.3138999939 2.2704000473 4.5426001549 144.16870117 1.0793554783 1.0621000528
 1960.9796143 5.0000000000 8.3576002121 8.5000000000 122.50424957 0.0251016822 0.3307000101 2.2732999325 4.5183000565 143.46040344 1.0239597559 1.0073000193
 1961.1320801 5.0000000000 8.3576002121 8.5000000000 117.68602753 0.0271997601 0.3495999873 2.2906999588 4.5538001060 147.25289917 1.0985401869 1.0593999624
 1961.2844238 5.0000000000 8.3576002121 8.5000000000 115.41928864 0.0269012023 0.3441999853 2.3050000668 4.6371998787 151.29519653 1.1487821341 1.1250000000
 1961.4368896 5.0000000000 8.3766002655 8.5000000000 105.65616608 0.0283991992 0.3346999884 2.3078000546 4.7399001122 148.67720032 1.2511597872 1.2081999779
 1961.5892334 5.0000000000 8.3886003494 8.5000000000 103.47375488 0.0274015218 0.3294000030 2.3004999161 4.7059998512 144.17070007 1.0763903856 1.0673999786
 1961.7416992 5.0000000000 8.3576002121 8.5000000000 100.58924103 0.0292995200 0.3406000137 2.2957003117 4.6621999741 147.25900269 1.0644675493 1.0492999554
 1961.8940430 5.0000000000 8.3576002121 8.5000000000 92.804130554 0.0286999997 0.3479999900 2.3010001183 4.6027998924 148.92080688 1.1487283707 1.1269999743
 1962.0465088 5.0000000000 8.3576002121 8.5000000000 94.265747070 0.0287024025 0.3415000141 2.3122999668 4.6058998108 149.63639832 1.1841000319 1.1388000250
 1962.1988525 5.0000000000 8.3576002121 8.5000000000 95.263778687 0.0302008819 0.3305000067 2.3311998844 4.5995998383 145.84010315 1.1839928627 1.1388000250
 1962.3513184 5.0000000000 8.3576002121 8.5000000000 92.333656311 0.0313014425 0.3371999860 2.3531999588 4.6339001656 147.50720215 1.0503000021 1.0521999598
 1962.5036621 5.0000000000 8.3576002121 8.5000000000 87.396980286 0.0322005637 0.3601999879 2.3643999100 4.6807999611 148.21519470 1.0503000021 1.0521999598
 1962.6561279 5.0000000000 8.3766002655 8.5000000000 84.929138184 0.0329019241 0.3892999887 2.3780000210 4.6414999962 150.58500671 1.0502258539 1.0521999598
 1962.8084717 5.0000000000 8.3921003342 8.5000000000 84.927497864 0.0340998396 0.3673000038 2.3806002140 4.7469000816 152.00090027 1.0043929815 1.0062999725
 1962.9608154 5.0000000000 8.3921003342 8.5000000000 84.927497864 0.0339003205 0.3359999955 2.3866999149 4.7195000648 152.00090027 1.4947139025 1.4902000427
 1963.1132813 5.0000000000 8.3921003342 8.5000000000 87.828414917 0.0343028046 0.3030000031 2.3747000694 4.6925997734 149.62840271 1.7612959146 1.6167999506
 1963.2656250 5.0000000000 8.3921003342 8.5000000000 91.395996094 0.0378038436 0.2793000042 2.3352999687 4.2967000008 145.58619690 1.3820999861 1.3595999479
 1963.4180908 5.0000000000 8.3921003342 8.5000000000 102.31134796 0.0426033624 0.2709000111 2.2973999977 3.9846000671 139.17039490 1.3819445372 1.3595999479
 1963.5704346 5.0000000000 8.4111003876 8.5000000000 109.79003143 0.0467991196 0.2655999959 2.2983999252 3.8738999367 129.43209839 1.1879909039 1.1858999729
 1963.7229004 5.0000000000 8.4265003204 8.5000000000 94.770011902 0.0456927866 0.2544000149 2.3136000633 3.9700999260 120.89089966 1.0517193079 1.0345000029
 1963.8752441 2.0000000000 8.3794002533 8.5000000000 94.770011902 0.0366976745 0.2397000045 2.3129999638 4.1483998299 113.76670074 0.8262374997 0.8493999839
 1964.0277100 2.0000000000 8.3921003342 8.5000000000 94.770011902 0.0337894298 0.2317000031 2.2609999180 4.0861001015 105.92440033 0.6247674823 0.6182000041
 1964.1800537 2.0000000000 8.3886003494 8.5000000000 101.72867584 0.0272023249 0.2515000105 2.1918001175 3.9737000465 100.46240234 1.3520162106 1.1987999678
 1964.3325195 2.0000000000 8.3576002121 8.5000000000 109.79790497 0.0300859082 0.2833000124 2.1438999176 3.8454000950 99.751800537 0.4993096888 0.4720000029
 1964.4848633 2.0000000000 8.3576002121 8.5000000000 109.79790497 0.0212984774 0.3163999915 2.1147000790 3.8238999844 103.08070374 0.4430567920 0.4330999851
 1964.6373291 2.0000000000 8.3611001968 8.5000000000 120.04692078 0.0194012839 0.3310999870 2.1085000038 3.8687000275 110.20980072 0.5138967633 0.4542999864
 1964.7896729 2.0000000000 8.3669996262 8.5000000000 120.83695221 0.0202024840 0.3300999999 2.1066000462 3.8427999020 113.29820251 0.5118988156 0.4535000026
 1964.9420166 2.0000000000 8.3576002121 8.5000000000 120.83071136 0.0232993588 0.3217000067 2.1154999733 3.8705000877 116.38500214 0.5103489757 0.4541000128
 1965.0944824 2.0000000000 8.3576002121 8.5000000000 116.90682983 0.0225011222 0.3102000058 2.1456000805 3.9677000046 114.71790314 0.4466782808 0.4327999949
 1965.2468262 2.0000000000 8.3576002121 8.5000000000 134.35171509 0.0238936748 0.3039000034 2.2153000832 4.1447000504 114.00460052 0.4196174741 0.4198000133
 1965.3991699 2.0000000000 8.3587999344 8.5000000000 134.35171509 0.0160000008 0.2841158509 2.3136212826 4.4742360115 114.00460052 0.4413999915 0.4457792044
 1965.5515137 2.0000000000 8.3921003342 8.5000000000 131.41902161 0.0406000018 0.2797035277 2.4318051338 4.5040760040 108.29977417 0.9301000237 0.7917225957
 1965.7039795 2.0000000000 8.3921003342 8.5000000000 80.770896912 0.0471000001 0.2475257814 2.4010248184 4.4725251198 98.802406311 2.7369000912 1.8460553885
 1965.8563232 2.0000000000 8.3921003342 8.5000000000 62.093029022 0.0496000014 0.2164249122 2.3225629330 4.2628684044 89.302017212 3.6881000996 2.3807718754
 1966.0087891 16.000000000 8.3902997971 8.5000000000 60.617645264 0.0410000011 0.1949172169 2.2422642708 4.1549863815 85.506439209 2.0037000179 1.6557812691
 1966.1611328 16.000000000 8.3756999969 8.5000000000 60.208000183 0.0293000005 0.2059911042 2.2338066101 4.0877537727 87.167663574 1.2228000164 1.0832586288
 1966.3134766 2.0000000000 8.3660001755 8.5000000000 60.010486603 0.0230999999 0.2428409159 2.2294070721 3.9923527241 91.911590576 1.0844999552 0.9495137334
 1966.4659424 2.0000000000 8.3576002121 8.5000000000 58.077663422 0.0164000001 0.2638831735 2.2056190968 3.9048700333 100.70465851 1.5196000338 1.1617296934
 1966.6182861 2.0000000000 8.3605003357 8.5000000000 58.076114655 0.0173000004 0.2569112182 2.1774451733 3.8465933800 108.53385925 2.1370000839 1.4449460506
 1966.7707520 2.0000000000 8.3614997864 8.5000000000 58.075466156 0.0207000002 0.2458088994 2.1518204212 3.7715601921 114.95865631 1.4613000154 1.1111680269
 1966.9230957 2.0000000000 8.3576002121 8.5000000000 62.939701080 0.0310999993 0.2508918345 2.1544957161 3.8532688618 122.07389069 0.7713000178 0.6483418941
 1967.0755615 2.0000000000 8.3576002121 8.5000000000 67.931701660 0.0381000005 0.2556961477 2.1780812740 3.9565172195 127.54441833 3.4639999866 2.0488762856
 1967.2279053 2.0000000000 8.3576002121 8.5000000000 98.895446777 0.0421000011 0.2834777236 2.2166690826 4.0869956017 128.96617126 5.8131999969 2.8955218792
 1967.3803711 2.0000000000 8.3576002121 8.5000000000 148.76354980 0.0423000008 0.2851986289 2.2260923386 4.0544261932 124.93213654 2.8705999851 1.9611492157
 1967.5327148 2.0000000000 8.3576002121 8.5000000000 151.28344727 0.0392000005 0.3001879752 2.2059161663 3.9687685966 121.84297180 2.4486999512 1.7813436985
 1967.6851807 2.0000000000 8.3576002121 8.5000000000 148.79597473 0.0434000008 0.2769186497 2.1912117004 3.8709781170 122.79093933 2.1284999847 1.6297214031
 1967.8375244 2.0000000000 8.3576002121 8.5000000000 144.03530884 0.0425999984 0.2732029557 2.1836061478 3.8349287510 125.16490173 1.9445999861 1.5179895163
 1967.9899902 2.0000000000 8.3576002121 8.5000000000 152.56076050 0.0364999995 0.2748986185 2.1774051189 3.8534851074 129.20317078 1.4067000151 1.2380242348
 1968.1423340 5.0000000000 8.3576002121 8.5000000000 148.80650330 0.0217000004 0.2920862436 2.1571161747 3.9238433838 133.95808411 1.4067000151 1.2378000021
 1968.2946777 5.0000000000 8.3576002121 8.5000000000 114.74131775 0.0110999998 0.3034817278 2.1431224346 3.9936881065 141.07579041 0.7365000248 0.7139402032
