# LAS format log file from PETREL
# Project units are specified as depth units
#==================================================================
~Version information
VERS.   2.0:
WRAP.   NO:
#==================================================================
~Well
STRT .m      382.62487793 :
STOP .m      2254.4997559 :
STEP .m     0.00000000 :
NULL .        -999.250000 :
COMP.           : COMPANY
WELL.  31/5-3   : WELL
FLD.            : FIELD
LOC.            : LOCATION
SRVC.           : SERVICE COMPANY
DATE.  2018-09-11 14:48:39   : Log Export Date {yyyy-MM-dd HH:mm:ss}
PROV.           : PROVINCE
UWI.   31/5-3   : UNIQUE WELL ID
API.            : API NUMBER
#==================================================================
~Curve
DEPT .m                   : DEPTH
Lithology_geolink ._      : Lithology_geolink
CALI .in                  : CALI
DRHO .g/cm3               : DRHO
NPHI .m3/m3               : NPHI
RHOB .g/cm3               : RHOB
GR .gAPI                  : GR
DTC .us/ft                : DTC
DTE .us/ft                : DTE
RDEP .ohm.m               : RDEP
SP .mV                    : SP
RSHA .ohm.m               : RSHA
RMED .ohm.m               : RMED
~Parameter
#==================================================================
~Ascii
# ...
 754.62481689  -999.250000 17.479000092 0.1889897436  -999.250000  -999.250000 75.041427612 139.28799438 136.19673157 2.1320028305 55.417911530 1.7859619856 1.8100043535
 754.74987793  -999.250000 17.489999771 0.1899990141  -999.250000  -999.250000 74.601638794 139.34011841 136.20304871 2.1310009956 55.111450195 1.8119746447 1.8080018759
 754.87487793  -999.250000 17.493999481 0.1820078045  -999.250000  -999.250000 74.384429932 139.15939331 136.04147339 2.1310000420 54.667865753 1.8339892626 1.8079999685
 754.99981689  -999.250000 17.495000839 0.1670146585  -999.250000  -999.250000 74.606567383 138.91505432 135.80526733 2.1319980621 54.218875885 1.8449892998 1.8109941483
 755.12481689  -999.250000 17.496999741 0.1540190279  -999.250000  -999.250000 75.292655945 138.70443726 135.59231567 2.1359920502 53.837745667 1.8450000286 1.8159902096
 755.24987793  -999.250000 17.496000290 0.1510029286  -999.250000  -999.250000 76.363426208 138.60090637 135.49768066 2.1419939995 53.598350525 1.8320126534 1.8229931593
 755.37487793  -999.250000 17.490999222 0.1539970636  -999.250000  -999.250000 77.728004456 138.79315186 135.62547302 2.1509912014 53.621967316 1.8060127497 1.8289941549
 755.49987793  -999.250000 17.479999542 0.1599941403  -999.250000  -999.250000 79.443649292 138.94709778 135.84637451 2.1579930782 53.967323303 1.7870092392 1.8309980631
 755.62481689  -999.250000 17.468999863 0.1669897437  -999.250000  -999.250000 80.344245911 139.02737427 135.94445801 2.1649863720 54.447063446 1.8009794950 1.8329960108
 755.74981689  -999.250000 17.465000153 0.1679985374  -999.250000  -999.250000 80.366958618 138.89099121 135.80123901 2.1719863415 55.219490051 1.8459340334 1.8359941244
 755.87487793  -999.250000 17.468999863 0.1689990163  -999.250000  -999.250000 79.618095398 138.48561096 135.37420654 2.1809911728 56.020824432 1.8589873314 1.8419941664
 755.99987793  -999.250000 17.481000900 0.1699990183  -999.250000  -999.250000 78.275627136 137.90684509 134.72213745 2.1859953403 56.350360870 1.8619985580 1.8479942083
 756.12487793  -999.250000 17.496000290 0.1719970703  -999.250000  -999.250000 76.863754272 137.46688843 134.34205627 2.1919910908 56.481742859 1.8590013981 1.8519941568
 756.24981689  -999.250000 17.510000229 0.1749956012  -999.250000  -999.250000 76.472763062 137.34164429 134.24150085 2.1979882717 56.308338165 1.8540072441 1.8549941778
 756.37481689  -999.250000 17.524999619 0.1749999970  -999.250000  -999.250000 76.788383484 137.49630737 134.36415100 2.2029926777 56.059482574 1.8470102549 1.8559985161
 756.49987793  -999.250000 17.538000107 0.1720029414  -999.250000  -999.250000 77.235343933 137.77250671 134.62265015 2.2059972286 55.796386719 1.8330136538 1.8559999466
 756.62487793  -999.250000 17.547000885 0.1630087942  -999.250000  -999.250000 77.342796326 138.02961731 134.92864990 2.2079980373 55.515548706 1.8210058212 1.8559999466
 756.74987793  -999.250000 17.544000626 0.1530048847  -999.250000  -999.250000 77.197280884 138.37532043 135.25074768 2.2089986801 55.154705048 1.8209999800 1.8569985628
 756.87481689  -999.250000 17.527999878 0.1430146545  -999.250000  -999.250000 76.888603210 138.71755981 135.63394165 2.2090001106 54.813667297 1.8289883137 1.8569999933
 756.99981689  -999.250000 17.486000061 0.1340131909  -999.250000  -999.250000 76.040657043 139.05979919 135.93913269 2.2090001106 54.591434479 1.8309969902 1.8560013771
 757.12487793  -999.250000 17.437999725 0.1290048808  -999.250000  -999.250000 75.351005554 139.15921021 136.02210999 2.2090001106 54.468177795 1.8090214729 1.8550009727
 757.24987793  -999.250000 17.409000397 0.1319970638  -999.250000  -999.250000 75.166358948 138.84857178 135.74385071 2.2090001106 54.437061310 1.7910088301 1.8530019522
 757.37481689  -999.250000 17.391000748 0.1359961033  -999.250000  -999.250000 75.470405579 138.09829712 135.01023865 2.2080018520 54.487899780 1.7730175257 1.8490078449
 757.49981689  -999.250000 17.381000519 0.1409926862  -999.250000  -999.250000 76.644706726 137.12416077 134.02134705 2.2109940052 54.527923584 1.7550263405 1.8460057974
 757.62487793  -999.250000 17.378000259 0.1439970583  -999.250000  -999.250000 77.461799622 136.51560974 133.38996887 2.2149960995 54.522006989 1.7400146723 1.8430030346
 757.74987793  -999.250000 17.378999710 0.1449990124  -999.250000  -999.250000 77.799507141 136.21788025 133.10885620 2.2219929695 54.431133270 1.7340029478 1.8420009613
 757.87487793  -999.250000 17.378999710 0.1430029422  -999.250000  -999.250000 77.734130859 136.20774841 133.12083435 2.2279911041 54.339179993 1.7449946404 1.8439970016
 757.99981689  -999.250000 17.379999161 0.1370087862  -999.250000  -999.250000 77.477500916 136.38887024 133.28330994 2.2299962044 54.304069519 1.7589794397 1.8489902020
 758.12481689  -999.250000 17.381999969 0.1310087889  -999.250000  -999.250000 77.387176514 136.48672485 133.31037903 2.2290015221 54.317974091 1.7739781141 1.8569883108
 758.24987793  -999.250000 17.386999130 0.1270039082  -999.250000  -999.250000 77.958160400 136.10974121 132.98719788 2.2250037193 54.490749359 1.7889853716 1.8659912348
 758.37487793  -999.250000 17.398000717 0.1289980412  -999.250000  -999.250000 78.876205444 135.68434143 132.56750488 2.2190060616 54.700592041 1.8039927483 1.8719941378
 758.49987793  -999.250000 17.416000366 0.1359965950  -999.250000  -999.250000 79.787223816 135.37219238 132.25265503 2.2120101452 54.927558899 1.8189927340 1.8749955893
 758.62481689  -999.250000 17.422000885 0.1469838917  -999.250000  -999.250000 80.297004700 135.30905151 132.18911743 2.2030177116 55.173519135 1.8339780569 1.8720058203
 758.74981689  -999.250000 17.402000427 0.1539897472  -999.250000  -999.250000 80.152282715 135.58264160 132.45178223 2.1930146217 55.433490753 1.8399912119 1.8630132675
 758.87487793  -999.250000 17.351999283 0.1579961032  -999.250000  -999.250000 79.871414185 136.12062073 133.02757263 2.1830098629 55.630710602 1.8419981003 1.8480147123
 758.99987793  -999.250000 17.253000259 0.1629951149  -999.250000  -999.250000 79.894950867 136.65841675 133.55746460 2.1760070324 55.593070984 1.8420000076 1.8360116482
 759.12481689  -999.250000 17.163000107 0.1709921807  -999.250000  -999.250000 80.047698975 136.97450256 133.88140869 2.1700117588 55.414352417 1.8410009146 1.8260195255
 759.24981689  -999.250000 17.124000549 0.1759926826  -999.250000  -999.250000 80.258590698 137.04289246 133.93940735 2.1600196362 54.966873169 1.8350088596 1.8180155754
 759.37487793  -999.250000 17.101999283 0.1779980510  -999.250000  -999.250000 80.537590027 136.86105347 133.72315979 2.1460134983 54.382854462 1.8220126629 1.8110067844
 759.49987793  -999.250000 17.093999863 0.1789990216  -999.250000  -999.250000 80.995330811 136.37606812 133.26837158 2.1350107193 54.062469482 1.8080067635 1.8090019226
 759.62487793  -999.250000 17.097999573 0.1799985468  -999.250000  -999.250000 81.452110291 136.03228760 132.91572571 2.1230175495 53.881355286 1.7930072546 1.8099985123
 759.74981689  -999.250000 17.114000320 0.1829956025  -999.250000  -999.250000 81.687545776 135.83761597 132.70729065 2.1090273857 53.945873260 1.7790205479 1.8119961023
 759.87481689  -999.250000 17.152999878 0.1839985400  -999.250000  -999.250000 81.681015015 135.79919434 132.67507935 2.0970175266 54.152595520 1.7650204897 1.8139970303
 759.99987793  -999.250000 17.218000412 0.1770068407  -999.250000  -999.250000 81.582145691 135.93086243 132.83174133 2.0890078545 54.447570801 1.7510137558 1.8149991035
 760.12487793  -999.250000 17.291000366 0.1600165963  -999.250000  -999.250000 81.619926453 136.24868774 133.16999817 2.0800087452 54.822269440 1.7360072136 1.8140009642
 760.24987793  -999.250000 17.349000931 0.1420263648  -999.250000  -999.250000 81.991271973 136.79058838 133.67399597 2.0670189857 55.349971771 1.7280039787 1.8070102930
 760.37481689  -999.250000 17.392999649 0.1300175786  -999.250000  -999.250000 82.307380676 137.41583252 134.26980591 2.0540251732 55.789142609 1.7250044346 1.8000136614
 760.49981689  -999.250000 17.441999435 0.1250073314  -999.250000  -999.250000 82.063484192 137.95010376 134.83827209 2.0430161953 56.056476593 1.7240014076 1.7950072289
