# LAS format log file from PETREL
# Project units are specified as depth units
#==================================================================
~Version information
VERS.   2.0:
WRAP.   NO:
#==================================================================
~Well
STRT .m      1704.1855469 :
STOP .m      2348.0756836 :
STEP .m     0.00000000 :
NULL .        -999.250000 :
COMP.           : COMPANY
WELL.  31/5-6   : WELL
FLD.            : FIELD
LOC.            : LOCATION
SRVC.           : SERVICE COMPANY
DATE.  2018-09-11 14:48:40   : Log Export Date {yyyy-MM-dd HH:mm:ss}
PROV.           : PROVINCE
UWI.   31/5-6   : UNIQUE WELL ID
API.            : API NUMBER
#==================================================================
~Curve
DEPT .m                   : DEPTH
Lithology_geolink ._      : Lithology_geolink
CALI .in                  : CALI
BS .in                    : BS
ROP .m/h                  : ROP
DRHO .g/cm3               : DRHO
NPHI .m3/m3               : NPHI
RHOB .g/cm3               : RHOB
PEF .b/e                  : PEF
GR .gAPI                  : GR
RDEP .ohm.m               : RDEP
RMED .ohm.m               : RMED
~Parameter
#==================================================================
~Ascii
# ...
 2217.1640625 5.0000000000 8.3386001587 8.5000000000 71.185691833 0.0302131418 0.2761000097 2.3371000290 3.8596999645 114.00180054 0.8410999775 0.8015999794
 2217.3164063 5.0000000000 8.3266000748 8.5000000000 79.684875488 0.0383958407 0.2878000140 2.3612000942 3.8359999657 113.29109955 0.8824999928 0.8773000240
 2217.4687500 5.0000000000 8.3576002121 8.5000000000 94.286956787 0.0357999988 0.2892000079 2.3684999943 3.9512000084 116.37950134 0.8547999859 0.8325999975
 2217.6210938 5.0000000000 8.3576002121 8.5000000000 109.12909698 0.0417000018 0.2987999916 2.3921999931 4.0321002007 119.46260071 1.1103999615 1.0291999578
 2217.7736816 5.0000000000 8.3576002121 8.5000000000 109.15288544 0.0299072117 0.2915999889 2.3761999607 4.1256999969 117.79699707 1.1236000061 1.1045999527
 2217.9260254 2.0000000000 8.3576002121 8.5000000000 187.60694885 0.0343969576 0.2894999981 2.3784000874 3.8994998932 108.29660034 0.9833999872 0.9890999794
 2218.0783691 2.0000000000 8.3576002121 8.5000000000 199.61756897 0.0325043201 0.2739999890 2.3729000092 3.9170000553 105.21350098 1.0066000223 0.9976000190
 2218.2307129 2.0000000000 8.3576002121 8.5000000000 199.63681030 0.0351999998 0.2628999949 2.3789000511 3.9161000252 102.12889862 1.1312999725 1.0880000591
 2218.3833008 2.0000000000 8.3576002121 8.5000000000 202.33596802 0.0322956741 0.2509000003 2.3596000671 3.9158999920 100.46559906 1.1895999908 1.1284999847
 2218.5356445 2.0000000000 8.3576002121 8.5000000000 200.13911438 0.0295956731 0.2435999960 2.3211998940 3.6031000614 90.965202332 1.0192999840 1.0010000467
 2218.6879883 2.0000000000 8.3576002121 8.5000000000 202.33245850 0.0268985610 0.2416000068 2.2867999077 3.3968999386 87.879501343 0.6087999940 0.6194999814
 2218.8403320 2.0000000000 8.3576002121 8.5000000000 202.33596802 0.0260000005 0.2488999963 2.3002998829 3.4165000916 91.917900085 0.6733999848 0.6707999706
 2218.9926758 5.0000000000 8.3576002121 8.5000000000 202.33596802 0.0245999992 0.2612000108 2.3382000923 3.7799999714 101.41829681 0.9969999790 0.9645000100
 2219.1452637 5.0000000000 8.3576002121 8.5000000000 207.00820923 0.0285075326 0.2698999941 2.3733999729 4.0411000252 105.21350098 1.2430000305 1.1634999514
 2219.2976074 5.0000000000 8.3576002121 8.5000000000 209.43147278 0.0332063995 0.2763999999 2.3519999981 3.9776000977 102.83840179 0.6162999868 0.6245999932
 2219.4499512 5.0000000000 8.3576002121 8.5000000000 195.77389526 0.0372000001 0.2858999968 2.3278999329 3.7109999657 98.088203430 1.0115000010 0.9779999852
 2219.6022949 5.0000000000 8.3576002121 8.5000000000 169.76841736 0.0267999992 0.2725000083 2.3071999550 3.5792000294 95.003601074 0.5756000280 0.5842000246
 2219.7548828 5.0000000000 8.3703002930 8.5000000000 146.43438721 0.0258911867 0.2642999887 2.3131000996 3.5432000160 91.919097900 0.9663000107 0.9567000270
 2219.9072266 5.0000000000 8.3921003342 8.5000000000 146.43438721 0.0204100963 0.2494000047 2.3085999489 3.5076999664 90.251899719 0.9237999916 0.9024000168
 2220.0595703 5.0000000000 8.3921003342 8.5000000000 111.22113037 0.0266889594 0.2517000139 2.3097000122 3.2674000263 87.876800537 0.8292000294 0.8126999736
 2220.2119141 2.0000000000 8.3921003342 8.5000000000 102.93021393 0.0197999999 0.2502999902 2.3008999825 3.1203999519 83.836097717 0.8144000173 0.7998999953
 2220.3645020 2.0000000000 8.3921003342 8.5000000000 85.758857727 0.0205004811 0.2569000125 2.3059999943 3.1205000877 80.753097534 0.8403999805 0.8267999887
 2220.5168457 2.0000000000 8.4300003052 8.5000000000 85.758857727 0.0207987186 0.2469999939 2.3094000816 3.1105999947 80.042396545 0.8116000295 0.8041999936
 2220.6691895 2.0000000000 8.4610004425 8.5000000000 77.302925110 0.0199955199 0.2379000038 2.3045001030 3.0966000557 82.417503357 0.8169999719 0.7949000001
 2220.8215332 2.0000000000 8.3415002823 8.5000000000 70.624870300 0.0172000006 0.2363000065 2.2737998962 3.1047000885 84.792602539 0.6920999885 0.6891000271
 2220.9738770 2.0000000000 8.3213996887 8.5000000000 68.213829041 0.0181000009 0.2522000074 2.2472000122 3.1865000725 81.462501526 0.5083000064 0.5202000141
 2221.1264648 2.0000000000 8.2887001038 8.5000000000 66.934059143 0.0225083344 0.2592999935 2.2432999611 3.2246999741 76.712402344 0.5163000226 0.5224999785
 2221.2788086 2.0000000000 8.2887001038 8.5000000000 61.885391235 0.0277063996 0.2585999966 2.2641000748 3.1545999050 74.337303162 0.5625000000 0.5598000288
 2221.4311523 2.0000000000 8.3140001297 8.5000000000 64.996963501 0.0317000002 0.2509999871 2.2899999619 3.1145000458 77.668502808 0.5916000009 0.5849999785
 2221.5834961 2.0000000000 8.3309001923 8.5000000000 65.001968384 0.0317000002 0.2467000037 2.2999000549 3.1384999752 82.418701172 0.6621000171 0.6492000222
 2221.7360840 2.0000000000 8.3231000900 8.5000000000 64.305442810 0.0267927870 0.2371000051 2.2908999920 3.1547999382 84.085800171 0.7628999949 0.7401999831
 2221.8884277 2.0000000000 8.3231000900 8.5000000000 66.443572998 0.0222939104 0.2467000037 2.2765998840 3.1215999126 84.795303345 0.7186999917 0.7017999887
 2222.0407715 2.0000000000 8.3231000900 8.5000000000 67.948051453 0.0184939206 0.2459000051 2.2676999569 2.9958999157 84.795303345 0.6344000101 0.6280999780
 2222.1931152 2.0000000000 8.3231000900 8.5000000000 70.063217163 0.0147000002 0.2520999908 2.2688000202 3.0618000031 86.212799072 0.6682999730 0.6826000214
 2222.3457031 2.0000000000 8.2852001190 8.5000000000 73.796592712 0.0147967953 0.2339999974 2.2685000896 3.0890998840 86.212799072 0.6687999964 0.6699000001
 2222.4980469 2.0000000000 8.2541999817 8.5000000000 68.990158081 0.0127969552 0.2405000031 2.2583999634 3.1638000011 86.212799072 0.6244000196 0.6168000102
 2222.6503906 2.0000000000 8.2541999817 8.5000000000 65.487899780 0.0108931204 0.2425000072 2.2481999397 2.9432001114 85.503303528 0.6064000130 0.6037999988
 2222.8027344 2.0000000000 8.2541999817 8.5000000000 64.542846680 0.0066000000 0.2556999922 2.2418000698 2.9649999142 85.503303528 0.5879999995 0.5766999722
 2222.9550781 2.0000000000 8.2576999664 8.5000000000 63.850189209 0.0077000000 0.2615000010 2.2550001144 2.9588000774 87.878402710 0.5856000185 0.5838000178
 2223.1076660 2.0000000000 8.2887001038 8.5000000000 70.064308167 0.0092977565 0.2646999955 2.2657001019 2.9677000046 92.628601074 0.6534000039 0.6593999863
 2223.2600098 2.0000000000 8.2887001038 8.5000000000 70.064308167 0.0079068793 0.2531000078 2.2713999748 2.7741999626 95.714302063 0.7148000002 0.7012000084
 2223.4123535 2.0000000000 8.2852001190 8.5000000000 68.991882324 0.0121999998 0.2538999915 2.2743000984 2.8440001011 98.089401245 0.6557000279 0.6491000056
 2223.5646973 2.0000000000 8.2250003815 8.5000000000 67.693031311 0.0168999992 0.2480999976 2.2832999229 2.9763000011 98.089401245 0.6547999978 0.6460999846
 2223.7172852 2.0000000000 8.3213996887 8.5000000000 67.439308167 0.0267076921 0.2565999925 2.2987999916 3.0980000496 98.086700439 0.7760999799 0.7663000226
 2223.8696289 2.0000000000 8.2887001038 8.5000000000 66.445541382 0.0314937495 0.2574000061 2.3155000210 2.9993999004 95.711601257 0.7971000075 0.7899000049
 2224.0219727 2.0000000000 8.2426996231 8.5000000000 70.332031250 0.0275913589 0.2761000097 2.3217000961 3.0267999172 93.336502075 0.7994999886 0.7900000215
 2224.1743164 2.0000000000 8.2887001038 8.5000000000 74.395385742 0.0221999995 0.2786000073 2.3257000446 3.0352001190 94.292999268 0.7821000218 0.7677000165
 2224.3269043 2.0000000000 8.2887001038 8.5000000000 75.655181885 0.0171028860 0.2653999925 2.3055000305 3.0055000782 96.668098450 0.8116999865 0.7914000154
 2224.4792480 2.0000000000 8.3266000748 8.5000000000 80.033462524 0.0189091340 0.2518000007 2.2757999897 3.0250000954 102.13159943 0.9868999720 0.9682999849
 2224.6315918 2.0000000000 8.3576002121 8.5000000000 71.459938049 0.0246030390 0.2364999950 2.2469000816 3.1164999008 101.17780304 0.8054000139 0.8018000126
 2224.7839355 2.0000000000 8.3541002274 8.5000000000 71.446197510 0.0264999997 0.2329999954 2.2273001671 3.2764999866 102.84339905 0.6280000210 0.6244000196
