# LAS format log file from PETREL
# Project units are specified as depth units
#==================================================================
~Version information
VERS.   2.0:
WRAP.   NO:
#==================================================================
~Well
STRT .m      382.62487793 :
STOP .m      2254.4997559 :
STEP .m     0.00000000 :
NULL .        -999.250000 :
COMP.           : COMPANY
WELL.  31/5-3   : WELL
FLD.            : FIELD
LOC.            : LOCATION
SRVC.           : SERVICE COMPANY
DATE.  2018-09-11 14:48:39   : Log Export Date {yyyy-MM-dd HH:mm:ss}
PROV.           : PROVINCE
UWI.   31/5-3   : UNIQUE WELL ID
API.            : API NUMBER
#==================================================================
~Curve
DEPT .m                   : DEPTH
Lithology_geolink ._      : Lithology_geolink
CALI .in                  : CALI
DRHO .g/cm3               : DRHO
NPHI .m3/m3               : NPHI
RHOB .g/cm3               : RHOB
GR .gAPI                  : GR
DTC .us/ft                : DTC
DTE .us/ft                : DTE
RDEP .ohm.m               : RDEP
SP .mV                    : SP
RSHA .ohm.m               : RSHA
RMED .ohm.m               : RMED
~Parameter
#==================================================================
~Ascii
# ...
 880.62481689  -999.250000 17.575000763 0.0299838856  -999.250000  -999.250000 47.046295166 164.57128906 161.45991516 1.1540030241 58.472076416 1.0849912167 1.2530044317
 880.74987793  -999.250000 17.575000763 0.0399902351  -999.250000  -999.250000 47.527294159 164.41482544 161.25978088 1.1510030031 58.474994659 1.0909941196 1.2500029802
 880.87487793  -999.250000 17.575000763 0.0469931625  -999.250000  -999.250000 48.116847992 164.63853455 161.48106384 1.1480029821 58.461025238 1.0969970226 1.2490009069
 880.99981689  -999.250000 17.575000763 0.0489980429  -999.250000  -999.250000 48.687606812 165.29415894 162.18458557 1.1460039616 58.394165039 1.1029942036 1.2489999533
 881.12481689  -999.250000 17.573999405 0.0460043922  -999.250000  -999.250000 49.024345398 166.36511230 163.28031921 1.1440039873 58.252277374 1.1079927683 1.2489999533
 881.24987793  -999.250000 17.572000504 0.0420039073  -999.250000  -999.250000 48.838275909 167.44731140 164.33312988 1.1410030127 57.987388611 1.1119960546 1.2489999533
 881.37487793  -999.250000 17.569000244 0.0380039066  -999.250000  -999.250000 48.439582825 168.10881042 164.94692993 1.1390019655 57.812255859 1.1149985790 1.2480009794
 881.49981689  -999.250000 17.566999435 0.0340078101  -999.250000  -999.250000 48.033992767 168.19891357 165.05020142 1.1380019188 57.793045044 1.1159991026 1.2460039854
 881.62481689  -999.250000 17.565999985 0.0230161212  -999.250000  -999.250000 47.830497742 167.78150940 164.66641235 1.1350058317 57.955604553 1.1160000563 1.2430058718
 881.74981689  -999.250000 17.565999985 0.0140131842  -999.250000  -999.250000 47.891876221 166.97836304 163.86601257 1.1310058832 58.306312561 1.1239882708 1.2380073071
 881.87487793  -999.250000 17.565999985 0.0060078125  -999.250000  -999.250000 48.006832123 165.85301208 162.71794128 1.1230078936 58.817253113 1.1379863024 1.2330049276
 881.99987793  -999.250000 17.568000793 0.0060000001  -999.250000  -999.250000 47.802398682 164.53309631 161.43870544 1.1150078773 59.069507599 1.1549916267 1.2290039063
 882.12481689  -999.250000 17.572000504 0.0169785265  -999.250000  -999.250000 47.484779358 163.39984131 160.30584717 1.1050195694 59.198684692 1.1679873466 1.2250078917
 882.24981689  -999.250000 17.576000214 0.0319780186  -999.250000  -999.250000 47.133857727 162.50653076 159.40707397 1.0920253992 59.121189117 1.1660029888 1.2180137634
 882.37481689  -999.250000 17.579000473 0.0439824201  -999.250000  -999.250000 46.696853638 162.03236389 158.91119385 1.0780204535 58.928379059 1.1510219574 1.2100117207
 882.49987793  -999.250000 17.579999924 0.0499941409  -999.250000  -999.250000 46.062927246 162.19975281 159.01959229 1.0710067749 58.762245178 1.1280224323 1.2030067444
 882.62487793  -999.250000 17.579999924 0.0500000007  -999.250000  -999.250000 45.233619690 162.98696899 159.87643433 1.0650058985 58.643234253 1.1040116549 1.1960067749
 882.74981689  -999.250000 17.579999924 0.0450048856  -999.250000  -999.250000 44.411010742 163.88954163 160.78363037 1.0580136776 58.615070343 1.0790244341 1.1890137196
 882.87481689  -999.250000 17.582000732 0.0370117128  -999.250000  -999.250000 43.673442841 164.56211853 161.44755554 1.0530097485 58.645938873 1.0550351143 1.1830116510
 882.99987793  -999.250000 17.586000443 0.0300068352  -999.250000  -999.250000 43.129798889 164.95104980 161.80680847 1.0490039587 58.708908081 1.0370174646 1.1810019016
 883.12487793  -999.250000 17.591999054 0.0230068360  -999.250000  -999.250000 42.899333954 165.16506958 161.99053955 1.0460029840 58.782894135 1.0220072269 1.1790019274
 883.24987793  -999.250000 17.597999573 0.0180073194  -999.250000  -999.250000 43.091621399 165.46385193 162.34362793 1.0440030098 58.851867676 1.0120048523 1.1790000200
 883.37481689  -999.250000 17.600999832 0.0160029326  -999.250000  -999.250000 43.510974884 166.34335327 163.25003052 1.0430018902 58.878936768 1.0040116310 1.1799980402
 883.49981689  -999.250000 17.600999832 0.0140029304  -999.250000  -999.250000 44.166717529 167.25695801 164.14634705 1.0429999828 58.869018555 1.0000058413 1.1809985638
 883.62487793  -999.250000 17.599000931 0.0080058593  -999.250000  -999.250000 44.684242249 167.85810852 164.72424316 1.0449980497 58.857017517 1.0069931746 1.1829980612
 883.74987793  -999.250000 17.597999573 0.0030048830  -999.250000  -999.250000 45.001380920 167.86813354 164.73094177 1.0479969978 58.873966217 1.0199936628 1.1849980354
 883.87481689  -999.250000 17.597000122 0.0010039044  -999.250000  -999.250000 45.202507019 167.13261414 164.02172852 1.0519921780 58.934852600 1.0150048733 1.1879941225
 883.99981689  -999.250000 17.597000122 0.0010000000  -999.250000  -999.250000 45.324703217 165.72042847 162.64416504 1.0549941063 59.015800476 1.0030175447 1.1879999638
 884.12481689  -999.250000 17.596000671 0.0059926757  -999.250000  -999.250000 45.313022614 164.56770325 161.48391724 1.0579955578 59.103828430 0.9900190234 1.1879999638
 884.24987793  -999.250000 17.591999054 0.0129931644  -999.250000  -999.250000 45.171211243 163.80703735 160.68342590 1.0619961023 59.184883118 0.9740155935 1.1870009899
 884.37487793  -999.250000 17.589000702 0.0199931636  -999.250000  -999.250000 44.899528503 163.44715881 160.32380676 1.0649970770 59.202964783 0.9580078125 1.1870000362
 884.49981689  -999.250000 17.586999893 0.0239960924  -999.250000  -999.250000 44.564815521 163.46092224 160.37976074 1.0669960976 59.151126862 0.9430146813 1.1870000362
 884.62481689  -999.250000 17.586000443 0.0249985363  -999.250000  -999.250000 44.310497284 163.79820251 160.69947815 1.0689960718 59.070156097 0.9270234108 1.1879980564
 884.74987793  -999.250000 17.586999893 0.0230019540  -999.250000  -999.250000 44.434818268 163.94500732 160.77595520 1.0709980726 58.978134155 0.9190078378 1.1879999638
 884.87487793  -999.250000 17.586999893 0.0190039054  -999.250000  -999.250000 44.896324158 163.77581787 160.66381836 1.0739970207 58.932067871 0.9249941707 1.1889990568
 884.99987793  -999.250000 17.583000183 0.0170019548  -999.250000  -999.250000 45.854125977 163.58596802 160.50277710 1.0759980679 58.896068573 0.9489882588 1.1890000105
 885.12481689  -999.250000 17.577999115 0.0179985352  -999.250000  -999.250000 46.875503540 163.47412109 160.38166809 1.0769981146 58.827167511 0.9769589901 1.1890000105
 885.24981689  -999.250000 17.572999954 0.0199970696  -999.250000  -999.250000 47.515750885 163.45852661 160.35182190 1.0779985189 58.701248169 0.9939751029 1.1880013943
 885.37487793  -999.250000 17.570999146 0.0229970701  -999.250000  -999.250000 47.931392670 163.60531616 160.42765808 1.0760018826 58.544227600 1.0019921064 1.1860018969
 885.49987793  -999.250000 17.573999405 0.0259970706  -999.250000  -999.250000 48.859188080 163.70198059 160.57525635 1.0730029345 58.533023834 1.0049985647 1.1840019226
 885.62481689  -999.250000 17.579000473 0.0309902392  -999.250000  -999.250000 49.814666748 163.87138367 160.76045227 1.0700058937 58.592853546 1.0040009022 1.1810058355
 885.74981689  -999.250000 17.583000183 0.0309999995  -999.250000  -999.250000 50.740737915 164.09101868 160.98556519 1.0650098324 58.762584686 1.0010044575 1.1770079136
 885.87481689  -999.250000 17.580999374 0.0300014634  -999.250000  -999.250000 51.510498047 164.34654236 161.23617554 1.0580102205 58.951629639 0.9980044365 1.1710088253
 885.99987793  -999.250000 17.576000214 0.0290009752  -999.250000  -999.250000 51.900432587 164.63182068 161.47421265 1.0540039539 59.019901276 0.9950029254 1.1690019369
 886.12487793  -999.250000 17.566999435 0.0280009769  -999.250000  -999.250000 51.355068207 164.68070984 161.58616638 1.0490049124 59.011020660 0.9910019636 1.1670019627
 886.24981689  -999.250000 17.555999756 0.0270009786  -999.250000  -999.250000 50.414299011 164.76602173 161.65174866 1.0420137644 58.810493469 0.9880028963 1.1650038958
 886.37481689  -999.250000 17.549999237 0.0250029285  -999.250000  -999.250000 49.903995514 164.80487061 161.69204712 1.0350136757 58.586437225 0.9850044250 1.1620057821
 886.49987793  -999.250000 17.555000305 0.0200048815  -999.250000  -999.250000 49.841091156 164.86610413 161.74333191 1.0300048590 58.374309540 0.9820029140 1.1590030193
