# LAS format log file from PETREL
# Project units are specified as depth units
#==================================================================
~Version information
VERS.   2.0:
WRAP.   NO:
#==================================================================
~Well
STRT .m      164.79321289 :
STOP .m      1907.4873047 :
STEP .m     0.00000000 :
NULL .        -999.250000 :
COMP.           : COMPANY
WELL.  31/5-4 S   : WELL
FLD.            : FIELD
LOC.            : LOCATION
SRVC.           : SERVICE COMPANY
DATE.  2018-09-11 14:48:39   : Log Export Date {yyyy-MM-dd HH:mm:ss}
PROV.           : PROVINCE
UWI.   31/5-4 S   : UNIQUE WELL ID
API.            : API NUMBER
#==================================================================
~Curve
DEPT .m                   : DEPTH
Lithology_geolink ._      : Lithology_geolink
CALI .in                  : CALI
DRHO .g/cm3               : DRHO
NPHI .m3/m3               : NPHI
RHOB .g/cm3               : RHOB
GR .gAPI                  : GR
DTC .us/ft                : DTC
RDEP .ohm.m               : RDEP
SP .mV                    : SP
RSHA .ohm.m               : RSHA
RMED .ohm.m               : RMED
~Parameter
#==================================================================
~Ascii
# ...
 1656.9635010 5.0000000000 8.3125000000 -0.025770377 0.2176310122 1.9832682610 96.375000000 147.32229614 23.946609497 80.106681824 0.8935546875 10.436132431
 1657.1159668 6.0000000000 8.3125000000 -0.023484455 0.2249535173 2.0206251144 100.31250000 147.80191040 22.906173706 79.250000000 0.9882812500 9.7751102448
 1657.2683105 6.0000000000 8.3046875000 -0.021011939 0.2343048453 2.0628395081 101.06250000 148.33076477 24.976470947 79.285858154 0.9902343750 10.646322250
 1657.4207764 6.0000000000 8.3125000000 -0.017485589 0.2416797429 2.0757441521 95.625000000 148.73594666 26.941783905 79.536026001 1.2988281250 11.963958740
 1657.5731201 6.0000000000 8.3125000000 -0.017930688 0.2555549741 2.0776081085 95.750000000 148.83445740 27.578628540 79.785858154 1.0908203125 12.489868164
 1657.7255859 6.0000000000 8.3125000000 -0.021013530 0.2678827047 2.0735664368 95.937500000 148.30198669 31.033142090 80.126098633 1.0576171875 14.649911880
 1657.8779297 6.0000000000 8.3125000000 -0.020227484 0.2811310291 2.0730557442 100.12500000 146.62707520 34.924072266 80.910858154 1.0703125000 17.219650269
 1658.0303955 6.0000000000 8.3125000000 -0.019162050 0.2859619558 2.0601320267 96.000000000 144.94619751 35.012451172 81.125000000 0.9848632813 17.428474426
 1658.1827393 6.0000000000 8.3125000000 -0.022758175 0.2924574614 2.0473680496 94.312500000 143.53909302 34.181976318 81.232574463 0.8930664063 16.655570984
 1658.3350830 6.0000000000 8.3125000000 -0.024772938 0.2853069007 2.0480904579 94.125000000 142.27203369 29.940097809 82.000396729 0.7924804688 13.886230469
 1658.4874268 6.0000000000 8.3125000000 -0.027714102 0.2559432387 2.0678000450 94.250000000 141.39808655 27.843128204 82.660858154 0.8276367188 12.644844055
 1658.6397705 6.0000000000 8.2812500000 -0.028271738 0.2297916263 2.0924787521 97.375000000 141.46354675 24.956680298 82.125000000 1.0654296875 11.038740158
 1658.7922363 5.0000000000 8.2812500000 -0.027385898 0.2218264788 2.0997362137 97.187500000 141.79652405 25.457866669 82.214141846 0.9038085938 11.159988403
 1658.9445801 5.0000000000 8.2812500000 -0.026514731 0.2395933867 2.0902762413 93.250000000 142.60043335 28.915622711 82.856887817 0.8823242188 12.842491150
 1659.0970459 5.0000000000 8.2734375000 -0.024815224 0.2536395192 2.0807700157 88.250000000 144.00860596 30.572441101 83.500000000 1.0673828125 13.686532974
 1659.2493896 5.0000000000 8.2656250000 -0.021114582 0.2463022172 2.0754151344 84.250000000 145.32704163 33.837966919 83.571311951 1.1435546875 15.173862457
 1659.4017334 5.0000000000 8.2578125000 -0.020427542 0.2214272469 2.0657734871 86.000000000 145.88162231 39.683898926 84.089073181 1.6230468750 17.897075653
 1659.5541992 5.0000000000 8.2812500000 -0.023385096 0.1846470684 2.0297999382 84.812500000 145.42684937 34.318588257 84.607170105 2.2421875000 15.698944092
 1659.7065430 5.0000000000 8.2812500000 -0.027110888 0.1542711109 1.9691920280 86.687500000 143.93830872 32.913726807 84.357482910 1.2705078125 15.133384705
 1659.8590088 5.0000000000 8.2656250000 -0.036769550 0.1456719190 1.9216222763 90.375000000 141.81620789 30.826957703 83.393028259 1.2480468750 14.249639511
 1660.0113525 5.0000000000 8.2578125000 -0.043742996 0.1617889702 1.9196085930 94.250000000 140.90936279 29.221107483 82.696556091 1.0185546875 13.222938538
 1660.1636963 5.0000000000 8.2656250000 -0.042605769 0.1908516139 1.9500339031 95.062500000 142.03997803 29.270832062 82.481369019 0.9790039063 12.984315872
 1660.3160400 5.0000000000 8.2578125000 -0.037318174 0.2229031771 1.9820258617 92.562500000 142.93695068 31.545841217 83.089569092 0.9111328125 13.935411453
 1660.4683838 5.0000000000 8.2656250000 -0.033976924 0.2456438094 2.0032434464 90.562500000 143.34017944 32.757377625 82.716346741 1.1181640625 14.587337494
 1660.6208496 5.0000000000 8.2578125000 -0.031173257 0.2526927888 2.0090727806 90.000000000 142.79519653 32.444747925 81.803138733 0.9794921875 14.864120483
 1660.7731934 5.0000000000 8.2578125000 -0.029898718 0.2451823354 2.0085330009 92.625000000 142.61592102 31.342315674 82.336540222 1.0273437500 14.729906082
 1660.9256592 5.0000000000 8.2578125000 -0.030400801 0.2362971902 2.0144042969 94.687500000 142.97322083 29.320579529 83.837570190 1.0107421875 14.349008560
 1661.0780029 5.0000000000 8.2578125000 -0.029602563 0.2320132703 2.0251398087 96.437500000 143.28726196 26.746662140 85.089744568 0.9760742188 13.580352783
 1661.2304688 5.0000000000 8.2656250000 -0.028258173 0.2253555059 2.0283265114 95.562500000 143.43144226 23.755985260 84.786361694 1.0009765625 12.176406860
 1661.3828125 5.0000000000 8.2656250000 -0.027300801 0.2190241516 2.0162224770 95.062500000 143.10743713 22.952713013 84.196861267 0.8481445313 11.699693680
 1661.5352783 5.0000000000 8.2578125000 -0.026558172 0.2198558599 2.0003180504 94.625000000 142.50598145 23.044429779 83.857269287 0.9511718750 11.645540237
 1661.6876221 5.0000000000 8.2578125000 -0.025459087 0.2304321229 1.9957294464 91.500000000 141.68540955 23.215343475 83.927139282 0.9462890625 11.702493668
 1661.8398438 5.0000000000 8.2656250000 -0.023845753 0.2456140965 2.0070447922 95.187500000 141.11450195 24.475357056 84.982475281 1.0585937500 12.302495956
 1661.9923096 5.0000000000 8.2578125000 -0.022928182 0.2556588054 2.0227117538 96.125000000 140.96337891 24.851131439 84.822158813 0.9316406250 12.461544037
 1662.1446533 5.0000000000 8.2578125000 -0.023324359 0.2592003644 2.0269937515 101.43750000 141.60050964 24.541347504 84.447418213 0.9428710938 12.361818314
 1662.2971191 5.0000000000 8.2578125000 -0.025179105 0.2604719698 2.0252652168 99.437500000 142.34912109 23.258899689 84.195457458 1.1416015625 11.901830673
 1662.4494629 5.0000000000 8.2578125000 -0.028352404 0.2622259259 2.0351552963 98.125000000 142.92103577 21.491744995 84.730171204 1.0312500000 11.017541885
 1662.6019287 6.0000000000 8.2578125000 -0.029406805 0.2643825412 2.0645365715 98.812500000 142.70986938 20.294300079 85.286926270 1.0234375000 10.520460129
 1662.7542725 6.0000000000 8.2343750000 -0.025558654 0.2618967891 2.0913877487 103.43750000 142.59278870 19.981563568 84.890220642 1.0205078125 10.462829590
 1662.9067383 6.0000000000 8.2500000000 -0.020089993 0.2595775425 2.0907025337 105.56250000 142.66194153 19.746162415 85.714775085 0.8432617188 10.503244400
 1663.0590820 6.0000000000 8.2578125000 -0.018270113 0.2621319294 2.0735082626 102.81250000 141.69532776 19.159664154 85.464942932 0.8364257813 10.395032883
 1663.2115479 6.0000000000 8.2578125000 -0.018714102 0.2683500648 2.0604081154 103.93750000 139.37712097 18.797569275 85.073715210 0.9111328125 10.326181412
 1663.3638916 6.0000000000 8.2578125000 -0.018546153 0.2732237875 2.0667958260 106.00000000 135.11399841 18.034713745 83.859085083 1.0332031250 9.9658393860
 1663.5161133 6.0000000000 8.2578125000 -0.016803687 0.2815408111 2.0831875801 107.43750000 130.62992859 16.605792999 83.243988037 0.8945312500 9.2273235321
 1663.6685791 6.0000000000 8.2578125000 -0.015698638 0.2963120639 2.0918288231 103.37500000 126.68582916 15.640789032 84.767517090 0.9785156250 8.8266429901
 1663.8209229 5.0000000000 8.2578125000 -0.016566427 0.3063185811 2.0917363167 97.125000000 124.68320465 14.845979691 84.944709778 1.0732421875 8.4846210480
 1663.9733887 5.0000000000 8.2578125000 -0.018355004 0.2995798886 2.0832796097 96.187500000 124.36936188 14.599098206 85.357482910 0.9296875000 8.3980979919
 1664.1257324 5.0000000000 8.2578125000 -0.018879328 0.2912178338 2.0848193169 96.937500000 126.30652618 14.700901031 85.145431519 1.1845703125 8.5453987122
 1664.2781982 5.0000000000 8.2578125000 -0.016285909 0.2910474837 2.0825309753 100.81250000 129.67355347 14.427051544 84.710166931 0.8847656250 8.4660243988
 1664.4305420 5.0000000000 8.2578125000 -0.016031731 0.3017355204 2.0759057999 103.12500000 134.48538208 14.441158295 86.034858704 1.0322265625 8.4880504608
 1664.5830078 6.0000000000 8.2578125000 -0.014703846 0.3146934807 2.0739216805 102.87500000 138.67581177 14.667188644 86.285026550 1.5332031250 8.7497386932
