# LAS format log file from PETREL
# Project units are specified as depth units
#==================================================================
~Version information
VERS.   2.0:
WRAP.   NO:
#==================================================================
~Well
STRT .m      1704.1855469 :
STOP .m      2348.0756836 :
STEP .m     0.00000000 :
NULL .        -999.250000 :
COMP.           : COMPANY
WELL.  31/5-6   : WELL
FLD.            : FIELD
LOC.            : LOCATION
SRVC.           : SERVICE COMPANY
DATE.  2018-09-11 14:48:40   : Log Export Date {yyyy-MM-dd HH:mm:ss}
PROV.           : PROVINCE
UWI.   31/5-6   : UNIQUE WELL ID
API.            : API NUMBER
#==================================================================
~Curve
DEPT .m                   : DEPTH
Lithology_geolink ._      : Lithology_geolink
CALI .in                  : CALI
BS .in                    : BS
ROP .m/h                  : ROP
DRHO .g/cm3               : DRHO
NPHI .m3/m3               : NPHI
RHOB .g/cm3               : RHOB
PEF .b/e                  : PEF
GR .gAPI                  : GR
RDEP .ohm.m               : RDEP
RMED .ohm.m               : RMED
~Parameter
#==================================================================
~Ascii
 1704.1855469 6.0000000000 7.9440999031 12.250000954 64.303810120 -0.007500000 0.5257999897  -999.250000  -999.250000 138.70500183  -999.250000 0.6402000189
 1704.3380127 6.0000000000 7.9260005951 12.250000954 61.663711548 -0.030700000 0.5482000113  -999.250000  -999.250000 142.50590515  -999.250000 0.8323000073
 1704.4903564 6.0000000000 7.9095997810 12.250000954 71.457344055 -0.056699999 0.5931000113  -999.250000  -999.250000 142.50590515  -999.250000 0.6700000167
 1704.6428223 6.0000000000 7.8716998100 12.250000954 72.895339966 -0.071800001 0.5981000066  -999.250000  -999.250000 142.50590515 0.7034999728 0.6298000216
 1704.7951660 6.0000000000 8.0958003998 12.250000954 80.737205505 -0.074900001 0.6219000220  -999.250000  -999.250000 142.50590515 0.7052999735 0.6108999848
 1704.9476318 6.0000000000 8.2197999954 12.250000954 84.525588989 -0.072300002 0.5927000046  -999.250000  -999.250000 142.50590515 0.7052999735 0.6108999848
 1705.0999756 6.0000000000 8.2197999954 12.250000954 93.279197693 -0.069200002 0.6262000203  -999.250000  -999.250000 140.84269714 0.6690000296 0.5947999954
 1705.2524414 6.0000000000 8.2197999954 12.250000954 93.279197693 -0.070400000 0.6755999923  -999.250000  -999.250000 138.46749878 0.5863000154 0.4970000088
 1705.4047852 6.0000000000 8.2231998444 12.250000954 102.88024902 -0.073799998 0.7035999894  -999.250000  -999.250000 136.09240723 0.6827999949 0.5618000031
 1705.5572510 6.0000000000 8.2887001038 12.250000954 107.80445862 -0.076200001 0.7010999918  -999.250000  -999.250000 133.71890259 0.7516000271 0.6599000096
 1705.7095947 6.0000000000 8.2887001038 12.250000954 116.16994476 -0.080499999 0.6241999865  -999.250000  -999.250000 133.00599670 0.7516000271 0.6599000096
 1705.8620605 6.0000000000 8.2887001038 12.250000954 116.14666748 -0.077399999 0.6445000172  -999.250000  -999.250000 134.66769409 0.6917999983 0.5235000253
 1706.0144043 6.0000000000 8.2887001038 12.250000954 120.01869965 -0.071096152 0.5884000063  -999.250000  -999.250000 137.99090576 0.7246999741 0.6385999918
 1706.1667480 6.0000000000 8.2887001038 12.250000954 122.47505188 -0.066298157 0.5950000286  -999.250000  -999.250000 141.07890320 0.7246999741 0.6385999918
 1706.3192139 6.0000000000 8.2887001038 12.250000954 124.17815399 -0.064001128 0.5875999928  -999.250000  -999.250000 141.79240417 0.7246999741 0.6385999918
 1706.4715576 6.0000000000 8.2887001038 12.250000954 129.52558899 -0.065394714 0.5989999771  -999.250000  -999.250000 142.50590515 0.7229999900 0.6284999847
 1706.6240234 6.0000000000 8.2887001038 12.250000954 126.80249023 -0.058797598 0.5899999738  -999.250000  -999.250000 142.50590515 0.8313999772 0.6725000143
 1706.7763672 6.0000000000 8.2887001038 12.250000954 145.21621704 -0.055796154 0.6140999794  -999.250000  -999.250000 142.50590515 0.8313999772 0.6725000143
 1706.9288330 6.0000000000 8.2887001038 12.250000954 145.24377441 -0.050995272 0.6172999740  -999.250000  -999.250000 142.50590515 0.4787000120 0.3966000080
 1707.0811768 6.0000000000 8.2887001038 12.250000954 150.09777832 -0.045097757 0.6527000070  -999.250000  -999.250000 142.50590515 1.1325999498 0.9255999923
 1707.2336426 6.0000000000 8.2887001038 12.250000954 153.91798401 -0.042304646 0.6000000238  -999.250000  -999.250000 142.50590515 0.6280000210 0.5199000239
 1707.3859863 6.0000000000 8.2887001038 12.250000954 153.91798401 -0.045206092 0.6133999825  -999.250000  -999.250000 140.84269714 0.6280000210 0.5199000239
 1707.5384521 6.0000000000 8.2887001038 12.250000954 173.20701599 -0.052796155 0.5749999881  -999.250000  -999.250000 140.12969971 0.5724999905 0.4460999966
 1707.6907959 6.0000000000 8.2887001038 12.250000954 181.96160889 -0.050377805 0.5601999760  -999.250000  -999.250000 138.46650696 0.8034999967 0.6496000290
 1707.8432617 6.0000000000 8.2887001038 12.250000954 193.71095276 -0.022669096 0.5468000174  -999.250000  -999.250000 140.12969971 0.8634999990 0.6794000268
 1707.9956055 6.0000000000 8.5160999298 12.250000954 204.74540710 -0.003404808 0.5439000130  -999.250000  -999.250000 140.84260559 0.9695000052 0.7494999766
 1708.1479492 6.0000000000 8.6454000473 12.250000954 209.45440674 -0.009420016 0.5511000156  -999.250000  -999.250000 142.50590515 0.7228999734 0.6492999792
 1708.3004150 6.0000000000 8.3817996979 12.250000954 209.51181030 -0.034410257 0.5677000284  -999.250000  -999.250000 142.50590515 0.6161999702 0.5751000047
 1708.4527588 6.0000000000 8.2887001038 12.250000954 209.51181030 -0.047194719 0.5947999954  -999.250000  -999.250000 139.18190002 0.5593000054 0.4718999863
 1708.6052246 6.0000000000 8.2887001038 12.250000954 204.67257690 -0.040589504 0.6284999847  -999.250000  -999.250000 135.85789490 0.5593000054 0.4718999863
 1708.7575684 6.0000000000 8.2887001038 12.250000954 204.67257690 -0.027490553 0.5841000080  -999.250000  -999.250000 131.10769653 1.7022000551 1.5844000578
 1708.9100342 6.0000000000 8.2938995361 12.250000954 185.54594421 -0.015668029 0.5651000142  -999.250000  -999.250000 129.68150330 1.7022000551 1.5844000578
 1709.0623779 5.0000000000 8.6585998535 8.5000000000 647.73522949 0.0242346674 0.5414999723  -999.250000  -999.250000 128.25529480 0.9912999868 0.9290999770
 1709.2148438 5.0000000000 8.5172996521 8.5000000000 647.73522949 0.0675018430 0.5273000002  -999.250000  -999.250000 128.25529480 0.5586000085 0.4979000092
 1709.3671875 5.0000000000 8.5127000809 8.5000000000 647.73522949 0.0697999150 0.5045999885 2.2402999401 6.2876000404 128.25529480 0.6353999972 0.6133999825
 1709.5196533 5.0000000000 8.5204000473 8.5000000000 425.39501953 0.0696969628 0.4790000021 2.2490000725 6.4011001587 131.57929993 0.6353999972 0.6133999825
 1709.6719971 5.0000000000 8.4748001099 8.5000000000 425.39501953 0.0678011999 0.4541999996 2.2425999641 6.4839000702 136.32949829 0.4977000058 0.4634000063
 1709.8244629 5.0000000000 8.4593000412 8.5000000000 425.39501953 0.0692985654 0.4623999894 2.2502000332 6.3762998581 141.07969666 1.0734000206 1.1450999975
 1709.9768066 5.0000000000 8.4644002914 8.5000000000 720.14074707 0.0683997646 0.4528000057 2.2490000725 6.0830001831 140.13079834 0.8205999732 0.8023999929
 1710.1292725 6.0000000000 8.5010004044 8.5000000000 720.14074707 0.0680884719 0.4736999869 2.2574999332 5.8968000412 141.79280090 0.7901999950 0.7667999864
 1710.2816162 6.0000000000 8.4626998901 8.5000000000 720.14074707 0.0609007217 0.4603999853 2.2376999855 5.9454998970 141.79280090 0.7220000029 0.7203000188
 1710.4339600 6.0000000000 8.4937000275 8.5000000000 720.14074707 0.0617990382 0.4778999984 2.2469999790 5.9559998512 139.41769409 0.7257000208 0.7274000049
 1710.5864258 6.0000000000 8.4446001053 8.5000000000 720.14074707 0.0606044903 0.4690000117 2.2385001183 6.0181999207 136.09309387 0.7297000289 0.7253000140
 1710.7387695 6.0000000000 8.4954996109 8.5000000000 541.98394775 0.0662008822 0.4769000113 2.2578999996 6.0762000084 133.00489807 0.7384999990 0.7336999774
 1710.8912354 6.0000000000 8.4954996109 8.5000000000 363.82742310 0.0673048124 0.4420999885 2.2504999638 6.2586998940 134.66740417 0.7372999787 0.7310000062
 1711.0435791 6.0000000000 8.4954996109 8.5000000000 185.67092896 0.0732980743 0.4745000005 2.2572000027 6.3622999191 135.61680603 0.7333999872 0.7221000195
 1711.1960449 6.0000000000 8.5219001770 8.5000000000 166.65748596 0.0709097758 0.4636000097 2.2518000603 6.3831000328 137.04240417 0.7220000029 0.7300999761
 1711.3483887 6.0000000000 8.6492004395 8.5000000000 183.66995239 0.0830897391 0.4751999974 2.2971000671 6.2890000343 136.09100342 0.7235000134 0.7279999852
 1711.5008545 6.0000000000 8.7033996582 8.5000000000 183.66995239 0.0702924728 0.4505000114 2.3361001015 6.6290001869 132.05409241 0.7192999721 0.7256000042
 1711.6531982 6.0000000000 8.7618999481 8.5000000000 183.66995239 0.0656055287 0.4435000122 2.3564999104 6.9482998848 123.26619720 0.7228999734 0.7203000188
 1711.8056641 5.0000000000 8.5649995804 8.5000000000 183.91667175 0.0725020766 0.4316000044 2.2964999676 7.5012001991 112.10459900 0.7335000038 0.7240999937
