# LAS format log file from PETREL
# Project units are specified as depth units
#==================================================================
~Version information
VERS.   2.0:
WRAP.   NO:
#==================================================================
~Well
STRT .m      815.00012207 :
STOP .m      2497.5000000 :
STEP .m     0.00000000 :
NULL .        -999.250000 :
COMP.           : COMPANY
WELL.  31/5-2R   : WELL
FLD.            : FIELD
LOC.            : LOCATION
SRVC.           : SERVICE COMPANY
DATE.  2018-09-11 14:48:39   : Log Export Date {yyyy-MM-dd HH:mm:ss}
PROV.           : PROVINCE
UWI.   31/5-2 R   : UNIQUE WELL ID
API.            : API NUMBER
#==================================================================
~Curve
DEPT .m                   : DEPTH
Lithology_geolink ._      : Lithology_geolink
CALI .in                  : CALI
DRHO .g/cm3               : DRHO
NPHI .m3/m3               : NPHI
RHOB .g/cm3               : RHOB
GR .gAPI                  : GR
DTC .us/ft                : DTC
DTE .us/ft                : DTE
RDEP .ohm.m               : RDEP
SP .mV                    : SP
RSHA .ohm.m               : RSHA
RMED .ohm.m               : RMED
~Parameter
#==================================================================
~Ascii
# ...
 1493.0000000 7.0000000000 15.858999252 0.0450029299 0.3640000224 2.1489999294 116.78800201 136.52532959 134.27024841 1.4700030088 10.663999557 1.4720097780 1.4720097780
 1493.1250000 7.0000000000 15.953000069 0.0480000004 0.3606100082 2.1410000324 113.77899933 136.00520325 133.71447754 1.4730058908 10.663000107 1.4819980860 1.4819980860
 1493.2500000 7.0000000000 16.011999130 0.0480000004 0.3556499779 2.1240000725 111.99500275 135.71725464 133.45234680 1.4790009260 10.661000252 1.4799921513 1.4799921513
 1493.3748779 7.0000000000 16.007999420 0.0480000004 0.3484270573 2.1040000916 111.31500244 135.73016357 133.49484253 1.4800000191 10.661999702 1.4720000029 1.4720000029
 1493.4998779 7.0000000000 15.937000275 0.0509999990 0.3370299935 2.0889999866 111.36499786 135.83657837 133.74633789 1.4739999771 10.666000366 1.4630000591 1.4630000591
 1493.6248779 7.0000000000 15.822999954 0.0520000011 0.3239600062 2.0829999447 111.62699890 136.11604309 133.91357422 1.4639999866 10.670999527 1.4609999657 1.4609999657
 1493.7500000 7.0000000000 15.710000038 0.0460000001 0.3167499900 2.0810000896 112.03500366 136.12013245 133.87638855 1.4579999447 10.668000221 1.4670000076 1.4670000076
 1493.8750000 7.0000000000 15.630000114 0.0299999993 0.3205899894 2.0799999237 112.85600281 135.96978760 133.71450806 1.4620000124 10.649999619 1.4789999723 1.4789999723
 1494.0000000 7.0000000000 15.589999199 0.0120000001 0.3332699835 2.0789999962 114.04599762 135.86270142 133.61779785 1.4789999723 10.619000435 1.4910000563 1.4910000563
 1494.1250000 7.0000000000 15.574000359 0.0010000000 0.3503799736 2.0840001106 115.27999878 136.04910278 133.84826660 1.5030000210 10.578000069 1.5000000000 1.5000000000
 1494.2500000 7.0000000000 15.571000099 0.0020048830 0.3652700186 2.0929999352 116.27300262 137.01910400 134.78340149 1.5260107517 10.526000023 1.4959853888 1.4959853888
 1494.3750000 7.0000000000 15.569999695 0.0070009767 0.3752099872 2.1029999256 117.14700317 138.59953308 136.31091309 1.5369940996 10.470000267 1.4809726477 1.4809726477
 1494.5000000 7.0000000000 15.569999695 0.0079960944 0.3783900142 2.1080000401 118.13116455 140.26054382 138.02967834 1.5309765339 10.415966034 1.4529677629 1.4529677629
 1494.6248779 7.0000000000 15.571999550 0.0040000002 0.3775099814 2.1080000401 119.32399750 141.79243469 139.59072876 1.5069999695 10.380999565 1.4199999571 1.4199999571
 1494.7498779 7.0000000000 15.585000038 0.0010000000 0.3738099933 2.1089999676 120.33899689 142.95344543 140.68481445 1.4780000448 10.376999855 1.3910000324 1.3910000324
 1494.8750000 7.0000000000 15.630000114 0.0040000002 0.3680099845 2.1150000095 120.53199768 143.34136963 141.07385254 1.4509999752 10.404999733 1.3730000257 1.3730000257
 1495.0000000 7.0000000000 15.729000092 0.0140000004 0.3614199758 2.1270000935 119.59100342 142.85505676 140.61680603 1.4340000153 10.439999580 1.3660000563 1.3660000563
 1495.1250000 7.0000000000 15.878000259 0.0270000007 0.3550699949 2.1419999599 118.08399963 141.98928833 139.78215027 1.4259999990 10.463999748 1.3669999838 1.3669999838
 1495.2500000 7.0000000000 16.052999496 0.0359999985 0.3505699933 2.1519999504 116.92299652 141.01066589 138.78527832 1.4240000248 10.475000381 1.3710000515 1.3710000515
 1495.3750000 7.0000000000 16.201999664 0.0399980471 0.3492499888 2.1549999714 116.70500183 140.06481934 137.80273438 1.4189863205 10.491999626 1.3750048876 1.3750048876
 1495.5000000 7.0000000000 16.285999298 0.0379951149 0.3528799713 2.1500000954 117.30400085 139.22427368 136.96653748 1.4049745798 10.531000137 1.3800067902 1.3800067902
 1495.6250000 7.0000000000 16.299999237 0.0329970717 0.3585599959 2.1389999390 118.18156433 138.63136292 136.37919617 1.3789706230 10.590059280 1.3870116472 1.3870116472
 1495.7498779 7.0000000000 16.283000946 0.0299999993 0.3631600142 2.1289999485 118.75700378 138.22662354 136.03266907 1.3489999771 10.651000023 1.3990000486 1.3990000486
 1495.8748779 7.0000000000 16.270999908 0.0320000015 0.3638199866 2.1280000210 118.88400269 138.09910583 135.88555908 1.3240000010 10.694000244 1.4129999876 1.4129999876
 1495.9998779 7.0000000000 16.287000656 0.0410000011 0.3625699878 2.1329998970 118.79699707 138.18879700 135.94212341 1.3090000153 10.708999634 1.4199999571 1.4199999571
 1496.1250000 7.0000000000 16.326000214 0.0540000014 0.3625400066 2.1419999599 118.73500061 138.41195679 136.18316650 1.3049999475 10.699000359 1.4160000086 1.4160000086
 1496.2500000 7.0000000000 16.372999191 0.0649999976 0.3645700216 2.1480000019 118.56600189 138.70169067 136.55255127 1.3079999685 10.675000191 1.4029999971 1.4029999971
 1496.3750000 7.0000000000 16.413000107 0.0680000037 0.3655500114 2.1449999809 118.15699768 139.09907532 136.88105774 1.3120000362 10.645999908 1.3890000582 1.3890000582
 1496.5000000 7.0000000000 16.431999207 0.0609882809 0.3616999686 2.1310000420 117.65499878 139.32385254 137.04756165 1.3160029650 10.623000145 1.3810000420 1.3810000420
 1496.6250000 7.0000000000 16.426000595 0.0489902347 0.3524599969 2.1150000095 117.28800201 139.34945679 137.07368469 1.3190058470 10.607999802 1.3810019493 1.3810019493
 1496.7500000 7.0000000000 16.392999649 0.0390009768 0.3398000002 2.1059999466 117.43499756 139.25726318 137.03991699 1.3250079155 10.592000008 1.3829990625 1.3829990625
 1496.8748779 7.0000000000 16.337999344 0.0399999991 0.3270624876 2.1129999161 118.20099640 139.21188354 137.05989075 1.3329999447 10.564999580 1.3819999695 1.3819999695
 1496.9998779 7.0000000000 16.266000748 0.0509999990 0.3174200058 2.1319999695 119.55699921 139.50546265 137.27693176 1.3420000076 10.517000198 1.3730000257 1.3730000257
 1497.1248779 7.0000000000 16.172000885 0.0689999983 0.3129299879 2.1519999504 120.97699738 139.98567200 137.73774719 1.3480000496 10.446000099 1.3589999676 1.3589999676
 1497.2500000 7.0000000000 16.051000595 0.0829999968 0.3152000010 2.1610000134 121.93000031 140.61181641 138.31867981 1.3519999981 10.371999741 1.3459999561 1.3459999561
 1497.3750000 7.0000000000 15.907999992 0.0850000009 0.3242900074 2.1540000439 121.94899750 141.15187073 138.92350769 1.3589999676 10.319999695 1.3370000124 1.3370000124
 1497.5000000 7.0000000000 15.786000252 0.0740000010 0.3363399804 2.1349999905 121.21199799 141.59837341 139.46081543 1.3810000420 10.307999611 1.3359999657 1.3359999657
 1497.6250000 7.0000000000 15.729000092 0.0549999997 0.3442800045 2.1170001030 120.18900299 142.15528870 139.85237122 1.4210000038 10.335000038 1.3409999609 1.3409999609
 1497.7500000 7.0000000000 15.786000252 0.0389902368 0.3437500000 2.1059999466 119.70600128 142.25735474 140.03749084 1.4810605049 10.381999969 1.3510097265 1.3510097265
 1497.8750000 7.0000000000 15.909999847 0.0289980453 0.3356000185 2.1019999981 119.90399933 142.27084351 140.10154724 1.5430428982 10.413999557 1.3610038757 1.3610038757
 1498.0000000 7.0000000000 16.034999847 0.0270019546 0.3250299692 2.1029999256 120.50738525 142.27182007 140.07948303 1.5870137215 10.412982941 1.3649990559 1.3649990559
 1498.1248779 7.0000000000 16.065000534 0.0289999992 0.3181500137 2.1070001125 120.89900208 142.19570923 139.96585083 1.6009999514 10.395000458 1.3639999628 1.3639999628
 1498.2498779 7.0000000000 15.994000435 0.0340000018 0.3157399893 2.1159999371 120.81099701 141.96316528 139.73606873 1.5889999866 10.390999794 1.3630000353 1.3630000353
 1498.3750000 7.0000000000 15.836000443 0.0430000015 0.3161799908 2.1349999905 120.33499908 141.57647705 139.34190369 1.5640000105 10.418999672 1.3689999580 1.3689999580
 1498.5000000 7.0000000000 15.670999527 0.0599999987 0.3173899949 2.1589999199 119.82399750 140.90008545 138.74089050 1.5420000553 10.461999893 1.3819999695 1.3819999695
 1498.6250000 7.0000000000 15.562998772 0.0820000023 0.3177599907 2.1809999943 119.40599823 140.21862793 138.00473022 1.5329999924 10.496000290 1.4010000229 1.4010000229
 1498.7500000 7.0000000000 15.582999229 0.1019999981 0.3170000017 2.1889998913 118.95800018 139.43243408 137.17546082 1.5379999876 10.501000404 1.4240000248 1.4240000248
 1498.8750000 7.0000000000 15.708000183 0.1150000021 0.3168799877 2.1819999218 118.27100372 138.57688904 136.31166077 1.5520175695 10.489999771 1.4480223656 1.4480223656
