# LAS format log file from PETREL
# Project units are specified as depth units
#==================================================================
~Version information
VERS.   2.0:
WRAP.   NO:
#==================================================================
~Well
STRT .m      382.62487793 :
STOP .m      2254.4997559 :
STEP .m     0.00000000 :
NULL .        -999.250000 :
COMP.           : COMPANY
WELL.  31/5-3   : WELL
FLD.            : FIELD
LOC.            : LOCATION
SRVC.           : SERVICE COMPANY
DATE.  2018-09-11 14:48:39   : Log Export Date {yyyy-MM-dd HH:mm:ss}
PROV.           : PROVINCE
UWI.   31/5-3   : UNIQUE WELL ID
API.            : API NUMBER
#==================================================================
~Curve
DEPT .m                   : DEPTH
Lithology_geolink ._      : Lithology_geolink
CALI .in                  : CALI
DRHO .g/cm3               : DRHO
NPHI .m3/m3               : NPHI
RHOB .g/cm3               : RHOB
GR .gAPI                  : GR
DTC .us/ft                : DTC
DTE .us/ft                : DTE
RDEP .ohm.m               : RDEP
SP .mV                    : SP
RSHA .ohm.m               : RSHA
RMED .ohm.m               : RMED
~Parameter
#==================================================================
~Ascii
# ...
 2242.6247559  -999.250000 8.5670003891 0.0320097655  -999.250000  -999.250000 101.64652252  -999.250000  -999.250000 1.9790859222 61.789169312 2.7700273991 3.1120018959
 2242.7497559  -999.250000 8.5640001297 0.0270097665  -999.250000  -999.250000 101.83824158  -999.250000  -999.250000 1.9141269922 62.160545349 2.7450487614 3.0980274677
 2242.8747559  -999.250000 8.5550003052 0.0240058601  -999.250000  -999.250000 102.55120850  -999.250000  -999.250000 1.8361523151 62.590320587 2.7230429649 3.0740468502
 2242.9997559  -999.250000 8.5380001068 0.0220039058  -999.250000  -999.250000 103.62480164  -999.250000  -999.250000 1.7581523657 62.923694611 2.7020409107 3.0400664806
 2243.1247559  -999.250000 8.5109996796 0.0229980461  -999.250000  -999.250000 104.68087006  -999.250000  -999.250000 1.6981171370 62.998714447 2.6820390224 3.0020742416
 2243.2497559  -999.250000 8.4600000381 0.0269921888  -999.250000  -999.250000 105.57949066  -999.250000  -999.250000 1.6630682945 62.700176239 2.6630373001 2.9650721550
 2243.3747559  -999.250000 8.3400001526 0.0349843763  -999.250000  -999.250000 106.30317688  -999.250000  -999.250000 1.6440371275 62.170074463 2.6440372467 2.9300684929
 2243.4997559  -999.250000 8.1759996414 0.0519667976  -999.250000  -999.250000 106.57096100  -999.250000  -999.250000 1.6350175142 61.661983490 2.6260349751 2.8940703869
 2243.6247559  -999.250000 8.0069999695 0.0579882786  -999.250000  -999.250000 106.41461945  -999.250000  -999.250000 1.6300097704 61.244628906 2.6070373058 2.8590683937
 2243.7497559  -999.250000 7.7969999313 0.0599960908  -999.250000  -999.250000 105.84423828  -999.250000  -999.250000 1.6270058155 60.947158813 2.5880372524 2.8250665665
 2243.8747559  -999.250000 7.5560002327 0.0609980486  -999.250000  -999.250000 104.70745087  -999.250000  -999.250000 1.6269999743 60.763713837 2.5680391788 2.7950587273
 2243.9997559  -999.250000 7.3680000305 0.0629960969  -999.250000  -999.250000 104.17208099  -999.250000  -999.250000 1.6299941540 60.681320190 2.5490372181 2.7720448971
 2244.1247559  -999.250000 7.2700004578 0.0659941435  -999.250000  -999.250000 104.22677612  -999.250000  -999.250000 1.6359883547 60.533580780 2.5340292454 2.7500429153
 2244.2497559  -999.250000 7.2199997902 0.0689941421  -999.250000  -999.250000 104.65531921  -999.250000  -999.250000 1.6429862976 60.213256836 2.5339999199 2.7290410995
 2244.3747559  -999.250000 7.1890001297 0.0670039058  -999.250000  -999.250000 105.13811493  -999.250000  -999.250000 1.6499862671 59.701999664 2.5330018997 2.7040488720
 2244.4997559  -999.250000 7.1710000038 0.0620097630  -999.250000  -999.250000 105.36511230  -999.250000  -999.250000 1.6559883356 59.076446533 2.5329999924 2.6790487766
 2244.6247559  -999.250000 7.1630001068 0.0550136715  -999.250000  -999.250000 105.26738739  -999.250000  -999.250000 1.6619882584 58.583923340 2.5180292130 2.6590390205
 2244.7497559  -999.250000 7.1589999199 0.0490117185  -999.250000  -999.250000 105.46622467  -999.250000  -999.250000 1.6689863205 58.515262604 2.4970409870 2.6470234394
 2244.8747559  -999.250000 7.1550002098 0.0440097637  -999.250000  -999.250000 106.22801971  -999.250000  -999.250000 1.6749882698 58.627555847 2.4880175591 2.6390156746
 2244.9997559  -999.250000 7.1510000229 0.0509863272  -999.250000  -999.250000 106.96412659  -999.250000  -999.250000 1.6809883118 58.656887054 2.4969823360 2.6300177574
 2245.1247559  -999.250000 7.1469998360 0.0599824190  -999.250000  -999.250000 107.24192047  -999.250000  -999.250000 1.6859902143 58.408973694 2.5069804192 2.6120350361
 2245.2497559  -999.250000 7.1430001259 0.0679843798  -999.250000  -999.250000 107.03182983  -999.250000  -999.250000 1.6889941692 57.786437988 2.5159823895 2.5700819492
 2245.3747559  -999.250000 7.1389994621 0.0689980462  -999.250000  -999.250000 105.83270264  -999.250000  -999.250000 1.6899981499 56.848670959  -999.250000 2.5121133327
 2245.4997559  -999.250000 7.1350002289 0.0630117208  -999.250000  -999.250000 105.16659546  -999.250000  -999.250000 1.6900000572 56.002304077  -999.250000 2.4581053257
 2245.6247559  -999.250000 7.1320004463 0.0570117198  -999.250000  -999.250000 104.98570251  -999.250000  -999.250000 1.6900000572 55.419273376  -999.250000 2.4250643253
 2245.7497559  -999.250000 7.1300001144 0.0530078113  -999.250000  -999.250000 105.44419861  -999.250000  -999.250000 1.6890019178 55.162994385  -999.250000 2.4190115929
 2245.8747559  -999.250000 7.1279997826 0.0500058606  -999.250000  -999.250000 106.61042786  -999.250000  -999.250000 1.6880018711 55.233718872  -999.250000 2.4349687099
 2245.9997559  -999.250000 7.1279997826 0.0480039082  -999.250000  -999.250000 108.03144836  -999.250000  -999.250000 1.6889981031 55.593589783  -999.250000 2.4549608231
 2246.1247559  -999.250000 7.1270003319 0.0470019504  -999.250000  -999.250000 109.15859985  -999.250000  -999.250000 1.6909960508 55.948612213  -999.250000 2.4649803638
 2246.2497559  -999.250000 7.1259999275 0.0450039096  -999.250000  -999.250000 110.05450439  -999.250000  -999.250000 1.6929960251 56.180095673  -999.250000 2.4649999142
 2246.3747559  -999.250000 7.1250000000 0.0420058593  -999.250000  -999.250000 110.72040558  -999.250000  -999.250000 1.6939980984 56.271644592  -999.250000 2.4610078335
 2246.4997559  -999.250000 7.1230001450 0.0360117182  -999.250000  -999.250000 111.12741089  -999.250000  -999.250000 1.6930018663 56.233154297  -999.250000 2.4570078850
 2246.6247559  -999.250000 7.1209998131 0.0280156266  -999.250000  -999.250000 111.23757172  -999.250000  -999.250000 1.6920019388 56.082592010  -999.250000 2.4530079365
 2246.7497559  -999.250000 7.1189999580 0.0220117178  -999.250000  -999.250000 111.24995422  -999.250000  -999.250000 1.6900039911 55.836959839  -999.250000 2.4480097294
 2246.8747559  -999.250000 7.1160001755 0.0160117187  -999.250000  -999.250000 111.25199127  -999.250000  -999.250000 1.6870058775 55.644752502  -999.250000 2.4440078735
 2246.9997559  -999.250000 7.1139998436 0.0189941395  -999.250000  -999.250000 111.25199890  -999.250000  -999.250000 1.6850038767 55.597183228  -999.250000 2.4410059452
 2247.1247559  -999.250000 7.1129999161 0.0249882825  -999.250000  -999.250000 111.25199890  -999.250000  -999.250000 1.6840019226 55.670711517  -999.250000 2.4390037060
 2247.2497559  -999.250000 7.1110000610 0.0309882816  -999.250000  -999.250000 111.25199890  -999.250000  -999.250000 1.6840000153 55.777580261  -999.250000 2.4370038509
 2247.3747559  -999.250000 7.1069998741 0.0369882807  -999.250000  -999.250000 111.25199890  -999.250000  -999.250000 1.6849980354 55.768039703  -999.250000 2.4340059757
 2247.4997559  -999.250000 7.1030006409 0.0399941392  -999.250000  -999.250000 111.25199890  -999.250000  -999.250000 1.6869961023 55.585712433  -999.250000 2.4290096760
 2247.6247559  -999.250000 7.1009998322 0.0409980491  -999.250000  -999.250000 111.25199890  -999.250000  -999.250000 1.6879980564 55.498340607  -999.250000 2.4230117798
 2247.7497559  -999.250000 7.1020002365 0.0400019512  -999.250000  -999.250000 111.25199890  -999.250000  -999.250000 1.6889981031 55.625499725  -999.250000 2.4180097580
 2247.8747559  -999.250000 7.1030006409 0.0370058604  -999.250000  -999.250000 111.25199890  -999.250000  -999.250000 1.6880018711 55.969654083  -999.250000 2.4140079021
 2247.9997559  -999.250000 7.1050000191 0.0310117174  -999.250000  -999.250000 111.25199890  -999.250000  -999.250000 1.6860039234 56.444145203  -999.250000 2.4130020142
 2248.1247559  -999.250000 7.1050000191 0.0270078126  -999.250000  -999.250000 111.25199890  -999.250000  -999.250000 1.6840039492 56.851409912  -999.250000 2.4130001068
 2248.2497559  -999.250000 7.1030006409 0.0240058601  -999.250000  -999.250000 111.25199890  -999.250000  -999.250000 1.6820039749 56.962570190  -999.250000 2.4139981270
 2248.3747559  -999.250000 7.0989999771 0.0249980465  -999.250000  -999.250000 111.25199890  -999.250000  -999.250000 1.6810019016 56.846458435  -999.250000 2.4140000343
 2248.4997559  -999.250000 7.0949997902 0.0250000004  -999.250000  -999.250000 111.25199890  -999.250000  -999.250000 1.6819981337 56.631839752  -999.250000 2.4140000343
