# LAS format log file from PETREL
# Project units are specified as depth units
#==================================================================
~Version information
VERS.   2.0:
WRAP.   NO:
#==================================================================
~Well
STRT .m      815.00012207 :
STOP .m      2497.5000000 :
STEP .m     0.00000000 :
NULL .        -999.250000 :
COMP.           : COMPANY
WELL.  31/5-2R   : WELL
FLD.            : FIELD
LOC.            : LOCATION
SRVC.           : SERVICE COMPANY
DATE.  2018-09-11 14:48:39   : Log Export Date {yyyy-MM-dd HH:mm:ss}
PROV.           : PROVINCE
UWI.   31/5-2 R   : UNIQUE WELL ID
API.            : API NUMBER
#==================================================================
~Curve
DEPT .m                   : DEPTH
Lithology_geolink ._      : Lithology_geolink
CALI .in                  : CALI
DRHO .g/cm3               : DRHO
NPHI .m3/m3               : NPHI
RHOB .g/cm3               : RHOB
GR .gAPI                  : GR
DTC .us/ft                : DTC
DTE .us/ft                : DTE
RDEP .ohm.m               : RDEP
SP .mV                    : SP
RSHA .ohm.m               : RSHA
RMED .ohm.m               : RMED
~Parameter
#==================================================================
~Ascii
# ...
 1271.0001221 19.000000000 17.343000412 0.0309999995  -999.250000 2.1679999828 58.866603851 132.85195923 127.37295532 1.2209355831 10.070068359 1.2269941568 1.2269941568
 1271.1250000 19.000000000 17.346000671 0.0309999995  -999.250000 2.1710000038 59.173999786 134.13114929 128.65214539 1.1879999638 10.104999542 1.2239999771 1.2239999771
 1271.2500000 19.000000000 17.347999573 0.0250000004  -999.250000 2.1730000973 59.220001221 134.93835449 129.46879578 1.1549999714 10.125000000 1.2269999981 1.2269999981
 1271.3750000 19.000000000 17.350000381 0.0119833983  -999.250000 2.1689999104 59.099998474 135.50866699 130.03578186 1.1249794960 10.126000404 1.2279970646 1.2279970646
 1271.5000000 19.000000000 17.351999283 -0.005014648  -999.250000 2.1579999924 58.854000092 135.99781799 130.50207520 1.1039882898 10.111000061 1.2249921560 1.2249921560
 1271.6250000 19.000000000 17.357999802 -0.020007811  -999.250000 2.1470000744 58.492000580 136.46276855 130.93785095 1.0919951200 10.090000153 1.2169873714 1.2169873714
 1271.7500000 19.000000000 17.365999222 -0.027997071  -999.250000 2.1400001049 57.999401093 136.75627136 131.25900269 1.0870000124 10.068979263 1.2039843798 1.2039843798
 1271.8750000 19.000000000 17.372999191 -0.024990235  -999.250000 2.1410000324 57.387229919 136.79071045 131.32539368 1.0870009661 10.047979355 1.1879853010 1.1879853010
 1272.0001221 19.000000000 17.375999451 -0.014982422  -999.250000 2.1459999084 56.598022461 136.65298462 131.20269775 1.0879961252 10.026959419 1.1729843616 1.1729843616
 1272.1251221 19.000000000 17.374000549 -0.005988293  -999.250000 2.1500000954 55.586265564 136.45704651 131.00498962 1.0859941244 10.005971909 1.1649941206 1.1649941206
 1272.2500000 19.000000000 17.368000031 0.0000000000  -999.250000 2.1489999294 54.698001862 136.33891296 130.88085938 1.0829999447 9.9919996262 1.1619999409 1.1619999409
 1272.3750000 19.000000000 17.363000870 0.0030000000  -999.250000 2.1459999084 54.291999817 136.44378662 130.99490356 1.0770000219 9.9890003204 1.1610000134 1.1610000134
 1272.5000000 19.000000000 17.361999512 0.0060000001  -999.250000 2.1419999599 54.633998871 137.03802490 131.52641296 1.0750000477 10.000000000 1.1560000181 1.1560000181
 1272.6250000 19.000000000 17.364999771 0.0089980466  -999.250000 2.1400001049 55.326000214 137.77888489 132.27447510 1.0780116320 10.020999908 1.1469901800 1.1469901800
 1272.7500000 19.000000000 17.371000290 0.0069951173  -999.250000 2.1359999180 55.887001038 138.50416565 133.03410339 1.0900175571 10.048999786 1.1369920969 1.1369920969
 1272.8750000 19.000000000 17.379999161 0.0019921877  -999.250000 2.1310000420 56.048999786 139.04478455 133.61402893 1.1080205441 10.076999664 1.1289989948 1.1289989948
 1273.0000000 19.000000000 17.389999390 -0.006003906  -999.250000 2.1280000210 55.918933868 139.25880432 133.84211731 1.1290234327 10.097005844 1.1280049086 1.1280049086
 1273.1250000 19.000000000 17.402999878 -0.010001953  -999.250000 2.1310000420 55.854267120 139.06976318 133.55131531 1.1530205011 10.102998734 1.1330097914 1.1330097914
 1273.2501221 19.000000000 17.416999817 -0.012003902  -999.250000 2.1389999390 56.129295349 138.13670349 132.67437744 1.1740331650 10.101996422 1.1430273056 1.1430273056
 1273.3751221 19.000000000 17.434000015 -0.014005859  -999.250000 2.1470000744 56.793846130 136.80616760 131.37072754 1.1910116673 10.100004196 1.1570194960 1.1570194960
 1273.5000000 19.000000000 17.454999924 -0.020000000  -999.250000 2.1489999294 57.661998749 135.19491577 129.74394226 1.2029999495 10.104000092 1.1770000458 1.1770000458
 1273.6250000 19.000000000 17.481000900 -0.029999999  -999.250000 2.1459999084 58.594001770 133.46168518 127.96852112 1.2089999914 10.114999771 1.2009999752 1.2009999752
 1273.7500000 5.0000000000 17.510999680 -0.037999023  -999.250000 2.1429998875 59.582000732 131.83845520 126.30744934 1.2120029926 10.125000000 1.2210087776 1.2210087776
 1273.8750000 5.0000000000 17.541000366 -0.036988281  -999.250000 2.1459999084 60.624000549 130.87266541 125.36928558 1.2150058746 10.131999969 1.2299911976 1.2299911976
 1274.0000000 5.0000000000 17.563999176 -0.024984375  -999.250000 2.1579999924 61.560001373 130.95211792 125.48120117 1.2210097313 10.138999939 1.2209764719 1.2209764719
 1274.1250000 5.0000000000 17.572999954 -0.008984375  -999.250000 2.1730000973 62.174011230 131.97390747 126.50280762 1.2310165167 10.149010658 1.1969716549 1.1969716549
 1274.2500000 19.000000000 17.566999435 0.0070126955  -999.250000 2.1860001087 62.185474396 133.59934998 128.10235596 1.2480214834 10.160008430 1.1679775715 1.1679775715
 1274.3751221 19.000000000 17.545000076 0.0200136714  -999.250000 2.1919999123 61.645366669 135.29309082 129.78004456 1.2700507641 10.169001579 1.1449843645 1.1449843645
 1274.5001221 19.000000000 17.513000488 0.0270058550  -999.250000 2.1909999847 60.808979034 136.27905273 130.82913208 1.2960507870 10.169976234 1.1370214224 1.1370214224
 1274.6250000 19.000000000 17.479000092 0.0299999993  -999.250000 2.1860001087 59.773998260 135.93254089 130.49072266 1.3220000267 10.157999992 1.1480000019 1.1480000019
 1274.7500000 19.000000000 17.451999664 0.0260000005  -999.250000 2.1800000668 58.645000458 134.67575073 129.21336365 1.3470000029 10.137000084 1.1770000458 1.1770000458
 1274.8750000 19.000000000 17.440000534 0.0149999997  -999.250000 2.1749999523 57.594001770 132.95693970 127.46889496 1.3680000305 10.112999916 1.2209999561 1.2209999561
 1275.0000000 19.000000000 17.450000763 -0.002017578  -999.250000 2.1670000553 56.983001709 131.29927063 125.80920410 1.3860156536 10.098999977 1.2720428705 1.2720428705
 1275.1250000 19.000000000 17.486000061 -0.020014647  -999.250000 2.1559998989 56.942001343 130.24203491 124.79351807 1.4020146132 10.097000122 1.3160214424 1.3160214424
 1275.2500000 19.000000000 17.547000885 -0.035010744  -999.250000 2.1440000534 57.537780762 130.44979858 125.02112579 1.4170088768 10.108020782 1.3379951715 1.3379951715
 1275.3750000 19.000000000 17.620000839 -0.046007812  -999.250000 2.1289999485 58.338630676 131.65267944 126.18599701 1.4260019064 10.129023552 1.3329784870 1.3329784870
 1275.5001221 19.000000000 17.690000534 -0.054011721  -999.250000 2.1129999161 58.984645844 133.20878601 127.73329163 1.4279745817 10.153046608 1.3109472990 1.3109472990
 1275.6251221 19.000000000 17.742000580 -0.060007803  -999.250000 2.0999999046 59.315670013 134.74586487 129.29035950 1.4149570465 10.177041054 1.2839610577 1.2839610577
 1275.7501221 19.000000000 17.770999908 -0.064000003  -999.250000 2.0910000801 59.660507202 135.99461365 130.55889893 1.3929697275 10.198008537 1.2639853954 1.2639853954
 1275.8750000 19.000000000 17.780000687 -0.064000003  -999.250000 2.0880000591 60.179000854 136.78393555 131.32708740 1.3619999886 10.206999779 1.2489999533 1.2489999533
 1276.0000000 19.000000000 17.760000229 -0.059000000  -999.250000 2.0929999352 60.835998535 136.97872925 131.45764160 1.3309999704 10.199999809 1.2380000353 1.2380000353
 1276.1250000 19.000000000 17.716999054 -0.049988281  -999.250000 2.1050000191 61.360000610 136.65209961 131.16505432 1.3079921007 10.184000015 1.2299981117 1.2299981117
 1276.2500000 19.000000000 17.652999878 -0.037990235  -999.250000 2.1180000305 61.340000153 135.83944702 130.34799194 1.3000116348 10.163999557 1.2280079126 1.2280079126
 1276.3750000 19.000000000 17.579000473 -0.027993165  -999.250000 2.1270000935 60.867000580 134.14672852 128.63948059 1.3120293617 10.140000343 1.2360174656 1.2360174656
 1276.5000000 19.000000000 17.506000519 -0.020992188  -999.250000 2.1289999485 60.383144379 130.92802429 125.48322296 1.3420507908 10.110969543 1.2540223598 1.2540223598
 1276.6250000 19.000000000 17.437000275 -0.012990234  -999.250000 2.1340000629 60.531646729 125.33934784 119.86582947 1.3940596581 10.079980850 1.2770195007 1.2770195007
 1276.7501221 16.000000000 17.363000870 -0.002986341  -999.250000 2.1510000229 61.195381165 117.76961517 112.31198883 1.4551249743 10.059988976 1.2970410585 1.2970410585
 1276.8751221 16.000000000 17.281999588 0.0040000002  -999.250000 2.1849999428 61.900970459 110.33163452 104.83460236 1.5190508366 10.053995132 1.3180458546 1.3180458546
