# LAS format log file from PETREL
# Project units are specified as depth units
#==================================================================
~Version information
VERS.   2.0:
WRAP.   NO:
#==================================================================
~Well
STRT .m      164.79321289 :
STOP .m      1907.4873047 :
STEP .m     0.00000000 :
NULL .        -999.250000 :
COMP.           : COMPANY
WELL.  31/5-4 S   : WELL
FLD.            : FIELD
LOC.            : LOCATION
SRVC.           : SERVICE COMPANY
DATE.  2018-09-11 14:48:39   : Log Export Date {yyyy-MM-dd HH:mm:ss}
PROV.           : PROVINCE
UWI.   31/5-4 S   : UNIQUE WELL ID
API.            : API NUMBER
#==================================================================
~Curve
DEPT .m                   : DEPTH
Lithology_geolink ._      : Lithology_geolink
CALI .in                  : CALI
DRHO .g/cm3               : DRHO
NPHI .m3/m3               : NPHI
RHOB .g/cm3               : RHOB
GR .gAPI                  : GR
DTC .us/ft                : DTC
RDEP .ohm.m               : RDEP
SP .mV                    : SP
RSHA .ohm.m               : RSHA
RMED .ohm.m               : RMED
~Parameter
#==================================================================
~Ascii
# ...
 1726.9090576 2.0000000000 8.5937500000 -0.026337549 0.2946163714 2.1260342598 67.125000000 70.016433716 0.9342929125 78.414031982 0.5283203125 0.6364320517
 1727.0614014 2.0000000000 8.5937500000 -0.025365867 0.3141571581 2.1000957489 67.875000000 62.574428558 0.9160137177 78.698318481 0.5043945313 0.6258568764
 1727.2138672 2.0000000000 8.5937500000 -0.021048360 0.3295902014 2.0974402428 66.562500000 58.108493805 0.9111096859 78.171936035 0.5400390625 0.6142541170
 1727.3662109 2.0000000000 8.5937500000 -0.016031250 0.3402348757 2.1002893448 65.812500000 57.721752167 0.8963631392 77.629203796 0.5400390625 0.6047087908
 1727.5186768 2.0000000000 8.5937500000 -0.013616733 0.3429014385 2.1061391830 63.468750000 53.679435730 0.8729532957 78.723976135 0.5307617188 0.5913352966
 1727.6710205 2.0000000000 8.5937500000 -0.012858654 0.3338681161 2.1118216515 65.500000000 48.128143311 0.8681511879 78.409553528 0.5151367188 0.5842492580
 1727.8233643 2.0000000000 8.5937500000 -0.012696237 0.3262905180 2.1116361618 67.375000000 49.297016144 0.8745309114 77.728279114 0.5341796875 0.5869760513
 1727.9758301 2.0000000000 8.6015625000 -0.014513702 0.3256848454 2.1101756096 69.812500000 53.986843109 0.8761457205 78.508712769 0.5185546875 0.5889152288
 1728.1281738 2.0000000000 8.6015625000 -0.015706565 0.3301669359 2.1077418327 70.937500000 63.051181793 0.8937849998 77.383804321 0.5380859375 0.5987548828
 1728.2806396 2.0000000000 8.5937500000 -0.017706731 0.3373752832 2.1071138382 70.500000000 73.154502869 0.8898775578 76.323318481 0.5380859375 0.6023479700
 1728.4328613 2.0000000000 8.6015625000 -0.019581987 0.3380039334 2.1069302559 69.125000000 83.810234070 0.8801943064 75.964668274 0.5600585938 0.6004251242
 1728.5853271 2.0000000000 8.6015625000 -0.020289745 0.3329816759 2.1084971428 68.062500000 90.238372803 0.8913344145 76.891029358 0.5498046875 0.6065709591
 1728.7376709 2.0000000000 8.6171875000 -0.020199999 0.3354241550 2.1071348190 67.250000000 93.116836548 0.9390447140 78.137817383 0.5346679688 0.6367539167
 1728.8901367 2.0000000000 8.6093750000 -0.020014090 0.3410356045 2.1103820801 66.187500000 93.676368713 0.9478111267 78.172538757 0.5219726563 0.6408965588
 1729.0424805 2.0000000000 8.6093750000 -0.018215384 0.3400888741 2.1124629974 65.375000000 94.085830688 0.9287061691 77.358970642 0.6909179688 0.6319777966
 1729.1948242 2.0000000000 8.6015625000 -0.016118335 0.3246199787 2.1285610199 65.875000000 95.744865417 0.9335427284 76.150619507 0.5737304688 0.6275720596
 1729.3472900 2.0000000000 8.5937500000 -0.011325642 0.3012015820 2.1713891029 65.750000000 98.935920715 0.8973822594 76.400642395 0.5351562500 0.6051173210
 1729.4996338 2.0000000000 8.5937500000 -0.005879824 0.2833056152 2.2064843178 64.437500000 103.73053741 0.8379839659 76.612190247 0.5087890625 0.5715605021
 1729.6520996 16.000000000 8.5937500000 -0.002302564 0.2930665016 2.1968774796 62.031250000 107.59513855 0.8150354624 76.576919556 0.6074218750 0.5504081249
 1729.8044434 16.000000000 8.5937500000 -0.003825140 0.3191567063 2.1582064629 64.437500000 110.48525238 0.8166389465 77.262809753 0.8598632813 0.5500386953
 1729.9569092 16.000000000 8.5937500000 -0.010058974 0.3345859945 2.1421408653 66.625000000 111.56232452 0.8158155680 77.310897827 0.6562500000 0.5488110781
 1730.1091309 2.0000000000 8.5937500000 -0.016964370 0.3308058977 2.1511669159 68.625000000 112.28771210 0.8094403744 76.699157715 0.4877929688 0.5473576784
 1730.2614746 2.0000000000 8.5937500000 -0.019360578 0.3286288679 2.1483039856 69.875000000 112.67613983 0.8515243530 76.275238037 0.4609375000 0.5806926489
 1730.4139404 2.0000000000 8.5937500000 -0.020052522 0.3490037024 2.1282920837 70.812500000 112.94544983 0.8888030052 76.538131714 0.5141601563 0.6100203991
 1730.5662842 2.0000000000 8.5937500000 -0.021450482 0.3590824008 2.1113085747 72.312500000 111.87730408 0.9337700605 76.824516296 0.5122070313 0.6427379847
 1730.7187500 2.0000000000 8.5937500000 -0.021655966 0.3518829644 2.1042752266 69.125000000 106.03279114 0.9911746979 76.362289429 0.4765625000 0.6827306747
 1730.8710938 2.0000000000 8.5937500000 -0.019287981 0.3293623924 2.1034197807 69.125000000 98.571960449 1.0360190868 76.199516296 0.4804687500 0.7113845348
 1731.0235596 2.0000000000 8.5937500000 -0.017501764 0.3043428361 2.1074786186 67.687500000 92.028663635 1.0186951160 75.800880432 0.4506835938 0.7045937777
 1731.1759033 2.0000000000 8.5937500000 -0.018664371 0.2893992662 2.1048803329 69.562500000 89.061447144 0.8868935108 76.275421143 0.4033203125 0.6238178015
 1731.3283691 2.0000000000 8.5937500000 -0.021111939 0.2860058844 2.1032352448 70.250000000 91.995910645 0.8225337267 76.347358704 0.4277343750 0.5834280252
 1731.4807129 5.0000000000 8.5937500000 -0.022405289 0.2880585194 2.0977802277 70.500000000 95.919883728 0.8074405193 75.101684570 0.4711914063 0.5683978796
 1731.6329346 5.0000000000 8.5937500000 -0.025301924 0.3007167280 2.1067290306 73.125000000 101.27011108 0.7950524092 75.949920654 0.4130859375 0.5692988634
 1731.7854004 5.0000000000 8.5703125000 -0.027079664 0.3247249722 2.1184129715 73.937500000 109.27217102 0.8138408661 75.487388611 0.4145507813 0.5806815624
 1731.9377441 5.0000000000 8.5625000000 -0.026960578 0.3362876475 2.1286301613 78.500000000 116.23681641 0.8351856470 75.525238037 0.5585937500 0.6064392328
 1732.0902100 5.0000000000 8.5703125000 -0.027357532 0.3409353495 2.1461424828 81.562500000 118.09703827 0.8452333212 76.875000000 0.6215820313 0.6201484203
 1732.2425537 5.0000000000 8.6015625000 -0.025835630 0.3419862986 2.1545839310 86.812500000 117.42743683 0.8476167917 76.787361145 0.5634765625 0.6319779158
 1732.3950195 5.0000000000 8.6015625000 -0.023388060 0.3518025875 2.1498718262 87.562500000 113.32599640 0.8713508844 75.924339294 0.4985351563 0.6546716690
 1732.5473633 5.0000000000 8.6015625000 -0.022552522 0.3691932559 2.1185183525 82.500000000 108.05611420 0.8912354708 75.187400818 0.6284179688 0.6803046465
 1732.6998291 5.0000000000 8.6015625000 -0.023645593 0.3572193086 2.1111764908 80.312500000 102.39727020 0.9857633114 74.599777222 0.7783203125 0.7594391108
 1732.8521729 5.0000000000 8.6015625000 -0.021094957 0.3514894247 2.1252717972 77.562500000 98.023147583 1.0526056290 74.500198364 0.6005859375 0.8126590252
 1733.0046387 5.0000000000 8.6015625000 -0.018359296 0.3330769837 2.1406989098 80.437500000 97.260681152 1.0581386089 75.662857056 0.5434570313 0.7897320986
 1733.1569824 5.0000000000 8.6015625000 -0.017583106 0.3427739143 2.1426053047 80.312500000 103.41680145 1.0018124580 75.974777222 0.5703125000 0.8191976547
 1733.3092041 5.0000000000 8.6015625000 -0.013990144 0.3659034371 2.1240994930 83.500000000 107.02563477 1.2215945721 75.700317383 0.5961914063 0.8479328156
 1733.4616699 5.0000000000 8.6015625000 -0.014699119 0.3696334362 2.1169347763 81.875000000 108.16328430 1.1120860577 75.187446594 0.5029296875 0.8490192890
 1733.6140137 5.0000000000 8.6015625000 -0.013639743 0.3641605079 2.1158428192 84.875000000 109.22800446 1.1115500927 74.575317383 0.5205078125 0.8138318062
 1733.7664795 5.0000000000 8.6093750000 -0.012018414 0.3533024490 2.1179418564 84.562500000 110.46463013 1.0739738941 74.074958801 0.5063476563 0.7852822542
 1733.9188232 5.0000000000 8.6093750000 -0.010510176 0.3452015221 2.1167612076 89.125000000 112.29047394 0.9486351013 73.612579346 0.6474609375 0.7699946165
 1734.0712891 5.0000000000 8.6015625000 -0.011146635 0.3312761188 2.1205849648 82.750000000 113.40673065 0.9859181643 73.487487793 0.5576171875 0.7567274570
 1734.2236328 5.0000000000 8.6171875000 -0.007868855 0.3382519782 2.1252446175 83.750000000 113.11006927 1.0450963974 73.412261963 0.6606445313 0.7715014219
 1734.3760986 5.0000000000 8.6015625000 -0.006841346 0.3612789810 2.1301364899 79.250000000 111.91136169 1.4031810760 73.762512207 1.2529296875 0.9952960014
 1734.5284424 16.000000000 8.6171875000 -0.008422818 0.3744326234 2.1377902031 82.875000000 109.85368347 1.6189732552 73.825317383 1.4492187500 1.2359733582
