# LAS format log file from PETREL
# Project units are specified as depth units
#==================================================================
~Version information
VERS.   2.0:
WRAP.   NO:
#==================================================================
~Well
STRT .m      815.00012207 :
STOP .m      2497.5000000 :
STEP .m     0.00000000 :
NULL .        -999.250000 :
COMP.           : COMPANY
WELL.  31/5-2R   : WELL
FLD.            : FIELD
LOC.            : LOCATION
SRVC.           : SERVICE COMPANY
DATE.  2018-09-11 14:48:39   : Log Export Date {yyyy-MM-dd HH:mm:ss}
PROV.           : PROVINCE
UWI.   31/5-2 R   : UNIQUE WELL ID
API.            : API NUMBER
#==================================================================
~Curve
DEPT .m                   : DEPTH
Lithology_geolink ._      : Lithology_geolink
CALI .in                  : CALI
DRHO .g/cm3               : DRHO
NPHI .m3/m3               : NPHI
RHOB .g/cm3               : RHOB
GR .gAPI                  : GR
DTC .us/ft                : DTC
DTE .us/ft                : DTE
RDEP .ohm.m               : RDEP
SP .mV                    : SP
RSHA .ohm.m               : RSHA
RMED .ohm.m               : RMED
~Parameter
#==================================================================
~Ascii
# ...
 2044.9998779 6.0000000000 9.1730003357 0.0350029282 0.3012999892 2.4649999142 98.753990173 103.01866913 100.70692444 1.7369511127 8.0409898758 2.2987499237 2.2987499237
 2045.1248779 6.0000000000 9.1660003662 0.0409941413 0.3188699782 2.4739999771 100.32846832 104.27935791 101.98516846 1.8079305887 8.0439968109 2.5077958107 2.5077958107
 2045.2498779 6.0000000000 9.1470003128 0.0520000011 0.3271300197 2.4820001125 100.72161865 105.30723572 103.08869934 1.8990000486 8.0390043259 2.5989999771 2.5989999771
 2045.3748779 6.0000000000 9.1180000305 0.0670000017 0.3267800212 2.4890000820 100.81790924 106.02414703 103.86338806 1.9919999838 8.0340051651 2.6270000935 2.6270000935
 2045.4998779 6.0000000000 9.0799999237 0.0850000009 0.3202799857 2.4939999580 100.71499634 106.52099609 104.21678925 2.0669999123 8.0349998474 2.6400001049 2.6400001049
 2045.6247559 6.0000000000 9.0340003967 0.0989726856 0.3113799989 2.4930000305 99.991409302 106.29788208 104.00440979 2.1149063110 8.0449810028 2.6549706459 2.6549706459
 2045.7497559 6.0000000000 8.9890003204 0.1029921845 0.3010799885 2.4830000401 98.591735840 105.56748962 103.33757782 2.1469376087 8.0599708557 2.6589920521 2.6589920521
 2045.8748779 6.0000000000 8.9519996643 0.0900126994 0.2892999947 2.4649999142 96.501045227 104.50863647 102.26909637 2.1699776649 8.0739870071 2.6350233555 2.6350233555
 2045.9998779 6.0000000000 8.9270000458 0.0710185543 0.2776499987 2.4470000267 94.047393799 103.18385315 100.90154266 2.1959748268 8.0889854431 2.5720615387 2.5720615387
 2046.1248779 5.0000000000 8.9099998474 0.0530175790 0.2659800053 2.4360001087 91.589401245 101.65470886 99.379959106 2.2299668789 8.1079816818 2.4880819321 2.4880819321
 2046.2498779 5.0000000000 8.8999996185 0.0490039065 0.2543399930 2.4400000572 89.439094543 100.15731812 97.914787292 2.2779531479 8.1329755783 2.4130733013 2.4130733013
 2046.3748779 5.0000000000 8.8940000534 0.0579912104 0.2440200001 2.4570000172 87.579818726 98.809486389 96.640197754 2.3409385681 8.1529808044 2.3780341148 2.3780341148
 2046.4998779 5.0000000000 8.8909997940 0.0799999982 0.2377700061 2.4860000610 85.761779785 97.635162354 95.424713135 2.4170000553 8.1609926224 2.3989999294 2.3989999294
 2046.6248779 2.0000000000 8.8940000534 0.1030000001 0.2373500019 2.5130000114 83.499000549 96.415222168 94.164649963 2.5000000000 8.1510000229 2.5030000210 2.5030000210
 2046.7497559 2.0000000000 8.9020004272 0.1179853529 0.2437000126 2.5309998989 80.778663635 95.062904358 92.823028564 2.5799217224 8.1270236969 2.6898174286 2.6898174286
 2046.8747559 2.0000000000 8.9130001068 0.1170019507 0.2557600141 2.5260000229 78.044342041 93.673141479 91.447776794 2.6458711624 8.0960597992 2.9684557915 2.9684557915
 2046.9998779 2.0000000000 8.9259996414 0.1030136719 0.2668299973 2.5090000629 76.296699524 92.534957886 90.359695435 2.6849617958 8.0710248947 3.2597157955 3.2597157955
 2047.1248779 2.0000000000 8.9399995804 0.0820205137 0.2734199762 2.4830000401 76.021270752 92.152938843 89.887016296 2.6999855042 8.0550155640 3.4278359413 3.4278359413
 2047.2498779 2.0000000000 8.9540004730 0.0650165975 0.2757999897 2.4609999657 77.577484131 92.425071716 90.110443115 2.6870126724 8.0500049591 3.3400857449 3.3400857449
 2047.3748779 2.0000000000 8.9619998932 0.0669980496 0.2775999904 2.4560000896 80.327316284 93.258842468 91.001724243 2.6530332565 8.0500001907 3.1012334824 3.1012334824
 2047.4998779 2.0000000000 8.9569997787 0.1049628854 0.2812199891 2.4700000286 83.859550476 94.571479797 92.427383423 2.6030488014 8.0519981384 2.8652305603 2.8652305603
 2047.6248779 2.0000000000 8.9340000153 0.1630000025 0.2834300101 2.4849998951 87.629318237 96.358840942 94.142768860 2.5409998894 8.0539979935 2.7269999981 2.7269999981
 2047.7498779 2.0000000000 8.8940000534 0.2199999988 0.2800900042 2.4879999161 90.969001770 97.998550415 95.747367859 2.4700000286 8.0579996109 2.6889998913 2.6889998913
 2047.8747559 2.0000000000 8.8430004120 0.2429775447 0.2703095675 2.4709999561 93.041969299 99.338317871 97.043609619 2.3920760155 8.0639944077 2.7089805603 2.7089805603
 2047.9997559 5.0000000000 8.7950000763 0.2260331661 0.2602699995 2.4400000572 93.294509888 100.22063446 97.966491699 2.3121562004 8.0719842911 2.7199785709 2.7199785709
 2048.1247559 5.0000000000 8.7600002289 0.1721054763 0.2556000054 2.4059998989 91.619277954 100.67657471 98.484245300 2.2331542969 8.0749940872 2.6800782681 2.6800782681
 2048.2497559 5.0000000000 8.7410001755 0.1081250012 0.2581999898 2.3870000839 88.800506592 100.87262726 98.604606628 2.1541543007 8.0700092316 2.5991582870 2.5991582870
 2048.3747559 5.0000000000 8.7340002060 0.0580976531 0.2663100064 2.3880000114 85.903663635 100.67694092 98.376174927 2.0721602440 8.0580234528 2.5091757774 2.5091757774
 2048.4997559 5.0000000000 8.7360000610 0.0360429659 0.2777899802 2.4040000439 84.127464294 100.36767578 98.082862854 1.9821758270 8.0490169525 2.4321503639 2.4321503639
 2048.6247559 5.0000000000 8.7419996262 0.0359999985 0.2901799977 2.4210000038 83.868499756 100.08410645 97.896812439 1.8881835938 8.0509958267 2.3661289215 2.3661289215
 2048.7500000 5.0000000000 8.7500000000 0.0430000015 0.3012799919 2.4309999943 85.539001465 100.01724243 97.869178772 1.8049999475 8.0640001297 2.3020000458 2.3020000458
 2048.8750000 5.0000000000 8.7550001144 0.0469999984 0.3079000115 2.4309999943 88.210998535 100.21292877 97.984169006 1.7389999628 8.0769996643 2.2300000191 2.2300000191
 2049.0000000 5.0000000000 8.7550001144 0.0439999998 0.3094300032 2.4200000763 90.699996948 100.40861511 98.160003662 1.6890000105 8.0799999237 2.1500000954 2.1500000954
 2049.1247559 5.0000000000 8.7500000000 0.0410058610 0.3075599968 2.4059998989 91.665107727 100.41129303 98.279998779 1.6550663710 8.0770053864 2.0661640167 2.0661640167
 2049.2497559 5.0000000000 8.7480001450 0.0419980474 0.3050999939 2.3959999084 91.269775391 100.53474426 98.354179382 1.6310468912 8.0769996643 1.9911465645 1.9911465645
 2049.3747559 5.0000000000 8.7569999695 0.0449941419 0.3044300079 2.3919999599 90.085319519 100.68001556 98.417480469 1.6180254221 8.0889759064 1.9420957565 1.9420957565
 2049.4997559 5.0000000000 8.7790002823 0.0450000018 0.3048500121 2.3900001049 89.348434448 100.80092621 98.498039246 1.6180000305 8.1159477234 1.9400039911 1.9400039911
 2049.6247559 5.0000000000 8.8070001602 0.0400097631 0.3033200204 2.3870000839 89.452796936 100.88829803 98.614891052 1.6309746504 8.1479368210 1.9849121571 1.9849121571
 2049.7497559 5.0000000000 8.8400001526 0.0340117216 0.2984600067 2.3849999905 90.398155212 100.88829803 98.779556274 1.6609413624 8.1769437790 2.0778183937 2.0778183937
 2049.8750000 5.0000000000 8.8750000000 0.0299999993 0.2924900055 2.3849999905 91.415000916 101.20537567 98.997909546 1.7079999447 8.1969995499 2.1870000362 2.1870000362
 2050.0000000 5.0000000000 8.9119997025 0.0299999993 0.2881299853 2.3900001049 92.073997498 101.54285431 99.259124756 1.7699999809 8.2040004730 2.2939999104 2.2939999104
 2050.1250000 5.0000000000 8.9530000687 0.0309999995 0.2872500122 2.3989999294 91.998001099 101.85551453 99.540054321 1.8480000496 8.1920003891 2.3929998875 2.3929998875
 2050.2497559 5.0000000000 8.9910001755 0.0349921882 0.2886100113 2.4100000858 91.560852051 102.10335541 99.806526184 1.9318360090 8.1740350723 2.4948005676 2.4948005676
 2050.3747559 5.0000000000 9.0209999084 0.0439824201 0.2878000140 2.4230000973 91.011077881 102.20240021 100.01881409 2.0098476410 8.1560354233 2.6007931232 2.6007931232
 2050.4997559 5.0000000000 9.0380001068 0.0559765659 0.2841099799 2.4360001087 90.692619324 102.39808655 100.15674591 2.0668885708 8.1410293579 2.7028007507 2.7028007507
 2050.6247559 5.0000000000 9.0430002213 0.0649824217 0.2803000212 2.4409999847 90.808769226 102.59352112 100.31262207 2.1009335518 8.1200408936 2.7918262482 2.7918262482
 2050.7497559 5.0000000000 9.0319995880 0.0640019551 0.2816099823 2.4289999008 91.741172791 102.78909302 100.54141998 2.1059901714 8.0920543671 2.8608653545 2.8608653545
 2050.8747559 5.0000000000 9.0080003738 0.0570136718 0.2888100147 2.4059998989 93.231086731 103.05397034 100.84523010 2.0910294056 8.0630559921 2.8999240398 2.8999240398
