# LAS format log file from PETREL
# Project units are specified as depth units
#==================================================================
~Version information
VERS.   2.0:
WRAP.   NO:
#==================================================================
~Well
STRT .m      1704.1855469 :
STOP .m      2348.0756836 :
STEP .m     0.00000000 :
NULL .        -999.250000 :
COMP.           : COMPANY
WELL.  31/5-6   : WELL
FLD.            : FIELD
LOC.            : LOCATION
SRVC.           : SERVICE COMPANY
DATE.  2018-09-11 14:48:40   : Log Export Date {yyyy-MM-dd HH:mm:ss}
PROV.           : PROVINCE
UWI.   31/5-6   : UNIQUE WELL ID
API.            : API NUMBER
#==================================================================
~Curve
DEPT .m                   : DEPTH
Lithology_geolink ._      : Lithology_geolink
CALI .in                  : CALI
BS .in                    : BS
ROP .m/h                  : ROP
DRHO .g/cm3               : DRHO
NPHI .m3/m3               : NPHI
RHOB .g/cm3               : RHOB
PEF .b/e                  : PEF
GR .gAPI                  : GR
RDEP .ohm.m               : RDEP
RMED .ohm.m               : RMED
~Parameter
#==================================================================
~Ascii
# ...
 2085.0332031 2.0000000000 8.3576002121 8.5000000000 8.9665355682 0.0229081605 0.2603999972 2.2095999718 3.6517000198 97.375999451 0.4677999914 0.4551999867
 2085.1855469 2.0000000000 8.3652000427 8.5000000000 10.623359680 0.0280000009 0.2556999922 2.2153999805 3.6189999580 98.087799072 0.4652000070 0.4451999962
 2085.3381348 2.0000000000 8.3921003342 8.5000000000 12.274278641 0.0260945521 0.2483000010 2.2119998932 3.5021998882 92.626998901 0.4596000016 0.4478000104
 2085.4904785 2.0000000000 8.3731002808 8.5000000000 17.132547379 0.0226886217 0.2287999988 2.2007999420 3.4688999653 90.253402710 0.4620000124 0.4625999928
 2085.6428223 2.0000000000 8.3576002121 8.5000000000 20.697177887 0.0156089598 0.2355999947 2.1849000454 3.5067000389 91.208801270 0.4584999979 0.4704999924
 2085.7951660 2.0000000000 8.3576002121 8.5000000000 20.697177887 0.0211999994 0.2466000021 2.1865999699 3.5467000008 94.291801453 0.4629000127 0.4625999928
 2085.9475098 2.0000000000 8.3576002121 8.5000000000 68.730972290 0.0254999995 0.2597000003 2.1984000206 3.5297000408 95.003601074 0.4603999853 0.4756000042
 2086.1000977 2.0000000000 8.3576002121 8.5000000000 77.620079041 0.0346791670 0.2437999994 2.2514998913 3.5504999161 95.711601257 0.4575999975 0.4684999883
 2086.2524414 2.0000000000 8.3766002655 8.5000000000 78.295280457 0.0216980800 0.2281000018 2.3108000755 3.8227000237 93.341796875 0.4230999947 0.4424999952
 2086.4047852 2.0000000000 8.3921003342 8.5000000000 67.958663940 0.0205000006 0.2201000005 2.3403000832 3.8682000637 89.303398132 0.5041999817 0.4945000112
 2086.5571289 2.0000000000 8.3885002136 8.5000000000 60.431102753 0.0272000004 0.2110999972 2.3357000351 3.6779999733 84.553199768 0.9484000206 0.8838000298
 2086.7097168 2.0000000000 8.3576002121 8.5000000000 60.028221130 0.0346083343 0.2134999931 2.2664000988 3.4418001175 86.214996338 0.7085999846 0.6862000227
 2086.8620605 2.0000000000 8.3576002121 8.5000000000 59.237861633 0.0397841334 0.2125000060 2.2525000572 3.4842000008 91.918998718 0.4230000079 0.4239999950
 2087.0144043 2.0000000000 8.3611001968 8.5000000000 60.026576996 0.0299129598 0.2310999930 2.2230000496 3.5824999809 95.957397461 0.4199999869 0.4347000122
 2087.1667480 2.0000000000 8.3611001968 8.5000000000 60.026576996 0.0379999988 0.2440000027 2.2430999279 3.6145999432 95.957397461 0.4384000003 0.4449999928
 2087.3193359 2.0000000000 8.3921003342 8.5000000000 59.040683746 0.0390043259 0.2551999986 2.2388000488 3.6291000843 94.291801453 0.4519000053 0.4550999999
 2087.4716797 2.0000000000 8.3921003342 8.5000000000 59.040683746 0.0416939110 0.2628999949 2.2335999012 3.7053999901 91.917900085 0.4363000095 0.4348999858
 2087.6240234 2.0000000000 8.3921003342 8.5000000000 59.040683746 0.0378959998 0.2563000023 2.2230000496 3.5985000134 89.542800903 0.4462000132 0.4458000064
 2087.7763672 2.0000000000 8.3921003342 8.5000000000 62.743438721 0.0353999995 0.2535000145 2.2093000412 3.5757000446 87.167701721 0.4451999962 0.4650999904
 2087.9287109 2.0000000000 8.3921003342 8.5000000000 109.79790497 0.0353000015 0.2590000033 2.2200999260 3.5236001015 86.216499329 0.4589999914 0.4648000002
 2088.0812988 2.0000000000 8.3921003342 8.5000000000 136.42027283 0.0387040041 0.2700999975 2.2430000305 3.7019000053 88.591598511 0.4706000090 0.4713000059
 2088.2336426 2.0000000000 8.3921003342 8.5000000000 119.25459290 0.0411876813 0.2628000081 2.2678999901 3.7604999542 89.304901123 0.5212000012 0.5363000035
 2088.3859863 2.0000000000 8.3921003342 8.5000000000 119.25459290 0.0335000008 0.2421000004 2.2479000092 3.6528000832 88.591598511 0.5084999800 0.5248000026
 2088.5383301 2.0000000000 8.3921003342 8.5000000000 115.43078613 0.0309999995 0.2219000012 2.2225999832 3.4856998920 86.216499329 0.5084999800 0.5248000026
 2088.6909180 2.0000000000 8.3902997971 8.5000000000 109.80840302 0.0272995178 0.2111999989 2.2039000988 3.3636000156 87.170303345 0.5141000152 0.5184000134
 2088.8432617 2.0000000000 8.3576002121 8.5000000000 120.86877441 0.0269977562 0.2062000036 2.1970000267 3.3694999218 89.545402527 0.5085999966 0.5225999951
 2088.9956055 2.0000000000 8.3611001968 8.5000000000 124.19815826 0.0256009586 0.2041999996 2.1926000118 3.3929998875 90.257202148 0.4749999940 0.4740999937
 2089.1479492 2.0000000000 8.3587999344 8.5000000000 124.19815826 0.0262000002 0.2196000069 2.1902000904 3.3968999386 90.254501343 0.4636000097 0.4508000016
 2089.3005371 2.0000000000 8.3684997559 8.5000000000 137.09744263 0.0289977547 0.2377000004 2.1965000629 3.3907001019 90.254501343 0.4731000066 0.4530999959
 2089.4528809 2.0000000000 8.3576002121 8.5000000000 137.09744263 0.0275963135 0.2565999925 2.1972000599 3.3915998936 92.631202698 0.4602000117 0.4415999949
 2089.6052246 2.0000000000 8.3576002121 8.5000000000 155.25624084 0.0252915192 0.2560999990 2.2072999477 3.4997000694 93.341796875 0.4623999894 0.4476999938
 2089.7575684 2.0000000000 8.3576002121 8.5000000000 180.09843445 0.0199999996 0.2513000071 2.2083001137 3.6342999935 93.341796875 0.4566999972 0.4508999884
 2089.9099121 2.0000000000 8.3576002121 8.5000000000 193.66241455 0.0207000002 0.2509000003 2.2170999050 3.7441000938 90.253402710 0.4869000018 0.4824000001
 2090.0625000 2.0000000000 8.3576002121 8.5000000000 193.66241455 0.0274001602 0.2515999973 2.2213997841 3.7274999619 87.878303528 0.4657999873 0.4670999944
 2090.2148438 2.0000000000 8.0409002304 8.5000000000 134.40682983 0.0275035203 0.2583000064 2.2149999142 3.6614000797 85.503196716 0.4251999855 0.4201999903
 2090.3671875 2.0000000000 8.0409002304 8.5000000000 129.56201172 0.0296999998 0.2633000016 2.2155001163 3.6352999210 85.503196716 0.5011000037 0.4925000072
 2090.5195313 2.0000000000 8.0409002304 8.5000000000 129.56201172 0.0223999992 0.2705999911 2.2083001137 3.6029000282 85.503196716 0.4806999862 0.4832000136
 2090.6721191 2.0000000000 8.0409002304 8.5000000000 129.56201172 0.0173767637 0.2651000023 2.2114999294 3.6668999195 87.170303345 0.4203000069 0.4259999990
 2090.8244629 2.0000000000 8.3902997971 8.5000000000 103.49015808 0.0028953524 0.2552999854 2.2181000710 3.8352999687 87.170303345 0.4480000138 0.4481999874
 2090.9768066 2.0000000000 8.3576002121 8.5000000000 84.541015625 0.0000190400 0.2476000041 2.2255001068 3.8722999096 87.170303345 0.4480000138 0.4481999874
 2091.1291504 2.0000000000 8.3587999344 8.5000000000 61.675197601 0.0119000003 0.2452999949 2.2342998981 3.7827000618 85.503196716 0.4855000079 0.4824000001
 2091.2817383 2.0000000000 8.3902997971 8.5000000000 61.675197601 0.0247086547 0.2440000027 2.2216999531 3.5499999523 85.503196716 0.4916000068 0.4864000082
 2091.4340820 2.0000000000 8.3576002121 8.5000000000 60.432743073 0.0300951917 0.2373999953 2.2225999832 3.5329000950 87.878303528 0.4679999948 0.4760000110
 2091.5864258 2.0000000000 8.3576002121 8.5000000000 55.926509857 0.0271135997 0.2418999970 2.2249999046 3.5169000626 89.543899536 0.4986999929 0.4993000031
 2091.7387695 2.0000000000 8.3576002121 8.5000000000 55.926509857 0.0355999991 0.2405000031 2.2486000061 3.4853999615 94.294097900 0.4939000010 0.4923000038
 2091.8911133 2.0000000000 8.3576002121 8.5000000000 57.901248932 0.0377999991 0.2247000039 2.2957003117 3.6335999966 92.632301331 0.5406000018 0.5439000130
 2092.0437012 2.0000000000 8.3576002121 8.5000000000 50.438976288 0.0388889425 0.2044000030 2.3289000988 3.7014000416 90.258697510 0.8198999763 0.7815999985
 2092.1960449 5.0000000000 8.3576002121 8.5000000000 34.963256836 0.0319923200 0.1884000003 2.3087999821 3.7722001076 87.883598328 1.1411999464 1.0770000219
 2092.3483887 5.0000000000 8.3611001968 8.5000000000 32.978347778 0.0272000004 0.1996999979 2.2430999279 3.6219999790 92.633796692 0.5274999738 0.5293999910
 2092.5007324 5.0000000000 8.3902997971 8.5000000000 34.038387299 0.0281000007 0.2179999948 2.2079999447 3.5573000908 95.716903687 0.4605999887 0.4706000090
 2092.6533203 5.0000000000 8.3576002121 8.5000000000 39.832675934 0.0283959936 0.2426999956 2.2132999897 3.4553999901 100.46710205 0.4472000003 0.4634000063
