# LAS format log file from PETREL
# Project units are specified as depth units
#==================================================================
~Version information
VERS.   2.0:
WRAP.   NO:
#==================================================================
~Well
STRT .m      382.62487793 :
STOP .m      2254.4997559 :
STEP .m     0.00000000 :
NULL .        -999.250000 :
COMP.           : COMPANY
WELL.  31/5-3   : WELL
FLD.            : FIELD
LOC.            : LOCATION
SRVC.           : SERVICE COMPANY
DATE.  2018-09-11 14:48:39   : Log Export Date {yyyy-MM-dd HH:mm:ss}
PROV.           : PROVINCE
UWI.   31/5-3   : UNIQUE WELL ID
API.            : API NUMBER
#==================================================================
~Curve
DEPT .m                   : DEPTH
Lithology_geolink ._      : Lithology_geolink
CALI .in                  : CALI
DRHO .g/cm3               : DRHO
NPHI .m3/m3               : NPHI
RHOB .g/cm3               : RHOB
GR .gAPI                  : GR
DTC .us/ft                : DTC
DTE .us/ft                : DTE
RDEP .ohm.m               : RDEP
SP .mV                    : SP
RSHA .ohm.m               : RSHA
RMED .ohm.m               : RMED
~Parameter
#==================================================================
~Ascii
# ...
 1498.6248779 6.0000000000 17.367000580 0.2069921941  -999.250000  -999.250000 86.083480835 146.48075867 141.90806580 0.9830068350 59.193561554  -999.250000 0.8840117455
 1498.7498779 6.0000000000 17.378000259 0.2089980543  -999.250000  -999.250000 85.461212158 146.18756104 141.54130554 0.9760068655 59.163059235  -999.250000 0.8690146804
 1498.8748779 6.0000000000 17.378999710 0.2040048838  -999.250000  -999.250000 84.932029724 145.51165771 140.91792297 0.9710049033 58.858596802  -999.250000 0.8550136685
 1498.9998779 6.0000000000 17.371999741 0.1920117140  -999.250000  -999.250000 84.702453613 144.63131714 140.05781555 0.9660049081 58.308074951  -999.250000 0.8450098038
 1499.1247559 6.0000000000 17.364999771 0.1760312468  -999.250000  -999.250000 84.710960388 143.66914368 139.01756287 0.9630058408 57.642601013  -999.250000 0.8420058489
 1499.2497559 6.0000000000 17.357000351 0.1580351591  -999.250000  -999.250000 84.568557739 142.39709473 137.84849548 0.9639980197 57.079200745  -999.250000 0.8479882479
 1499.3747559 6.0000000000 17.347000122 0.1410497576  -999.250000  -999.250000 83.254150391 140.83480835 136.20516968 0.9689853191 56.856861115  -999.250000 0.8589678407
 1499.4997559 6.0000000000 17.329000473 0.1280127317  -999.250000  -999.250000 80.793228149 138.28564453 133.72041321 0.9789706469 56.792186737  -999.250000 0.8699677587
 1499.6247559 6.0000000000 17.302999496 0.1220117062  -999.250000  -999.250000 77.723991394 134.90698242 130.30487061 0.9969648123 56.751117706  -999.250000 0.8769862652
 1499.7498779 6.0000000000 17.275999069 0.1220000014  -999.250000  -999.250000 74.761779785 130.79338074 126.11771393 1.0219755173 56.661174774  -999.250000 0.8809960485
 1499.8748779 16.000000000 17.256999969 0.1259960979  -999.250000  -999.250000 72.734954834 126.22307587 121.63185883 1.0529696941 56.487339020  -999.250000 0.8839970827
 1499.9998779 16.000000000 17.247999191 0.1369892508  -999.250000  -999.250000 72.692077637 122.60553741 118.10639954 1.0879658461 56.224514008  -999.250000 0.8919922113
 1500.1248779 16.000000000 17.249000549 0.1539833993  -999.250000  -999.250000 74.389678955 121.51582336 116.90013123 1.1139745712 55.901630402  -999.250000 0.9129794836
 1500.2497559 6.0000000000 17.246000290 0.1779531240  -999.250000  -999.250000 76.997344971 122.40856934 117.82561493 1.1279727221 55.566982269  -999.250000 0.9449374676
 1500.3747559 6.0000000000 17.228000641 0.1979609430  -999.250000  -999.250000 79.855827332 125.33124542 120.77337646 1.1289980412 55.295059204  -999.250000 0.9829257727
 1500.4997559 6.0000000000 17.190999985 0.2049795091  -999.250000  -999.250000 82.384124756 130.13816833 125.54750824 1.1190292835 55.128646851  -999.250000 1.0129121542
 1500.6247559 6.0000000000 17.145000458 0.1980068535  -999.250000  -999.250000 84.154098511 136.34555054 131.87126160 1.1020498276 55.076202393  -999.250000 1.0110058784
 1500.7497559 6.0000000000 17.096000671 0.1800351292  -999.250000  -999.250000 85.113197327 143.56970215 138.99351501 1.0800430775 55.071014404  -999.250000 0.9750704169
 1500.8747559 6.0000000000 17.049999237 0.1610371023  -999.250000  -999.250000 85.931602478 148.92872620 144.33795166 1.0530526638 55.036102295  -999.250000 0.9280917645
 1500.9998779 6.0000000000 17.010000229 0.1510097533  -999.250000  -999.250000 87.006904602 151.54469299 146.92988586 1.0220302343 54.981105804  -999.250000 0.8840429783
 1501.1248779 6.0000000000 16.972999573 0.1519990116  -999.250000  -999.250000 88.510063171 151.95393372 147.31172180 0.9850361347 54.918121338  -999.250000 0.8540292978
 1501.2498779 6.0000000000 16.929000854 0.1559960991  -999.250000  -999.250000 90.468170166 151.25387573 146.62753296 0.9450390339 54.858119965  -999.250000 0.8390146494
 1501.3748779 6.0000000000 16.870000839 0.1579980552  -999.250000  -999.250000 92.774490356 149.88502502 145.33462524 0.9090351462 54.796123505  -999.250000 0.8330058455
 1501.4997559 6.0000000000 16.794000626 0.1550058573  -999.250000  -999.250000 94.862838745 148.60694885 143.94088745 0.8800566196 54.743206024  -999.250000 0.8280097842
 1501.6247559 6.0000000000 16.690000534 0.1460175812  -999.250000  -999.250000 96.399009705 147.40458679 142.81239319 0.8570449352 54.764911652  -999.250000 0.8240078092
 1501.7497559 6.0000000000 16.538000107 0.1350322068  -999.250000  -999.250000 97.198890686 146.61083984 142.03497314 0.8390526772 54.854648590  -999.250000 0.8220058680
 1501.8747559 6.0000000000 16.333999634 0.1280136853  -999.250000  -999.250000 97.195022583 146.27166748 141.61903381 0.8230313063 54.960689545  -999.250000 0.8210019469
 1501.9997559 6.0000000000 16.079000473 0.1270019561  -999.250000  -999.250000 96.431243896 146.09439087 141.52180481 0.8080293536 55.011852264  -999.250000 0.8229960799
 1502.1248779 6.0000000000 15.770999908 0.1329941452  -999.250000  -999.250000 94.894996643 146.28863525 141.68818665 0.7970107198 54.937145233  -999.250000 0.8249980211
 1502.2498779 6.0000000000 15.415999413 0.1459873021  -999.250000  -999.250000 93.191329956 146.64848328 142.05300903 0.7920048833 54.751361847  -999.250000 0.8249999881
 1502.3748779 6.0000000000 15.026000023 0.1619843692  -999.250000  -999.250000 74.852882385 147.21850586 142.63775635 0.7939980626 54.551387787  -999.250000 0.8230019808
 1502.4998779 6.0000000000 14.621000290 0.1709912121  -999.250000  -999.250000 56.504837036 148.05499268 143.44171143 0.8029912114 54.353385925  -999.250000 0.8190039396
 1502.6247559 5.0000000000 14.227000237 0.1739941388  -999.250000  -999.250000 53.320335388 149.09707642 144.40867615 0.8209648132 54.143821716  -999.250000 0.8150078058
 1502.7497559 5.0000000000 13.859999657 0.1710058600  -999.250000  -999.250000 54.072006226 149.97856140 145.38139343 0.8469492197 53.884014130  -999.250000 0.8159980178
 1502.8747559 5.0000000000 13.534000397 0.1650175601  -999.250000  -999.250000 54.283184052 150.48620605 145.89451599 0.8769121766 53.619033813  -999.250000 0.8229795098
 1502.9997559 5.0000000000 13.256999969 0.1600048840  -999.250000  -999.250000 54.278022766 150.47367859 145.90048218 0.9099033475 53.474559784  -999.250000 0.8369590044
 1503.1247559 5.0000000000 13.024999619 0.1580039114  -999.250000  -999.250000 54.380699158 150.02720642 145.43768311 0.9459295869 53.487957001  -999.250000 0.8579589128
 1503.2498779 5.0000000000 12.825999260 0.1609970629  -999.250000  -999.250000 54.653465271 149.25526428 144.63630676 0.9829638600 53.633712769  -999.250000 0.8849736452
 1503.3748779 5.0000000000 12.654000282 0.1659951061  -999.250000  -999.250000 54.902515411 148.31431580 143.72489929 1.0149687529 53.854568481  -999.250000 0.9119736552
 1503.4998779 5.0000000000 12.506999969 0.1709951162  -999.250000  -999.250000 54.550689697 147.82504272 143.22216797 1.0309844017 54.089542389  -999.250000 0.9309814572
 1503.6248779 5.0000000000 12.378999710 0.1719990224  -999.250000  -999.250000 53.539974213 147.92227173 143.29338074 1.0280029774 54.322547913  -999.250000 0.9379931688
 1503.7497559 5.0000000000 12.260001183 0.1650136858  -999.250000  -999.250000 52.414302826 148.24227905 143.68695068 1.0090370178 54.553325653  -999.250000 0.9350058436
 1503.8747559 5.0000000000 12.137998581 0.1570156366  -999.250000  -999.250000 51.520488739 148.71524048 144.18605042 0.9800566435 54.779117584  -999.250000 0.9250195622
 1503.9997559 5.0000000000 12.001999855 0.1540087759  -999.250000  -999.250000 51.078720093 149.18620300 144.57334900 0.9480936527 55.000137329  -999.250000 0.9130350947
 1504.1247559 5.0000000000 11.848999977 0.1579960883  -999.250000  -999.250000 51.144733429 149.18620300 144.64407349 0.9230732322 55.226119995  -999.250000 0.9040263295
 1504.2497559 5.0000000000 11.678000450 0.1659843773  -999.250000  -999.250000 51.688400269 148.99453735 144.35630798 0.9040371180 55.506179810  -999.250000 0.9000077844
 1504.3747559 5.0000000000 11.479000092 0.1719882935  -999.250000  -999.250000 52.287246704 148.50158691 143.88871765 0.8900273442 55.829055786  -999.250000 0.8980039358
 1504.4998779 5.0000000000 11.236000061 0.1670048833  -999.250000  -999.250000 52.671253204 147.86183167 143.26681519 0.8780117631 56.177322388  -999.250000 0.8989990354
