# LAS format log file from PETREL
# Project units are specified as depth units
#==================================================================
~Version information
VERS.   2.0:
WRAP.   NO:
#==================================================================
~Well
STRT .m      815.00012207 :
STOP .m      2497.5000000 :
STEP .m     0.00000000 :
NULL .        -999.250000 :
COMP.           : COMPANY
WELL.  31/5-2R   : WELL
FLD.            : FIELD
LOC.            : LOCATION
SRVC.           : SERVICE COMPANY
DATE.  2018-09-11 14:48:39   : Log Export Date {yyyy-MM-dd HH:mm:ss}
PROV.           : PROVINCE
UWI.   31/5-2 R   : UNIQUE WELL ID
API.            : API NUMBER
#==================================================================
~Curve
DEPT .m                   : DEPTH
Lithology_geolink ._      : Lithology_geolink
CALI .in                  : CALI
DRHO .g/cm3               : DRHO
NPHI .m3/m3               : NPHI
RHOB .g/cm3               : RHOB
GR .gAPI                  : GR
DTC .us/ft                : DTC
DTE .us/ft                : DTE
RDEP .ohm.m               : RDEP
SP .mV                    : SP
RSHA .ohm.m               : RSHA
RMED .ohm.m               : RMED
~Parameter
#==================================================================
~Ascii
# ...
 827.00012207  -999.250000 18.274999619 -1.763021469  -999.250000 1.3830000162  -999.250000 162.36000061 161.65798950  -999.250000  -999.250000  -999.250000  -999.250000
 827.12512207  -999.250000 18.267000198 -1.774042964  -999.250000 1.3710000515  -999.250000 162.35789490 161.65798950  -999.250000  -999.250000  -999.250000  -999.250000
 827.25012207  -999.250000 18.263000488 -1.796038151  -999.250000 1.3459999561  -999.250000 162.37321472 161.65798950  -999.250000  -999.250000  -999.250000  -999.250000
 827.37518311  -999.250000 18.260000229 -1.822039127  -999.250000 1.3150000572  -999.250000 162.41287231 161.65798950  -999.250000  -999.250000  -999.250000  -999.250000
 827.50012207  -999.250000 18.256999969 -1.837998152  -999.250000 1.2920000553  -999.250000 162.36399841 161.65798950  -999.250000  -999.250000  -999.250000  -999.250000
 827.62512207  -999.250000 18.252000809 -1.836972713  -999.250000 1.2869999409  -999.250000 162.35789490 161.65798950  -999.250000 13.015000343  -999.250000  -999.250000
 827.75012207  -999.250000 18.245000839 -1.822966695  -999.250000 1.2999999523 58.779998779 162.38996887 161.65798950  -999.250000 13.015000343  -999.250000  -999.250000
 827.87512207  -999.250000 18.238000870 -1.805975556  -999.250000 1.3170000315 58.779998779 162.39613342 161.65798950 11.505000114 13.015000343 0.1350000054 0.1350000054
 828.00006104  -999.250000 18.232999802 -1.795992732  -999.250000 1.3279999495 58.779998779 162.35789490 161.65798950 11.505000114 13.015000343 0.1350000054 0.1350000054
 828.12512207  -999.250000 18.229000092 -1.790982485  -999.250000 1.3350000381 58.779998779 162.35789490 161.65798950 11.505000114 13.015000343 0.1350000054 0.1350000054
 828.25012207  -999.250000 18.225999832 -1.781955004  -999.250000 1.3539999723 58.779998779 162.35789490 161.65798950 11.505000114 13.015000343 0.1350000054 0.1350000054
 828.37512207  -999.250000 18.219999313 -1.758949161  -999.250000 1.3910000324 58.779998779 162.39599609 161.65798950 11.505000114 13.015000343 0.1350000054 0.1350000054
 828.50012207  -999.250000 18.212999344 -1.732970715  -999.250000 1.4290000200 58.779998779 162.39012146 161.65798950 11.505000114 13.015000343 0.1350000054 0.1350000054
 828.62506104  -999.250000 18.204999924 -1.717992783  -999.250000 1.4500000477 58.779998779 162.35789490 161.65798950 11.505000114 13.015000343 0.1350000054 0.1350000054
 828.75012207  -999.250000 18.197999954 -1.712988377  -999.250000 1.4539999962 58.779998779 162.35844421 161.65798950 11.505000114 13.015000343 0.1350000054 0.1350000054
 828.87512207  -999.250000 18.193000793 -1.706957102  -999.250000 1.4589999914 58.779998779 162.36296082 161.65798950 11.505000114 13.015000343 0.1350000054 0.1350000054
 829.00012207  -999.250000 18.187000275 -1.684944272  -999.250000 1.4830000401 58.779998779 162.40344238 161.65798950 11.505000114 13.015000343 0.1350000054 0.1350000054
 829.12512207  -999.250000 18.177999496 -1.646919847  -999.250000 1.5240000486 58.779998779 162.38410950 161.65798950 11.505000114 13.015000343 0.1350000054 0.1350000054
 829.25012207  -999.250000 18.163000107 -1.605937481  -999.250000 1.5609999895 58.779998779 162.35789490 161.65798950 11.505000114 13.015000343 0.1350000054 0.1350000054
 829.37512207  -999.250000 18.142999649 -1.573937535  -999.250000 1.5820000172 58.779998779 162.35789490 161.65798950 11.505000114 13.015000343 0.1350000054 0.1350000054
 829.50012207  -999.250000 18.121999741 -1.541884780  -999.250000 1.5989999771 58.779998779 162.35913086 161.65798950 11.505000114 13.015000343 0.1350000054 0.1350000054
 829.62512207  -999.250000 18.097999573 -1.482721806  -999.250000 1.6419999599 58.779998779 162.40802002 161.65798950 11.505000114 13.015000343 0.1350000054 0.1350000054
 829.75006104  -999.250000 18.069999695 -1.368699670  -999.250000 1.7330000401 58.779998779 162.37809753 161.65798950 11.505000114 13.015000343 0.1350000054 0.1350000054
 829.87512207  -999.250000 18.028999329 -1.163464904  -999.250000 1.8999999762 58.779998779 162.35789490 161.65798950 11.505000114 13.015000343 0.1350000054 0.1350000054
 830.00012207  -999.250000 17.966999054 -0.889421880  -999.250000 2.1199998856 58.779998779 162.37588501 161.65798950 11.505000114 13.015000343 0.1350000054 0.1350000054
 830.12512207  -999.250000 17.885999680 -0.593521476  -999.250000 2.3429999352 58.778663635 162.41021729 161.65798950 11.504927635 13.014994621 0.1350000054 0.1350000054
 830.25012207  -999.250000 17.791000366 -0.348660171  -999.250000 2.5009999275 58.607559204 162.36132813 161.65798950 11.467851639 13.011988640 0.1350000054 0.1350000054
 830.37506104  -999.250000 17.701999664 -0.174869627  -999.250000 2.5889999866 58.306777954 162.35789490 161.65798950 11.391931534 13.003991127 0.1349985451 0.1349985451
 830.50012207  -999.250000 17.628999710 -0.085935548  -999.250000 2.6050000191 58.078678131 162.36109924 161.65798950 11.344976425 12.994991302 0.1340000033 0.1340000033
 830.62512207  -999.250000 17.589000702 -0.052990239  -999.250000 2.5880000591 57.858871460 162.38519287 161.65798950 11.332957268 12.988999367 0.1340019554 0.1340019554
 830.75012207  -999.250000 17.569999695 -0.048010260  -999.250000 2.5659999847 57.725093842 162.40542603 161.65798950 11.310910225 12.988008499 0.1350000054 0.1350000054
 830.87512207  -999.250000 17.565000534 -0.055015624  -999.250000 2.5550000668 57.790504456 162.36315918 161.65798950 11.249808311 12.994011879 0.1350000054 0.1350000054
 831.00012207  -999.250000 17.562999725 -0.063019529  -999.250000 2.5510001183 58.135776520 162.35864258 161.65798950 11.151810646 13.002010345 0.1350000054 0.1350000054
 831.12512207  -999.250000 17.561000824 -0.073013671  -999.250000 2.5529999733 58.665561676 162.35789490 161.65798950 11.054890633 13.009010315 0.1350000054 0.1350000054
 831.25012207  -999.250000 17.559000015 -0.079999998  -999.250000 2.5639998913 59.046791077 162.38792419 161.65798950 10.998964310 13.016014099 0.1349980533 0.1349980533
 831.37512207  -999.250000 17.558000565 -0.079987794  -999.250000 2.5850000381 58.832885742 162.39817810 161.65798950 10.980960846 13.031043053 0.1340000033 0.1340000033
 831.50006104  -999.250000 17.559999466 -0.074994147  -999.250000 2.6099998951 58.073150635 162.35789490 161.65798950 10.964920044 13.060034752 0.1339985430 0.1339985430
 831.62512207  -999.250000 17.563999176 -0.071000002  -999.250000 2.6199998856 57.200244904 162.35789490 161.65798950 10.909832001 13.095036507 0.1329980493 0.1329980493
 831.75012207  -999.250000 17.566999435 -0.070998050  -999.250000 2.6129999161 56.686153412 162.35789490 161.65798950 10.823847771 13.120005608 0.1319999993 0.1319999993
 831.87512207  -999.250000 17.569999695 -0.069986321  -999.250000 2.5980000496 56.792171478 162.39395142 161.65798950 10.745955467 13.123968124 0.1319999993 0.1319999993
 832.00012207  -999.250000 17.572000504 -0.062965840  -999.250000 2.5910000801 57.390895844 162.39215088 161.65798950 10.723116875 13.107966423 0.1320024431 0.1320024431
 832.12506104  -999.250000 17.572999954 -0.048975095  -999.250000 2.5920000076 58.001159668 162.35789490 161.65798950 10.771152496 13.084981918 0.1330029368 0.1330029368
 832.25012207  -999.250000 17.570999146 -0.031970706  -999.250000 2.5940001011 58.163688660 162.36181641 161.65798950 10.875251770 13.065982819 0.1350019574 0.1350019574
 832.37512207  -999.250000 17.568000793 -0.016980479  -999.250000 2.5929999352 57.949863434 162.41069031 161.65798950 11.004247665 13.053986549 0.1360000074 0.1360000074
 832.50012207  -999.250000 17.565999985 -0.006992673  -999.250000 2.5910000801 57.857494354 162.37541199 161.65798950 11.131162643 13.044988632 0.1359985471 0.1359985471
 832.62512207  -999.250000 17.568000793 -0.001998047  -999.250000 2.5940001011 58.197174072 162.36079407 161.65798950 11.242152214 13.036991119 0.1350000054 0.1350000054
 832.75006104  -999.250000 17.572999954 -0.001001465  -999.250000 2.6029999256 58.997833252 162.36149597 161.65798950 11.320057869 13.031001091 0.1349985451 0.1349985451
 832.87512207  -999.250000 17.579999924 -0.002001953  -999.250000 2.6140000820 59.847763062 162.36782837 161.65798950 11.360038757 13.032015800 0.1340000033 0.1340000033
