# LAS format log file from PETREL
# Project units are specified as depth units
#==================================================================
~Version information
VERS.   2.0:
WRAP.   NO:
#==================================================================
~Well
STRT .m      164.79321289 :
STOP .m      1907.4873047 :
STEP .m     0.00000000 :
NULL .        -999.250000 :
COMP.           : COMPANY
WELL.  31/5-4 S   : WELL
FLD.            : FIELD
LOC.            : LOCATION
SRVC.           : SERVICE COMPANY
DATE.  2018-09-11 14:48:39   : Log Export Date {yyyy-MM-dd HH:mm:ss}
PROV.           : PROVINCE
UWI.   31/5-4 S   : UNIQUE WELL ID
API.            : API NUMBER
#==================================================================
~Curve
DEPT .m                   : DEPTH
Lithology_geolink ._      : Lithology_geolink
CALI .in                  : CALI
DRHO .g/cm3               : DRHO
NPHI .m3/m3               : NPHI
RHOB .g/cm3               : RHOB
GR .gAPI                  : GR
DTC .us/ft                : DTC
RDEP .ohm.m               : RDEP
SP .mV                    : SP
RSHA .ohm.m               : RSHA
RMED .ohm.m               : RMED
~Parameter
#==================================================================
~Ascii
# ...
 1633.6483154 6.0000000000 8.4218750000 -0.027339071 0.2458107919 1.9897155762 96.750000000 144.68681335 28.391231537 82.151924133 1.2041015625 12.293487549
 1633.8007813 6.0000000000 8.4218750000 -0.024991667 0.2384412587 2.0035085678 97.937500000 145.70590210 25.201446533 81.664260864 1.0703125000 11.801826477
 1633.9531250 6.0000000000 8.4218750000 -0.022172298 0.2335421741 2.0284771919 102.37500000 145.31227112 28.933155060 82.051544189 0.8676757813 11.822513580
 1634.1055908 6.0000000000 8.4218750000 -0.019129807 0.2342860550 2.0338163376 102.87500000 144.93139648 25.543170929 82.803688049 0.9389648438 11.856973648
 1634.2579346 6.0000000000 8.4140625000 -0.020727243 0.2399980277 2.0420675278 102.25000000 144.80856323 23.792613983 81.553688049 1.1855468750 11.831790924
 1634.4104004 6.0000000000 8.3906250000 -0.019516092 0.2489629090 2.0584363937 105.81250000 145.38053894 23.595703125 80.559150696 1.0947265625 11.893209457
 1634.5627441 7.0000000000 8.4218750000 -0.017795833 0.2567932010 2.0849204063 109.25000000 146.08267212 20.460449219 80.894630432 1.1269531250 11.893400192
 1634.7152100 7.0000000000 8.4218750000 -0.016558046 0.2589068115 2.1069579124 108.31250000 146.90226746 19.700416565 81.000000000 1.0576171875 11.389024734
 1634.8675537 7.0000000000 8.4218750000 -0.016114103 0.2611607313 2.1162590981 104.43750000 148.19255066 14.979888916 81.058891296 0.9624023438 10.465099335
 1635.0200195 6.0000000000 8.4218750000 -0.018005043 0.2568505406 2.1305909157 105.50000000 149.24577332 16.454471588 81.355285645 0.9570312500 9.9924392700
 1635.1722412 6.0000000000 8.4218750000 -0.019084373 0.2546596229 2.1505484581 106.43750000 148.90936279 16.049839020 81.113281250 1.0527343750 9.8121967316
 1635.3245850 6.0000000000 8.4218750000 -0.019421536 0.2282423526 2.1547288895 99.687500000 148.31593323 15.511377335 80.238388062 1.1806640625 9.6649284363
 1635.4770508 6.0000000000 8.4218750000 -0.023028126 0.1881380528 2.1216692924 96.187500000 147.48239136 16.991458893 79.480468750 1.2666015625 9.8715133667
 1635.6293945 5.0000000000 8.4218750000 -0.031261649 0.1421751529 2.0434136391 89.000000000 146.56610107 17.743721008 79.550643921 1.4970703125 10.965913773
 1635.7818604 5.0000000000 8.4218750000 -0.038437501 0.1089125574 1.9584195614 82.812500000 145.38746643 23.291534424 80.734375000 3.1640625000 13.421264648
 1635.9342041 5.0000000000 8.4218750000 -0.046699598 0.0911541581 1.9002285004 74.437500000 143.30439758 40.440719604 82.058547974 4.6445312500 22.596961975
 1636.0866699 5.0000000000 8.4218750000 -0.049400002 0.0874079019 1.8792386055 73.250000000 139.68087769 62.708503723 82.238281250 5.4140625000 32.256103516
 1636.2390137 5.0000000000 8.4218750000 -0.049118750 0.0859562531 1.8832039833 77.375000000 135.42973328 62.243331909 81.460937500 5.1367187500 30.905727386
 1636.3914795 5.0000000000 8.4218750000 -0.047364611 0.0962572917 1.9025449753 78.125000000 132.98005676 60.582145691 81.289230347 4.1718750000 29.479183197
 1636.5438232 5.0000000000 8.4296875000 -0.044787500 0.1156274676 1.9401047230 79.437500000 132.01368713 48.928375244 81.519531250 2.6113281250 21.681976318
 1636.6961670 5.0000000000 8.4375000000 -0.037200402 0.1449955404 1.9657440186 80.500000000 133.36883545 36.842140198 81.566452026 1.3271484375 15.237710953
 1636.8485107 5.0000000000 8.4218750000 -0.033474039 0.1535978466 1.9741141796 85.750000000 136.47003174 28.586311340 81.308296204 1.0097656250 12.607374191
 1637.0008545 6.0000000000 8.4062500000 -0.027698077 0.1474690586 1.9748787880 92.125000000 140.14427185 29.816619873 81.663833618 1.7861328125 12.393135071
 1637.1533203 6.0000000000 8.4062500000 -0.026988622 0.1392475218 1.9729912281 100.56250000 142.59466553 25.435333252 81.933296204 1.6044921875 13.086107254
 1637.3056641 6.0000000000 8.4062500000 -0.028867014 0.1448722184 1.9768908024 101.00000000 143.39712524 33.739616394 82.250000000 1.2031250000 14.621582031
 1637.4581299 6.0000000000 8.4140625000 -0.027584454 0.1561546773 1.9635519981 105.50000000 142.68730164 37.212890625 82.288864136 1.1142578125 16.216094971
 1637.6104736 6.0000000000 8.3906250000 -0.027515532 0.1599135548 1.9457328320 102.25000000 142.57283020 38.715278625 82.267013550 1.1152343750 16.976539612
 1637.7629395 6.0000000000 8.3906250000 -0.026947115 0.1688763201 1.9417471886 104.37500000 143.32164001 39.469749451 80.922279358 1.6552734375 16.761508942
 1637.9152832 6.0000000000 8.4140625000 -0.022825299 0.1899388283 1.9692602158 101.25000000 145.25057983 31.716888428 80.480583191 1.7324218750 14.642263412
 1638.0676270 6.0000000000 8.4218750000 -0.019050481 0.2316350341 2.0221934319 102.87500000 146.62220764 23.025512695 80.413658142 1.5146484375 11.516836166
 1638.2200928 6.0000000000 8.4218750000 -0.014692314 0.2549919784 2.0802183151 106.56250000 147.23365784 22.064643860 80.605583191 1.1425781250 10.079904556
 1638.3724365 6.0000000000 8.4218750000 -0.010609295 0.2848290503 2.1027994156 105.81250000 146.84103394 19.003147125 80.654647827 0.9877929688 9.4744529724
 1638.5247803 7.0000000000 8.4218750000 -0.012964983 0.2828363776 2.1041469574 108.75000000 146.33294678 18.262268066 81.384017944 1.0361328125 8.9151020050
 1638.6771240 7.0000000000 8.4218750000 -0.016600000 0.2938147187 2.1073622704 104.43750000 145.96331787 16.788955688 80.460266113 0.9501953125 8.8663043976
 1638.8295898 7.0000000000 8.4218750000 -0.017558813 0.2931807935 2.1153697968 106.75000000 145.99423218 16.283290863 78.778343201 0.9760742188 10.017810822
 1638.9819336 6.0000000000 8.4218750000 -0.023047239 0.3028500974 2.1298165321 99.687500000 145.60958862 20.905071259 78.346580505 0.9965820313 10.683135986
 1639.1342773 6.0000000000 8.4218750000 -0.024138462 0.3020527065 2.1362833977 103.75000000 143.70321655 21.818588257 78.913459778 0.9824218750 10.929363251
 1639.2867432 6.0000000000 8.4218750000 -0.022669096 0.3033823669 2.1286768913 103.37500000 141.63652039 21.165630341 79.221580505 0.9970703125 11.376316071
 1639.4390869 6.0000000000 8.4218750000 -0.022638462 0.2902613878 2.1169004440 106.87500000 139.60025024 21.006450653 79.903846741 1.1113281250 11.315505981
 1639.5915527 6.0000000000 8.4218750000 -0.022735547 0.2882381082 2.1183552742 105.12500000 138.12829590 20.609348297 80.750000000 1.0996093750 10.858257294
 1639.7438965 6.0000000000 8.4218750000 -0.018961538 0.2541881502 2.1293683052 98.562500000 137.15261841 16.897785187 80.634613037 0.9824218750 10.695974350
 1639.8963623 5.0000000000 8.4218750000 -0.017782787 0.2070085704 2.1451845169 91.562500000 136.81440735 20.652332306 79.980682373 1.0283203125 11.255039215
 1640.0487061 5.0000000000 8.4218750000 -0.015576923 0.1447455436 2.1579012871 82.750000000 136.48146057 31.122379303 79.971153259 1.4873046875 14.270444870
 1640.2009277 2.0000000000 8.4218750000 -0.016305845 0.1014140621 2.1420664787 75.625000000 135.94087219 33.025382996 80.576461792 3.2968750000 17.035217285
 1640.3533936 2.0000000000 8.4218750000 -0.018964183 0.0775004253 2.1104741096 68.250000000 135.03030396 36.283401489 80.942611694 5.3750000000 18.425102234
 1640.5057373 2.0000000000 8.4218750000 -0.025417227 0.0600059368 2.0593290329 61.812500000 135.09622192 38.651962280 80.720649719 11.046875000 23.495662689
 1640.6582031 2.0000000000 8.4218750000 -0.033060368 0.0490956940 2.0220856667 57.750000000 136.29693604 52.495040894 81.250000000 9.1875000000 29.480228424
 1640.8105469 2.0000000000 8.4218750000 -0.041023478 0.0597715825 2.0061903000 60.468750000 137.09922791 59.359947205 80.924781799 6.8789062500 34.447601318
 1640.9630127 2.0000000000 8.4218750000 -0.040061969 0.0978343189 2.0260696411 61.562500000 137.48541260 63.676376343 79.028923035 6.2343750000 35.941329956
 1641.1153564 2.0000000000 8.4218750000 -0.035982773 0.1717616767 2.0706081390 70.437500000 136.98596191 50.042510986 78.595649719 3.0468750000 25.062671661
 1641.2678223 2.0000000000 8.4218750000 -0.028370377 0.2525412142 2.1331853867 77.625000000 135.34703064 26.214611053 79.394012451 1.5576171875 13.897151947
