# LAS format log file from PETREL
# Project units are specified as depth units
#==================================================================
~Version information
VERS.   2.0:
WRAP.   NO:
#==================================================================
~Well
STRT .m      1704.1855469 :
STOP .m      2348.0756836 :
STEP .m     0.00000000 :
NULL .        -999.250000 :
COMP.           : COMPANY
WELL.  31/5-6   : WELL
FLD.            : FIELD
LOC.            : LOCATION
SRVC.           : SERVICE COMPANY
DATE.  2018-09-11 14:48:40   : Log Export Date {yyyy-MM-dd HH:mm:ss}
PROV.           : PROVINCE
UWI.   31/5-6   : UNIQUE WELL ID
API.            : API NUMBER
#==================================================================
~Curve
DEPT .m                   : DEPTH
Lithology_geolink ._      : Lithology_geolink
CALI .in                  : CALI
BS .in                    : BS
ROP .m/h                  : ROP
DRHO .g/cm3               : DRHO
NPHI .m3/m3               : NPHI
RHOB .g/cm3               : RHOB
PEF .b/e                  : PEF
GR .gAPI                  : GR
RDEP .ohm.m               : RDEP
RMED .ohm.m               : RMED
~Parameter
#==================================================================
~Ascii
# ...
 1875.1784668 5.0000000000 8.3921003342 8.5000000000 191.54495239 0.0348001607 0.3494000137 2.2943000793 4.3516998291 152.00489807 1.2927000523 1.2491999865
 1875.3308105 5.0000000000 8.3617000580 8.5000000000 185.61943054 0.0349927954 0.3343000114 2.2983999252 4.3945999146 144.87959290 1.3827999830 1.3415999413
 1875.4832764 5.0000000000 8.3668003082 8.5000000000 183.70997620 0.0259920675 0.3145000041 2.2960000038 4.3720002174 139.17930603 1.4606000185 1.4079999924
 1875.6356201 5.0000000000 8.3684997559 8.5000000000 183.71752930 0.0161016025 0.2897000015 2.2945001125 4.1908001900 137.75540161 1.4900000095 1.4615000486
 1875.7880859 5.0000000000 8.4231004715 8.5000000000 157.90551758 0.0181073677 0.2680999935 2.3162999153 4.2196002007 137.75540161 1.8005000353 1.6953999996
 1875.9404297 5.0000000000 8.3592996597 8.5000000000 132.36810303 0.0227021631 0.2552999854 2.3712999821 4.3976998329 133.72000122 2.2488000393 2.0713999271
 1876.0928955 16.000000000 8.3921003342 8.5000000000 100.02395630 0.0254064053 0.2381000072 2.4454998970 4.6704001427 125.64350128 3.8828001022 3.5360999107
 1876.2452393 16.000000000 8.3886003494 8.5000000000 100.02395630 0.0294061694 0.2373999953 2.4972999096 4.6641998291 120.89330292 4.5383000374 4.1740999222
 1876.3977051 5.0000000000 8.3576002121 8.5000000000 92.807739258 0.0371086448 0.2337000072 2.4827001095 4.4071998596 123.50520325 3.4674000740 3.3940999508
 1876.5500488 5.0000000000 8.3576002121 8.5000000000 92.807739258 0.0424973555 0.2592000067 2.4156000614 4.2411999702 134.90800476 1.8545000553 1.8997999430
 1876.7023926 5.0000000000 8.3471002579 8.5000000000 90.020996094 0.0391915143 0.2926999927 2.3550000191 4.2077999115 145.12010193 1.4164999723 1.4478000402
 1876.8548584 5.0000000000 8.2541999817 8.5000000000 90.020996094 0.0285971146 0.3296000063 2.3138999939 4.3125000000 147.25849915 1.4562000036 1.4521000385
 1877.0072021 5.0000000000 8.2732000351 8.5000000000 89.136482239 0.0249967184 0.3291999996 2.3097000122 4.2987999916 146.30729675 1.4318000078 1.3760000467
 1877.1596680 5.0000000000 8.2887001038 8.5000000000 88.697181702 0.0209001601 0.3361999989 2.3085000515 4.2090997696 145.59550476 1.4036999941 1.3056999445
 1877.3120117 6.0000000000 8.3076000214 8.5000000000 90.024612427 0.0210944749 0.3467999995 2.3120999336 4.1311001778 149.63299561 1.4121999741 1.3197000027
 1877.4644775 6.0000000000 8.3421001434 8.5000000000 93.780509949 0.0142004006 0.3598999977 2.3001000881 4.1621999741 152.00830078 1.4551000595 1.3617999554
 1877.6168213 6.0000000000 8.3541002274 8.5000000000 142.88385010 0.0146981571 0.3555999994 2.2934999466 4.2161998749 153.67160034 1.4443999529 1.3809000254
 1877.7692871 6.0000000000 8.3358001709 8.5000000000 157.92716980 0.0124105690 0.3431999981 2.2846000195 4.1732997894 153.67100525 1.4781999588 1.3761999607
 1877.9216309 6.0000000000 8.3576002121 8.5000000000 157.92716980 0.0190003198 0.3513000011 2.2939999104 4.1522998810 152.00770569 1.4162000418 1.3791999817
 1878.0740967 6.0000000000 8.3558998108 8.5000000000 159.33070374 0.0193961598 0.3443999887 2.2932999134 4.1542000771 149.63049316 1.4162000418 1.3791999817
 1878.2264404 6.0000000000 8.3231000900 8.5000000000 165.19685364 0.0169967953 0.3413999975 2.2869999409 4.2063999176 150.58059692 1.4530999660 1.3917000294
 1878.3789063 6.0000000000 8.3231000900 8.5000000000 165.19685364 0.0130056050 0.3271999955 2.2771999836 4.2534999847 152.95570374 1.3806999922 1.2963000536
 1878.5312500 6.0000000000 8.3248996735 8.5000000000 163.69454956 0.0165073723 0.3282000124 2.2769000530 4.3264999390 154.38150024 1.3868000507 1.3401000500
 1878.6835938 6.0000000000 8.3576002121 8.5000000000 155.21423340 0.0257016812 0.3337000012 2.2850999832 4.4198999405 151.05690002 1.3867000341 1.3161000013
 1878.8360596 5.0000000000 8.3576002121 8.5000000000 155.21423340 0.0277951118 0.3393000066 2.2897000313 4.3951001167 146.30670166 1.3707000017 1.3513000011
 1878.9884033 5.0000000000 8.3558998108 8.5000000000 156.55348206 0.0216967184 0.3503000140 2.2806999683 4.3583998680 143.21960449 1.4239000082 1.3754999638
 1879.1408691 5.0000000000 8.3231000900 8.5000000000 156.55348206 0.0176020823 0.3515999913 2.2836000919 4.2670001984 144.88090515 1.3832999468 1.3602000475
 1879.2932129 5.0000000000 8.3299999237 8.5000000000 148.78443909 0.0202022418 0.3695999980 2.2895998955 4.2870001793 148.91720581 1.3803000450 1.3330999613
 1879.4456787 5.0000000000 8.3921003342 8.5000000000 141.74966431 0.0230045673 0.3959999979 2.3050000668 4.3024001122 146.54209900 1.3741999865 1.3528000116
 1879.5980225 5.0000000000 8.3921003342 8.5000000000 131.40190125 0.0286995992 0.3962000012 2.3173999786 4.3589000702 139.41679382 0.9674000144 0.9761000276
 1879.7504883 5.0000000000 8.3921003342 8.5000000000 131.40190125 0.0281987991 0.3752999902 2.3111000061 4.4098000526 133.00540161 0.9183999896 0.8895000219
 1879.9028320 5.0000000000 8.3886003494 8.5000000000 123.28772736 0.0266943909 0.3558000028 2.3017001152 4.3614997864 135.38049316 1.2560000420 1.2052999735
 1880.0552979 5.0000000000 8.3576002121 8.5000000000 123.28772736 0.0196953565 0.3400000036 2.2888000011 4.2477002144 144.88090515 1.3186000586 1.2649999857
 1880.2076416 5.0000000000 8.3576002121 8.5000000000 121.63451385 0.0168060884 0.3388000131 2.2929999828 4.1922001839 147.96769714 1.3594000340 1.2913000584
 1880.3601074 5.0000000000 8.3576002121 8.5000000000 113.22409058 0.0243983977 0.3167999983 2.3060998917 4.2825999260 147.96769714 1.4151999950 1.3489999771
 1880.5124512 5.0000000000 8.3576002121 8.5000000000 106.51869965 0.0234026443 0.3345000148 2.3032999039 4.3997001648 147.96769714 1.4207999706 1.4021999836
 1880.6649170 5.0000000000 8.3576002121 8.5000000000 106.51869965 0.0266854279 0.3447000086 2.3041999340 4.4640002251 148.91929626 1.4072999954 1.4056999683
 1880.8172607 5.0000000000 8.3576002121 8.5000000000 101.70833588 0.0175981577 0.3779999912 2.2883000374 4.4713997841 150.58259583 1.3703000546 1.3707000017
 1880.9696045 5.0000000000 8.3576002121 8.5000000000 100.57185364 0.0152963968 0.3574999869 2.2855999470 4.4008002281 148.20750427 1.4361000061 1.4062000513
 1881.1220703 5.0000000000 8.3592996597 8.5000000000 103.45767212 0.0108014429 0.3472000062 2.2832999229 4.2809000015 147.25750732 1.5152000189 1.4656000137
 1881.2744141 5.0000000000 8.3921003342 8.5000000000 103.45767212 0.0126051242 0.3386000097 2.2976000309 4.1490001678 146.30589294 1.5144000053 1.4723999500
 1881.4268799 6.0000000000 8.3886003494 8.5000000000 101.70374298 0.0190001596 0.3492000103 2.3175001144 4.1799998283 148.68099976 1.5340000391 1.4911999702
 1881.5792236 6.0000000000 8.3576002121 8.5000000000 101.70374298 0.0192012023 0.3465000093 2.3211998940 4.1472001076 148.67950439 1.5134999752 1.4825999737
 1881.7316895 6.0000000000 8.3645000458 8.5000000000 100.56758881 0.0207012016 0.3353999853 2.3159999847 4.2919998169 152.71789551 1.5365999937 1.4904999733
 1881.8840332 6.0000000000 8.4247999191 8.5000000000 101.13024902 0.0222018417 0.3328000009 2.3111999035 4.3157000542 150.34280396 1.5348999500 1.5235999823
 1882.0364990 6.0000000000 8.3921003342 8.5000000000 101.13024902 0.0245081652 0.3449999988 2.3015000820 4.4899997711 152.72000122 1.5577000380 1.5305999517
 1882.1887207 6.0000000000 8.3955001831 8.5000000000 101.70787048 0.0296000000 0.3419024646 2.3110923767 4.4263510704 147.26237488 1.6026639938 1.5688693523
 1882.3410645 6.0000000000 8.4265003204 8.5000000000 101.70833588 0.0282000005 0.3487889469 2.3082044125 4.3749823570 146.54743958 1.6244651079 1.5717953444
 1882.4935303 6.0000000000 8.4265003204 8.5000000000 97.313240051 0.0315000005 0.3441037536 2.3211894035 4.3288369179 145.83296204 1.7087323666 1.6242579222
 1882.6458740 6.0000000000 8.4265003204 8.5000000000 93.759628296 0.0291000009 0.3561806381 2.3175060749 4.3742270470 150.57499695 1.7124940157 1.6658333540
 1882.7983398 6.0000000000 8.4300003052 8.5000000000 93.272041321 0.0303000007 0.3429106772 2.3228957653 4.4072737694 152.00515747 1.5882995129 1.5616835356
