# LAS format log file from PETREL
# Project units are specified as depth units
#==================================================================
~Version information
VERS.   2.0:
WRAP.   NO:
#==================================================================
~Well
STRT .m      1704.1855469 :
STOP .m      2348.0756836 :
STEP .m     0.00000000 :
NULL .        -999.250000 :
COMP.           : COMPANY
WELL.  31/5-6   : WELL
FLD.            : FIELD
LOC.            : LOCATION
SRVC.           : SERVICE COMPANY
DATE.  2018-09-11 14:48:40   : Log Export Date {yyyy-MM-dd HH:mm:ss}
PROV.           : PROVINCE
UWI.   31/5-6   : UNIQUE WELL ID
API.            : API NUMBER
#==================================================================
~Curve
DEPT .m                   : DEPTH
Lithology_geolink ._      : Lithology_geolink
CALI .in                  : CALI
BS .in                    : BS
ROP .m/h                  : ROP
DRHO .g/cm3               : DRHO
NPHI .m3/m3               : NPHI
RHOB .g/cm3               : RHOB
PEF .b/e                  : PEF
GR .gAPI                  : GR
RDEP .ohm.m               : RDEP
RMED .ohm.m               : RMED
~Parameter
#==================================================================
~Ascii
# ...
 2131.6677246 16.000000000 8.3921003342 8.5000000000 102.29527283 0.0237097759 0.2745145857 2.4351999760 4.4196000099 140.12660217 3.0677623749 2.9974355698
 2131.8200684 6.0000000000 8.4110002518 8.5000000000 104.07447815 0.0298025645 0.2836000025 2.4309000969 4.4444999695 147.25199890 2.6698999405 2.6452999115
 2131.9724121 6.0000000000 8.4012002945 8.5000000000 101.15026855 0.0314056091 0.3206000030 2.4284000397 4.3491001129 151.04949951 2.5250000954 2.5759000778
 2132.1247559 6.0000000000 8.3576002121 8.5000000000 101.72545624 0.0348969586 0.3258999884 2.4418783188 4.0767364502 152.71392822 2.5176000595 2.4398999214
 2132.2770996 5.0000000000 8.3576002121 8.5000000000 98.926742554 0.0329999998 0.3538999856 2.4425001144 3.8705999851 148.68617249 2.4885001183 2.3536000252
 2132.4294434 5.0000000000 8.3576002121 8.5000000000 98.922248840 0.0280000009 0.3610000014 2.4349999428 3.7658998966 147.26068115 2.3924000263 2.2423000336
 2132.5820313 5.0000000000 8.3576002121 8.5000000000 98.377296448 0.0254008006 0.3560000062 2.4179000854 3.8036000729 147.25840759 2.3089001179 2.1747999191
 2132.7343750 5.0000000000 8.3766002655 8.5000000000 98.377296448 0.0258944016 0.3341000080 2.4033999443 3.9282000065 148.91754150 2.3089001179 2.1747999191
 2132.8867188 5.0000000000 8.3731002808 8.5000000000 102.87303162 0.0223999992 0.3237999976 2.3926999569 3.9221999645 147.97062683 2.2732999325 2.2256999016
 2133.0390625 5.0000000000 8.3541002274 8.5000000000 111.82488251 0.0179999992 0.3197999895 2.3924002647 3.9277000427 147.25843811 2.2555000782 2.1559000015
 2133.1916504 5.0000000000 8.3231000900 8.5000000000 112.53280640 0.0148152243 0.3165999949 2.4028999805 3.8642001152 147.25729370 2.1863999367 2.0887000561
 2133.3439941 5.0000000000 8.3197002411 8.5000000000 116.92453003 0.0243049599 0.3269000053 2.4226999283 3.9944000244 147.25729370 2.1719999313 2.1349000931
 2133.4963379 5.0000000000 8.2887001038 8.5000000000 119.23874664 0.0274000000 0.3305999935 2.4375998974 4.0018000603 145.59664917 2.2572000027 2.1507000923
 2133.6486816 5.0000000000 8.2887001038 8.5000000000 112.54355621 0.0306000002 0.3310999870 2.4412999153 4.0395002365 143.22270203 2.3396000862 2.2583000660
 2133.8012695 5.0000000000 8.2887001038 8.5000000000 112.53280640 0.0281046480 0.3246999979 2.4351000786 4.0315999985 140.84230042 2.2149999142 2.1180999279
 2133.9536133 5.0000000000 8.3267002106 8.5000000000 111.83924103 0.0310004801 0.3271000087 2.4254999161 4.0826997757 140.84230042 2.3508999348 2.2871000767
 2134.1059570 5.0000000000 8.3611001968 8.5000000000 110.48445892 0.0313008018 0.3319000006 2.4207999706 4.0984997749 140.84230042 2.2953999043 2.2392001152
 2134.2583008 5.0000000000 8.3921003342 8.5000000000 110.48228455 0.0318000019 0.3269999921 2.4210999012 4.0222997665 137.76034546 2.4375998974 2.3949000835
 2134.4108887 5.0000000000 8.3902997971 8.5000000000 111.85006714 0.0299926270 0.3273999989 2.4154999256 3.9899001122 137.04589844 2.4008998871 2.3884999752
 2134.5632324 5.0000000000 8.3576002121 8.5000000000 111.85006714 0.0253985580 0.3303000033 2.4022998810 3.9584999084 140.37260437 2.4581999779 2.3736000061
 2134.7155762 5.0000000000 8.3541002274 8.5000000000 109.80641937 0.0245014392 0.3433000147 2.4005999565 4.0075001717 147.48649597 2.4828000069 2.4121000767
 2134.8679199 5.0000000000 8.2887001038 8.5000000000 107.18694305 0.0253999997 0.3582000136 2.4088997841 4.0595002174 150.57745361 2.4855000973 2.4426999092
 2135.0202637 5.0000000000 8.2887001038 8.5000000000 107.18274689 0.0263000000 0.3490000069 2.4151000977 4.0859999657 149.63243103 2.4677999020 2.4279999733
 2135.1728516 5.0000000000 8.2922000885 8.5000000000 111.15386963 0.0312076919 0.3424000144 2.4177000523 4.1498999596 147.96530151 2.4677000046 2.3963000774
 2135.3251953 5.0000000000 8.3248996735 8.5000000000 110.46763611 0.0360073596 0.3267000020 2.4205999374 4.1508002281 143.93325806 2.5232000351 2.4407999516
 2135.4775391 5.0000000000 8.3558998108 8.5000000000 114.67138672 0.0406000018 0.3398000002 2.4282999039 4.1602997780 139.18421936 2.4632999897 2.4210999012
 2135.6298828 5.0000000000 8.3248996735 8.5000000000 114.67813873 0.0361000001 0.3307000101 2.4272000790 4.0844001770 140.83963013 2.4779999256 2.4405000210
 2135.7824707 5.0000000000 8.3558998108 8.5000000000 110.45603943 0.0348969549 0.3373999894 2.4265999794 4.0616998672 144.88070679 2.4800000191 2.4056999683
 2135.9348145 5.0000000000 8.3358001709 8.5000000000 107.16764832 0.0329959951 0.3341999948 2.4214999676 4.0467000008 149.63090515 2.4279999733 2.3559999466
 2136.0871582 5.0000000000 8.3346004486 8.5000000000 105.28549194 0.0305009596 0.3249000013 2.4100000858 4.1036000252 148.92024231 2.4389998913 2.3717000484
 2136.2395020 5.0000000000 8.3576002121 8.5000000000 103.47435760 0.0310999993 0.3219000101 2.4109001160 4.0290999413 144.17651367 2.4813001156 2.4203000069
 2136.3920898 5.0000000000 8.3592996597 8.5000000000 103.47145844 0.0322014429 0.3167999983 2.4144001007 4.0030999184 138.70539856 2.4226999283 2.3893001080
 2136.5444336 5.0000000000 8.3886003494 8.5000000000 104.07447815 0.0330966376 0.3183999956 2.4203000069 3.9702999592 141.08439636 2.4670999050 2.4226000309
 2136.6967773 5.0000000000 8.3248996735 8.5000000000 103.48159790 0.0310031995 0.3181999922 2.4140999317 4.0461997986 146.53755188 2.4842000008 2.3775999546
 2136.8491211 6.0000000000 8.3576002121 8.5000000000 105.28909302 0.0329999998 0.3366999924 2.4172000885 4.0404000282 152.70791626 2.4892001152 2.4330999851
 2137.0014648 6.0000000000 8.3576002121 8.5000000000 105.29199219 0.0317000002 0.3524999917 2.4186999798 4.0026001930 150.34271240 2.5680000782 2.4177999496
 2137.1540527 6.0000000000 8.3576002121 8.5000000000 104.68438721 0.0327951908 0.3517000079 2.4242000580 3.9830999374 149.62710571 2.5211999416 2.4021000862
 2137.3063965 6.0000000000 8.3576002121 8.5000000000 102.31285095 0.0298102405 0.3253000081 2.4154999256 3.9939000607 148.92022705 2.3282001019 2.2909998894
 2137.4587402 6.0000000000 8.3576002121 8.5000000000 102.30905151 0.0362000018 0.3086000085 2.4179000854 3.9979999065 152.00105286 2.2939999104 2.2525000572
 2137.6110840 6.0000000000 8.3576002121 8.5000000000 106.54143524 0.0326000005 0.3107999861 2.4112000465 3.9493000507 154.37730408 2.3232998848 2.2521998882
 2137.7636719 6.0000000000 8.3576002121 8.5000000000 108.46949005 0.0295943916 0.3102000058 2.4042000771 3.8766000271 155.08909607 2.2550001144 2.2279000282
 2137.9160156 6.0000000000 8.3593997955 8.5000000000 109.79265594 0.0261096153 0.3185999990 2.3912999630 3.9070999622 150.33889771 2.2258999348 2.1995000839
 2138.0683594 5.0000000000 8.3937997818 8.5000000000 102.32102203 0.0321004800 0.3080999851 2.3951001167 3.9005000591 145.59629822 2.1791000366 2.1040999889
 2138.2207031 5.0000000000 8.4247999191 8.5000000000 98.953224182 0.0324000008 0.3070999980 2.3982999325 3.8784999847 144.88183594 2.1231000423 2.0913000107
 2138.3732910 5.0000000000 8.3937997818 8.5000000000 93.799537659 0.0313947089 0.3052000105 2.4045000076 3.8111000061 146.54400635 2.2060999870 2.1143000126
 2138.5256348 5.0000000000 8.4265003204 8.5000000000 89.146987915 0.0280993599 0.3016999960 2.4044001102 3.8810999393 145.83070374 2.2181000710 2.1515998840
 2138.6779785 5.0000000000 8.4230003357 8.5000000000 85.754783630 0.0276977587 0.3009000123 2.4158000946 3.9526998997 143.45939636 2.4723000526 2.3928000927
 2138.8303223 5.0000000000 8.3576002121 8.5000000000 83.364395142 0.0263000000 0.2842999995 2.4365999699 4.0258002281 141.79496765 2.1417000294 2.0975000858
 2138.9826660 5.0000000000 8.3703002930 8.5000000000 76.310195923 0.0221999995 0.2739000022 2.4704999924 4.0483999252 142.50445557 2.4770998955 2.3271999359
 2139.1352539 5.0000000000 8.3908996582 8.5000000000 64.541336060 0.0287113786 0.2504999936 2.5190000534 4.1536998749 140.84230042 3.2279999256 3.0840001106
 2139.2875977 5.0000000000 8.3576002121 8.5000000000 54.417469025 0.0358102396 0.2268999964 2.5622000694 4.2750000954 133.72830200 3.8285999298 3.6419000626
