# LAS format log file from PETREL
# Project units are specified as depth units
#==================================================================
~Version information
VERS.   2.0:
WRAP.   NO:
#==================================================================
~Well
STRT .m      405.00000000 :
STOP .m      1938.8748779 :
STEP .m     0.00000000 :
NULL .        -999.250000 :
COMP.           : COMPANY
WELL.  31/5-5 R   : WELL
FLD.            : FIELD
LOC.            : LOCATION
SRVC.           : SERVICE COMPANY
DATE.  2018-09-11 14:48:39   : Log Export Date {yyyy-MM-dd HH:mm:ss}
PROV.           : PROVINCE
UWI.   31/5-5 R   : UNIQUE WELL ID
API.            : API NUMBER
#==================================================================
~Curve
DEPT .m                   : DEPTH
Lithology_geolink ._      : Lithology_geolink
CALI .in                  : CALI
DRHO .g/cm3               : DRHO
NPHI .m3/m3               : NPHI
RHOB .g/cm3               : RHOB
GR .gAPI                  : GR
DTC .us/ft                : DTC
RDEP .ohm.m               : RDEP
SP .mV                    : SP
RSHA .ohm.m               : RSHA
~Parameter
#==================================================================
~Ascii
# ...
 804.00000000  -999.250000 23.801099777 -0.014665604  -999.250000 1.7627239227 50.152999878 161.08016968 2.2276487350  -999.250000  -999.250000
 804.12500000  -999.250000 23.802400589 -0.014922857  -999.250000 1.7607595921 50.151901245 161.20368958 2.1861867905  -999.250000  -999.250000
 804.24993896  -999.250000 23.802301407 -0.014166301  -999.250000 1.7586407661 49.684700012 161.34164429 2.1581544876  -999.250000  -999.250000
 804.37500000  -999.250000 23.798799515 -0.013143301  -999.250000 1.7553446293 49.088600159 161.47976685 2.1353621483  -999.250000  -999.250000
 804.50000000  -999.250000 23.792200089 -0.012947083  -999.250000 1.7505540848 48.694599152 161.61773682 2.1125626564  -999.250000  -999.250000
 804.62500000  -999.250000 23.785102844 -0.014585016  -999.250000 1.7445499897 48.691600800 161.75633240 2.0906801224  -999.250000  -999.250000
 804.75006104  -999.250000 23.780399323 -0.017312553  -999.250000 1.7383248806 48.880500793 161.91239929 2.0812759399  -999.250000  -999.250000
 804.87500000  -999.250000 23.779199600 -0.020055771  -999.250000 1.7324278355 49.177799225 162.12057495 2.1046342850  -999.250000  -999.250000
 805.00000000  -999.250000 23.780799866 -0.021729469  -999.250000 1.7270641327 49.542098999 162.45874023 2.1490187645  -999.250000  -999.250000
 805.12500000  -999.250000 23.782100677 -0.021709204  -999.250000 1.7224283218 49.880699158 162.80403137 2.1761641502  -999.250000  -999.250000
 805.25000000  -999.250000 23.780899048 -0.020767584  -999.250000 1.7186477184 50.049499512 163.15081787 2.1779017448  -999.250000  -999.250000
 805.37493896  -999.250000 23.777799606 -0.019642591  -999.250000 1.7160327435 49.843200684 163.49742126 2.1692705154  -999.250000  -999.250000
 805.50000000  -999.250000 23.775901794 -0.018735886  -999.250000 1.7147064209 49.065101624 163.84405518 2.1584658623  -999.250000  -999.250000
 805.62500000  -999.250000 23.778299332 -0.017884970  -999.250000 1.7143683434 47.608699799 164.18902588 2.1480636597  -999.250000  -999.250000
 805.75000000  -999.250000 23.783800125 -0.016968306  -999.250000 1.7139482498 45.838600159 164.45407104 2.1487765312  -999.250000  -999.250000
 805.87500000  -999.250000 23.790300369 -0.016501665  -999.250000 1.7128324509 44.073299408 164.52287292 2.1621327400  -999.250000  -999.250000
 805.99993896  -999.250000 23.795000076 -0.017049789  -999.250000 1.7110385895 42.638000488 164.51290894 2.1805772781  -999.250000  -999.250000
 806.12500000  -999.250000 23.795600891 -0.018713236  -999.250000 1.7093443871 41.895401001 164.49476624 2.2073411942  -999.250000  -999.250000
 806.25000000  -999.250000 23.792699814 -0.020339634  -999.250000 1.7088069916 41.697498322 164.47663879 2.2434749603  -999.250000  -999.250000
 806.37500000  -999.250000 23.786600113 -0.020881176  -999.250000 1.7102236748 41.658199310 164.45857239 2.2761812210  -999.250000  -999.250000
 806.50006104  -999.250000 23.779300690 -0.019825935  -999.250000 1.7139577866 41.371898651 164.44018555 2.2924208641  -999.250000  -999.250000
 806.62500000  -999.250000 23.774299622 -0.017619848  -999.250000 1.7202200890 40.735900879 164.40943909 2.2977514267  -999.250000  -999.250000
 806.75000000  -999.250000 23.773899078 -0.015632320  -999.250000 1.7282824516 40.089599609 164.32676697 2.3030805588  -999.250000  -999.250000
 806.87500000  -999.250000 23.777099609 -0.014675617  -999.250000 1.7377710342 39.842899323 164.18014526 2.3084101677  -999.250000  -999.250000
 807.00000000  -999.250000 23.780599594 -0.015098572  -999.250000 1.7481327057 40.265499115 164.02809143 2.3137416840  -999.250000  -999.250000
 807.12506104  -999.250000 23.780799866 -0.016888142  -999.250000 1.7581853867 41.237899780 163.87588501 2.3236994743  -999.250000  -999.250000
 807.25000000  -999.250000 23.778497696 -0.019066419  -999.250000 1.7665429115 42.196399689 163.72387695 2.3490805626  -999.250000  -999.250000
 807.37500000  -999.250000 23.776800156 -0.020751238  -999.250000 1.7721028328 42.901798248 163.57176208 2.3870296478  -999.250000  -999.250000
 807.50000000  -999.250000 23.778900146 -0.021058083  -999.250000 1.7742252350 43.497100830 163.41911316 2.4164953232  -999.250000  -999.250000
 807.62500000  -999.250000 23.785499573 -0.019412518  -999.250000 1.7724092007 44.262401581 163.25733948 2.4265694618  -999.250000  -999.250000
 807.74993896  -999.250000 23.793399811 -0.017080177  -999.250000 1.7684538364 45.182098389 163.02468872 2.4239554405  -999.250000  -999.250000
 807.87500000  -999.250000 23.799699783 -0.015671968  -999.250000 1.7646479607 46.042999268 162.78616333 2.4149484634  -999.250000  -999.250000
 808.00000000  -999.250000 23.802700043 -0.016207695  -999.250000 1.7638139725 46.529098511 162.54682922 2.4080562592  -999.250000  -999.250000
 808.12500000  -999.250000 23.800701141 -0.018231630  -999.250000 1.7690136433 46.447299957 162.30743408 2.4280033112  -999.250000  -999.250000
 808.25006104  -999.250000 23.795099258 -0.019859824  -999.250000 1.7789797783 45.922698975 162.06799316 2.4787607193  -999.250000  -999.250000
 808.37500000  -999.250000 23.788499832 -0.020117998  -999.250000 1.7910087109 45.214801788 161.82879639 2.5341172218  -999.250000  -999.250000
 808.50000000  -999.250000 23.784099579 -0.019062996  -999.250000 1.8017539978 44.694198608 161.59002686 2.5824403763  -999.250000  -999.250000
 808.62500000  -999.250000 23.785400391 -0.017492294  -999.250000 1.8082604408 44.730400085 161.36849976 2.6225099564  -999.250000  -999.250000
 808.75000000  -999.250000 23.790800095 -0.015904576  -999.250000 1.8112351894 45.329898834 161.15612793 2.6380953789  -999.250000  -999.250000
 808.87506104  -999.250000 23.797199249 -0.014132500  -999.250000 1.8120806217 46.280101776 160.94712830 2.6298356056  -999.250000  -999.250000
 809.00000000  -999.250000 23.801200867 -0.012165070  -999.250000 1.8122081757 47.320598602 160.73849487 2.6160979271  -999.250000  -999.250000
 809.12500000  -999.250000 23.800899506 -0.010626554  -999.250000 1.8124883175 48.296298981 160.52983093 2.6023612022  -999.250000  -999.250000
 809.25000000  -999.250000 23.799499512 -0.010121400  -999.250000 1.8129827976 49.243301392 160.32118225 2.5884652138  -999.250000  -999.250000
 809.37500000  -999.250000 23.799999237 -0.010797739  -999.250000 1.8132679462 50.227298737 160.11372375 2.5731639862  -999.250000  -999.250000
 809.49993896  -999.250000 23.802902222 -0.012196541  -999.250000 1.8126640320 50.968299866 159.94812012 2.5547413826  -999.250000  -999.250000
 809.62500000  -999.250000 23.806299210 -0.013097286  -999.250000 1.8101441860 50.923999786 159.85200500 2.5342574120  -999.250000  -999.250000
 809.75000000  -999.250000 23.808399200 -0.012812665  -999.250000 1.8057005405 50.066398621 159.82530212 2.5137791634  -999.250000  -999.250000
 809.87500000  -999.250000 23.808500290 -0.011595488  -999.250000 1.7997658253 48.649398804 159.80421448 2.4933004379  -999.250000  -999.250000
 810.00000000  -999.250000 23.807899475 -0.010212898  -999.250000 1.7932834625 47.090900421 159.78308105 2.4728150368  -999.250000  -999.250000
 810.12500000  -999.250000 23.808801651 -0.009960651  -999.250000 1.7876818180 45.955001831 159.76196289 2.4520416260  -999.250000  -999.250000
 810.25000000  -999.250000 23.810800552 -0.011146475  -999.250000 1.7838559151 45.621700287 159.74111938 2.4289464951  -999.250000  -999.250000
 810.37500000  -999.250000 23.812400818 -0.013148069  -999.250000 1.7821607590 46.133499146 159.72708130 2.4094266891  -999.250000  -999.250000
 810.50000000  -999.250000 23.811399460 -0.015069962  -999.250000 1.7824163437 47.218799591 159.74732971 2.4124503136  -999.250000  -999.250000
 810.62506104  -999.250000 23.805700302 -0.016286850  -999.250000 1.7841124535 48.434898376 159.87416077 2.4344043732  -999.250000  -999.250000
 810.75000000  -999.250000 23.797199249 -0.016863000  -999.250000 1.7860813141 49.376098633 160.01318359 2.4502062798  -999.250000  -999.250000
 810.87500000  -999.250000 23.788200378 -0.016711473  -999.250000 1.7875962257 50.056701660 160.15432739 2.4498672485  -999.250000  -999.250000
