# LAS format log file from PETREL
# Project units are specified as depth units
#==================================================================
~Version information
VERS.   2.0:
WRAP.   NO:
#==================================================================
~Well
STRT .m      1704.1855469 :
STOP .m      2348.0756836 :
STEP .m     0.00000000 :
NULL .        -999.250000 :
COMP.           : COMPANY
WELL.  31/5-6   : WELL
FLD.            : FIELD
LOC.            : LOCATION
SRVC.           : SERVICE COMPANY
DATE.  2018-09-11 14:48:40   : Log Export Date {yyyy-MM-dd HH:mm:ss}
PROV.           : PROVINCE
UWI.   31/5-6   : UNIQUE WELL ID
API.            : API NUMBER
#==================================================================
~Curve
DEPT .m                   : DEPTH
Lithology_geolink ._      : Lithology_geolink
CALI .in                  : CALI
BS .in                    : BS
ROP .m/h                  : ROP
DRHO .g/cm3               : DRHO
NPHI .m3/m3               : NPHI
RHOB .g/cm3               : RHOB
PEF .b/e                  : PEF
GR .gAPI                  : GR
RDEP .ohm.m               : RDEP
RMED .ohm.m               : RMED
~Parameter
#==================================================================
~Ascii
# ...
 2341.5224609 2.0000000000 8.3421001434 8.5000000000 84.946197510 0.0207828525 0.2228465676 2.4228000641 3.8252999783 94.048698425 0.5967409611 0.5853999853
 2341.6748047 2.0000000000 8.3450002670 8.5000000000 90.038711548 0.0101089738 0.2518999875 2.3368000984 3.8327999115 95.713203430 1.5583000183 1.4299000502
 2341.8273926 2.0000000000 8.3238000870 8.5000000000 116.97408295 0.0157403201 0.2639171481 2.2699000835 3.8283998966 105.45259857 2.0598392487 2.0506999493
 2341.9797363 2.0000000000 8.3558998108 8.5000000000 116.97408295 0.0282974355 0.2746387720 2.2479000092 3.8814001083 110.91339874 2.0841617584 2.0065000057
 2342.1320801 2.0000000000 8.2887001038 8.5000000000 127.53706360 0.0266777240 0.2988059223 2.2639000416 3.8563001156 116.37310028 1.9354572296 1.9228999615
 2342.2844238 2.0000000000 8.2791996002 8.5000000000 173.14205933 0.0128008006 0.3025000095 2.2848000526 3.7771999836 113.76280212 1.7216000557 1.7129000425
 2342.4367676 2.0000000000 8.3077001572 8.5000000000 202.35366821 0.0133022396 0.2976000011 2.3002998829 3.4723999500 107.58869934 0.8920000196 0.8946999907
 2342.5893555 2.0000000000 8.3231000900 8.5000000000 202.35366821 0.0147163467 0.2869690657 2.2999999523 3.5213000774 103.79340363 0.3674975932 0.3802999854
 2342.7416992 2.0000000000 8.3421001434 8.5000000000 160.79266357 0.0248900652 0.2677044570 2.3122999668 3.5127999783 103.08020020 0.4909950197 0.4914999902
 2342.8940430 2.0000000000 8.3287000656 8.5000000000 141.77590942 0.0187086537 0.2705000043 2.3138999939 3.6761999130 104.50669861 0.7375000119 0.6883999705
 2343.0463867 2.0000000000 8.2887001038 8.5000000000 118.48195648 0.0241104160 0.2671000063 2.3262000084 3.5734999180 107.59249878 0.8708000183 0.8072999716
 2343.1989746 2.0000000000 8.3024997711 8.5000000000 96.296913147 0.0306252800 0.2749671638 2.3296000957 3.5689001083 111.63089752 1.0819027424 0.9894999862
 2343.3513184 2.0000000000 8.3427000046 8.5000000000 28.859251022 0.0384899043 0.2544886470 2.3419001102 3.5604000092 118.75240326 0.7723059058 0.7619000077
 2343.5036621 2.0000000000 8.3231000900 8.5000000000 28.859251022 0.0321751609 0.2474000007 2.3410000801 3.6582999229 123.50260162 0.9007999897 0.9240000248
 2343.6560059 2.0000000000 8.3231000900 8.5000000000 27.310037613 0.0167060886 0.2410999984 2.3482999802 3.8122999668 124.21440125 0.9157000184 0.9320999980
 2343.8085938 2.0000000000 8.3231000900 8.5000000000 27.824802399 0.0204984006 0.2467131466 2.3789000511 3.8968999386 124.21279907 0.9950730801 0.9380999804
 2343.9609375 2.0000000000 8.3231000900 8.5000000000 27.439304352 0.0200065710 0.2549209893 2.3966000080 3.9774000645 117.80079651 1.0412453413 0.9537000060
 2344.1132813 2.0000000000 8.3231000900 8.5000000000 28.879920959 0.0240956731 0.2680236995 2.3975999355 3.9888000488 115.42569733 1.4435104132 1.3495999575
 2344.2656250 5.0000000000 8.3231000900 8.5000000000 28.062335968 0.0214097761 0.2827999890 2.4059000015 4.0356998444 117.09279633 1.5748000145 1.5904999971
 2344.4179688 5.0000000000 8.3266000748 8.5000000000 27.864501953 0.0275145601 0.2874000072 2.4363000393 4.2066001892 126.83380127 1.3883999586 1.4019999504
 2344.5705566 5.0000000000 8.3592996597 8.5000000000 28.838256836 0.0365940705 0.2778666914 2.4546999931 4.1869001389 136.33419800 1.3201706409 1.3207000494
 2344.7229004 5.0000000000 8.3902997971 8.5000000000 29.659452438 0.0328990407 0.2571185529 2.4291000366 4.1279997826 143.45950317 1.2394839525 1.2443000078
 2344.8752441 5.0000000000 8.3576002121 8.5000000000 30.341209412 0.0322935879 0.2687000036 2.3984000683 3.9591000080 147.25590515 1.1670999527 1.1769000292
 2345.0275879 5.0000000000 8.3576002121 8.5000000000 60.631561279 0.0282959938 0.2795000076 2.3796999454 3.9663999081 144.63749695 1.2597999573 1.2560000420
 2345.1801758 5.0000000000 8.3197002411 8.5000000000 54.564956665 0.0258032009 0.3029730916 2.3819999695 3.9635000229 131.80589294 1.8138693571 1.8040000200
 2345.3325195 5.0000000000 8.2898998260 8.5000000000 53.118106842 0.0267998390 0.2862124741 2.4010000229 3.9902000427 119.21720123 1.9186280966 1.8241000175
 2345.4848633 5.0000000000 8.3231000900 8.5000000000 52.801513672 0.0267084930 0.2939999998 2.4242000580 3.9593999386 116.37460327 1.4370000362 1.3854999542
 2345.6372070 5.0000000000 8.3248996735 8.5000000000 52.801513672 0.0320112184 0.3027000129 2.4393999577 4.1142001152 122.08100128 1.3452999592 1.3593000174
 2345.7897949 5.0000000000 8.3576002121 8.5000000000 59.427494049 0.0390188806 0.3230250180 2.4384999275 4.1448001862 128.25619507 1.3205895424 1.3158999681
 2345.9421387 5.0000000000 8.3558998108 8.5000000000 59.427494049 0.0448991992 0.3386045098 2.4460000992 4.2038998604 136.80279541 1.5640091896 1.4772000313
 2346.0944824 5.0000000000 8.3105001450 8.5000000000 59.227367401 0.0444051288 0.3413963318 2.4481999874 4.0866999626 139.17790222 2.0057609081 1.9150999784
 2346.2468262 5.0000000000 8.2887001038 8.5000000000 60.015747070 0.0476014428 0.3391000032 2.4639999866 4.1117000580 143.92579651 1.9814000130 1.9197000265
 2346.3994141 5.0000000000 8.2868995667 8.5000000000 61.877300262 0.0484904014  -999.250000 2.4598999023 4.1979999542 143.21510315 1.9095147848 1.8705999851
 2346.5517578 5.0000000000 8.2541999817 8.5000000000 94.775917053 0.0454931073  -999.250000 2.4505000114 4.2336997986 149.62980652 1.9810622931 1.9292999506
 2346.7041016 6.0000000000 8.2922000885 8.5000000000 111.16469574 0.0411951914  -999.250000 2.4539000988 4.1458997726 152.95989990 2.0199642181 2.0232000351
 2346.8564453 6.0000000000 8.3231000900 8.5000000000 107.82480621 0.0382083319  -999.250000 2.4640998840 3.9997999668 155.33500671 2.0599999428 2.0418000221
 2347.0087891 6.0000000000 8.3231000900 8.5000000000 98.415351868 0.0433931090  -999.250000 2.4916999340 3.8452999592 162.45770264 2.0525000095 2.0515000820
 2347.1613770 6.0000000000 8.3231000900 8.5000000000 89.157150269 0.0390888005  -999.250000 2.4837000370 3.8148999214 164.58949280 2.1268298626 2.1175999641
 2347.3137207 6.0000000000 8.3295001984 8.5000000000 89.143371582 0.0355943888  -999.250000 2.4723999500 4.0268998146 166.25520325 2.2076776028 2.1036000252
 2347.4660645 6.0000000000 8.3576002121 8.5000000000 88.714241028  -999.250000  -999.250000 2.4447000027 4.5110998154 164.59330750 2.1312999725 2.0885000229
 2347.6184082 6.0000000000 8.3576002121 8.5000000000 90.045600891  -999.250000  -999.250000  -999.250000  -999.250000 167.92230225 2.1542000771 2.1496000290
 2347.7709961 6.0000000000 8.3576002121 8.5000000000 87.851707458  -999.250000  -999.250000  -999.250000  -999.250000 171.00689697 2.2436108589 2.1867001057
 2347.9233398 6.0000000000 8.3576002121 8.5000000000 83.757545471  -999.250000  -999.250000  -999.250000  -999.250000 169.34240723 2.2505462170 2.1861999035
 2348.0756836 5.0000000000 8.3309001923 8.5000000000 82.613189697  -999.250000  -999.250000  -999.250000  -999.250000 151.05220032 2.2781808376 2.1419999599
