# LAS format log file from PETREL
# Project units are specified as depth units
#==================================================================
~Version information
VERS.   2.0:
WRAP.   NO:
#==================================================================
~Well
STRT .m      1704.1855469 :
STOP .m      2348.0756836 :
STEP .m     0.00000000 :
NULL .        -999.250000 :
COMP.           : COMPANY
WELL.  31/5-6   : WELL
FLD.            : FIELD
LOC.            : LOCATION
SRVC.           : SERVICE COMPANY
DATE.  2018-09-11 14:48:40   : Log Export Date {yyyy-MM-dd HH:mm:ss}
PROV.           : PROVINCE
UWI.   31/5-6   : UNIQUE WELL ID
API.            : API NUMBER
#==================================================================
~Curve
DEPT .m                   : DEPTH
Lithology_geolink ._      : Lithology_geolink
CALI .in                  : CALI
BS .in                    : BS
ROP .m/h                  : ROP
DRHO .g/cm3               : DRHO
NPHI .m3/m3               : NPHI
RHOB .g/cm3               : RHOB
PEF .b/e                  : PEF
GR .gAPI                  : GR
RDEP .ohm.m               : RDEP
RMED .ohm.m               : RMED
~Parameter
#==================================================================
~Ascii
# ...
 2046.1712646 5.0000000000 8.4277000427 8.5000000000 97.338249207 0.0367034450 0.3513991833 2.3926000595 4.5942001343 144.88450623 1.8398623466 1.8287999630
 2046.3237305 5.0000000000 8.4593000412 8.5000000000 97.338249207 0.0410022438 0.3504292965 2.4047999382 4.5357999802 147.25430298 1.9177547693 1.8361999989
 2046.4760742 6.0000000000 8.4265003204 8.5000000000 98.220474243 0.0424051285 0.3686917424 2.4061999321 4.5206999779 147.25430298 2.0142431259 1.9155999422
 2046.6285400 6.0000000000 8.4265003204 8.5000000000 97.334320068 0.0487961546 0.3584001362 2.4263999462 4.5135002136 149.63090515 2.0679442883 1.9732999802
 2046.7808838 6.0000000000 8.4265003204 8.5000000000 91.869750977 0.0463987961 0.3584863842 2.4193000793 4.4486999512 151.05369568 2.0331847668 1.9623999596
 2046.9333496 6.0000000000 8.4247999191 8.5000000000 82.979331970 0.0448977575 0.3415094614 2.4152998924 4.4787001610 153.42880249 2.0141413212 1.9754999876
 2047.0856934 5.0000000000 8.3937997818 8.5000000000 82.979331970 0.0434962325 0.3474016786 2.4138998985 4.5230998993 151.05369568 2.0399241447 2.0271000862
 2047.2380371 5.0000000000 8.4265003204 8.5000000000 74.406494141 0.0388016850 0.3494932055 2.4084999561 4.5110001564 148.68240356 2.0697124004 2.0476000309
 2047.3905029 5.0000000000 8.4265003204 8.5000000000 67.944549561 0.0409001596 0.3410031199 2.4100999832 4.5061998367 144.64549255 1.8355000019 1.8223999739
 2047.5428467 5.0000000000 8.4455003738 8.5000000000 67.944549561 0.0411044843 0.3448977768 2.4075999260 4.4196000099 147.25889587 1.8355000019 1.8223999739
 2047.6953125 5.0000000000 8.4420003891 8.5000000000 59.814636230 0.0466983989 0.3421087265 2.4059998989 4.4871997833 152.00520325 1.8356956244 1.8223999739
 2047.8476563 5.0000000000 8.4076004028 8.5000000000 59.814636230 0.0447004810 0.3530071080 2.4003000259 4.3705000877 157.70660400 2.0797894001 2.0578999519
 2048.0000000 5.0000000000 8.3921003342 8.5000000000 57.846786499 0.0452999994 0.3619000018 2.3931999207 4.4246001244 161.50529480 2.1914999485 2.1586000919
 2048.1525879 5.0000000000 8.4209995270 8.5000000000 57.846786499 0.0470032021 0.3589216471 2.3915998936 4.4095001221 160.79580688 2.1941921711 2.1705999374
 2048.3049316 6.0000000000 8.4610004425 8.5000000000 60.822181702 0.0490007997 0.3723796308 2.3870999813 4.5309000015 159.13130188 2.1892225742 2.1770000458
 2048.4572754 6.0000000000 8.4610004425 8.5000000000 66.187995911 0.0494998395 0.3597025573 2.3843998909 4.4567999840 156.75619507 2.1409916878 2.1537001133
 2048.6096191 6.0000000000 8.4610004425 8.5000000000 68.712600708 0.0494000018 0.3612999916 2.3812999725 4.4194998741 155.09440613 2.1357998848 2.0906000137
 2048.7619629 6.0000000000 8.4303998947 8.5000000000 69.776184082 0.0477966405 0.3522999883 2.3754096031 4.3613929749 152.72309875 2.0845999718 2.0318942070
 2048.9143066 6.0000000000 8.4226999283 8.5000000000 69.777885437 0.0456999987 0.3413000107 2.3726046085 4.2993993759 154.38223267 2.0418000221 2.0240123272
 2049.0666504 6.0000000000 8.4300003052 8.5000000000 81.088470459 0.0439000018 0.3364000022 2.3713021278 4.3635969162 156.75619507 2.0113999844 2.0060288906
 2049.2192383 6.0000000000 8.4575004578 8.5000000000 81.106628418 0.0439048111 0.3389999866 2.3791000843 4.3056998253 159.13510132 2.0799000263 1.9812999964
 2049.3715820 6.0000000000 8.4282999039 8.5000000000 86.989501953 0.0468998402 0.3447000086 2.3868000507 4.4061999321 155.80760193 2.0497999191 1.9808000326
 2049.5239258 6.0000000000 8.4610004425 8.5000000000 87.836898804 0.0467996784 0.3573000133 2.3882975578 4.3418030739 152.72424316 2.0497999191 1.9808000326
 2049.6762695 6.0000000000 8.4420003891 8.5000000000 89.580863953 0.0465999991 0.3587000072 2.3859038353 4.3265242577 150.34799194 2.0443999767 1.9525452852
 2049.8288574 5.0000000000 8.4300003052 8.5000000000 85.327102661 0.0448012799 0.3580000103 2.3798000813 4.2575001717 151.29530334 2.0153999329 1.9514000416
 2049.9812012 5.0000000000 8.4593000412 8.5000000000 81.838584900 0.0455975980 0.3619999886 2.3833000660 4.2722997665 153.67039490 2.0078001022 1.9480999708
 2050.1335449 5.0000000000 8.4256000519 8.5000000000 82.591316223 0.0440990403 0.3377000093 2.3775093555 4.3256144524 152.72340393 1.9835000038 1.9340225458
 2050.2858887 5.0000000000 8.3921003342 8.5000000000 82.212882996 0.0434999987 0.3341999948 2.3709104061 4.4169535637 151.06016541 1.9352999926 1.8743957281
 2050.4382324 6.0000000000 8.3931999207 8.5000000000 80.379585266 0.0410000011 0.3167999983 2.3656086922 4.4682178497 151.76576233 1.9139000177 1.8768957853
 2050.5908203 6.0000000000 8.4265003204 8.5000000000 80.737205505 0.0443033613 0.3289000094 2.3715999126 4.4770002365 157.46569824 1.8664000034 1.8458000422
 2050.7431641 6.0000000000 8.4436998367 8.5000000000 83.350143433 0.0463993587 0.3368999958 2.3901700974 4.3854470253 157.46569824 1.9005000591 1.8219382763
 2050.8955078 6.0000000000 8.4265003204 8.5000000000 81.107612610 0.0460000001 0.3490000069 2.3913981915 4.3497571945 156.75733948 1.9233000278 1.9000744820
 2051.0478516 6.0000000000 8.4455003738 8.5000000000 78.633560181 0.0439000018 0.3483999968 2.3881051540 4.3250393867 152.72196960 1.9433000088 1.8844252825
 2051.2004395 6.0000000000 8.4610004425 8.5000000000 78.977035522 0.0413040034 0.3463000059 2.3777999878 4.3470997810 153.42500305 1.9559999704 1.9036999941
 2051.3527832 6.0000000000 8.4610004425 8.5000000000 78.637466431 0.0438033640 0.3623000085 2.3780999184 4.3520998955 149.38810730 1.9552999735 1.9217000008
 2051.5051270 5.0000000000 8.4610004425 8.5000000000 80.033859253 0.0458985567 0.3562999964 2.3796973228 4.3878426552 147.96907043 1.9685000181 1.9309850931
 2051.6574707 5.0000000000 8.4593000412 8.5000000000 80.036094666 0.0450000018 0.3531000018 2.3789012432 4.3383798599 145.59660339 1.9064999819 1.9098340273
 2051.8100586 5.0000000000 8.4265003204 8.5000000000 82.227035522 0.0426983982 0.3303999901 2.3784000874 4.3115000725 146.54670715 1.8840999603 1.8497999907
 2051.9624023 5.0000000000 8.4265003204 8.5000000000 84.939964294 0.0417048112 0.3267000020 2.3794000149 4.3800001144 147.25849915 1.9198000431 1.8164999485
 2052.1147461 5.0000000000 8.4554996490 8.5000000000 84.933738708 0.0447057597 0.3070000112 2.3829941750 4.5113892555 151.29153442 1.8930000067 1.8521429300
 2052.2670898 5.0000000000 8.4954996109 8.5000000000 84.933731079 0.0483000018 0.2933999896 2.3894894123 4.6150341034 154.37605286 1.9010000229 1.8368246555
 2052.4194336 5.0000000000 8.4827995300 8.5000000000 86.982933044 0.0487000011 0.2897000015 2.3828108311 4.6396608353 152.00979614 2.2211000919 2.0834043026
 2052.5720215 5.0000000000 8.4420003891 8.5000000000 90.930778503 0.0474987179 0.2971000075 2.3785998821 4.5480999947 147.25579834 2.3299000263 2.2056999207
 2052.7243652 5.0000000000 8.4455003738 8.5000000000 92.802780151 0.0467022397 0.3039000034 2.3765032291 4.4596414566 142.51319885 2.0710000992 1.9778650999
 2052.8767090 5.0000000000 8.4610004425 8.5000000000 93.775016785 0.0480999984 0.2928999960 2.3968672752 4.4360375404 145.83146667 1.9261000156 1.9238860607
 2053.0290527 5.0000000000 8.4610004425 8.5000000000 94.263336182 0.0480999984 0.2985999882 2.4215605259 4.7157506943 152.24002075 1.9371999502 1.9331849813
 2053.1816406 5.0000000000 8.4420003891 8.5000000000 91.388786316 0.0571060926 0.3025999963 2.5104000568 4.9931001663 157.71119690 1.9559999704 1.9325000048
 2053.3339844 5.0000000000 8.4076004028 8.5000000000 80.376640320 0.0609022379 0.3037999868 2.5980000496 5.5144000053 155.79890442 2.2790999413 2.2130999565
 2053.4863281 5.0000000000 8.3921003342 8.5000000000 77.944519043 0.0623000003 0.2813000083 2.6889998913 5.9892997742 149.39567566 3.0845999718 2.7599234581
 2053.6386719 5.0000000000 8.3921003342 8.5000000000 67.198997498 0.0535999984 0.2451999933 2.7081999779 6.4409999847 141.56195068 2.9872999191 2.9037704468
 2053.7912598 5.0000000000 8.3922996521 8.5000000000 56.793628693 0.0427982397 0.2399999946 2.7053000927 6.6820001602 131.33949280 2.6589000225 2.6438000202
