# LAS format log file from PETREL
# Project units are specified as depth units
#==================================================================
~Version information
VERS.   2.0:
WRAP.   NO:
#==================================================================
~Well
STRT .m      164.79321289 :
STOP .m      1907.4873047 :
STEP .m     0.00000000 :
NULL .        -999.250000 :
COMP.           : COMPANY
WELL.  31/5-4 S   : WELL
FLD.            : FIELD
LOC.            : LOCATION
SRVC.           : SERVICE COMPANY
DATE.  2018-09-11 14:48:39   : Log Export Date {yyyy-MM-dd HH:mm:ss}
PROV.           : PROVINCE
UWI.   31/5-4 S   : UNIQUE WELL ID
API.            : API NUMBER
#==================================================================
~Curve
DEPT .m                   : DEPTH
Lithology_geolink ._      : Lithology_geolink
CALI .in                  : CALI
DRHO .g/cm3               : DRHO
NPHI .m3/m3               : NPHI
RHOB .g/cm3               : RHOB
GR .gAPI                  : GR
DTC .us/ft                : DTC
RDEP .ohm.m               : RDEP
SP .mV                    : SP
RSHA .ohm.m               : RSHA
RMED .ohm.m               : RMED
~Parameter
#==================================================================
~Ascii
# ...
 1680.2786865 6.0000000000 8.5390625000 -0.017160818 0.3213723600 2.1066675186 91.562500000 135.65153503 6.9260225296 80.750000000 1.0390625000 4.9698057175
 1680.4311523 6.0000000000 8.5390625000 -0.016768694 0.3384730518 2.0999751091 94.187500000 135.27790833 6.7184638977 80.668434143 0.9790039063 4.7805128098
 1680.5834961 6.0000000000 8.5390625000 -0.015468991 0.3479543924 2.1110286713 97.375000000 133.35661316 6.8754072189 80.043869019 1.2421875000 4.8582744598
 1680.7358398 5.0000000000 8.5390625000 -0.011882226 0.3352098465 2.1436901093 93.437500000 130.80371094 7.0598230362 79.418937683 1.0771484375 5.0266084671
 1680.8883057 5.0000000000 8.5390625000 -0.006002885 0.2918312848 2.2075996399 90.125000000 127.90037537 8.8297500610 78.939903259 1.2109375000 6.3446865082
 1681.0406494 16.000000000 8.5390625000 0.0029064904 0.2307289690 2.3099851608 83.187500000 124.02344513 13.530158997 79.537132263 2.3789062500 9.8255805969
 1681.1931152 16.000000000 8.5390625000 0.0154776620 0.1747393608 2.4390602112 80.937500000 119.47352600 16.281616211 80.560096741 35.031250000 11.833469391
 1681.3454590 2.0000000000 8.5390625000 0.0292713940 0.1380866170 2.5591692924 75.375000000 115.93018341 24.202861786 80.092575073 33.062500000 17.479385376
 1681.4979248 2.0000000000 8.5390625000 0.0384787843 0.1219157055 2.6237826347 78.625000000 113.99205017 23.881359100 79.826324463 27.812500000 16.841499329
 1681.6502686 2.0000000000 8.5390625000 0.0361919068 0.1229947358 2.6143836975 78.187500000 115.22768402 17.593788147 79.435150146 27.328125000 12.680139542
 1681.8024902 2.0000000000 8.5390625000 0.0159046445 0.1544925570 2.5605549812 81.312500000 117.94557953 12.475500107 79.032051086 5.7343750000 8.8594570160
 1681.9549561 2.0000000000 8.5390625000 0.0039408654 0.2256048322 2.4442691803 79.125000000 120.27636719 10.986663818 79.314506531 1.2490234375 7.4647321701
 1682.1072998 2.0000000000 8.5390625000 -0.005835949 0.2875399888 2.2898449898 77.500000000 117.50571442 11.270578384 79.943351746 1.3603515625 7.5195198059
 1682.2597656 2.0000000000 8.5390625000 -0.015384135 0.3338893354 2.1879944801 74.187500000 111.86490631 12.982843399 81.137123108 2.0703125000 8.4429969788
 1682.4121094 2.0000000000 8.5390625000 -0.018716333 0.3379651606 2.1501512527 72.312500000 102.40438843 14.099720001 80.375000000 1.6357421875 9.3407173157
 1682.5645752 2.0000000000 8.5390625000 -0.014566346 0.3479336202 2.1328816414 71.437500000 91.609565735 14.099096298 80.455627441 1.1708984375 9.6519985199
 1682.7169189 2.0000000000 8.5390625000 -0.013220496 0.3436036706 2.1089024544 69.750000000 80.016304016 14.091659546 81.112792969 1.0292968750 9.8024826050
 1682.8693848 2.0000000000 8.5390625000 -0.014972596 0.3412194550 2.0802583694 72.062500000 69.374702454 13.913963318 81.826622009 1.0009765625 9.7317047119
 1683.0217285 2.0000000000 8.5390625000 -0.017215051 0.3418608904 2.0646004677 74.312500000 64.457542419 14.953832626 81.500000000 0.9892578125 10.216104507
 1683.1741943 16.000000000 8.5390625000 -0.019675480 0.3328460157 2.0629205704 73.125000000 68.105018616 17.461769104 81.645133972 0.8535156250 11.487380981
 1683.3265381 16.000000000 8.5390625000 -0.017162500 0.3137043715 2.0750775337 66.062500000 75.076126099 18.998683929 82.657226563 0.6123046875 12.102220535
 1683.4787598 2.0000000000 8.5390625000 -0.014925781 0.2789393365 2.0947165489 60.875000000 84.680122375 20.157726288 82.970550537 0.6274414063 12.555549622
 1683.6312256 2.0000000000 8.5390625000 -0.014803286 0.2602107823 2.1175780296 60.281250000 96.635025024 19.422142029 83.560951233 0.7158203125 12.025711060
 1683.7835693 2.0000000000 8.5390625000 -0.012671096 0.2630154490 2.1187400818 62.656250000 104.20513916 17.764057159 83.013519287 1.0322265625 11.151117325
 1683.9360352 2.0000000000 8.5390625000 -0.012445033 0.2916093171 2.0949387550 63.500000000 105.48514557 17.003818512 82.169937134 1.2392578125 10.856641769
 1684.0883789 2.0000000000 8.5390625000 -0.017264051 0.3147440553 2.0752449036 67.187500000 101.54518890 16.138080597 81.593147278 1.3281250000 10.494810104
 1684.2408447 2.0000000000 8.5390625000 -0.020296795 0.3229567409 2.0744252205 66.375000000 95.081848145 14.908069611 81.455131531 1.1542968750 9.9097957611
 1684.3931885 2.0000000000 8.5390625000 -0.019548438 0.3231366873 2.0806264877 67.312500000 87.582145691 13.479780197 81.967971802 0.9882812500 9.0464038849
 1684.5456543 2.0000000000 8.5390625000 -0.019316107 0.3346765935 2.0819778442 64.375000000 83.829154968 12.070796967 81.653846741 0.9716796875 8.2645015717
 1684.6979980 2.0000000000 8.5390625000 -0.020267574 0.3444743752 2.0811238289 67.187500000 82.140121460 11.770269394 80.951965332 1.0195312500 8.2129726410
 1684.8504639 2.0000000000 8.5390625000 -0.021270994 0.3391316831 2.0904808044 67.250000000 76.711044312 11.106744766 80.576919556 0.9648437500 7.9119749069
 1685.0028076 16.000000000 8.5390625000 -0.019897278 0.2966313064 2.1276268959 65.875000000 71.480598450 12.081830978 80.250000000 0.9013671875 8.6945552826
 1685.1550293 16.000000000 8.5390625000 -0.016257932 0.2256792039 2.1990385056 64.875000000 70.465843201 13.919736862 80.202522278 0.9458007813 10.070465088
 1685.3074951 16.000000000 8.5390625000 -0.013933334 0.1502679735 2.3196978569 64.437500000 78.416740417 17.198654175 79.843177795 32.000000000 12.153131485
 1685.4598389 2.0000000000 8.5390625000 -0.008618575 0.1068333536 2.4190926552 65.562500000 92.902809143 17.766834259 79.688301086 399.25000000 12.013341904
 1685.6123047 2.0000000000 8.5390625000 -0.003864103 0.1198729947 2.3881902695 66.250000000 107.50823975 17.470321655 80.125000000 211.75000000 11.494550705
 1685.7646484 2.0000000000 8.5390625000 -0.010262050 0.1788294613 2.2502994537 63.218750000 115.90467834 14.891511917 79.998397827 1.8662109375 9.7367000580
 1685.9171143 2.0000000000 8.5390625000 -0.028853845 0.2490187436 2.1455554962 62.906250000 114.49399567 13.180486679 79.284126282 0.7822265625 8.4192752838
 1686.0694580 2.0000000000 8.5390625000 -0.035649560 0.3036097586 2.1123986244 60.937500000 112.41139221 13.394693375 80.295875549 0.9350585938 8.6215343475
 1686.2218018 2.0000000000 8.5390625000 -0.028474519 0.3196167648 2.1081228256 64.250000000 109.08674622 13.156110764 79.892425537 0.9150390625 8.6488571167
 1686.3742676 2.0000000000 8.5390625000 -0.027966933 0.3267084658 2.1006040573 64.687500000 102.89203644 12.862810135 80.922737122 1.1308593750 8.4850978851
 1686.5266113 2.0000000000 8.5390625000 -0.025279567 0.3253392875 2.0965824127 61.468750000 95.822700500 11.898971558 81.218345642 1.1181640625 8.0932979584
 1686.6790771 2.0000000000 8.5390625000 -0.022041311 0.3176003993 2.0898551941 62.812500000 86.106613159 10.187276840 80.888610840 1.0263671875 7.1994323730
 1686.8312988 2.0000000000 8.5390625000 -0.019726602 0.3143516183 2.0830097198 63.937500000 70.851867676 9.9998931885 80.062095642 1.0527343750 7.1259050369
 1686.9837646 2.0000000000 8.5390625000 -0.020116253 0.3121747673 2.0862541199 67.437500000 59.107429504 9.7413387299 79.830566406 1.2070312500 7.0559358597
 1687.1361084 2.0000000000 8.5390625000 -0.017027885 0.3251557350 2.0842146873 64.250000000 64.471351624 9.7659034729 81.281448364 1.2246093750 7.1105270386
 1687.2885742 2.0000000000 8.5390625000 -0.018676443 0.3262431622 2.0913267136 60.875000000 77.453826904 9.9554424286 81.373497009 1.2500000000 7.2482948303
 1687.4409180 2.0000000000 8.5390625000 -0.018907206 0.3174333274 2.0996584892 60.312500000 96.192161560 9.7110595703 80.405647278 1.2412109375 7.0241203308
 1687.5932617 2.0000000000 8.5390625000 -0.017026601 0.3067606390 2.1066794395 63.156250000 106.61820221 9.3511543274 79.592872620 0.9707031250 6.7266464233
 1687.7457275 2.0000000000 8.5390625000 -0.017874539 0.3005659282 2.1001515388 63.875000000 112.41778564 8.5594692230 78.515724182 0.9765625000 6.1152286530
 1687.8980713 2.0000000000 8.5390625000 -0.017839262 0.2972027063 2.0854377747 66.937500000 114.11308289 8.0262680054 78.766410828 1.0869140625 5.7219333649
