# LAS format log file from PETREL
# Project units are specified as depth units
#==================================================================
~Version information
VERS.   2.0:
WRAP.   NO:
#==================================================================
~Well
STRT .m      815.00012207 :
STOP .m      2497.5000000 :
STEP .m     0.00000000 :
NULL .        -999.250000 :
COMP.           : COMPANY
WELL.  31/5-2R   : WELL
FLD.            : FIELD
LOC.            : LOCATION
SRVC.           : SERVICE COMPANY
DATE.  2018-09-11 14:48:39   : Log Export Date {yyyy-MM-dd HH:mm:ss}
PROV.           : PROVINCE
UWI.   31/5-2 R   : UNIQUE WELL ID
API.            : API NUMBER
#==================================================================
~Curve
DEPT .m                   : DEPTH
Lithology_geolink ._      : Lithology_geolink
CALI .in                  : CALI
DRHO .g/cm3               : DRHO
NPHI .m3/m3               : NPHI
RHOB .g/cm3               : RHOB
GR .gAPI                  : GR
DTC .us/ft                : DTC
DTE .us/ft                : DTE
RDEP .ohm.m               : RDEP
SP .mV                    : SP
RSHA .ohm.m               : RSHA
RMED .ohm.m               : RMED
~Parameter
#==================================================================
~Ascii
# ...
 2266.9997559 1.0000000000 8.3090000153 0.0070000002 0.2115900069 2.2279999256 51.952983856 95.267517090 93.147254944 0.5540800691 7.8189783096 0.6379726529 0.6379726529
 2267.1247559 1.0000000000 8.3070001602 0.0070000002 0.2131299973 2.2300000191 52.180553436 95.523406982 93.398941040 0.5270527601 7.8289809227 0.6459844112 0.6459844112
 2267.2497559 1.0000000000 8.3079996109 0.0040058596 0.2163400054 2.2239999771 52.729923248 95.879707336 93.582115173 0.5110312104 7.8449678421 0.6469980478 0.6469980478
 2267.3747559 1.0000000000 8.3120002747 -0.000990234 0.2195899934 2.2160000801 53.625247955 95.879707336 93.685920715 0.5030156374 7.8629646301 0.6450039148 0.6450039148
 2267.4997559 1.0000000000 8.3179998398 -0.000001953 0.2223899961 2.2130000591 54.574146271 95.769989014 93.680717468 0.5010039210 7.8749766350 0.6430039406 0.6430039406
 2267.6247559 1.0000000000 8.3229999542 0.0069863284 0.2247400135 2.2200000286 55.285610199 95.808235168 93.562042236 0.5009999871 7.8779940605 0.6420019865 0.6420019865
 2267.7497559 1.0000000000 8.3260002136 0.0159824230 0.2270199955 2.2309999466 55.551479340 95.626266479 93.337425232 0.5009999871 7.8660230637 0.6429980397 0.6429980397
 2267.8747559 1.0000000000 8.3269996643 0.0199921876 0.2298000008 2.2379999161 55.561981201 95.164100647 93.027755737 0.5019980073 7.8430447578 0.6449960470 0.6449960470
 2267.9997559 1.0000000000 8.3260002136 0.0160078127 0.2335100025 2.2360000610 55.565994263 95.164100647 92.666816711 0.5039960742 7.8100643158 0.6489921808 0.6489921808
 2268.1247559 1.0000000000 8.3229999542 0.0050214841 0.2374600023 2.2260000706 55.656822205 94.457214355 92.176261902 0.5069941878 7.7660856247 0.6549882293 0.6549882293
 2268.2497559 1.0000000000 8.3170003891 -0.007974610 0.2401600033 2.2139999866 55.692932129 93.484504700 91.309890747 0.5109921694 7.7270765305 0.6619863510 0.6619863510
 2268.3747559 1.0000000000 8.3109998703 -0.018978516 0.2401300073 2.2049999237 55.447479248 92.149169922 89.845245361 0.5169882774 7.7050428391 0.6689863801 0.6689863801
 2268.4997559 1.0000000000 8.3059997559 -0.025986329 0.2385099977 2.2030000687 54.878112793 90.162094116 87.727455139 0.5239863396 7.7089924812 0.6739902496 0.6739902496
 2268.6247559 1.0000000000 8.3039999008 -0.024003906 0.2373999953 2.2109999657 54.312107086 87.347770691 85.090858459 0.5339804292 7.7259664536 0.6789902449 0.6789902449
 2268.7497559 1.0000000000 8.3039999008 -0.015017577 0.2381999940 2.2249999046 54.112388611 84.577552795 82.418693542 0.5449785590 7.7409710884 0.6869843602 0.6869843602
 2268.8747559 1.0000000000 8.3059997559 -0.003023437 0.2399599999 2.2409999371 54.344547272 82.813438416 80.472946167 0.5549804568 7.7410001755 0.6939863563 0.6939863563
 2268.9997559 1.0000000000 8.3070001602 0.0039863284 0.2411900014 2.2500000000 54.857997894 81.620765686 79.329498291 0.5659785271 7.7260289192 0.7009863257 0.7009863257
 2269.1247559 1.0000000000 8.3079996109 0.0040000002 0.2409900129 2.2500000000 55.368999481 81.092208862 78.876274109 0.5749824047 7.7030448914 0.7039941549 0.7039941549
 2269.2497559 1.0000000000 8.3070001602 -0.004982422 0.2395599931 2.2400000095 55.753250122 81.233261108 78.954139709 0.5829843879 7.6790466309 0.7079921961 0.7079921961
 2269.3747559 1.0000000000 8.3079996109 -0.017974610 0.2372899950 2.2249999046 55.958599091 81.822280884 79.413505554 0.5919824243 7.6500568390 0.7139882445 0.7139882445
 2269.4997559 1.0000000000 8.3090000153 -0.027980469 0.2344499975 2.2149999142 56.032855988 82.496421814 80.312049866 0.6049746275 7.6270446777 0.7229824066 0.7229824066
 2269.6247559 1.0000000000 8.3100004196 -0.030994140 0.2313899994 2.2149999142 56.079910278 83.814331055 81.447883606 0.6209687591 7.6220097542 0.7289882302 0.7289882302
 2269.7497559 1.0000000000 8.3079996109 -0.025011718 0.2296400070 2.2309999466 56.057044983 84.886940002 82.582061768 0.6399628520 7.6539373398 0.7309960723 0.7309960723
 2269.8747559 1.0000000000 8.3020000458 -0.011027344 0.2297800034 2.2579998970 56.038036346 85.598670959 83.451744080 0.6619570255 7.7118864059 0.7339941859 0.7339941859
 2269.9997559 1.0000000000 8.2930002213 0.0059667970 0.2320799977 2.2920000553 56.177726746 86.084556580 83.818222046 0.6849550605 7.7728805542 0.7479726672 0.7479726672
 2270.1247559 1.0000000000 8.2819995880 0.0179765616 0.2347200066 2.3190000057 56.566242218 85.971488953 83.503555298 0.7079550624 7.8149175644 0.7809355855 0.7809355855
 2270.2497559 1.0000000000 8.2740001678 0.0229902342 0.2365999967 2.3310000896 57.013126373 84.982261658 82.810310364 0.7289589643 7.8349609375 0.8269101977 0.8269101977
 2270.3747559 1.0000000000 8.2679996490 0.0200058594 0.2366899997 2.3280000687 57.231571198 84.255867004 82.201423645 0.7479628921 7.8459792137 0.8729102015 0.8729102015
 2270.4997559 1.0000000000 8.2639999390 0.0140117193 0.2353399992 2.3199999332 57.029396057 84.049476624 81.870643616 0.7639687657 7.8639650345 0.8969531655 0.8969531655
 2270.6247559 1.0000000000 8.2609996796 0.0090097655 0.2333700061 2.3139998913 56.427177429 84.192802429 81.884910583 0.7769746184 7.8889513016 0.8930078149 0.8930078149
 2270.7497559 1.0000000000 8.2589998245 0.0050078123 0.2318499982 2.3120000362 55.721378326 84.216026306 82.179344177 0.7829882503 7.9119558334 0.8710429668 0.8710429668
 2270.8747559 1.0000000000 8.2569999695 0.0010078126 0.2311300039 2.3080000877 55.349723816 84.691673279 82.493598938 0.7820019722 7.9229779243 0.8530351520 0.8530351520
 2270.9997559 1.0000000000 8.2569999695 -0.004988281 0.2313199937 2.2980000973 55.401897430 85.027084351 82.639953613 0.7710214853 7.9110226631 0.8490077853 0.8490077853
 2271.1247559 1.0000000000 8.2600002289 -0.010988281 0.2310499996 2.2839999199 55.663490295 85.027648926 82.701995850 0.7560293078 7.8770661354 0.8539901972 0.8539901972
 2271.2497559 1.0000000000 8.2650003433 -0.014992187 0.2288599908 2.2730000019 55.865608215 85.061286926 82.800109863 0.7380351424 7.8260998726 0.8539999723 0.8539999723
 2271.3747559 1.0000000000 8.2700004578 -0.015000000 0.2240399867 2.2669999599 55.823085785 85.433288574 83.055450439 0.7190371156 7.7741017342 0.8400273323 0.8400273323
 2271.4997559 1.0000000000 8.2760000229 -0.012005859 0.2178899944 2.2639999390 55.655326843 85.711936951 83.556701660 0.6980410218 7.7340784073 0.8190410137 0.8190410137
 2271.6247559 1.0000000000 8.2790002823 -0.008007813 0.2127300054 2.2620000839 55.501300812 86.390945435 84.243179321 0.6720507741 7.7180314064 0.8040293455 0.8040293455
 2271.7497559 1.0000000000 8.2810001373 -0.001013672 0.2104599923 2.2599999905 55.357280731 87.294548035 84.972991943 0.6430566311 7.7239880562 0.8000078201 0.8000078201
 2271.8747559 1.0000000000 8.2810001373 0.0079824226 0.2111300081 2.2609999180 55.130443573 88.071960449 85.714126587 0.6170507669 7.7409667969 0.8029941320 0.8029941320
 2271.9997559 1.0000000000 8.2799997330 0.0179804675 0.2117499858 2.2639999390 54.711818695 88.624504089 86.426681519 0.5990351439 7.7509803772 0.7940176129 0.7940176129
 2272.1247559 1.0000000000 8.2790002823 0.0239882823 0.2082900107 2.2650001049 54.024341583 89.097366333 87.039947510 0.5930117369 7.7430157661 0.7680507898 0.7680507898
 2272.2497559 1.0000000000 8.2779998779 0.0160156265 0.1976199895 2.2630000114 53.010978699 89.605110168 87.245407104 0.6029804349 7.7110624313 0.7200937867 0.7200937867
 2272.3747559 1.0000000000 8.2799997330 -0.004958984 0.1794599891 2.2609999180 52.017936707 88.841377258 86.641754150 0.6299472451 7.6740722656 0.6740898490 0.6740898490
 2272.4997559 1.0000000000 8.2849998474 -0.033943363 0.1545899957 2.2720000744 51.284431458 87.239883423 85.067230225 0.6709199548 7.6440587044 0.6500468254 0.6500468254
 2272.6247559 1.0000000000 8.2939996719 -0.055957034 0.1298999935 2.3090000153 50.823902130 84.792175293 82.476623535 0.7358730435 7.6360158920 0.6919179559 0.6919179559
 2272.7497559 1.0000000000 8.3030004501 -0.058994140 0.1106000021 2.3719999790 50.278068542 81.406951904 78.972946167 0.8208339810 7.6419882774 0.8187519312 0.8187519312
 2272.8747559 1.0000000000 8.3100004196 -0.039039064 0.1015200019 2.4460000992 49.243022919 77.000465393 74.822471619 0.9317831993 7.6579685211 1.1254004240 1.1254004240
