# LAS format log file from PETREL
# Project units are specified as depth units
#==================================================================
~Version information
VERS.   2.0:
WRAP.   NO:
#==================================================================
~Well
STRT .m      405.00000000 :
STOP .m      1938.8748779 :
STEP .m     0.00000000 :
NULL .        -999.250000 :
COMP.           : COMPANY
WELL.  31/5-5 R   : WELL
FLD.            : FIELD
LOC.            : LOCATION
SRVC.           : SERVICE COMPANY
DATE.  2018-09-11 14:48:39   : Log Export Date {yyyy-MM-dd HH:mm:ss}
PROV.           : PROVINCE
UWI.   31/5-5 R   : UNIQUE WELL ID
API.            : API NUMBER
#==================================================================
~Curve
DEPT .m                   : DEPTH
Lithology_geolink ._      : Lithology_geolink
CALI .in                  : CALI
DRHO .g/cm3               : DRHO
NPHI .m3/m3               : NPHI
RHOB .g/cm3               : RHOB
GR .gAPI                  : GR
DTC .us/ft                : DTC
RDEP .ohm.m               : RDEP
SP .mV                    : SP
RSHA .ohm.m               : RSHA
~Parameter
#==================================================================
~Ascii
# ...
 1833.0000000 5.0000000000 8.4264001846 0.0234690681 0.4781707525 2.3074502945 105.68959808 95.548728943 1.3324239254 77.596801758 1.1318999529
 1833.1250000 5.0000000000 8.4264001846 0.0262752362 0.4853597879 2.2811384201 107.08589935 94.409034729 1.2125556469 77.448898315 1.0563000441
 1833.2500000 5.0000000000 8.4264001846 0.0270674489 0.4817104340 2.2715167999 109.28199768 93.267776489 1.1158733368 77.235198975 1.0634000301
 1833.3751221 5.0000000000 8.4264001846 -0.010587249 0.4809747338 2.2645387650 112.00340271 92.132118225 1.0854377747 77.052200317 1.1288000345
 1833.4998779 6.0000000000 8.4264001846 0.0233221054 0.4992842972 2.2642583847 114.82060242 91.203704834 1.0854227543 76.935997009 1.1833000183
 1833.6250000 6.0000000000 8.4264001846 0.0403494164 0.5127885342 2.2669062614 117.19159698 90.907920837 1.0883152485 76.861000061 1.1586999893
 1833.7500000 6.0000000000 8.4264001846 0.0378393158 0.5115524530 2.2673568726 118.69460297 91.495155334 1.0919277668 76.807098389 1.0592999458
 1833.8750000 6.0000000000 8.4264001846 0.0144466069 0.5003644228 2.2725682259 119.08319855 92.842330933 1.0903677940 76.809501648 0.9508000016
 1834.0000000 6.0000000000 8.4264001846 0.0274402164 0.4943040609 2.2824153900 118.37660217 94.187309265 1.0850327015 76.913200378 0.8932999969
 1834.1250000 6.0000000000 8.4264001846 0.0209808797 0.4906253815 2.2866744995 116.80789948 95.534042358 1.0820915699 77.149101257 0.9034000039
 1834.2500000 6.0000000000 8.4264001846 0.0143405385 0.5060609579 2.2866549492 115.05069733 96.880012512 1.0855791569 77.449302673 0.9611999989
 1834.3750000 6.0000000000 8.4264001846 0.0231551789 0.5275701284 2.2920546532 113.70110321 98.225822449 1.0963339806 77.718696594 1.0290000439
 1834.5001221 5.0000000000 8.4264001846 0.0494339168 0.5251135826 2.2946519852 113.06800079 99.574180603 1.1189839840 77.840599060 1.0695999861
 1834.6248779 5.0000000000 8.4264001846 0.0168923661 0.5071568489 2.2865848541 113.19730377 100.91761017 1.1525659561 77.706298828 1.0729000568
 1834.7500000 5.0000000000 8.4264001846 0.0255162977 0.4926868677 2.2780184746 113.59190369 102.26406860 1.1838479042 77.375198364 1.0554000139
 1834.8750000 5.0000000000 8.4264001846 0.0461055636 0.4826088846 2.2731494904 113.87339783 103.60326385 1.2049396038 76.915298462 1.0377999544
 1835.0000000 5.0000000000 8.4264001846 0.0011635495 0.4769351482 2.2753438950 113.81749725 104.68654633 1.2295985222 76.405403137 1.0307999849
 1835.1250000 5.0000000000 8.4264001846 -0.001863295 0.4973689318 2.2845530510 113.48210144 105.31305695 1.2465260029 75.956398010 1.0283999443
 1835.2500000 5.0000000000 8.4264001846 0.0063672550 0.5102032423 2.2877316475 113.05590057 105.41971588 1.2408130169 75.659400940 1.0191999674
 1835.3750000 5.0000000000 8.4264001846 0.0304976478 0.5045664310 2.2878470421 112.53410339 105.42816162 1.2383134365 75.561401367 1.0089999437
 1835.5000000 5.0000000000 8.4264001846 0.0269296840 0.4748455882 2.2913799286 111.94249725 105.43667603 1.2532072067 75.666702271 1.0278999805
 1835.6250000 5.0000000000 8.4264001846 0.0276210420 0.4652925134 2.2977962494 111.37400055 105.44515991 1.2791745663 75.950103760 1.1121000051
 1835.7498779 5.0000000000 8.4264001846 -0.008402327 0.4700084925 2.3041634560 111.00250244 105.45362091 1.3118994236 76.263801575 1.2728999853
 1835.8750000 5.0000000000 8.4264001846 -0.000288228 0.4911447763 2.3099789619 111.05049896 105.46215057 1.3289449215 76.487800598 1.4530999660
 1836.0000000 5.0000000000 8.4264001846 0.0444685444 0.5007741451 2.3053321838 111.44619751 105.47060394 1.3247795105 76.534896851 1.5171999931
 1836.1250000 5.0000000000 8.4264001846 0.0420795605 0.4875266552 2.2975568771 111.43759918 105.47912598 1.2850644588 76.359298706 1.3971999884
 1836.2500000 5.0000000000 8.4264001846 0.0114874765 0.4723178148 2.2954049110 110.10610199 105.48688507 1.2039189339 76.088897705 1.1970000267
 1836.3750000 5.0000000000 8.4264001846 0.0186488479 0.4545072317 2.3045945168 107.13449860 105.46736908 1.1088550091 75.848800659 1.0482000113
 1836.5000000 5.0000000000 8.4264001846 -0.025394276 0.4262190759 2.3173093796 102.94850159 105.37684631 1.0196111202 75.746299744 0.9837999940
 1836.6250000 5.0000000000 8.4264001846 0.0569668189 0.3931201100 2.3186655045 98.567802429 105.16723633 0.9449975491 75.850502014 0.9617999792
 1836.7500000 2.0000000000 8.4264001846 0.0183178075 0.3898772001 2.3147501945 95.152297974 104.85420990 0.8819413185 76.085899353 0.9348000288
 1836.8751221 2.0000000000 8.4264001846 -0.054256611 0.3953042626 2.3052730560 92.989303589 104.54045868 0.8298834562 76.373802185 0.8988000154
 1836.9998779 2.0000000000 8.4264001846 0.0772971511 0.3927594125 2.3013563156 91.679901123 104.22785950 0.7913799286 76.625602722 0.8845999837
 1837.1250000 2.0000000000 8.4264001846 0.0283895656 0.3903559446 2.2794213295 90.475601196 103.91433716 0.7550921440 76.748397827 0.9126999974
 1837.2500000 2.0000000000 8.4264001846 0.0461835191 0.3993048072 2.2379069328 88.793098450 103.60090637 0.7105422020 76.734100342 0.9546999931
 1837.3750000 2.0000000000 8.4264001846 0.0466044322 0.4127329588 2.2016291618 86.879203796 103.28788757 0.6745723486 76.607803345 0.9473999739
 1837.5000000 2.0000000000 8.4264001846 0.0265622810 0.4110331833 2.1964244843 85.313102722 102.97438812 0.6591944695 76.453598022 0.8561000228
 1837.6250000 2.0000000000 8.4264001846 -0.004008945 0.4147967100 2.2070474625 84.804199219 102.66123962 0.6476769447 76.382202148 0.7235999703
 1837.7500000 2.0000000000 8.4264001846 0.0199964829 0.4092481136 2.2103872299 85.388801575 102.34856415 0.6433269978 76.407402039 0.6171000004
 1837.8750000 2.0000000000 8.4264001846 0.0328282565 0.4076392651 2.2057390213 86.705001831 102.05587769 0.6450301409 76.488502502 0.5616999865
 1838.0001221 2.0000000000 8.4264001846 0.0368073955 0.4004486203 2.1973819733 88.206398010 101.82498169 0.6469060183 76.566101074 0.5526000261
 1838.1248779 2.0000000000 8.4264001846 0.0326576009 0.4073671103 2.2107615471 89.375000000 101.77584839 0.6543508768 76.585098267 0.5683000088
 1838.2500000 2.0000000000 8.4264001846 0.0122658312 0.4161786139 2.2191472054 90.001098633 101.85701752 0.6655987501 76.583503723 0.5813999772
 1838.3750000 2.0000000000 8.4264001846 0.0304172933 0.4204155803 2.2201051712 90.107696533 101.95752716 0.6690467596 76.627998352 0.5710999966
 1838.5000000 2.0000000000 8.4264001846 0.0230837725 0.4058915973 2.2125110626 89.898597717 102.05805206 0.6641275883 76.743400574 0.5343000293
 1838.6250000 2.0000000000 8.4264001846 0.0148734394 0.4072805047 2.1891822815 89.932197571 102.15846252 0.6567276716 76.873497009 0.4905999899
 1838.7500000 2.0000000000 8.4264001846 0.0046565291 0.4129012227 2.1731357574 90.545997620 102.25881195 0.6473022699 76.948997498 0.4614999890
 1838.8750000 2.0000000000 8.4264001846 0.0063679405 0.4198144674 2.1716914177 91.548896790 102.35932159 0.6411511898 76.947402954 0.4519999921
 1839.0000000 2.0000000000 8.4264001846 0.0112316720 0.4169151187 2.1717958450 92.639297485 102.45977020 0.6461321115 76.885200500 0.4550999999
 1839.1250000 2.0000000000 8.4264001846 0.0089247487 0.4142758250 2.1706051826 93.694801331 102.56024933 0.6674501896 76.844001770 0.4591999948
 1839.2501221 2.0000000000 8.4264001846 -0.003376056 0.3989520371 2.1668653488 94.609901428 102.66158295 0.6838263273 76.886398315 0.4557999969
 1839.3750000 5.0000000000 8.4264001846 0.0236965306 0.3915011883 2.1668848991 95.389396667 102.77769470 0.6826448441 76.976699829 0.4449999928
 1839.5000000 5.0000000000 8.4264001846 0.0074994937 0.3863457739 2.1690645218 95.924896240 102.99512482 0.6779659986 77.019897461 0.4329999983
 1839.6250000 5.0000000000 8.4264001846 -0.010526076 0.3832511902 2.1675515175 95.670402527 103.34278870 0.6794321537 76.924697876 0.4260999858
 1839.7500000 5.0000000000 8.4264001846 0.0244760700 0.3865036666 2.1717219353 94.445198059 103.71685028 0.6915082932 76.746597290 0.4277999997
 1839.8750000 5.0000000000 8.4264001846 0.0001197215 0.3940529227 2.1874775887 92.508399963 104.09624481 0.7242751122 76.587898254 0.4386000037
