# LAS format log file from PETREL
# Project units are specified as depth units
#==================================================================
~Version information
VERS.   2.0:
WRAP.   NO:
#==================================================================
~Well
STRT .m      382.62487793 :
STOP .m      2254.4997559 :
STEP .m     0.00000000 :
NULL .        -999.250000 :
COMP.           : COMPANY
WELL.  31/5-3   : WELL
FLD.            : FIELD
LOC.            : LOCATION
SRVC.           : SERVICE COMPANY
DATE.  2018-09-11 14:48:39   : Log Export Date {yyyy-MM-dd HH:mm:ss}
PROV.           : PROVINCE
UWI.   31/5-3   : UNIQUE WELL ID
API.            : API NUMBER
#==================================================================
~Curve
DEPT .m                   : DEPTH
Lithology_geolink ._      : Lithology_geolink
CALI .in                  : CALI
DRHO .g/cm3               : DRHO
NPHI .m3/m3               : NPHI
RHOB .g/cm3               : RHOB
GR .gAPI                  : GR
DTC .us/ft                : DTC
DTE .us/ft                : DTE
RDEP .ohm.m               : RDEP
SP .mV                    : SP
RSHA .ohm.m               : RSHA
RMED .ohm.m               : RMED
~Parameter
#==================================================================
~Ascii
# ...
 1870.6247559 5.0000000000 12.601000786 0.0720234364  -999.250000  -999.250000 62.587684631 101.20439911 96.599189758 0.7100077868 69.114631653 0.6560019851 0.8240039349
 1870.7497559 5.0000000000 12.600000381 0.0490449220  -999.250000  -999.250000 59.508045197 100.85289001 96.235496521 0.6980234385 69.601097107 0.6520078182 0.7960547209
 1870.8747559 5.0000000000 12.597000122 0.0340439044  -999.250000  -999.250000 56.056488037 100.84468842 96.276351929 0.6810497642 70.048255920 0.6470049024 0.7511317134
 1870.9997559 5.0000000000 12.595000267 0.0479863025  -999.250000  -999.250000 52.873428345 101.28996277 96.713890076 0.6600205898 70.366752625 0.6410058141 0.7030469775
 1871.1247559 2.0000000000 12.593999863 0.0749473199  -999.250000  -999.250000 50.502250671 102.13259125 97.445213318 0.6350487471 70.519401550 0.6340136528 0.6720604897
 1871.2498779 2.0000000000 12.593999863 0.1019736305  -999.250000  -999.250000 49.374286652 102.75105286 98.177330017 0.6100244522 70.526977539 0.6280058622 0.6769950986
 1871.3748779 2.0000000000 12.595000267 0.1169853508  -999.250000  -999.250000 49.169395447 103.04035187 98.387344360 0.5920175910 70.345359802 0.6280000210 0.7029746175
 1871.4998779 2.0000000000 12.595000267 0.1169999987  -999.250000  -999.250000 49.258823395 102.88835144 98.260208130 0.5880039334 70.037605286 0.6419863701 0.7309726477
 1871.6247559 2.0000000000 12.593999863 0.1010312513  -999.250000  -999.250000 49.335773468 102.65670013 98.027244568 0.6039687395 69.714942932 0.6849160194 0.7489648461
 1871.7497559 2.0000000000 12.593000412 0.0840331987  -999.250000  -999.250000 49.138580322 102.57586670 97.911727905 0.6499101520 69.483680725 0.7478770018 0.7490000129
 1871.8747559 2.0000000000 12.591000557 0.0710253939  -999.250000  -999.250000 48.460655212 102.64157867 98.060440063 0.7378280759 69.424232483 0.8088808656 0.7460058331
 1871.9997559 2.0000000000 12.590000153 0.0630234182  -999.250000  -999.250000 47.066459656 102.67193604 98.010147095 0.8865638971 69.544525146 0.8668302298 0.7709268332
 1872.1247559 2.0000000000 12.590000153 0.0550078265  -999.250000  -999.250000 44.995101929 101.08224487 96.538429260 1.1017895937 69.923515320 0.9279403090 0.8539187312
 1872.2497559 2.0000000000 12.592000008 0.0440214649  -999.250000  -999.250000 42.717899323 97.685012817 93.142509460 1.3944282532 70.501739502 1.0028536320 1.0416332483
 1872.3747559 2.0000000000 12.597000122 0.0340195335  -999.250000  -999.250000 40.634136200 92.233848572 87.633682251 1.7902265787 71.069778442 1.1018066406 1.4212578535
 1872.4998779 2.0000000000 12.602999687 0.0359980464  -999.250000  -999.250000 39.043102264 84.816650391 80.205688477 2.3264765739 71.406341553 1.2478574514 2.1293087006
 1872.6248779 2.0000000000 12.608000755 0.0489873029  -999.250000  -999.250000 38.065906525 76.296943665 71.591285706 3.0892548561 71.343124390 1.4557968378 3.5625994205
 1872.7497559 16.000000000 12.605999947 0.0639707074  -999.250000  -999.250000 37.586402893 68.817985535 64.236289978 4.1010217667 70.896308899 1.6655898094 5.0850234032
 1872.8747559 16.000000000 12.595999718 0.0719843730  -999.250000  -999.250000 37.297843933 63.502117157 58.901916504 5.2577404976 70.434349060 1.7937500477 5.4073748589
 1872.9997559 16.000000000 12.578000069 0.0680078194  -999.250000  -999.250000 37.255165100 60.380130768 55.750259399 6.3578515053 70.065444946 1.7840195894 4.4658441544
 1873.1247559 2.0000000000 12.559000015 0.0670019537  -999.250000  -999.250000 37.461193085 59.275325775 54.667434692 7.1274981499 69.790077209 1.6981679201 2.9988672733
 1873.2497559 2.0000000000 12.542999268 0.0719951093  -999.250000  -999.250000 37.858444214 59.853237152 55.280609131 7.1010818481 69.556907654 1.5980978012 2.2023298740
 1873.3747559 2.0000000000 12.534000397 0.0809824392  -999.250000  -999.250000 38.255447388 61.262409210 56.605335236 6.1318984032 69.352790833 1.5031853914 1.9464966059
 1873.4997559 2.0000000000 12.531000137 0.0909804702  -999.250000  -999.250000 38.745086670 62.471141815 57.877838135 4.9093885422 69.309165955 1.4141738415 1.9180546999
 1873.6248779 2.0000000000 12.531000137 0.1019892544  -999.250000  -999.250000 39.629405975 63.834285736 59.226165771 3.7311494350 69.449584961 1.3240878582 1.9659531116
 1873.7498779 2.0000000000 12.531000137 0.1109912097  -999.250000  -999.250000 41.148033142 65.589683533 60.962055206 2.7669415474 69.671562195 1.2320898771 1.9460195303
 1873.8747559 2.0000000000 12.529998779 0.1119980514  -999.250000  -999.250000 43.401390076 68.103202820 63.513084412 2.0593829155 69.945198059 1.1361875534 1.7184454203
 1873.9997559 2.0000000000 12.529998779 0.1060117185  -999.250000  -999.250000 46.309474945 72.070709229 67.446868896 1.6108750105 70.358787537 1.0361952782 1.3427343369
 1874.1247559 2.0000000000 12.529000282 0.0980156213  -999.250000  -999.250000 49.285373688 77.663208008 73.130668640 1.2926211357 71.130981445 0.9351972938 1.0575566292
 1874.2497559 2.0000000000 12.527999878 0.0960039049  -999.250000  -999.250000 51.661727905 84.000350952 79.371833801 1.0614511967 71.998611450 0.8361933827 0.8723613024
 1874.3747559 2.0000000000 12.527000427 0.0989912227  -999.250000  -999.250000 53.185066223 90.187393188 85.573699951 0.8905004859 72.615592957 0.7520821095 0.7663102150
 1874.4997559 2.0000000000 12.526000977 0.1039951071  -999.250000  -999.250000 53.910179138 95.712669373 91.160316467 0.7621252537 72.798294067 0.6930576563 0.7090557814
 1874.6247559 2.0000000000 12.524000168 0.1049980447  -999.250000  -999.250000 54.104248047 100.28787231 95.618545532 0.6741717458 72.541015625 0.6440955997 0.6810546517
 1874.7498779 2.0000000000 12.522000313 0.0980068371  -999.250000  -999.250000 54.103008270 102.93236542 98.378746033 0.6150576472 72.143165588 0.6120312214 0.6690117717
 1874.8748779 2.0000000000 12.520999908 0.0860117227  -999.250000  -999.250000 54.066074371 104.47536469 99.834228516 0.5750390291 72.000274658 0.5960156322 0.6650039554
 1874.9998779 2.0000000000 12.520999908 0.0740117207  -999.250000  -999.250000 53.996135712 105.16529846 100.53388214 0.5510234237 71.972053528 0.5880078077 0.6679970622
 1875.1247559 2.0000000000 12.522998810 0.0759960935  -999.250000  -999.250000 53.920219421 105.28852081 100.69276428 0.5410195589 71.948066711 0.5830097795 0.6759843826
 1875.2497559 2.0000000000 12.524999619 0.0859804749  -999.250000  -999.250000 53.867156982 105.08621979 100.46335602 0.5410000086 71.937026978 0.5780097842 0.6889746189
 1875.3747559 2.0000000000 12.527000427 0.0989746079  -999.250000  -999.250000 53.858036041 104.66297150 99.953292847 0.5489844084 72.054542542 0.5730097890 0.7059667706
 1875.4997559 2.0000000000 12.527999878 0.1079736650  -999.250000  -999.250000 53.767353058 103.78166199 99.235603333 0.5599678159 72.366775513 0.5680146813 0.7249444127
 1875.6247559 2.0000000000 12.527999878 0.1070009768  -999.250000  -999.250000 53.494071960 103.07891083 98.457740784 0.5709677339 72.506462097 0.5640039444 0.7399560809
 1875.7497559 2.0000000000 12.527000427 0.0920292661  -999.250000  -999.250000 53.094562531 102.31623840 97.709602356 0.5819784999 72.365554810 0.5630019903 0.7449902296
 1875.8747559 2.0000000000 12.526000977 0.0730371103  -999.250000  -999.250000 52.654720306 101.65169525 97.094207764 0.5919804573 72.044258118 0.5669921637 0.7350195646
 1875.9998779 2.0000000000 12.524000168 0.0580146462  -999.250000  -999.250000 52.257164001 101.34828949 96.713050842 0.5999922156 71.733909607 0.5679990649 0.7110234499
 1876.1248779 2.0000000000 12.522000313 0.0530048832  -999.250000  -999.250000 51.933631897 101.21924591 96.678535461 0.6029970646 71.661140442 0.5630049109 0.6900205016
 1876.2497559 2.0000000000 12.520000458 0.0549960919  -999.250000  -999.250000 51.643852234 101.47554016 96.838699341 0.6010039449 71.799598694 0.5620019436 0.6810175776
 1876.3747559 2.0000000000 12.519001007 0.0609882809  -999.250000  -999.250000 51.330917358 101.63368225 97.007385254 0.5950117707 71.821937561 0.5729785562 0.6809999943
 1876.4997559 2.0000000000 12.520000458 0.0629960969  -999.250000  -999.250000 50.912635803 101.74619293 97.129776001 0.5890117288 71.655647278 0.5759941339 0.6849921942
