# LAS format log file from PETREL
# Project units are specified as depth units
#==================================================================
~Version information
VERS.   2.0:
WRAP.   NO:
#==================================================================
~Well
STRT .m      815.00012207 :
STOP .m      2497.5000000 :
STEP .m     0.00000000 :
NULL .        -999.250000 :
COMP.           : COMPANY
WELL.  31/5-2R   : WELL
FLD.            : FIELD
LOC.            : LOCATION
SRVC.           : SERVICE COMPANY
DATE.  2018-09-11 14:48:39   : Log Export Date {yyyy-MM-dd HH:mm:ss}
PROV.           : PROVINCE
UWI.   31/5-2 R   : UNIQUE WELL ID
API.            : API NUMBER
#==================================================================
~Curve
DEPT .m                   : DEPTH
Lithology_geolink ._      : Lithology_geolink
CALI .in                  : CALI
DRHO .g/cm3               : DRHO
NPHI .m3/m3               : NPHI
RHOB .g/cm3               : RHOB
GR .gAPI                  : GR
DTC .us/ft                : DTC
DTE .us/ft                : DTE
RDEP .ohm.m               : RDEP
SP .mV                    : SP
RSHA .ohm.m               : RSHA
RMED .ohm.m               : RMED
~Parameter
#==================================================================
~Ascii
# ...
 1049.0001221  -999.250000 18.544000626 0.0379824191  -999.250000 2.0620000362 75.135658264 155.39170837 149.93531799 1.1909941435 10.381987572 1.2069590092 1.2069590092
 1049.1250000  -999.250000 18.540000916 0.0289843734  -999.250000 2.0460000038 75.804000854 155.08634949 149.63063049 1.1879990101 10.369000435 1.1860146523 1.1860146523
 1049.2500000  -999.250000 18.472999573 0.0129814455  -999.250000 2.0260000229 76.387001038 154.69111633 149.21356201 1.1870000362 10.350999832 1.2010380030 1.2010380030
 1049.3751221  -999.250000 18.364000320 -0.006021484  -999.250000 2.0099999905 76.732055664 154.30302429 148.83737183 1.1869981289 10.327923775 1.2400937080 1.2400937080
 1049.5001221  -999.250000 18.243000031 -0.016996095  -999.250000 2.0060000420 76.758049011 153.91281128 148.53431702 1.1859921217 10.288880348 1.2880820036 1.2880820036
 1049.6251221  -999.250000 18.149999619 -0.014972656  -999.250000 2.0179998875 76.268142700 153.71588135 148.31196594 1.1819961071 10.227941513 1.3300606012 1.3300606012
 1049.7500000  -999.250000 18.093000412 -0.000981445  -999.250000 2.0409998894 75.397003174 153.71447754 148.20822144 1.1800057888 10.168000221 1.3610243797 1.3610243797
 1049.8750000  -999.250000 18.073999405 0.0180117171  -999.250000 2.0639998913 74.287002563 153.74736023 148.29537964 1.1860146523 10.131999969 1.3860332966 1.3860332966
 1050.0001221  -999.250000 18.073999405 0.0299980454  -999.250000 2.0780000687 73.342887878 154.23310852 148.74256897 1.2010351419 10.130019188 1.4201015234 1.4201015234
 1050.1251221  -999.250000 18.073999405 0.0289726555  -999.250000 2.0759999752 72.772994995 154.97215271 149.46745300 1.2190370560 10.139992714 1.4721444845 1.4721444845
 1050.2501221  -999.250000 18.056999207 0.0149726560  -999.250000 2.0620000362 72.763572693 155.75325012 150.26640320 1.2380273342 10.131961823 1.5461444855 1.5461444855
 1050.3750000  -999.250000 18.010000229 0.0009951172  -999.250000 2.0490000248 73.351997375 156.41551208 150.93995667 1.2520067692 10.093000412 1.6200507879 1.6200507879
 1050.5001221  -999.250000 17.926000595 -0.003988281  -999.250000 2.0469999313 74.498908997 156.79994202 151.31185913 1.2590018511 10.041925430 1.6720449924 1.6720449924
 1050.6251221  -999.250000 17.806999207 0.0020214845  -999.250000 2.0569999218 75.988769531 156.70205688 151.24589539 1.2599941492 10.003980637 1.6950000525 1.6950000525
 1050.7501221  -999.250000 17.677000046 0.0130136721  -999.250000 2.0699999332 77.405860901 156.22622681 150.76296997 1.2569843531 9.9940156937 1.6949375868 1.6949375868
 1050.8750000  -999.250000 17.565000534 0.0200019535  -999.250000 2.0750000477 78.283996582 155.58837891 150.12927246 1.2489873171 10.010000229 1.6629424095 1.6629424095
 1051.0000000  -999.250000 17.492000580 0.0219980460  -999.250000 2.0729999542 78.461997986 154.90393066 149.45387268 1.2359843254 10.041000366 1.6039286852 1.6039286852
 1051.1251221  -999.250000 17.459999084 0.0199902337  -999.250000 2.0659999847 78.135375977 154.25083923 148.80870056 1.2199648619 10.081086159 1.5308789015 1.5308789015
 1051.2501221  -999.250000 17.455999374 0.0149921868  -999.250000 2.0610001087 77.814125061 153.66993713 148.23039246 1.2019667625 10.125076294 1.4689316750 1.4689316750
 1051.3751221  -999.250000 17.461000443 0.0109921871  -999.250000 2.0590000153 77.876472473 153.18428040 147.73150635 1.1849687099 10.164011955 1.4339883327 1.4339883327
 1051.5000000  -999.250000 17.462999344 0.0069980472  -999.250000 2.0580000877 78.361000061 152.78103638 147.32582092 1.1689853668 10.177000046 1.4280067682 1.4280067682
 1051.6250000  -999.250000 17.459999084 0.0050029294  -999.250000 2.0550000668 79.013999939 152.51553345 147.03475952 1.1539863348 10.157999992 1.4349960089 1.4349960089
 1051.7501221  -999.250000 17.450000763 0.0080078132  -999.250000 2.0520000458 79.432014465 152.31942749 146.82551575 1.1399706602 10.102857590 1.4309570789 1.4309570789
 1051.8751221  -999.250000 17.437999725 0.0120058591  -999.250000 2.0460000038 78.925582886 152.00036621 146.52563477 1.1249746084 10.029929161 1.4089434147 1.4089434147
 1052.0001221  -999.250000 17.427999496 0.0149941407  -999.250000 2.0360000134 77.469253540 151.21664429 145.75495911 1.1119804382 9.9579544067 1.3799667358 1.3799667358
 1052.1250000  -999.250000 17.426000595 0.0119941412  -999.250000 2.0239999294 75.681999207 148.78567505 143.28524780 1.1019941568 9.9110002518 1.3630009890 1.3630009890
 1052.2501221  -999.250000 17.434000015 0.0059843753  -999.250000 2.0160000324 74.572021484 144.59785461 139.09191895 1.0960018635 9.8940238953 1.3640351295 1.3640351295
 1052.3751221  -999.250000 17.447999954 -0.002007812  -999.250000 2.0160000324 74.584846497 139.19647217 133.68190002 1.0970137119 9.9060726166 1.3820565939 1.3820565939
 1052.5001221  -999.250000 17.461999893 -0.005996094  -999.250000 2.0250000954 75.532112122 133.49542236 127.97251892 1.1040234566 9.9430484772 1.4110605717 1.4110605717
 1052.6250000  -999.250000 17.471000671 -0.003991211  -999.250000 2.0380001068 76.670997620 128.62040710 123.11079407 1.1160137653 9.9930000305 1.4420235157 1.4420235157
 1052.7500000  -999.250000 17.468999863 0.0050126952  -999.250000 2.0520000458 77.596000671 125.96760559 120.47495270 1.1300126314 10.050000191 1.4660174847 1.4660174847
 1052.8751221  -999.250000 17.451000214 0.0180234369  -999.250000 2.0620000362 78.329490662 125.44336700 119.92293549 1.1430175304 10.101083755 1.4840292931 1.4840292931
 1053.0001221  -999.250000 17.423000336 0.0300117172  -999.250000 2.0669999123 79.091682434 125.80805969 120.28340149 1.1520078182 10.144046783 1.4990214109 1.4990214109
 1053.1251221  -999.250000 17.395999908 0.0359941386  -999.250000 2.0639998913 79.953681946 126.40119934 120.89801788 1.1560058594 10.168009758 1.5099980831 1.5099980831
 1053.2500000  -999.250000 17.392000198 0.0329912119  -999.250000 2.0550000668 80.647003174 126.78044891 121.29818726 1.1590030193 10.178000450 1.5089687109 1.5089687109
 1053.3750000  -999.250000 17.430999756 0.0239951182  -999.250000 2.0450000763 80.898002625 126.75674438 121.24919128 1.1620018482 10.173000336 1.4769208431 1.4769208431
 1053.5001221  -999.250000 17.511999130 0.0190117173  -999.250000 2.0439999104 80.409088135 126.26699829 120.77726746 1.1640000343 10.151926041 1.3958047628 1.3958047628
 1053.6251221  -999.250000 17.597999573 0.0250312500  -999.250000 2.0550000668 79.428970337 125.71197510 120.26626587 1.1639981270 10.113951683 1.2958399057 1.2958399057
 1053.7501221  -999.250000 17.641000748 0.0410292968  -999.250000 2.0739998817 78.371391296 125.35037231 119.88771057 1.1630039215 10.063955307 1.2139219046 1.2139219046
 1053.8750000  -999.250000 17.622999191 0.0559951179  -999.250000 2.0910000801 77.745002747 125.25699615 119.77592468 1.1650097370 10.017999649 1.1740000248 1.1740000248
 1054.0001221  -999.250000 17.561000824 0.0509082004  -999.250000 2.0929999352 77.462074280 125.49224854 120.06542969 1.1750409603 9.9940357208 1.1740429401 1.1740429401
 1054.1251221  -999.250000 17.490999222 0.0038222659  -999.250000 2.0729999542 76.987846375 126.45528412 121.02336884 1.1960566044 10.012099266 1.1960390806 1.1960390806
 1054.2501221  -999.250000 17.443000793 -0.087207027  -999.250000 2.0339999199 75.884208679 128.79989624 123.33172607 1.2250586748 10.063072205 1.2160332203 1.2160332203
 1054.3750000  -999.250000 17.424999237 -0.193053707  -999.250000 2.0099999905 74.052001953 132.82255554 127.33319092 1.2550195456 10.137000084 1.2330420017 1.2330420017
 1054.5000000  -999.250000 17.427999496 -0.247963861  -999.250000 2.0299999714 71.955001831 138.51010132 133.03353882 1.2750087976 10.213999748 1.2760918140 1.2760918140
 1054.6251221  -999.250000 17.440999985 -0.210810542  -999.250000 2.0929999352 70.128654480 145.37147522 139.90974426 1.2839981318 10.281089783 1.3702909946 1.3702909946
 1054.7501221  -999.250000 17.462999344 -0.113822266  -999.250000 2.1440000534 68.932189941 152.39166260 146.87782288 1.2829980850 10.327044487 1.5192617178 1.5192617178
 1054.8751221  -999.250000 17.489999771 -0.022910157  -999.250000 2.1630001068 68.519477844 157.08244324 151.62004089 1.2820078135 10.349996567 1.6530253887 1.6530253887
