# LAS format log file from PETREL
# Project units are specified as depth units
#==================================================================
~Version information
VERS.   2.0:
WRAP.   NO:
#==================================================================
~Well
STRT .m      382.62487793 :
STOP .m      2254.4997559 :
STEP .m     0.00000000 :
NULL .        -999.250000 :
COMP.           : COMPANY
WELL.  31/5-3   : WELL
FLD.            : FIELD
LOC.            : LOCATION
SRVC.           : SERVICE COMPANY
DATE.  2018-09-11 14:48:39   : Log Export Date {yyyy-MM-dd HH:mm:ss}
PROV.           : PROVINCE
UWI.   31/5-3   : UNIQUE WELL ID
API.            : API NUMBER
#==================================================================
~Curve
DEPT .m                   : DEPTH
Lithology_geolink ._      : Lithology_geolink
CALI .in                  : CALI
DRHO .g/cm3               : DRHO
NPHI .m3/m3               : NPHI
RHOB .g/cm3               : RHOB
GR .gAPI                  : GR
DTC .us/ft                : DTC
DTE .us/ft                : DTE
RDEP .ohm.m               : RDEP
SP .mV                    : SP
RSHA .ohm.m               : RSHA
RMED .ohm.m               : RMED
~Parameter
#==================================================================
~Ascii
# ...
 508.62484741  -999.250000 16.944999695 0.1559829116  -999.250000  -999.250000 59.136016846 140.08863831 137.00877380 3.9448125362 71.650619507 2.8949530125 2.4279868603
 508.74987793  -999.250000 16.968999863 0.1460073292  -999.250000  -999.250000 59.528423309 140.23173523 137.13008118 4.0119180679 71.415344238 2.9189822674 2.4379878044
 508.87487793  -999.250000 17.000000000 0.1320136636  -999.250000  -999.250000 60.681591034 139.95167542 136.82226563 4.0249843597 70.926597595 2.9050102234 2.4439926147
 508.99987793  -999.250000 17.041999817 0.1190126985  -999.250000  -999.250000 62.617160797 139.15637207 136.01914978 3.9980263710 70.330871582 2.8990042210 2.4430010319
 509.12487793  -999.250000 17.093000412 0.1120068431  -999.250000  -999.250000 64.909202576 137.90391541 134.79248047 3.9620437622 69.754699707 2.8980007172 2.4340109825
 509.24984741  -999.250000 17.143999100 0.1120000035  -999.250000  -999.250000 66.164855957 136.46009827 133.37571716 3.9240648746 69.323738098 2.8980000019 2.4200239182
 509.37487793  -999.250000 17.179000854 0.1189931631  -999.250000  -999.250000 66.520484924 135.37771606 132.23451233 3.8920390606 69.343971252 2.8970010281 2.4160046577
 509.49984741  -999.250000 17.194999695 0.1299865693  -999.250000  -999.250000 65.886932373 134.78735352 131.67453003 3.8650395870 69.656539917 2.8970000744 2.4239883423
 509.62487793  -999.250000 17.201999664 0.1649743617  -999.250000  -999.250000 64.996307373 134.86329651 131.78628540 3.8390316963 70.182228088 2.8970000744 2.4429769516
 509.74987793  -999.250000 17.202999115 0.1829824299  -999.250000  -999.250000 64.278877258 135.67646790 132.59638977 3.8090367317 70.865165710 2.9049940109 2.4649729729
 509.87487793  -999.250000 17.201999664 0.1919912100  -999.250000  -999.250000 63.722812653 137.15103149 134.06832886 3.7730350494 71.603919983 2.9139933586 2.4779872894
 509.99987793  -999.250000 17.201000214 0.1900019497  -999.250000  -999.250000 63.244583130 138.91511536 135.74560547 3.7490293980 71.776786804 2.9000103474 2.4740047455
 510.12484741  -999.250000 17.202999115 0.1770158708  -999.250000  -999.250000 63.053279877 139.91358948 136.79225159 3.7210409641 71.714088440 2.8690302372 2.4660117626
 510.24987793  -999.250000 17.207000732 0.1680087894  -999.250000  -999.250000 63.054000854 140.22976685 137.14065552 3.6790511608 71.335556030 2.8689999580 2.4600074291
 510.37484741  -999.250000 17.209999084 0.1689987779  -999.250000  -999.250000 63.225749969 139.86924744 136.77731323 3.6280746460 70.979515076 2.8689999580 2.4570043087
 510.49987793  -999.250000 17.212999344 0.1729970574  -999.250000  -999.250000 63.555515289 138.95391846 135.84513855 3.5930426121 70.884140015 2.8839890957 2.4589977264
 510.62487793  -999.250000 17.212999344 0.1749980450  -999.250000  -999.250000 64.022430420 137.97618103 134.81826782 3.5540475845 70.946922302 2.9059836864 2.4580011368
 510.74987793  -999.250000 17.211999893 0.1710039079  -999.250000  -999.250000 64.461357117 137.40998840 134.30554199 3.5020508766 71.206619263 2.9209890366 2.4480097294
 510.87487793  -999.250000 17.208999634 0.1630078107  -999.250000  -999.250000 64.701652527 137.51112366 134.41651917 3.4510622025 71.329818726 2.9180021286 2.4320194721
 510.99984741  -999.250000 17.204000473 0.1610024422  -999.250000  -999.250000 64.517272949 138.29927063 135.18435669 3.4050674438 71.292053223 2.9030146599 2.4110307693
 511.12487793  -999.250000 17.200000763 0.1719892621  -999.250000  -999.250000 63.978790283 139.75947571 136.62904358 3.3610537052 71.105278015 2.8780243397 2.3850317001
 511.24984741  -999.250000 17.197999954 0.1799902469  -999.250000  -999.250000 63.392856598 141.84942627 138.74234009 3.3050820827 70.814430237 2.8470301628 2.3490526676
 511.37487793  -999.250000 17.204999924 0.1800000072  -999.250000  -999.250000 63.040515900 144.46472168 141.37133789 3.2460720539 70.509452820 2.8160226345 2.3130438328
 511.49987793  -999.250000 17.222000122 0.1690107435  -999.250000  -999.250000 63.384578705 146.58341980 143.47697449 3.1990573406 70.361183167 2.7840232849 2.2890293598
 511.62487793  -999.250000 17.263000488 0.1410273463  -999.250000  -999.250000 63.779418945 147.93678284 144.79478455 3.1570410728 70.240173340 2.7530226707 2.2750136852
 511.74987793  -999.250000 17.308000565 0.1340068430  -999.250000  -999.250000 64.008666992 148.44023132 145.30084229 3.1160500050 70.053276062 2.7210233212 2.2670097351
 511.87484741  -999.250000 17.326000214 0.1349987835  -999.250000  -999.250000 63.972053528 148.18708801 145.10638428 3.0760586262 69.803367615 2.6910293102 2.2660014629
 511.99987793  -999.250000 17.312000275 0.1409941465  -999.250000  -999.250000 63.613525391 147.47796631 144.39512634 3.0620136261 69.609283447 2.6630275249 2.2679979801
 512.12487793  -999.250000 17.253000259 0.1469941437  -999.250000  -999.250000 63.396316528 147.07759094 143.97724915 3.0490190983 69.456222534 2.6370127201 2.2699971199
 512.24987793  -999.250000 17.170999527 0.1460009813  -999.250000  -999.250000 63.442932129 147.05386353 143.90548706 3.0330157280 69.501930237 2.6100263596 2.2719981670
 512.37487793  -999.250000 17.101999283 0.1390068382  -999.250000  -999.250000 63.640708923 147.25569153 144.10159302 3.0150265694 69.698707581 2.5840127468 2.2739970684
 512.49987793  -999.250000 17.049999237 0.1330058575  -999.250000  -999.250000 63.855682373 147.51829529 144.39410400 3.0010135174 69.980590820 2.5580253601 2.2769970894
 512.62487793  -999.250000 17.013000488 0.1330000013  -999.250000  -999.250000 63.968837738 147.67691040 144.55464172 2.9850156307 70.282554626 2.5350112915 2.2809960842
 512.74987793  -999.250000 16.990999222 0.1379951090  -999.250000  -999.250000 63.952026367 147.48168945 144.30867004 2.9650292397 70.559593201 2.5150196552 2.2869911194
 512.87487793  -999.250000 16.979999542 0.1449931562  -999.250000  -999.250000 64.032875061 146.81596375 143.70312500 2.9450194836 70.677825928 2.5000145435 2.2929940224
 512.99987793  -999.250000 16.964000702 0.1529921889  -999.250000  -999.250000 64.503311157 146.11476135 143.03659058 2.9270265102 70.706954956 2.4930033684 2.2949972153
 513.12487793  -999.250000 16.924999237 0.1629902422  -999.250000  -999.250000 64.981300354 145.55775452 142.47186279 2.9090175629 70.723976135 2.4930000305 2.2930018902
 513.24987793  -999.250000 16.872999191 0.1669960916  -999.250000  -999.250000 65.134780884 145.26136780 142.14450073 2.8850350380 70.784912109 2.4930000305 2.2840130329
 513.37487793  -999.250000 16.827999115 0.1669999957  -999.250000  -999.250000 64.895347595 145.31147766 142.17591858 2.8570275307 70.912811279 2.4930000305 2.2660176754
 513.49987793  -999.250000 16.792999268 0.1689980477  -999.250000  -999.250000 63.745685577 145.79826355 142.69334412 2.8370194435 71.046798706 2.4910008907 2.2510144711
 513.62487793  -999.250000 16.764999390 0.1749941409  -999.250000  -999.250000 62.842323303 146.59226990 143.48358154 2.8180279732 71.209762573 2.4860024452 2.2350232601
 513.74987793  -999.250000 16.750000000 0.1869882941  -999.250000  -999.250000 62.163990021 147.66427612 144.56758118 2.7960214615 71.490585327 2.4780077934 2.2190158367
 513.87487793  -999.250000 16.745000839 0.2019853592  -999.250000  -999.250000 61.573867798 148.95298767 145.85742188 2.7730336189 71.745628357 2.4710032940 2.2040219307
 513.99987793  -999.250000 16.739000320 0.2119902372  -999.250000  -999.250000 60.960895538 150.29371643 147.15278625 2.7610116005 71.821884155 2.4600107670 2.1980059147
 514.12487793  -999.250000 16.731000900 0.2090029418  -999.250000  -999.250000 60.507663727 151.07583618 147.98829651 2.7530117035 71.752098083 2.4490053654 2.1920087337
 514.24987793  -999.250000 16.722000122 0.1950136721  -999.250000  -999.250000 60.514987946 151.68170166 148.57048035 2.7470059395 71.204803467 2.4390096664 2.1860060692
 514.37487793  -999.250000 16.715999603 0.1720224619  -999.250000  -999.250000 60.844516754 151.93464661 148.79953003 2.7450017929 70.675781250 2.4300043583 2.1820037365
 514.49987793  -999.250000 16.709999084 0.1450263560  -999.250000  -999.250000 61.326293945 151.69259644 148.56802368 2.7449998856 70.272590637 2.4230034351 2.1800029278
