# LAS format log file from PETREL
# Project units are specified as depth units
#==================================================================
~Version information
VERS.   2.0:
WRAP.   NO:
#==================================================================
~Well
STRT .m      405.00000000 :
STOP .m      1938.8748779 :
STEP .m     0.00000000 :
NULL .        -999.250000 :
COMP.           : COMPANY
WELL.  31/5-5 R   : WELL
FLD.            : FIELD
LOC.            : LOCATION
SRVC.           : SERVICE COMPANY
DATE.  2018-09-11 14:48:39   : Log Export Date {yyyy-MM-dd HH:mm:ss}
PROV.           : PROVINCE
UWI.   31/5-5 R   : UNIQUE WELL ID
API.            : API NUMBER
#==================================================================
~Curve
DEPT .m                   : DEPTH
Lithology_geolink ._      : Lithology_geolink
CALI .in                  : CALI
DRHO .g/cm3               : DRHO
NPHI .m3/m3               : NPHI
RHOB .g/cm3               : RHOB
GR .gAPI                  : GR
DTC .us/ft                : DTC
RDEP .ohm.m               : RDEP
SP .mV                    : SP
RSHA .ohm.m               : RSHA
~Parameter
#==================================================================
~Ascii
# ...
 1434.0000000 6.0000000000 13.366700172 0.0057411194  -999.250000 2.1178636551 76.874496460 153.86578369 0.7486114502  -999.250000  -999.250000
 1434.1250000 6.0000000000 13.308699608 0.0094037857  -999.250000 2.1237831116 77.242202759 154.04515076 0.7660334110  -999.250000  -999.250000
 1434.2500000 6.0000000000 13.357600212 0.0107736625  -999.250000 2.1285862923 77.179496765 154.13626099 0.7846173048  -999.250000  -999.250000
 1434.3750000 6.0000000000 13.500599861 0.0096552577  -999.250000 2.1310274601 76.770301819 154.22483826 0.7996870279  -999.250000  -999.250000
 1434.5000000 6.0000000000 13.654700279 0.0069122314  -999.250000 2.1314611435 76.181999207 154.31338501 0.8018997908  -999.250000  -999.250000
 1434.6250000 6.0000000000 13.711500168 0.0036322870  -999.250000 2.1317257881 75.696502686 154.40182495 0.8001668453  -999.250000  -999.250000
 1434.7500000 6.0000000000 13.652600288 0.0011469184  -999.250000 2.1332426071 75.433097839 154.48893738 0.8074748516  -999.250000  -999.250000
 1434.8751221 6.0000000000 13.519700050 0.0010795691  -999.250000 2.1356921196 75.416801453 154.56411743 0.8175482750  -999.250000  -999.250000
 1434.9998779 6.0000000000 13.390199661 0.0043210983  -999.250000 2.1376323700 75.562301636 154.50337219 0.8269886971  -999.250000  -999.250000
 1435.1250000 6.0000000000 13.330300331 0.0095597524  -999.250000 2.1368498802 75.712402344 154.33215332 0.8355937004  -999.250000  -999.250000
 1435.2500000 6.0000000000 13.315098763 0.0144282356  -999.250000 2.1330771446 75.772697449 154.11320496 0.8433755636  -999.250000  -999.250000
 1435.3750000 6.0000000000 13.300399780 0.0168732107  -999.250000 2.1273379326 75.719802856 153.89427185 0.8489174843  -999.250000  -999.250000
 1435.5000000 6.0000000000 13.262498856 0.0155725479  -999.250000 2.1219520569 75.575599670 153.67553711 0.8508458138  -999.250000  -999.250000
 1435.6250000 6.0000000000 13.210800171 0.0104502458  -999.250000 2.1204085350 75.587501526 153.45661926 0.8508434296  -999.250000  -999.250000
 1435.7500000 6.0000000000 13.169199944 0.0041253762  -999.250000 2.1237139702 76.095497131 153.23777771 0.8508424759  -999.250000  -999.250000
 1435.8750000 6.0000000000 13.147700310 -0.001415051  -999.250000 2.1313414574 77.062500000 153.01986694 0.8508424759  -999.250000  -999.250000
 1436.0000000 6.0000000000 13.143699646 -0.005007744  -999.250000 2.1416444778 77.829399109 152.80377197 0.8508424759  -999.250000  -999.250000
 1436.1251221 6.0000000000 13.149600029 -0.005714693  -999.250000 2.1530351639 77.398200989 152.58981323 0.8535244465  -999.250000  -999.250000
 1436.2500000 6.0000000000 13.160699844 -0.004611221  -999.250000 2.1646189690 75.719497681 152.37799072 0.8713064194  -999.250000  -999.250000
 1436.3750000 6.0000000000 13.175499916 -0.003337829  -999.250000 2.1761407852 73.424301147 152.16590881 0.9069176912  -999.250000  -999.250000
 1436.5000000 6.0000000000 13.190699577 -0.002664566  -999.250000 2.1869869232 71.466003418 151.95381165 0.9271579981  -999.250000  -999.250000
 1436.6250000 6.0000000000 13.203000069 -0.002508863  -999.250000 2.1955566406 70.728599548 151.74176025 0.9225653410  -999.250000  -999.250000
 1436.7500000 5.0000000000 13.213100433 -0.002597486  -999.250000 2.2012276649 70.959197998 151.52871704 0.9249991179  -999.250000  -999.250000
 1436.8750000 5.0000000000 13.224599838 -0.003973754  -999.250000 2.2039184570 71.516296387 151.30726624 0.9292377234  -999.250000  -999.250000
 1437.0000000 5.0000000000 13.244700432 -0.008393288  -999.250000 2.2037057877 71.824203491 150.88882446 0.9201864004  -999.250000  -999.250000
 1437.1250000 5.0000000000 13.281999588 -0.014550116  -999.250000 2.1993432045 71.414398193 150.26206970 0.9060285091  -999.250000  -999.250000
 1437.2501221 5.0000000000 13.327800751 -0.016844731  -999.250000 2.1904673576 70.423500061 149.54739380 0.8941637278  -999.250000  -999.250000
 1437.3748779 5.0000000000 13.369000435 -0.011443250  -999.250000 2.1778292656 69.265296936 148.80877686 0.8902252913  -999.250000  -999.250000
 1437.5000000 5.0000000000 13.393100739 0.0010643005  -999.250000 2.1646633148 68.399200439 148.06802368 0.8927834034  -999.250000  -999.250000
 1437.6250000 5.0000000000 13.400898933 0.0136773475  -999.250000 2.1564249992 68.210296631 147.32792664 0.8920431137  -999.250000  -999.250000
 1437.7500000 5.0000000000 13.428400040 0.0202204324  -999.250000 2.1543650627 68.548500061 146.58790588 0.8845149279  -999.250000  -999.250000
 1437.8750000 5.0000000000 13.514599800 0.0188728534  -999.250000 2.1560564041 69.151298523 145.85209656 0.8703969717  -999.250000  -999.250000
 1438.0000000 5.0000000000 13.664699554 0.0141181946  -999.250000 2.1571445465 69.803398132 145.25616455 0.8578656912  -999.250000  -999.250000
 1438.1250000 5.0000000000 13.812000275 0.0116515234  -999.250000 2.1546278000 70.536499023 144.89910889 0.8633201122  -999.250000  -999.250000
 1438.2500000 6.0000000000 13.869899750 0.0124067701  -999.250000 2.1515741348 71.537200928 144.80206299 0.8824741840  -999.250000  -999.250000
 1438.3751221 6.0000000000 13.806200027 0.0141748823  -999.250000 2.1524400711 72.782501221 144.78036499 0.9022246599  -999.250000  -999.250000
 1438.4998779 6.0000000000 13.653100014 0.0143222809  -999.250000 2.1596717834 73.989196777 144.75875854 0.9219808578  -999.250000  -999.250000
 1438.6250000 6.0000000000 13.512200356 0.0114286728  -999.250000 2.1719431877 74.462898254 144.73707581 0.9417463541  -999.250000  -999.250000
 1438.7500000 6.0000000000 13.461099625 0.0082021952  -999.250000 2.1835536957 73.811203003 144.71543884 0.9619120359  -999.250000  -999.250000
 1438.8750000 6.0000000000 13.484000206 0.0062194932  -999.250000 2.1909437180 72.102203369 144.69335938 0.9833164215  -999.250000  -999.250000
 1439.0000000 6.0000000000 13.509499550 0.0053052902  -999.250000 2.1934194565 70.199996948 144.66934204 1.0018978119  -999.250000  -999.250000
 1439.1250000 6.0000000000 13.460299492 0.0047224285  -999.250000 2.1927423477 69.415199280 144.52915955 1.0045921803  -999.250000  -999.250000
 1439.2500000 6.0000000000 13.346199989 0.0038923854  -999.250000 2.1920666695 69.870903015 144.27810669 0.9856040478  -999.250000  -999.250000
 1439.3750000 5.0000000000 13.211199760 0.0028583887  -999.250000 2.1925010681 71.127403259 143.97598267 0.9590294361  -999.250000  -999.250000
 1439.5000000 5.0000000000 13.109600067 0.0023603439  -999.250000 2.1938867569 72.332801819 143.66123962 0.9425573349  -999.250000  -999.250000
 1439.6251221 5.0000000000 13.079299927 0.0024538087  -999.250000 2.1952190399 72.549797058 143.34619141 0.9427200556  -999.250000  -999.250000
 1439.7498779 5.0000000000 13.085399628 0.0021630414  -999.250000 2.1956057549 71.966400146 143.03215027 0.9514133930  -999.250000  -999.250000
 1439.8750000 5.0000000000 13.094400406 0.0010215202  -999.250000 2.1950230598 71.096397400 142.71731567 0.9563065767  -999.250000  -999.250000
 1440.0000000 5.0000000000 13.090299606 0.0000095367  -999.250000 2.1941585541 70.317001343 142.40454102 0.9533413649 0.0000000000  -999.250000
 1440.1250000 5.0000000000 13.072099686 0.0004227060  -999.250000 2.1936616898 69.548301697 142.16114807 0.9453694820 0.0000000000  -999.250000
 1440.2500000 5.0000000000 13.054599762 0.0011350575  -999.250000 2.1927640438 68.786399841 142.05119324 0.9374028444 0.0000000000  -999.250000
 1440.3750000 5.0000000000 13.051301003 0.0006954649  -999.250000 2.1896038055 68.342697144 142.09846497 0.9294373989 0.0000000000  -999.250000
 1440.5000000 5.0000000000 13.070799828 -0.000949860  -999.250000 2.1823959351 68.435096741 142.18667603 0.9214668274 0.0000000000  -999.250000
 1440.6250000 5.0000000000 13.140999794 -0.002194361  -999.250000 2.1708731651 69.303596497 142.27554321 0.9190852642 0.0000000000  -999.250000
 1440.7501221 5.0000000000 13.290499687 -0.001091218  -999.250000 2.1591868401 70.602798462 142.36445618 0.9340811968 0.0000000000  -999.250000
 1440.8748779 5.0000000000 13.511199951 0.0021934286  -999.250000 2.1515917778 71.866897583 142.45309448 0.9593648911 0.0000000000  -999.250000
