# LAS format log file from PETREL
# Project units are specified as depth units
#==================================================================
~Version information
VERS.   2.0:
WRAP.   NO:
#==================================================================
~Well
STRT .m      405.00000000 :
STOP .m      1938.8748779 :
STEP .m     0.00000000 :
NULL .        -999.250000 :
COMP.           : COMPANY
WELL.  31/5-5 R   : WELL
FLD.            : FIELD
LOC.            : LOCATION
SRVC.           : SERVICE COMPANY
DATE.  2018-09-11 14:48:39   : Log Export Date {yyyy-MM-dd HH:mm:ss}
PROV.           : PROVINCE
UWI.   31/5-5 R   : UNIQUE WELL ID
API.            : API NUMBER
#==================================================================
~Curve
DEPT .m                   : DEPTH
Lithology_geolink ._      : Lithology_geolink
CALI .in                  : CALI
DRHO .g/cm3               : DRHO
NPHI .m3/m3               : NPHI
RHOB .g/cm3               : RHOB
GR .gAPI                  : GR
DTC .us/ft                : DTC
RDEP .ohm.m               : RDEP
SP .mV                    : SP
RSHA .ohm.m               : RSHA
~Parameter
#==================================================================
~Ascii
# ...
 1133.0000000  -999.250000 12.768099785 0.0111198425  -999.250000 2.0106868744 90.176696777 151.59201050 1.1488897800  -999.250000  -999.250000
 1133.1250000  -999.250000 12.766098976 0.0084935650  -999.250000 2.0020456314 90.042503357 151.68087769 1.1491019726  -999.250000  -999.250000
 1133.2500000  -999.250000 12.786000252 0.0095391273  -999.250000 1.9926939011 88.107498169 151.67282104 1.1642129421  -999.250000  -999.250000
 1133.3750000  -999.250000 12.828599930 0.0141659472  -999.250000 1.9858939648 85.248901367 151.65296936 1.1860146523  -999.250000  -999.250000
 1133.5000000  -999.250000 12.888699532 0.0199766159  -999.250000 1.9842281342 82.921501160 151.63311768 1.2075772285  -999.250000  -999.250000
 1133.6250000  -999.250000 12.954399109 0.0245084241  -999.250000 1.9892530441 82.612098694 151.61326599 1.2296254635  -999.250000  -999.250000
 1133.7500000  -999.250000 13.014200211 0.0239911079  -999.250000 1.9977478981 84.006401062 151.59338379 1.2439126968  -999.250000  -999.250000
 1133.8750000  -999.250000 13.064100266 0.0213725083  -999.250000 2.0060195923 86.377098083 151.57124329 1.2385017872  -999.250000  -999.250000
 1134.0000000  -999.250000 13.101099968 0.0196685791  -999.250000 2.0104894638 88.713699341 151.46025085 1.2284102440  -999.250000  -999.250000
 1134.1250000  -999.250000 13.123800278 0.0200580880  -999.250000 2.0083913803 90.015998840 151.27642822 1.2284128666  -999.250000  -999.250000
 1134.2500000  -999.250000 13.136400223 0.0222077370  -999.250000 2.0020451546 90.252799988 151.05030823 1.2233664989  -999.250000  -999.250000
 1134.3750000  -999.250000 13.140199661 0.0252904147  -999.250000 1.9947233200 89.709503174 150.81416321 1.2132248878  -999.250000  -999.250000
 1134.5000000  -999.250000 13.137999535 0.0281047821  -999.250000 1.9898958206 88.781402588 150.57853699 1.2218978405  -999.250000  -999.250000
 1134.6250000  -999.250000 13.133300781 0.0289035738  -999.250000 1.9902606010 87.832000732 150.34249878 1.2513344288  -999.250000  -999.250000
 1134.7500000  -999.250000 13.123399734 0.0278878212  -999.250000 1.9939889908 87.294998169 150.10650635 1.2738723755  -999.250000  -999.250000
 1134.8750000  -999.250000 13.099800110 0.0261113420  -999.250000 1.9981923103 87.532402039 149.87094116 1.2884309292  -999.250000  -999.250000
 1135.0000000  -999.250000 13.059499741 0.0247640610  -999.250000 1.9999637604 88.615501404 149.64639282 1.2993719578  -999.250000  -999.250000
 1135.1250000  -999.250000 13.008299828 0.0249163285  -999.250000 1.9974994659 90.061401367 149.45252991 1.3066508770  -999.250000  -999.250000
 1135.2500000  -999.250000 12.959899902 0.0249876976  -999.250000 1.9928358793 90.930702209 149.27241516 1.3084380627  -999.250000  -999.250000
 1135.3750000  -999.250000 12.926300049 0.0228634104  -999.250000 1.9883871078 90.740501404 149.09263611 1.3074815273  -999.250000  -999.250000
 1135.5000000  -999.250000 12.911100388 0.0187950134  -999.250000 1.9861240387 89.797302246 148.91319275 1.3033521175  -999.250000  -999.250000
 1135.6250000  -999.250000 12.905900002 0.0153836440  -999.250000 1.9872361422 89.034400940 148.73376465 1.2849709988  -999.250000  -999.250000
 1135.7500000  -999.250000 12.898799896 0.0123810768  -999.250000 1.9906616211 88.919097900 148.55445862 1.2508499622  -999.250000  -999.250000
 1135.8750000  -999.250000 12.892800331 0.0101613961  -999.250000 1.9954323769 89.164398193 148.37661743 1.2251427174  -999.250000  -999.250000
 1136.0000000  -999.250000 12.899900436 0.0092849731  -999.250000 2.0006980896 89.178901672 148.27716064 1.2222063541  -999.250000  -999.250000
 1136.1250000  -999.250000 12.929699898 0.0104272459  -999.250000 2.0057830811 88.615699768 148.37229919 1.2345242500  -999.250000  -999.250000
 1136.2500000  -999.250000 12.965499878 0.0124058723  -999.250000 2.0103192329 87.931198120 148.57182312 1.2544739246  -999.250000  -999.250000
 1136.3750000  -999.250000 12.985600471 0.0137589034  -999.250000 2.0141258240 87.560203552 148.80316162 1.2742402554  -999.250000  -999.250000
 1136.5000000  -999.250000 12.977199554 0.0135173798  -999.250000 2.0171947479 87.774002075 149.03421021 1.2900059223  -999.250000  -999.250000
 1136.6250000  -999.250000 12.947399139 0.0118413121  -999.250000 2.0195555687 88.713897705 149.26542664 1.2927320004  -999.250000  -999.250000
 1136.7500000  -999.250000 12.922300339 0.0101432800  -999.250000 2.0213146210 89.989898682 149.49676514 1.2821505070  -999.250000  -999.250000
 1136.8750000  -999.250000 12.914299965 0.0092910510  -999.250000 2.0221915245 91.074302673 149.72581482 1.2704625130  -999.250000  -999.250000
 1137.0000000  -999.250000 12.922599792 0.0096635818  -999.250000 2.0217075348 91.464500427 149.87951660 1.2635812759  -999.250000  -999.250000
 1137.1250000  -999.250000 12.943899155 0.0115227252  -999.250000 2.0192770958 90.781097412 149.88844299 1.2631678581  -999.250000  -999.250000
 1137.2500000  -999.250000 12.977099419 0.0145454407  -999.250000 2.0156979561 89.347900391 149.73344421 1.2736783028  -999.250000  -999.250000
 1137.3750000  -999.250000 13.022999763 0.0181186758  -999.250000 2.0122094154 87.730499268 149.53758240 1.2923314571  -999.250000  -999.250000
 1137.5000000  -999.250000 13.079999924 0.0226821899  -999.250000 2.0102300644 86.697998047 149.34088135 1.3043284416  -999.250000  -999.250000
 1137.6250000  -999.250000 13.150699615 0.0249285810  -999.250000 2.0109510422 86.899299622 149.14405823 1.2966201305  -999.250000  -999.250000
 1137.7500000  -999.250000 13.236700058 0.0244088173  -999.250000 2.0134119987 87.795303345 148.94715881 1.2786667347  -999.250000  -999.250000
 1137.8750000  -999.250000 13.338999748 0.0231354795  -999.250000 2.0161838531 88.662399292 148.75085449 1.2633638382  -999.250000  -999.250000
 1138.0000000  -999.250000 13.447899818 0.0225906372  -999.250000 2.0177793503 88.831596375 148.55810547 1.2485649586  -999.250000  -999.250000
 1138.1250000  -999.250000 13.522000313 0.0231078975  -999.250000 2.0172133446 88.129898071 148.56034851 1.2384607792  -999.250000  -999.250000
 1138.2500000  -999.250000 13.523900032 0.0233092308  -999.250000 2.0154514313 87.420898438 148.66368103 1.2406005859  -999.250000  -999.250000
 1138.3750000  -999.250000 13.442200661 0.0227841586  -999.250000 2.0137743950 87.286102295 148.81159973 1.2513191700  -999.250000  -999.250000
 1138.5000000  -999.250000 13.302300453 0.0221090317  -999.250000 2.0132226944 87.699699402 148.96742249 1.2642097473  -999.250000  -999.250000
 1138.6250000  -999.250000 13.163700104 0.0218964927  -999.250000 2.0141682625 88.088401794 149.12339783 1.2771279812  -999.250000  -999.250000
 1138.7500000  -999.250000 13.074998856 0.0224514008  -999.250000 2.0156774521 88.197601318 149.27926636 1.2831206322  -999.250000  -999.250000
 1138.8750000  -999.250000 13.045700073 0.0222992077  -999.250000 2.0168786049 88.219596863 149.43475342 1.2831199169  -999.250000  -999.250000
 1139.0000000  -999.250000 13.059300423 0.0205640793  -999.250000 2.0171642303 88.283599854 149.57283020 1.2831189632  -999.250000  -999.250000
 1139.1250000  -999.250000 13.088399887 0.0182184763  -999.250000 2.0164275169 88.412399292 149.61152649 1.2831180096  -999.250000  -999.250000
 1139.2500000  -999.250000 13.109900475 0.0160250664  -999.250000 2.0156517029 88.397201538 149.47668457 1.2831170559  -999.250000  -999.250000
 1139.3750000  -999.250000 13.112199783 0.0134334210  -999.250000 2.0155811310 88.290802002 149.28312683 1.2808957100  -999.250000  -999.250000
 1139.5000000  -999.250000 13.090400696 0.0099649429  -999.250000 2.0157470703 88.392501831 149.08993530 1.2720232010  -999.250000  -999.250000
 1139.6250000  -999.250000 13.046099663 0.0072570788  -999.250000 2.0134592056 88.980400085 148.89643860 1.2582454681  -999.250000  -999.250000
 1139.7500000  -999.250000 12.994500160 0.0081954002  -999.250000 2.0070366859 89.943099976 148.70294189 1.2446808815  -999.250000  -999.250000
 1139.8750000  -999.250000 12.948499680 0.0134270843  -999.250000 1.9974741936 90.980499268 148.50991821 1.2312946320  -999.250000  -999.250000
