# LAS format log file from PETREL
# Project units are specified as depth units
#==================================================================
~Version information
VERS.   2.0:
WRAP.   NO:
#==================================================================
~Well
STRT .m      405.00000000 :
STOP .m      1938.8748779 :
STEP .m     0.00000000 :
NULL .        -999.250000 :
COMP.           : COMPANY
WELL.  31/5-5 R   : WELL
FLD.            : FIELD
LOC.            : LOCATION
SRVC.           : SERVICE COMPANY
DATE.  2018-09-11 14:48:39   : Log Export Date {yyyy-MM-dd HH:mm:ss}
PROV.           : PROVINCE
UWI.   31/5-5 R   : UNIQUE WELL ID
API.            : API NUMBER
#==================================================================
~Curve
DEPT .m                   : DEPTH
Lithology_geolink ._      : Lithology_geolink
CALI .in                  : CALI
DRHO .g/cm3               : DRHO
NPHI .m3/m3               : NPHI
RHOB .g/cm3               : RHOB
GR .gAPI                  : GR
DTC .us/ft                : DTC
RDEP .ohm.m               : RDEP
SP .mV                    : SP
RSHA .ohm.m               : RSHA
~Parameter
#==================================================================
~Ascii
# ...
 1231.0000000  -999.250000 12.988200188 -0.014746666  -999.250000 2.1192598343 82.745597839 152.22927856 1.1805884838  -999.250000  -999.250000
 1231.1250000  -999.250000 12.989899635 -0.021241974  -999.250000 2.1582350731 80.071197510 152.21763611 1.1893732548  -999.250000  -999.250000
 1231.2500000  -999.250000 12.990900040 -0.023735523  -999.250000 2.1854944229 76.779800415 152.18884277 1.1930682659  -999.250000  -999.250000
 1231.3750000  -999.250000 12.990900040 -0.020974085  -999.250000 2.1874222755 73.959899902 151.97366333 1.1908681393  -999.250000  -999.250000
 1231.5000000  -999.250000 12.990599632 -0.013240814  -999.250000 2.1620731354 72.746803284 151.62394714 1.1865897179  -999.250000  -999.250000
 1231.6250000  -999.250000 12.990500450 -0.003181199  -999.250000 2.1211895943 73.743301392 151.21153259 1.1823115349  -999.250000  -999.250000
 1231.7500000  -999.250000 12.990500450 0.0040879250  -999.250000 2.0846424103 75.917396545 150.79924011 1.1794037819  -999.250000  -999.250000
 1231.8750000  -999.250000 12.989998817 0.0064688353  -999.250000 2.0605525970 78.200996399 150.38714600 1.1809453964  -999.250000  -999.250000
 1232.0000000  -999.250000 12.989000320 0.0052013397  -999.250000 2.0489711761 79.740402222 149.97447205 1.1865944862  -999.250000  -999.250000
 1232.1250000  -999.250000 12.987500191 0.0031577018  -999.250000 2.0458860397 80.076896667 149.56488037 1.1914219856  -999.250000  -999.250000
 1232.2500000  -999.250000 12.986001015 0.0016999245  -999.250000 2.0447354317 79.741600037 149.24662781 1.1904082298  -999.250000  -999.250000
 1232.3750000  -999.250000 12.985099792 0.0005967695  -999.250000 2.0431637764 79.248901367 149.14839172 1.1826250553  -999.250000  -999.250000
 1232.5000000  -999.250000 12.984900475 -0.000261307  -999.250000 2.0409564972 78.799797058 149.43583679 1.1724522114  -999.250000  -999.250000
 1232.6250000  -999.250000 12.984800339 -0.000920398  -999.250000 2.0393743515 78.451797485 149.90977478 1.1626610756  -999.250000  -999.250000
 1232.7500000  -999.250000 12.984000206 -0.001153469  -999.250000 2.0395426750 78.355697632 150.38822937 1.1542723179  -999.250000  -999.250000
 1232.8750000  -999.250000 12.982899666 -0.000943977  -999.250000 2.0417451859 78.656700134 150.86686707 1.1498513222  -999.250000  -999.250000
 1233.0000000  -999.250000 12.982000351 -0.000556946  -999.250000 2.0453958511 79.482200623 151.34571838 1.1530430317  -999.250000  -999.250000
 1233.1250000  -999.250000 12.982000351 -0.000270573  -999.250000 2.0491008759 80.871696472 151.82394409 1.1615188122  -999.250000  -999.250000
 1233.2500000  -999.250000 12.982299805 -0.000202656  -999.250000 2.0516009331 82.432800293 152.29983521 1.1699898243  -999.250000  -999.250000
 1233.3750000  -999.250000 12.982299805 -0.000028923  -999.250000 2.0527944565 83.757797241 152.63780212 1.1784610748  -999.250000  -999.250000
 1233.5000000  -999.250000 12.981900215 0.0007076263  -999.250000 2.0536975861 84.588699341 152.88630676 1.1869373322  -999.250000  -999.250000
 1233.6250000  -999.250000 12.982200623 0.0018754161  -999.250000 2.0561919212 85.096298218 153.09260559 1.1954131126  -999.250000  -999.250000
 1233.7500000  -999.250000 12.983798981 0.0026416779  -999.250000 2.0607924461 85.706298828 153.29145813 1.2061822414  -999.250000  -999.250000
 1233.8750000  -999.250000 12.986100197 0.0025063688  -999.250000 2.0667362213 86.440002441 153.49020386 1.2169084549  -999.250000  -999.250000
 1234.0000000  -999.250000 12.988200188 0.0017004013  -999.250000 2.0725822449 87.073699951 153.68933105 1.2119848728  -999.250000  -999.250000
 1234.1250000  -999.250000 12.989100456 0.0006541646  -999.250000 2.0771555901 87.230796814 153.88777161 1.1914389133  -999.250000  -999.250000
 1234.2500000  -999.250000 12.988599777 -0.000791550  -999.250000 2.0810055733 87.034896851 154.06933594 1.1709043980  -999.250000  -999.250000
 1234.3750000  -999.250000 12.986200333 -0.003148129  -999.250000 2.0851058960 87.019096375 154.21736145 1.1546530724  -999.250000  -999.250000
 1234.5000000  -999.250000 12.982399940 -0.006524086  -999.250000 2.0902147293 87.838699341 154.32325745 1.1512458324  -999.250000  -999.250000
 1234.6250000  -999.250000 12.977700233 -0.009592725  -999.250000 2.0968642235 90.024696350 154.40908813 1.1574797630  -999.250000  -999.250000
 1234.7500000  -999.250000 12.973699570 -0.010289669  -999.250000 2.1048154831 92.992401123 154.49470520 1.1629130840  -999.250000  -999.250000
 1234.8750000  -999.250000 12.971699715 -0.007953731  -999.250000 2.1138944626 95.909599304 154.58044434 1.1657538414  -999.250000  -999.250000
 1235.0000000  -999.250000 12.972801208 -0.004021645  -999.250000 2.1236190796 98.150703430 154.66619873 1.1662030220  -999.250000  -999.250000
 1235.1250000  -999.250000 12.976900101 -0.001453890  -999.250000 2.1326375008 99.251998901 154.74902344 1.1662032604  -999.250000  -999.250000
 1235.2500000  -999.250000 12.981200218 -0.001268387  -999.250000 2.1392307281 99.484802246 154.80641174 1.1662034988  -999.250000  -999.250000
 1235.3750000  -999.250000 12.984000206 -0.002770915  -999.250000 2.1419215202 99.124603271 154.27275085 1.1677362919  -999.250000  -999.250000
 1235.5000000  -999.250000 12.984499931 -0.004554749  -999.250000 2.1401472092 98.347602844 153.28404236 1.1738684177  -999.250000  -999.250000
 1235.6250000  -999.250000 12.982600212 -0.005063943  -999.250000 2.1345119476 97.376296997 152.11177063 1.1834487915  -999.250000  -999.250000
 1235.7500000  -999.250000 12.980699539 -0.004653931  -999.250000 2.1283521652 96.547698975 150.88722229 1.1886076927  -999.250000  -999.250000
 1235.8750000  -999.250000 12.980199814 -0.004168132  -999.250000 2.1246151924 96.098602295 149.66273499 1.1794047356  -999.250000  -999.250000
 1236.0000000  -999.250000 12.981100082 -0.004027367  -999.250000 2.1254825592 96.096099854 148.43632507 1.1569402218  -999.250000  -999.250000
 1236.1250000  -999.250000 12.982000351 -0.004153001  -999.250000 2.1320528984 96.356101990 147.21182251 1.1326847076  -999.250000  -999.250000
 1236.2500000  -999.250000 12.981499672 -0.003868103  -999.250000 2.1414809227 96.736701965 145.99475098 1.1109874249  -999.250000  -999.250000
 1236.3750000  -999.250000 12.980099678 -0.002936877  -999.250000 2.1508464813 97.203300476 145.06758118 1.1006631851  -999.250000  -999.250000
 1236.5000000  -999.250000 12.978799820 -0.001851082  -999.250000 2.1573946476 97.547996521 144.56622314 1.1166465282  -999.250000  -999.250000
 1236.6250000  -999.250000 12.977999687 -0.001020269  -999.250000 2.1588230133 97.439399719 144.41773987 1.1515855789  -999.250000  -999.250000
 1236.7500000  -999.250000 12.976699829 -0.000510693  -999.250000 2.1565675735 96.797096252 144.35633850 1.1865055561  -999.250000  -999.250000
 1236.8750000  -999.250000 12.974499702 -0.000653164  -999.250000 2.1528248787 95.878501892 144.29475403 1.2327008247  -999.250000  -999.250000
 1237.0000000  -999.250000 12.972700119 -0.001543045  -999.250000 2.1500654221 95.274902344 144.23326111 1.2998740673  -999.250000  -999.250000
 1237.1250000  -999.250000 12.974099159 -0.002601086  -999.250000 2.1501774788 95.458602905 144.17179871 1.3537762165  -999.250000  -999.250000
 1237.2500000  -999.250000 12.978500366 -0.003001690  -999.250000 2.1520628929 95.919601440 144.11073303 1.3836340904  -999.250000  -999.250000
 1237.3750000  -999.250000 12.982899666 -0.002427797  -999.250000 2.1538705826 95.876403809 144.05186462 1.4280343056  -999.250000  -999.250000
 1237.5000000  -999.250000 12.983900070 -0.001088142  -999.250000 2.1542396545 95.091903687 144.11636353 1.4759285450  -999.250000  -999.250000
 1237.6250000  -999.250000 12.979498863 0.0008030636  -999.250000 2.1543164253 94.244697571 144.25871277 1.5032923222  -999.250000  -999.250000
 1237.7500000  -999.250000 12.973799706 0.0033388138  -999.250000 2.1583848000 94.030601501 144.43457031 1.5159084797  -999.250000  -999.250000
 1237.8750000  -999.250000 12.970298767 0.0069234166  -999.250000 2.1705250740 94.314300537 144.61793518 1.5299706459  -999.250000  -999.250000
