# LAS format log file from PETREL
# Project units are specified as depth units
#==================================================================
~Version information
VERS.   2.0:
WRAP.   NO:
#==================================================================
~Well
STRT .m      815.00012207 :
STOP .m      2497.5000000 :
STEP .m     0.00000000 :
NULL .        -999.250000 :
COMP.           : COMPANY
WELL.  31/5-2R   : WELL
FLD.            : FIELD
LOC.            : LOCATION
SRVC.           : SERVICE COMPANY
DATE.  2018-09-11 14:48:39   : Log Export Date {yyyy-MM-dd HH:mm:ss}
PROV.           : PROVINCE
UWI.   31/5-2 R   : UNIQUE WELL ID
API.            : API NUMBER
#==================================================================
~Curve
DEPT .m                   : DEPTH
Lithology_geolink ._      : Lithology_geolink
CALI .in                  : CALI
DRHO .g/cm3               : DRHO
NPHI .m3/m3               : NPHI
RHOB .g/cm3               : RHOB
GR .gAPI                  : GR
DTC .us/ft                : DTC
DTE .us/ft                : DTE
RDEP .ohm.m               : RDEP
SP .mV                    : SP
RSHA .ohm.m               : RSHA
RMED .ohm.m               : RMED
~Parameter
#==================================================================
~Ascii
# ...
 2159.0000000 5.0000000000 8.6389999390 0.0049999999 0.2943800092 2.4960000515 96.029998779 94.147827148 92.048347473 2.4949998856 7.9899997711 3.1010000706 3.1010000706
 2159.1247559 5.0000000000 8.6350002289 -0.000988281 0.2896699905 2.4900000095 95.032951355 94.007484436 91.911575317 2.5069766045 7.9710369110 3.1369297504 3.1369297504
 2159.2497559 5.0000000000 8.6339998245 -0.007986329 0.2828599811 2.4800000191 94.242538452 94.069831848 91.787857056 2.5239667892 7.9470462799 3.1649453640 3.1649453640
 2159.3747559 5.0000000000 8.6350002289 -0.013988282 0.2755800188 2.4700000286 94.208061218 94.099258423 91.715377808 2.5399687290 7.9330272675 3.1839628220 3.1839628220
 2159.4997559 5.0000000000 8.6389999390 -0.015996095 0.2698100209 2.4630000591 94.846748352 93.745697021 91.708694458 2.5519766808 7.9330000877 3.1969747543 3.1969747543
 2159.6247559 5.0000000000 8.6450004578 -0.016000001 0.2659199834 2.4639999866 95.650428772 93.941078186 91.759811401 2.5559921265 7.9449768066 3.2029883862 3.2029883862
 2159.7497559 5.0000000000 8.6499996185 -0.014003906 0.2633399963 2.4719998837 95.965393066 94.136718750 91.834533691 2.5530059338 7.9609689713 3.2020018101 3.2020018101
 2159.8747559 5.0000000000 8.6520004272 -0.016994141 0.2631300092 2.4800000191 95.657600403 94.210098267 91.927536011 2.5460135937 7.9749727249 3.1920194626 3.1920194626
 2160.0000000 5.0000000000 8.6490001678 -0.027000001 0.2654199898 2.4779999256 95.232002258 94.289978027 92.040222168 2.5350000858 7.9829998016 3.1730000973 3.1730000973
 2160.1250000 5.0000000000 8.6440000534 -0.046000000 0.2697499990 2.4609999657 95.021003723 94.448593140 92.174301147 2.5230000019 7.9850006104 3.1510000229 3.1510000229
 2160.2497559 5.0000000000 8.6379995346 -0.062966801 0.2735300064 2.4400000572 94.971099854 94.448593140 92.331283569 2.5080292225 7.9770159721 3.1330349445 3.1330349445
 2160.3747559 5.0000000000 8.6330003738 -0.072980471 0.2758799791 2.4260001183 94.712501526 94.706596375 92.522773743 2.4910330772 7.9620285034 3.1190273762 3.1190273762
 2160.4997559 5.0000000000 8.6319999695 -0.066013671 0.2776100039 2.4319999218 94.279846191 95.013320923 92.762062073 2.4720370770 7.9460320473 3.1050274372 3.1050274372
 2160.6247559 5.0000000000 8.6350002289 -0.048035156 0.2811099887 2.4539999962 94.100349426 95.267677307 93.063941956 2.4500429630 7.9300308228 3.0850391388 3.0850391388
 2160.7497559 5.0000000000 8.6409997940 -0.022050781 0.2870500088 2.4849998951 94.471275330 95.524169922 93.433654785 2.4260470867 7.9170250893 3.0610470772 3.0610470772
 2160.8747559 5.0000000000 8.6459999084 0.0009550782 0.2934800088 2.5099999905 95.350280762 95.939788818 93.863731384 2.4010488987 7.8990354538 3.0360488892 3.0360488892
 2160.9997559 5.0000000000 8.6470003128 0.0159707032 0.2963699996 2.5239999294 96.258232117 96.594329834 94.316177368 2.3770470619 7.8760452271 3.0180349350 3.0180349350
 2161.1247559 5.0000000000 8.6440000534 0.0209902339 0.2944200039 2.5269999504 96.845855713 96.959953308 94.724151611 2.3550429344 7.8510484695 3.0080194473 3.0080194473
 2161.2500000 5.0000000000 8.6370000839 0.0199999996 0.2930499911 2.5260000229 96.987998962 97.200241089 95.080749512 2.3359999657 7.8340005875 3.0050001144 3.0050001144
 2161.3747559 5.0000000000 8.6309995651 0.0170058608 0.2966299951 2.5230000019 96.866233826 97.565254211 95.419769287 2.3170371056 7.8310055733 3.0010077953 3.0010077953
 2161.4997559 5.0000000000 8.6280002594 0.0150039056 0.3071100116 2.5209999084 96.797134399 98.124320984 95.812660217 2.2940447330 7.8399825096 2.9890234470 2.9890234470
 2161.6247559 5.0000000000 8.6280002594 0.0159980468 0.3206399977 2.5209999084 96.877838135 98.581016541 96.362182617 2.2670526505 7.8439927101 2.9680409431 2.9680409431
 2161.7497559 5.0000000000 8.6300001144 0.0189941395 0.3324100077 2.5230000019 97.080604553 99.685394287 97.282257080 2.2400527000 7.8300266266 2.9420506954 2.9420506954
 2161.8747559 5.0000000000 8.6339998245 0.0219941400 0.3376399875 2.5239999294 97.450271606 100.69299316 98.476043701 2.2150487900 7.8020548820 2.9200429916 2.9200429916
 2161.9997559 5.0000000000 8.6370000839 0.0200039055 0.3361500204 2.5199999809 98.019889832 101.88931274 99.808700562 2.1940410137 7.7840352058 2.9010372162 2.9010372162
 2162.1247559 5.0000000000 8.6389999390 0.0100195315 0.3297800124 2.5090000629 98.732604980 103.25844574 101.09183502 2.1780312061 7.7989706993 2.8760488033 2.8760488033
 2162.2497559 5.0000000000 8.6400003433 -0.004970703 0.3217400014 2.4909999371 99.448600769 104.49562073 102.10975647 2.1650252342 7.8389215469 2.8440625668 2.8440625668
 2162.3750000 5.0000000000 8.6400003433 -0.017999999 0.3151099980 2.4739999771 100.16200256 104.74974060 102.56940460 2.1530001163 7.8800005913 2.8110001087 2.8110001087
 2162.5000000 6.0000000000 8.6389999390 -0.022000000 0.3112100065 2.4649999142 100.82099915 104.54663849 102.41925049 2.1419999599 7.8850007057 2.7939999104 2.7939999104
 2162.6247559 6.0000000000 8.6370000839 -0.016011719 0.3081399798 2.4670000076 101.36992645 104.19988251 101.92119598 2.1300234795 7.8560571671 2.7989902496 2.7989902496
 2162.7497559 6.0000000000 8.6339998245 -0.005021484 0.3022699952 2.4739999771 102.04467773 103.53784943 101.24472809 2.1200194359 7.8080940247 2.8239510059 2.8239510059
 2162.8747559 6.0000000000 8.6319999695 0.0029843750 0.2938100100 2.4830000401 103.08995819 102.66918945 100.54821777 2.1140117645 7.7750644684 2.8509473801 2.8509473801
 2162.9997559 6.0000000000 8.6339998245 0.0089882808 0.2839899957 2.4890000820 104.37448883 102.15007782 99.960266113 2.1130018234 7.7670159340 2.8679668903 2.8679668903
 2163.1247559 6.0000000000 8.6409997940 0.0129921874 0.2734999955 2.4939999580 105.64052582 101.89301300 99.577003479 2.1199862957 7.7919511795 2.8709940910 2.8709940910
 2163.2497559 6.0000000000 8.6490001678 0.0179902334 0.2637299895 2.4979999065 106.62906647 101.52812195 99.297149658 2.1299805641 7.8299250603 2.8739941120 2.8739941120
 2163.3747559 6.0000000000 8.6529998779 0.0239882823 0.2589399815 2.5039999485 107.15897369 101.36530304 99.055503845 2.1409785748 7.8679261208 2.8829822540 2.8829822540
 2163.5000000 6.0000000000 8.6540002823 0.0309999995 0.2600100040 2.5120000839 107.26899719 101.15007782 98.813835144 2.1489999294 7.8950004578 2.9000000954 2.9000000954
 2163.6250000 6.0000000000 8.6529998779 0.0390000008 0.2672300041 2.5209999084 107.18699646 100.62113953 98.559524536 2.1530001163 7.9109992981 2.9179999828 2.9179999828
 2163.7497559 6.0000000000 8.6510000229 0.0439902358 0.2761200070 2.5269999504 107.04428101 100.42581940 98.316474915 2.1530001163 7.9109992981 2.9299767017 2.9299767017
 2163.8747559 6.0000000000 8.6510000229 0.0430019535 0.2826400101 2.5269999504 106.63979340 100.41129303 98.157112122 2.1470117569 7.9020175934 2.9319961071 2.9319961071
 2163.9997559 6.0000000000 8.6499996185 0.0320214853 0.2848699987 2.5120000839 105.78267670 100.27293396 98.100852966 2.1360213757 7.8840346336 2.9220194817 2.9220194817
 2164.1247559 6.0000000000 8.6470003128 0.0170292985 0.2879500091 2.4920001030 104.37574768 100.26819611 98.147621155 2.1210293770 7.8560552597 2.8990447521 2.8990447521
 2164.2497559 6.0000000000 8.6429996490 0.0030273439 0.2959299982 2.4730000496 102.82901764 100.53285980 98.284225464 2.1020371914 7.8210682869 2.8660643101 2.8660643101
 2164.3747559 6.0000000000 8.6370000839 -0.001990234 0.3071999848 2.4660000801 101.68622589 100.96192169 98.487640381 2.0810410976 7.7790818214 2.8270759583 2.8270759583
 2164.4997559 6.0000000000 8.6309995651 -0.001001953 0.3142400086 2.4670000076 101.39955902 100.89899445 98.728134155 2.0620372295 7.7310938835 2.7890741825 2.7890741825
 2164.6247559 5.0000000000 8.6269998550 0.0029921876 0.3109300137 2.4749999046 101.67845154 101.05074310 98.964675903 2.0490252972 7.6820960045 2.7560644150 2.7560644150
 2164.7500000 5.0000000000 8.6250000000 0.0070000002 0.2992300093 2.4860000610 102.03800201 101.36682892 99.161071777 2.0429999828 7.6490001678 2.7320001125 2.7320001125
 2164.8747559 5.0000000000 8.6260004044 0.0089960936 0.2879000008 2.4990000725 102.02403259 101.55150604 99.255691528 2.0429999828 7.6420140266 2.7130372524 2.7130372524
