# LAS format log file from PETREL
# Project units are specified as depth units
#==================================================================
~Version information
VERS.   2.0:
WRAP.   NO:
#==================================================================
~Well
STRT .m      1704.1855469 :
STOP .m      2348.0756836 :
STEP .m     0.00000000 :
NULL .        -999.250000 :
COMP.           : COMPANY
WELL.  31/5-6   : WELL
FLD.            : FIELD
LOC.            : LOCATION
SRVC.           : SERVICE COMPANY
DATE.  2018-09-11 14:48:40   : Log Export Date {yyyy-MM-dd HH:mm:ss}
PROV.           : PROVINCE
UWI.   31/5-6   : UNIQUE WELL ID
API.            : API NUMBER
#==================================================================
~Curve
DEPT .m                   : DEPTH
Lithology_geolink ._      : Lithology_geolink
CALI .in                  : CALI
BS .in                    : BS
ROP .m/h                  : ROP
DRHO .g/cm3               : DRHO
NPHI .m3/m3               : NPHI
RHOB .g/cm3               : RHOB
PEF .b/e                  : PEF
GR .gAPI                  : GR
RDEP .ohm.m               : RDEP
RMED .ohm.m               : RMED
~Parameter
#==================================================================
~Ascii
# ...
 1789.6820068 5.0000000000 8.4575996399 8.5000000000 135.37203979 0.0383962356 0.3943000138 2.2913999557 4.3063998222 109.25440216 0.8100000024 0.7961999774
 1789.8344727 5.0000000000 8.4265003204 8.5000000000 131.41667175 0.0337019227 0.4151000082 2.2746000290 4.3708000183 111.62950134 0.7814999819 0.7792000175
 1789.9868164 13.000000000 8.4265003204 8.5000000000 128.59284973 0.0349037647 0.4228999913 2.2697000504 4.3987002373 117.09279633 0.7648000121 0.7480999827
 1790.1392822 13.000000000 8.4265003204 8.5000000000 124.16469574 0.0396116897 0.4097999930 2.2706999779 4.5686998367 117.80529785 0.7508000135 0.7495999932
 1790.2916260 13.000000000 8.4265003204 8.5000000000 120.01706696 0.0469018444 0.3885000050 2.2829000950 4.6017999649 118.51789856 0.7497000098 0.7409999967
 1790.4439697 13.000000000 8.4300003052 8.5000000000 113.22409058 0.0492003188 0.3655000031 2.2888000011 4.6546998024 115.42970276 0.7418000102 0.7433999777
 1790.5964355 13.000000000 8.4626998901 8.5000000000 116.89927673 0.0495987199 0.3682000041 2.2815001011 4.7280001640 116.37909698 0.7443000078 0.7233999968
 1790.7487793 13.000000000 8.4626998901 8.5000000000 116.89927673 0.0479959957 0.3772000074 2.2695000172 4.7704000473 117.32859802 0.7347000241 0.7217000127
 1790.9012451 13.000000000 8.4954996109 8.5000000000 119.22079468 0.0430020057 0.3899999857 2.2592000961 4.7265000343 119.70369720 0.7343999743 0.7192999721
 1791.0535889 13.000000000 8.4954996109 8.5000000000 122.46522522 0.0454965569 0.3876000047 2.2711999416 4.5675001144 120.41680145 0.7457000017 0.7294999957
 1791.2060547 13.000000000 8.4954996109 8.5000000000 128.58563232 0.0411975980 0.3759999871 2.2776999474 4.5971999168 121.12989807 0.7457000017 0.7294999957
 1791.3583984 13.000000000 8.4972000122 8.5000000000 128.58563232 0.0381970331 0.3865999877 2.2785000801 4.7315001488 118.75479889 0.7315000296 0.7235000134
 1791.5108643 13.000000000 8.5298995972 8.5000000000 130.44226074 0.0345089659 0.3883000016 2.2711000443 4.8250999451 116.37969971 0.7275000215 0.7221000195
 1791.6632080 13.000000000 8.5298995972 8.5000000000 138.47605896 0.0401066504 0.3828999996 2.2730000019 4.7184000015 115.66639709 0.7041000128 0.7020999789
 1791.8156738 13.000000000 8.5229997635 8.5000000000 168.24278259 0.0484075248 0.3887000084 2.2774999142 4.5648999214 118.04149628 0.7382000089 0.7221000195
 1791.9680176 13.000000000 8.4610004425 8.5000000000 174.76049805 0.0531011224 0.3835000098 2.2936000824 4.5536999702 122.79170227 0.7138000131 0.7113999724
 1792.1204834 13.000000000 8.4610004425 8.5000000000 169.82710266 0.0544982366 0.4036000073 2.3039999008 4.5647001266 125.88009644 0.7225000262 0.7131999731
 1792.2728271 13.000000000 8.4610004425 8.5000000000 171.44784546 0.0534030423 0.3989000022 2.3338999748 4.8098998070 125.88009644 0.7225000262 0.7131999731
 1792.4251709 13.000000000 8.4644002914 8.5000000000 168.23654175 0.0572021604 0.3813999891 2.3877999783 4.9194002151 119.46730042 0.7337999940 0.7253999710
 1792.5776367 13.000000000 8.4954996109 8.5000000000 162.17355347 0.0598976761 0.3228999972 2.4435000420 5.2677001953 114.71710205 1.1835999489 1.1565999985
 1792.7299805 13.000000000 8.4885997772 8.5000000000 159.30020142 0.0569936745 0.2809999883 2.4679999352 5.4379000664 109.96690369 1.3845000267 1.3473000526
 1792.8824463 13.000000000 8.4265003204 8.5000000000 151.26542664 0.0490857400 0.2536000013 2.4593000412 5.6250000000 109.25440216 1.4062000513 1.4169000387
 1793.0347900 13.000000000 8.4265003204 8.5000000000 137.41273499 0.0313117690 0.2570999861 2.4356999397 5.6087999344 106.87930298 1.4062000513 1.4169000387
 1793.1872559 13.000000000 8.4265003204 8.5000000000 129.50558472 0.0459979177 0.2673000097 2.4521000385 5.4152002335 106.87930298 1.4074000120 1.4076000452
 1793.3395996 13.000000000 8.4335002899 8.5000000000 125.00328827 0.0434048101 0.2863000035 2.4444999695 5.5749998093 108.54129791 1.4074000120 1.4076000452
 1793.4920654 13.000000000 8.4954996109 8.5000000000 128.58038330 0.0493875109 0.2960000038 2.4498999119 5.4668002129 110.20330048 1.4114999771 1.4197000265
 1793.6444092 13.000000000 8.4954996109 8.5000000000 121.62794495 0.0416048095 0.2996999919 2.4497001171 5.4724001884 112.57839966 1.3191000223 1.2892999649
 1793.7968750 13.000000000 8.4989004135 8.5000000000 111.12040710 0.0476072058 0.2856000066 2.4693999290 5.2104001045 114.95539856 1.6093000174 1.5650000572
 1793.9492188 13.000000000 8.5298995972 8.5000000000 105.89435577 0.0521004796 0.2720000148 2.5090000629 5.0890002251 118.04360199 1.4750000238 1.4170999527
 1794.1016846 13.000000000 8.4670000076 8.5000000000 103.45996857 0.0527025647 0.2485000044 2.5355000496 5.0293002129 125.16889954 1.6490000486 1.6553000212
 1794.2540283 13.000000000 8.3731002808 8.5000000000 101.13910675 0.0542978346 0.2273000032 2.5543999672 4.9822998047 131.34280396 1.8257000446 1.7778999805
 1794.4063721 13.000000000 8.3805999756 8.5000000000 101.71752167 0.0515993610 0.2114000022 2.5545001030 4.9839000702 133.71789551 2.3777999878 2.2472999096
 1794.5588379 13.000000000 8.3670997620 8.5000000000 106.53478241 0.0508004017 0.2002000064 2.5625000000 4.9274997711 129.68029785 2.3836998940 2.3248999119
 1794.7111816 13.000000000 8.3886003494 8.5000000000 105.28707123 0.0513000004 0.1941999942 2.5743999481 4.9225001335 126.59259796 2.3856999874 2.3696999550
 1794.8636475 7.0000000000 8.3886003494 8.5000000000 100.02263641 0.0513008013 0.1882999986 2.5641999245 4.9994997978 128.96769714 2.3731999397 2.3512001038
 1795.0159912 7.0000000000 8.3576002121 8.5000000000 91.854988098 0.0523007996 0.1860000044 2.5566000938 5.1430001259 141.79330444 2.4179999828 2.3547000885
 1795.1684570 7.0000000000 8.3576002121 8.5000000000 86.557090759 0.0533001609 0.1852000058 2.5685999393 5.1592001915 156.04389954 2.3896999359 2.3800001144
 1795.3208008 7.0000000000 8.3645000458 8.5000000000 82.584320068 0.0534976795 0.1893000007 2.5576999187 4.9506001472 173.61839294 2.3027999401 2.2614998817
 1795.4732666 7.0000000000 8.3645000458 8.5000000000 81.462272644 0.0505925491 0.2074999958 2.5088999271 4.9422998428 189.53160095 2.1679000854 2.0975000858
 1795.6256104 7.0000000000 8.4265003204 8.5000000000 83.736221313 0.0413023233 0.2398999929 2.4342000484 5.0345001221 202.11830139 1.9248000383 1.8437000513
 1795.7780762 7.0000000000 8.4047002792 8.5000000000 80.732940674 0.0442121699 0.2831999958 2.3905000687 5.1082000732 202.59559631 1.7891999483 1.7130000591
 1795.9304199 7.0000000000 8.4626998901 8.5000000000 78.273620605 0.0518027246 0.3246999979 2.3550999165 4.9994997978 199.51199341 1.7099000216 1.6161999702
 1796.0828857 7.0000000000 8.7634000778 8.5000000000 71.438652039 0.0552137718 0.3494000137 2.3313000202 4.9706997871 198.80079651 1.5041999817 1.4433000088
 1796.2352295 7.0000000000 8.8705997467 8.5000000000 69.777885437 0.0638045669 0.3743000031 2.3208999634 5.1993999481 209.25010681 1.2942999601 1.2222000360
 1796.3876953 7.0000000000 8.6915998459 8.5000000000 70.877624512 0.0695070475 0.3838999867 2.3152000904 5.2878999710 222.54589844 1.3236999512 1.1622999907
 1796.5400391 7.0000000000 8.5643997192 8.5000000000 75.011482239 0.0738971978 0.4058000147 2.3192999363 5.2319998741 236.79640198 1.5657999516 1.3233000040
 1796.6923828 7.0000000000 8.5626001358 8.5000000000 73.779853821 0.0704011992 0.4004000127 2.3245000839 5.1143999100 246.29679871 1.7309000492 1.4766000509
 1796.8448486 7.0000000000 8.6822004318 8.5000000000 73.779853821 0.0718871057 0.3822999895 2.3491001129 5.0940999985 234.89709473 1.9702999592 1.6758999825
 1796.9971924 7.0000000000 8.7648000717 8.5000000000 78.956695557 0.0557890311 0.3691000044 2.3529999256 5.3970999718 209.48219299 2.1637001038 1.8552999496
 1797.1496582 7.0000000000 8.6845998764 8.5000000000 73.178153992 0.0421024039 0.3048999906 2.3963000774 5.7747001648 185.01820374 2.4284999371 2.1305999756
 1797.3020020 7.0000000000 8.4876003265 8.5000000000 68.972770691 0.0451059230 0.2579999864 2.4625999928 5.5418000221 177.17770386 2.2581999302 2.1303999424
