# LAS format log file from PETREL
# Project units are specified as depth units
#==================================================================
~Version information
VERS.   2.0:
WRAP.   NO:
#==================================================================
~Well
STRT .m      164.79321289 :
STOP .m      1907.4873047 :
STEP .m     0.00000000 :
NULL .        -999.250000 :
COMP.           : COMPANY
WELL.  31/5-4 S   : WELL
FLD.            : FIELD
LOC.            : LOCATION
SRVC.           : SERVICE COMPANY
DATE.  2018-09-11 14:48:39   : Log Export Date {yyyy-MM-dd HH:mm:ss}
PROV.           : PROVINCE
UWI.   31/5-4 S   : UNIQUE WELL ID
API.            : API NUMBER
#==================================================================
~Curve
DEPT .m                   : DEPTH
Lithology_geolink ._      : Lithology_geolink
CALI .in                  : CALI
DRHO .g/cm3               : DRHO
NPHI .m3/m3               : NPHI
RHOB .g/cm3               : RHOB
GR .gAPI                  : GR
DTC .us/ft                : DTC
RDEP .ohm.m               : RDEP
SP .mV                    : SP
RSHA .ohm.m               : RSHA
RMED .ohm.m               : RMED
~Parameter
#==================================================================
~Ascii
# ...
 1602.5615234 7.0000000000 14.453125954 0.0159526449 0.4021049440 2.2784066200 133.37500000 152.55409241 2.2828054428 62.960140228 1.5664062500 1.5696086884
 1602.7139893 7.0000000000 15.093750000 0.0150374705 0.4207470119 2.2866311073 128.75000000 152.55409241 2.3990702629 61.000000000 1.3818359375 1.5402204990
 1602.8663330 7.0000000000 15.648438454 0.0097579332 0.4364537895 2.2914566994 129.00000000 152.55409241 2.3724446297 61.021835327 1.1513671875 1.5152232647
 1603.0186768 7.0000000000 15.562500954 0.0101665864 0.4472784102 2.2760233879 129.12500000 152.55409241 2.4775762558 61.212268829 1.3115234375 1.5494439602
 1603.1711426 7.0000000000 13.843750000 0.0079306653 0.4357127249 2.2511305809 132.25000000 152.55409241 2.5170364380 61.777843475 1.5644531250 1.5633349419
 1603.3234863 7.0000000000 13.164062500 0.0045894231 0.4279693365 2.2408285141 128.75000000 152.55409241 2.3976893425 62.434547424 2.3281250000 1.5920932293
 1603.4758301 7.0000000000 12.820311546 0.0051780622 0.4087058306 2.2390146255 133.50000000 152.55409241 2.5715112686 62.125000000 1.6953125000 1.5685896873
 1603.6281738 7.0000000000 14.390625000 0.0121458331 0.4116566479 2.2268633842 134.75000000 152.55409241 2.4685769081 61.907825470 1.0917968750 1.5794577599
 1603.7806396 7.0000000000 16.187500000 0.0091232983 0.4226973355 2.2156949043 137.25000000 152.55409241 2.5151672363 60.744590759 0.5971679688 1.6138839722
 1603.9329834 7.0000000000 13.445311546 0.0054541668 0.4294612408 2.2182765007 136.50000000 152.55409241 2.5563111305 60.233673096 0.8173828125 1.5538289547
 1604.0854492 7.0000000000 13.078125954 0.0073895915 0.4285994470 2.2224512100 137.00000000 152.55409241 2.5119152069 60.880905151 1.5039062500 1.5848088264
 1604.2377930 7.0000000000 13.757811546 0.0062777242 0.4125545025 2.2298293114 136.25000000 152.55409241 2.3276634216 61.500000000 1.1992187500 1.5030102730
 1604.3901367 7.0000000000 14.562500954 0.0066948761 0.3961107135 2.2366623878 131.62500000 152.55409241 2.3067116737 61.413131714 1.3525390625 1.4687933922
 1604.5426025 7.0000000000 14.945312500 0.0128498403 0.4087012410 2.2261366844 128.75000000 152.55409241 2.0869841576 61.000000000 0.9306640625 1.4581959248
 1604.6949463 7.0000000000 15.492186546 0.0196650922 0.4246108234 2.2033228874 132.50000000 152.55409241 2.2073287964 60.978282928 0.9975585938 1.4594841003
 1604.8474121 7.0000000000 15.476561546 0.0193078537 0.4613580704 2.2066020966 136.62500000 152.55409241 2.1291818619 60.722858429 0.8330078125 1.4621274471
 1604.9997559 7.0000000000 13.085936546 0.0173004009 0.4682720006 2.2012457848 137.87500000 152.55409241 2.2316875458 60.043434143 0.7026367188 1.4799277782
 1605.1520996 7.0000000000 12.500000000 0.0109002404 0.4760017693 2.1819467545 138.00000000 152.55409241 2.3555574417 60.314903259 0.6108398438 1.4734218121
 1605.3044434 7.0000000000 12.328125000 0.0039654649 0.4751013517 2.1572623253 140.37500000 152.55409241 2.2050242424 60.819557190 0.9067382813 1.4933593273
 1605.4567871 7.0000000000 12.890625000 -0.002160609 0.4867663383 2.1527085304 147.87500000 152.55409241 2.2561745644 61.706932068 0.9941406250 1.4985115528
 1605.6092529 7.0000000000 13.101562500 -0.002791426 0.4813820422 2.1761898994 151.00000000 152.55409241 2.2895092964 61.348678589 0.9389648438 1.5516321659
 1605.7615967 7.0000000000 13.203125000 0.0005864692 0.4692226350 2.1951150894 150.62500000 152.55409241 2.2813177109 60.517326355 1.6103515625 1.6099486351
 1605.9140625 7.0000000000 12.468750000 0.0031782051 0.4404985607 2.2135934830 148.37500000 152.55409241 2.4712724686 59.956764221 1.0849609375 1.6078968048
 1606.0664063 7.0000000000 12.398437500 0.0040482786 0.4503024220 2.2074580193 149.12500000 152.55409241 2.4499549866 59.642326355 0.9873046875 1.5911481380
 1606.2188721 7.0000000000 12.867187500 0.0009436699 0.4544580579 2.2026839256 146.62500000 152.55409241 2.4210114479 59.060096741 0.6987304688 1.5877294540
 1606.3712158 7.0000000000 13.062500000 -0.003443635 0.4664944112 2.2006158829 147.37500000 152.55409241 2.3534145355 58.750000000 0.6411132813 1.5915553570
 1606.5236816 7.0000000000 12.031250000 -0.002526122 0.4805805981 2.1976866722 144.75000000 152.55409241 2.1801776886 58.685096741 0.8051757813 1.5553898811
 1606.6760254 7.0000000000 10.726562500 -0.001335148 0.4876736104 2.1805272102 147.37500000 152.55409241 2.1329526901 58.396617889 0.4189453125 1.5551674366
 1606.8282471 7.0000000000 10.953125954 -0.000013462 0.4884481132 2.1660270691 149.25000000 152.55409241 2.1743078232 58.392829895 0.3945312500 1.5075113773
 1606.9807129 7.0000000000 11.281251907 -0.001948119 0.4671793580 2.1657891273 151.00000000 152.55409241 2.0943331718 57.745895386 0.5302734375 1.4606838226
 1607.1330566 7.0000000000 11.281251907 -0.001458814 0.4637593031 2.1691918373 154.75000000 152.55409241 2.1575040817 56.932090759 0.6269531250 1.5315134525
 1607.2855225 7.0000000000 12.031250000 -0.000715385 0.4574683905 2.1510770321 156.25000000 152.55409241 2.3049731255 55.892414093 0.3295898438 1.5765697956
 1607.4378662 7.0000000000 12.734375000 -0.003391753 0.4498158097 2.1313767433 162.12500000 152.55409241 2.2680473328 55.353565216 0.3964843750 1.5752458572
 1607.5903320 7.0000000000 12.664061546 -0.005696154 0.4589611888 2.1377363205 164.12500000 152.55409241 2.2420830727 55.357585907 0.8110351563 1.5649509430
 1607.7426758 7.0000000000 12.421875954 -0.000588711 0.4666571319 2.1541790962 160.00000000 152.55409241 2.2222347260 55.982170105 0.5273437500 1.6063096523
 1607.8951416 7.0000000000 13.257813454 0.0005884615 0.4871755242 2.1712713242 154.75000000 152.55409241 2.2147769928 56.521518707 0.6464843750 1.6145832539
 1608.0474854 7.0000000000 14.062500000 -0.000951882 0.4557298124 2.1784691811 151.12500000 152.55409241 2.3470735550 56.603565216 0.5083007813 1.5701718330
 1608.1999512 7.0000000000 12.742187500 -0.000975000 0.4423994124 2.1939840317 153.75000000 152.55409241 2.1881718636 56.629207611 0.5288085938 1.5907044411
 1608.3522949 7.0000000000 12.585936546 -0.000332346 0.4261061549 2.1965341568 158.25000000 152.55409241 2.3660016060 57.357585907 1.0390625000 1.7005946636
 1608.5045166 7.0000000000 12.453125954 -0.002057051 0.4475115538 2.1840167046 156.62500000 152.55409241 2.5079808235 58.003005981 0.6738281250 1.7412505150
 1608.6569824 7.0000000000 13.617187500 -0.000193435 0.4657870531 2.1421074867 156.12500000 152.55409241 2.3873896599 58.732086182 0.4282226563 1.6890177727
 1608.8093262 7.0000000000 12.835937500 0.0004056090 0.4827514887 2.0961713791 149.00000000 152.55409241 2.3279337883 59.250000000 0.3706054688 1.6082415581
 1608.9617920 7.0000000000 11.343749046 -0.001379504 0.4887230694 2.0841255188 151.37500000 152.55409241 2.2324342728 59.228584290 0.5000000000 1.6017205715
 1609.1141357 7.0000000000 11.609374046 -0.000251282 0.4679240882 2.0917301178 149.62500000 152.55409241 2.3221101761 59.146335602 1.0859375000 1.6470179558
 1609.2666016 7.0000000000 11.851562500 0.0028823719 0.4550350308 2.1071100235 153.12500000 152.55409241 2.3151783943 59.528423309 1.8544921875 1.6971542835
 1609.4189453 7.0000000000 12.796875954 0.0054409928 0.4385450780 2.1199812889 151.87500000 152.55409241 2.5392298698 60.853664398 0.7045898438 1.7651319504
 1609.5714111 7.0000000000 11.617186546 0.0074958336 0.4459356964 2.1358466148 155.75000000 152.55409241 2.6112818718 60.878501892 0.9296875000 1.8020572662
 1609.7237549 7.0000000000 12.632812500 0.0121442759 0.4361427128 2.1435194016 156.62500000 152.55409241 2.4395279884 61.777343750 0.9101562500 1.8214669228
 1609.8760986 7.0000000000 12.406250000 0.0133713139 0.4453249574 2.1365337372 154.87500000 152.55409241 2.4737567902 63.103683472 0.5151367188 1.8760786057
 1610.0285645 7.0000000000 11.726561546 0.0109729385 0.4585179090 2.1509056091 154.00000000 152.55409241 2.8138175011 62.850662231 0.9770507813 2.1082978249
 1610.1807861 7.0000000000 11.351562500 0.0079151439 0.4823321700 2.1696567535 156.75000000 152.55409241 3.2486591339 61.955127716 1.8984375000 2.4137492180
