# LAS format log file from PETREL
# Project units are specified as depth units
#==================================================================
~Version information
VERS.   2.0:
WRAP.   NO:
#==================================================================
~Well
STRT .m      1704.1855469 :
STOP .m      2348.0756836 :
STEP .m     0.00000000 :
NULL .        -999.250000 :
COMP.           : COMPANY
WELL.  31/5-6   : WELL
FLD.            : FIELD
LOC.            : LOCATION
SRVC.           : SERVICE COMPANY
DATE.  2018-09-11 14:48:40   : Log Export Date {yyyy-MM-dd HH:mm:ss}
PROV.           : PROVINCE
UWI.   31/5-6   : UNIQUE WELL ID
API.            : API NUMBER
#==================================================================
~Curve
DEPT .m                   : DEPTH
Lithology_geolink ._      : Lithology_geolink
CALI .in                  : CALI
BS .in                    : BS
ROP .m/h                  : ROP
DRHO .g/cm3               : DRHO
NPHI .m3/m3               : NPHI
RHOB .g/cm3               : RHOB
PEF .b/e                  : PEF
GR .gAPI                  : GR
RDEP .ohm.m               : RDEP
RMED .ohm.m               : RMED
~Parameter
#==================================================================
~Ascii
# ...
 2170.5295410 5.0000000000 8.4231004715 8.5000000000 58.095146179 0.0340999998 0.3118999898 2.4416000843 4.0661001205 147.96910095 2.0197000504 1.9492000341
 2170.6821289 5.0000000000 8.3912000656 8.5000000000 59.439636230 0.0366096161 0.3097999990 2.4465000629 4.0335001945 145.59399414 2.2151000500 2.1245000362
 2170.8344727 5.0000000000 8.3576002121 8.5000000000 58.286415100 0.0426046476 0.3181999922 2.4509000778 4.0947999954 147.25959778 2.2499001026 2.2174000740
 2170.9868164 6.0000000000 8.3690996170 8.5000000000 55.930446625 0.0454942398 0.3307999969 2.4475998878 4.1641998291 149.63470459 2.3041000366 2.2871999741
 2171.1391602 5.0000000000 8.3576002121 8.5000000000 55.931758881 0.0419000015 0.3276000023 2.4281001091 4.0462999344 154.38490295 2.3229000568 2.3008000851
 2171.2917480 5.0000000000 8.3576002121 8.5000000000 52.967849731 0.0396987200 0.3213999867 2.4175999165 4.0293002129 151.77079773 2.2815999985 2.2813999653
 2171.4440918 5.0000000000 8.3576002121 8.5000000000 52.967849731 0.0389035232 0.3140999973 2.4149999619 3.9967000484 147.26649475 2.2462000847 2.2256000042
 2171.5964355 5.0000000000 8.3748998642 8.5000000000 50.021656036 0.0410963185 0.3136000037 2.4156000614 4.0823001862 144.17810059 2.0662000179 2.0253000259
 2171.7487793 5.0000000000 8.3576002121 8.5000000000 56.985897064 0.0388000049 0.3274999857 2.4072999954 4.0406999588 143.46220398 2.0776998997 1.9940999746
 2171.9011230 5.0000000000 8.3703002930 8.5000000000 80.385169983 0.0377999991 0.3345000148 2.4019999504 4.0229997635 144.87809753 2.1040999889 2.0093998909
 2172.0537109 5.0000000000 8.3627996445 8.5000000000 86.146987915 0.0385887846 0.3443000019 2.4047999382 4.0370001793 144.16479492 2.0185999870 2.0215001106
 2172.2060547 5.0000000000 8.3829002380 8.5000000000 86.146987915 0.0315998383 0.3316999972 2.3956999779 3.9830999374 145.11860657 1.9169000387 1.8875000477
 2172.3583984 5.0000000000 8.4271001816 8.5000000000 88.248687744 0.0315000005 0.3129999936 2.3970000744 3.9163000584 145.82659912 1.8671000004 1.8155000210
 2172.5107422 5.0000000000 8.4428997040 8.5000000000 96.280838013 0.0315000005 0.2996000051 2.3908998966 3.8954999447 143.21620178 1.8786000013 1.8308999538
 2172.6633301 5.0000000000 8.4139003754 8.5000000000 95.253936768 0.0362990387 0.3019999862 2.3938999176 3.9254000187 141.55180359 1.7720999718 1.7563999891
 2172.8156738 5.0000000000 8.3731002808 8.5000000000 98.922248840 0.0356987193 0.3037000000 2.3921999931 3.9094998837 142.51100159 1.6559000015 1.6112999916
 2172.9680176 5.0000000000 8.3576002121 8.5000000000 100.34252167 0.0348999985 0.3084000051 2.3808999062 3.9721999168 146.54789734 1.6298999786 1.6125999689
 2173.1203613 5.0000000000 8.3576002121 8.5000000000 104.67486572 0.0390000008 0.3054000139 2.3766000271 4.0892000198 147.25849915 1.6325000525 1.6131000519
 2173.2729492 5.0000000000 8.3576002121 8.5000000000 101.14567566 0.0391945504 0.3086000085 2.3664999008 4.1855001450 143.21629333 1.6377999783 1.5731999874
 2173.4252930 5.0000000000 8.3593997955 8.5000000000 97.313644409 0.0357980765 0.3149000108 2.3629000187 4.2076997757 140.12789917 1.5369000435 1.5148999691
 2173.5776367 5.0000000000 8.3794002533 8.5000000000 98.208335876 0.0345988795 0.3055000007 2.3617999554 4.1373000145 140.12789917 1.4675999880 1.4091000557
 2173.7299805 5.0000000000 8.3576002121 8.5000000000 95.265754700 0.0339000002 0.3192999959 2.3610000610 4.0746998787 140.83580017 1.4191999435 1.3931000233
 2173.8825684 5.0000000000 8.3766002655 8.5000000000 97.330055237 0.0380004793 0.3217000067 2.3689000607 4.0675997734 140.83740234 1.4787000418 1.4517999887
 2174.0349121 5.0000000000 8.4110002518 8.5000000000 95.772636414 0.0383043289 0.3237000108 2.3773000240 4.0715999603 140.12669373 1.4930000305 1.4763000011
 2174.1872559 5.0000000000 8.4265003204 8.5000000000 94.764106750 0.0410038419 0.3201000094 2.3868000507 4.0981001854 143.45950317 1.4664000273 1.4571000338
 2174.3395996 5.0000000000 8.4265003204 8.5000000000 91.399612427 0.0434000008 0.3167999983 2.4003000259 4.0398001671 148.92140198 1.6132999659 1.5749000311
 2174.4919434 5.0000000000 8.4265003204 8.5000000000 90.955383301 0.0428000018 0.3265999854 2.4068000317 4.0458998680 152.00720215 1.6794999838 1.6785000563
 2174.6445313 5.0000000000 8.4139003754 8.5000000000 92.813316345 0.0415866971 0.3185000122 2.4191999435 4.0982999802 147.96650696 1.6674000025 1.6538000107
 2174.7968750 5.0000000000 8.3849000931 8.5000000000 91.858596802 0.0332942456 0.3163999915 2.4173998833 4.0734000206 146.54289246 1.7022999525 1.6881999969
 2174.9492188 5.0000000000 8.4333000183 8.5000000000 91.866142273 0.0296999998 0.3152000010 2.4056999683 4.0774998665 145.83230591 1.8250000477 1.7690999508
 2175.1015625 5.0000000000 8.4446001053 8.5000000000 91.426834106 0.0282000005 0.3152000010 2.3880999088 4.0809998512 150.58250427 1.9090000391 1.8988000154
 2175.2541504 5.0000000000 8.4919004440 8.5000000000 88.258857727 0.0318009630 0.3104000092 2.3826999664 4.1262001991 148.67939758 1.6998000145 1.6837999821
 2175.4064941 5.0000000000 8.4282999039 8.5000000000 84.927497864 0.0323915072 0.3093000054 2.3838000298 4.1202001572 147.96870422 1.7046999931 1.6474000216
 2175.5588379 5.0000000000 8.4593000412 8.5000000000 83.354331970 0.0270950403 0.3030000031 2.3824999332 4.0444998741 147.96870422 1.7177000046 1.6601999998
 2175.7111816 5.0000000000 8.4265003204 8.5000000000 84.522644043 0.0240000002 0.2971999943 2.3845999241 3.9904999733 147.25469971 1.7434999943 1.7221000195
 2175.8637695 5.0000000000 8.4335002899 8.5000000000 84.522644043 0.0217033662 0.3039999902 2.3887000084 3.9230000973 143.21510315 1.8255000114 1.7556999922
 2176.0161133 5.0000000000 8.4919996262 8.5000000000 75.959312439 0.0238233972 0.3041000068 2.3947000504 3.9140000343 138.46490479 1.7968000174 1.7429000139
 2176.1684570 5.0000000000 8.0665998459 8.5000000000 75.959312439 0.0384134427 0.3172000051 2.4086000919 3.9714000225 135.38029480 1.7371000051 1.6951999664
 2176.3208008 5.0000000000 8.0665998459 8.5000000000 75.642715454 0.0467999987 0.3147000074 2.4151999950 4.1097002029 138.70700073 1.6813999414 1.6540000439
 2176.4731445 5.0000000000 8.0665998459 8.5000000000 76.276252747 0.0593999997 0.3179999888 2.4370000362 4.1733999252 145.12170410 1.6552000046 1.6375000477
 2176.6257324 5.0000000000 8.0665998459 8.5000000000 78.950126648 0.0564028844 0.3251000047 2.4384000301 4.2014999390 148.91580200 1.6547000408 1.6373000145
 2176.7780762 5.0000000000 8.4500999451 8.5000000000 80.720146179 0.0581870414 0.3210999966 2.4458999634 4.3635001183 146.30239868 1.6873999834 1.6634000540
 2176.9304199 5.0000000000 8.4954996109 8.5000000000 80.720146179 0.0500999987 0.3100000024 2.4214999676 4.4060001373 143.21670532 1.7699999809 1.7239999771
 2177.0827637 5.0000000000 8.4764995575 8.5000000000 80.726051331 0.0463999994 0.2953000069 2.3931999207 4.4264001846 145.83990479 1.9809999466 1.9263000488
 2177.2353516 5.0000000000 8.4610004425 8.5000000000 82.194557190 0.0401916653 0.2960999906 2.3761999607 4.1624999046 148.21499634 1.8651000261 1.8136999607
 2177.3876953 5.0000000000 8.4610004425 8.5000000000 84.915023804 0.0349971168 0.3093999922 2.3677000999 4.1226000786 145.59790039 1.8018000126 1.7668000460
 2177.5400391 5.0000000000 8.4610004425 8.5000000000 91.844161987 0.0331854410 0.3131000102 2.3740000725 4.0237998962 141.55560303 1.7109999657 1.6678999662
 2177.6923828 5.0000000000 8.4610004425 8.5000000000 97.834320068 0.0241000000 0.3073999882 2.3724999428 3.9196999073 139.89079285 1.7032999992 1.6353000402
 2177.8449707 5.0000000000 8.4540004730 8.5000000000 99.456039429 0.0272033662 0.3032999933 2.3822999001 3.9616999626 139.17900085 1.6082999706 1.5982999802
 2177.9973145 5.0000000000 8.3921003342 8.5000000000 102.87565613 0.0293134619 0.2973999977 2.3884000778 4.0418000221 138.46949768 1.7128000259 1.6215000153
 2178.1496582 5.0000000000 8.3955001831 8.5000000000 98.922248840 0.0376980826 0.3025999963 2.4015998840 4.2146000862 139.42109680 1.8459999561 1.7381999493
