# LAS format log file from PETREL
# Project units are specified as depth units
#==================================================================
~Version information
VERS.   2.0:
WRAP.   NO:
#==================================================================
~Well
STRT .m      405.00000000 :
STOP .m      1938.8748779 :
STEP .m     0.00000000 :
NULL .        -999.250000 :
COMP.           : COMPANY
WELL.  31/5-5 R   : WELL
FLD.            : FIELD
LOC.            : LOCATION
SRVC.           : SERVICE COMPANY
DATE.  2018-09-11 14:48:39   : Log Export Date {yyyy-MM-dd HH:mm:ss}
PROV.           : PROVINCE
UWI.   31/5-5 R   : UNIQUE WELL ID
API.            : API NUMBER
#==================================================================
~Curve
DEPT .m                   : DEPTH
Lithology_geolink ._      : Lithology_geolink
CALI .in                  : CALI
DRHO .g/cm3               : DRHO
NPHI .m3/m3               : NPHI
RHOB .g/cm3               : RHOB
GR .gAPI                  : GR
DTC .us/ft                : DTC
RDEP .ohm.m               : RDEP
SP .mV                    : SP
RSHA .ohm.m               : RSHA
~Parameter
#==================================================================
~Ascii
# ...
 1532.0000000 13.000000000 9.1906003952 0.0302235335 0.3072496057 2.3863916397 69.105201721 122.88745117 2.0577378273 28.448200226 2.3738000393
 1532.1251221 13.000000000 9.1899995804 0.0063168807 0.2901170254 2.3993082047 68.430297852 122.25018311 2.2409992218 27.989200592 2.4544000626
 1532.2498779 13.000000000 9.1899995804 0.0145356990 0.2690878510 2.4225049019 67.344802856 121.61373138 2.3149433136 27.566499710 2.5467000008
 1532.3750000 13.000000000 9.1899995804 0.0161954425 0.2511051893 2.4276113510 66.106300354 120.97621155 2.3146963120 27.316499710 2.6171998978
 1532.5000000 13.000000000 9.1899995804 0.0221962556 0.2595364451 2.4129877090 65.271102905 120.33892059 2.2473001480 27.280199051 2.6240000725
 1532.6250000 13.000000000 9.1899995804 0.0048583727 0.2819942832 2.4075317383 65.286499023 119.70162201 2.0506019592 27.393199921 2.5480000973
 1532.7500000 13.000000000 9.1899995804 0.0222873054 0.3064869642 2.3939442635 66.136901855 119.06562805 1.7941780090 27.506000519 2.4065999985
 1532.8750000 13.000000000 9.1899995804 0.0305211283 0.3222828805 2.3693442345 67.627197266 118.43317413 1.6586382389 27.552600861 2.2407999039
 1533.0000000 13.000000000 9.1899995804 0.0083045848 0.3363688588 2.3452177048 69.299797058 117.82779694 1.6398241520 27.533000946 2.0936999321
 1533.1250000 13.000000000 9.1899995804 0.0275172107 0.3471388221 2.3397660255 70.474403381 117.24236298 1.6427829266 27.497800827 1.9882999659
 1533.2500000 13.000000000 9.1899995804 0.0234096386 0.3470341563 2.3520374298 70.679901123 116.66377258 1.6593420506 27.483499527 1.9287999868
 1533.3751221 13.000000000 9.1899995804 0.0214921162 0.3273268938 2.3677239418 70.020202637 116.08441162 1.7097241879 27.468399048 1.9151999950
 1533.4998779 13.000000000 9.1899995804 0.0473317355 0.3151497245 2.3774623871 69.215202332 115.50732422 1.8095510006 27.404899597 1.9384000301
 1533.6250000 13.000000000 9.1899995804 0.0103796460 0.3146854639 2.3742499352 69.192298889 114.92764282 1.8618052006 27.262399673 1.9767999649
 1533.7500000 13.000000000 9.1899995804 0.0685181022 0.3248930871 2.3604969978 70.027900696 114.34932709 1.8160598278 27.103900909 2.0167000294
 1533.8750000 13.000000000 9.1899995804 0.0785865635 0.3356786370 2.3558497429 71.188400269 113.77062225 1.8129367828 27.018499374 2.0697999001
 1534.0000000 13.000000000 9.1899995804 0.0475662351 0.3450516760 2.3671131134 71.797302246 113.19306946 1.9062063694 27.073900223 2.1626000404
 1534.1250000 13.000000000 9.1899995804 -0.008969091 0.3413469791 2.3959469795 70.953697205 112.64322662 2.0524568558 27.282199860 2.3069999218
 1534.2500000 13.000000000 9.1899995804 -0.015848938 0.3197503686 2.4197559357 68.950103760 112.21269989 2.1905837059 27.533599854 2.4760000706
 1534.3750000 13.000000000 9.1899995804 0.0365722552 0.3051033616 2.4194688797 66.557296753 112.07422638 2.2394399643 27.727399826 2.6026000977
 1534.5001221 13.000000000 9.1899995804 0.0052867718 0.3079852462 2.3972997665 64.704101563 112.06885529 2.1650009155 27.794900894 2.6221001148
 1534.6248779 13.000000000 9.1899995804 0.0155079421 0.3179171681 2.3940677643 64.225898743 112.10610199 2.0585484505 27.751699448 2.5492000580
 1534.7500000 13.000000000 9.1899995804 0.0089432690 0.3218668997 2.4118304253 64.767799377 112.14345551 1.9994444847 27.754499435 2.4607000351
 1534.8750000 13.000000000 9.1899995804 -0.030813452 0.3238731623 2.4444990158 65.540901184 112.18078613 1.9891419411 27.920900345 2.4123001099
 1535.0000000 13.000000000 9.1899995804 -0.051252946 0.3222636282 2.4460299015 65.778701782 112.21802521 2.0360302925 28.260099411 2.4289999008
 1535.1250000 13.000000000 9.1899995804 0.0165448152 0.3068202138 2.4338979721 65.021598816 112.25532532 2.2432193756 28.645900726 2.5204000473
 1535.2500000 13.000000000 9.1899995804 0.0358489454 0.2910361290 2.4309911728 63.345199585 112.29265594 2.8445687294 28.910299301 2.6970999241
 1535.3750000 13.000000000 9.1899995804 -0.014358951 0.2690160275 2.4534506798 60.671100616 112.32973480 3.7219214439 28.989799500 2.9804999828
 1535.5000000 13.000000000 9.1899995804 0.0154922679 0.2373207211 2.4999227524 57.055198669 112.35771942 4.2946968079 28.908899307 3.3815999031
 1535.6250000 16.000000000 9.1899995804 0.0391350612 0.2055962384 2.5233769417 53.006599426 112.35140228 4.5964288712 28.693599701 3.8396999836
 1535.7498779 16.000000000 9.1899995804 0.0254865848 0.1890766323 2.5347466469 49.570701599 111.45064545 4.9531192780 28.364099503 4.1792998314
 1535.8750000 16.000000000 9.1899995804 0.0209793523 0.1848814189 2.5338802338 47.792999268 109.82498932 4.9038591385 27.914100647 4.1750998497
 1536.0000000 16.000000000 9.1899995804 0.0137811266 0.1882408261 2.5163135529 48.565799713 107.98365021 4.2454757690 27.390399933 3.7553999424
 1536.1250000 16.000000000 9.1899995804 0.0363519713 0.2042777240 2.4876513481 52.286998749 106.14270782 3.4799823761 26.904699326 3.1373999119
 1536.2500000 16.000000000 9.1899995804 0.0422976762 0.2391255200 2.4614925385 57.370498657 104.30014801 2.8685693741 26.502000809 2.5992999077
 1536.3750000 13.000000000 9.1905002594 0.0274312682 0.2798192501 2.4408617020 62.437698364 102.46014404 2.3717689514 26.161600113 2.2467000484
 1536.5000000 13.000000000 9.1932001114 0.0428704992 0.3038831949 2.4295816422 66.392997742 100.61752319 2.0000648499 25.881799698 2.0692999363
 1536.6250000 13.000000000 9.1995000839 0.0341654122 0.3237766623 2.4261903763 68.434898376 98.776596069 1.7913000584 25.750400543 2.0009999275
 1536.7500000 13.000000000 9.2061996460 0.0120180473 0.3396856189 2.4288868904 69.129699707 96.935310364 1.7610623837 25.815000534 1.9768999815
 1536.8751221 13.000000000 9.2100000381 0.0186484195 0.3495587111 2.4358072281 69.238601685 95.091232300 1.7832679749 26.031700134 1.9686000347
 1536.9998779 13.000000000 9.2086000443 -0.025723372 0.3536001444 2.4341850281 69.405700684 93.255180359 1.7521274090 26.271099091 1.9701999426
 1537.1250000 13.000000000 9.2023000717 -0.006631342 0.3465091586 2.4259786606 69.908599854 91.449935913 1.6849098206 26.402799606 1.9811999798
 1537.2500000 13.000000000 9.1958999634 0.0351294801 0.3480705917 2.4164509773 70.608703613 91.215812683 1.6068089008 26.447900772 1.9889999628
 1537.3750000 13.000000000 9.1939001083 0.0115786269 0.3583337665 2.4079499245 71.272201538 92.608016968 1.5330755711 26.494699478 1.9720000029
 1537.5000000 13.000000000 9.1979999542 0.0447433032 0.3757007122 2.3986186981 71.665802002 94.923461914 1.4872143269 26.600599289 1.9183000326
 1537.6250000 13.000000000 9.2052001953 0.0364717320 0.3864767551 2.3784933090 71.651199341 97.273803711 1.4670886993 26.724700928 1.8459999561
 1537.7500000 13.000000000 9.2115001678 0.0102233887 0.3951191604 2.3618946075 71.469703674 99.620887756 1.4521396160 26.790100098 1.7848999500
 1537.8750000 13.000000000 9.2159004211 0.0390030295 0.4037353396 2.3494558334 71.329399109 101.97134399 1.4227666855 26.785800934 1.7480000257
 1538.0001221 13.000000000 9.2175998688 0.0907568336 0.4133441448 2.3298807144 71.494796753 104.32184601 1.3948493004 26.759000778 1.7352000475
 1538.1248779 13.000000000 9.2159004211 0.0829469562 0.4252294302 2.3026137352 72.229896545 106.66613770 1.3898174763 26.768999100 1.7458000183
 1538.2500000 13.000000000 9.2115001678 0.0303465314 0.4344146252 2.2932877541 73.353302002 109.01625824 1.3915052414 26.814300537 1.7832000256
 1538.3750000 13.000000000 9.2052001953 -0.010171784 0.4316850305 2.3021144867 74.484497070 111.34024048 1.4160988331 26.875999451 1.8461999893
 1538.5000000 13.000000000 9.1979999542 0.0162232406 0.4253934026 2.3283128738 75.040199280 113.28165436 1.4612100124 26.945999146 1.9179999828
 1538.6250000 13.000000000 9.1926002502 0.0391916335 0.4095131159 2.3482632637 74.480499268 114.72430420 1.5147614479 27.031400681 1.9713000059
 1538.7500000 13.000000000 9.1902999878 0.0282328464 0.4041768014 2.3572893143 73.278099060 115.93856049 1.5641634464 27.129499435 1.9924999475
 1538.8750000 13.000000000 9.1899995804 0.0400605053 0.4053599834 2.3698387146 72.004600525 117.07308197 1.5892050266 27.212299347 1.9962999821
