# LAS format log file from PETREL
# Project units are specified as depth units
#==================================================================
~Version information
VERS.   2.0:
WRAP.   NO:
#==================================================================
~Well
STRT .m      382.62487793 :
STOP .m      2254.4997559 :
STEP .m     0.00000000 :
NULL .        -999.250000 :
COMP.           : COMPANY
WELL.  31/5-3   : WELL
FLD.            : FIELD
LOC.            : LOCATION
SRVC.           : SERVICE COMPANY
DATE.  2018-09-11 14:48:39   : Log Export Date {yyyy-MM-dd HH:mm:ss}
PROV.           : PROVINCE
UWI.   31/5-3   : UNIQUE WELL ID
API.            : API NUMBER
#==================================================================
~Curve
DEPT .m                   : DEPTH
Lithology_geolink ._      : Lithology_geolink
CALI .in                  : CALI
DRHO .g/cm3               : DRHO
NPHI .m3/m3               : NPHI
RHOB .g/cm3               : RHOB
GR .gAPI                  : GR
DTC .us/ft                : DTC
DTE .us/ft                : DTE
RDEP .ohm.m               : RDEP
SP .mV                    : SP
RSHA .ohm.m               : RSHA
RMED .ohm.m               : RMED
~Parameter
#==================================================================
~Ascii
# ...
 2116.6247559 5.0000000000 8.6809997559 0.0919765607  -999.250000  -999.250000 67.694770813 94.648620605 90.129707336 1.6351113319 63.731868744 2.3020801544 2.5974998474
 2116.7497559 5.0000000000 8.6850004196 0.0969902351  -999.250000  -999.250000 63.030193329 91.833183289 87.234115601 1.5960761309 63.983016968 2.2840349674 2.3444943428
 2116.8747559 5.0000000000 8.6899995804 0.0950039029  -999.250000  -999.250000 61.719070435 89.700149536 85.133880615 1.5690526962 64.178237915 2.2839999199 2.1703398228
 2116.9997559 5.0000000000 8.6920003891 0.0840214863  -999.250000  -999.250000 63.612552643 88.799804688 84.285446167 1.5520333052 64.327423096 2.3269159794 2.1121132374
 2117.1247559 5.0000000000 8.6899995804 0.0770136714  -999.250000  -999.250000 67.883285522 89.489692688 84.962486267 1.5440156460 64.397727966 2.3699159622 2.1758751869
 2117.2497559 5.0000000000 8.6870002747 0.0730078146  -999.250000  -999.250000 73.855644226 91.793228149 87.170745850 1.5509862900 64.350189209 2.4129161835 2.3336915970
 2117.3747559 5.0000000000 8.6840000153 0.0690078139  -999.250000  -999.250000 82.659568787 95.049766541 90.467651367 1.5999042988 64.169708252 2.4559161663 2.5086581707
 2117.4997559 5.0000000000 8.6820001602 0.0650078133  -999.250000  -999.250000 87.227226257 98.191192627 93.547348022 1.6848338842 63.899059296 2.4999141693 2.6207811832
 2117.6247559 5.0000000000 8.6820001602 0.0620058589  -999.250000  -999.250000 89.385604858 100.54919434 95.834861755 1.7997753620 63.682842255 2.5409197807 2.6679081917
 2117.7497559 5.0000000000 8.6829996109 0.0590058602  -999.250000  -999.250000 89.680877686 101.79108429 97.181663513 1.9237577915 63.572429657 2.5719394684 2.6719920635
 2117.8747559 6.0000000000 8.6850004196 0.0580019504  -999.250000  -999.250000 88.747665405 102.06481171 97.607810974 2.0258007050 63.560047150 2.5590252876 2.6729981899
 2117.9997559 6.0000000000 8.6870002747 0.0579999983  -999.250000  -999.250000 87.334526062 101.97364044 97.272453308 2.0619297028 63.594867706 2.5210740566 2.7049374580
 2118.1247559 6.0000000000 8.6890001297 0.0570019521  -999.250000  -999.250000 86.235290527 101.18955994 96.530303955 2.0460312366 63.566112518 2.4671053886 2.7778575420
 2118.2497559 6.0000000000 8.6899995804 0.0560019538  -999.250000  -999.250000 85.284706116 100.45823669 95.823577881 1.9950996637 63.428539276 2.4051210880 2.8628339767
 2118.3747559 6.0000000000 8.6920003891 0.0540039092  -999.250000  -999.250000 84.351646423 99.779220581 95.236854553 1.9211444855 63.301494598 2.3431210518 2.9029219151
 2118.4997559 6.0000000000 8.6929998398 0.0549980476  -999.250000  -999.250000 83.591964722 99.402969360 94.831848145 1.8391600847 63.322910309 2.2811210155 2.8411211967
 2118.6247559 6.0000000000 8.6940002441 0.0579941384  -999.250000  -999.250000 83.128807068 99.446540833 94.657913208 1.7571600676 63.590953827 2.2201192379 2.6373984814
 2118.7497559 6.0000000000 8.6920003891 0.0619921871  -999.250000  -999.250000 82.781356812 99.381561279 94.782295227 1.6871367693 64.115943909 2.1710956097 2.3605408669
 2118.8747559 6.0000000000 8.6870002747 0.0639960989  -999.250000  -999.250000 82.469223022 99.748603821 95.189636230 1.6301113367 64.764465332 2.1390624046 2.1254589558
 2118.9997559 6.0000000000 8.6820001602 0.0610058606  -999.250000  -999.250000 82.306632996 100.32914734 95.690078735 1.5840898752 65.176399231 2.1250274181 1.9643144608
 2119.1247559 5.0000000000 8.6789999008 0.0570078120  -999.250000  -999.250000 82.166549683 100.84823608 96.186470032 1.5530605316 65.228797913 2.1269962788 1.8891465664
 2119.2497559 5.0000000000 8.6789999008 0.0530078113  -999.250000  -999.250000 81.871162415 101.18298340 96.590820313 1.5370311737 64.920211792 2.1449649334 1.8939902782
 2119.3747559 5.0000000000 8.6820001602 0.0510039069  -999.250000  -999.250000 81.322151184 101.37442780 96.829414368 1.5429883003 64.333297729 2.1968984604 1.9558788538
 2119.4997559 5.0000000000 8.6850004196 0.0480058603  -999.250000  -999.250000 81.140701294 101.50792694 96.844261169 1.5749375820 63.614807129 2.2728514671 2.0308535099
 2119.6247559 5.0000000000 8.6890001297 0.0440078117  -999.250000  -999.250000 81.882095337 101.24831390 96.756294250 1.6318886280 63.015338898 2.3588318825 2.0928788185
 2119.7497559 5.0000000000 8.6929998398 0.0390097648  -999.250000  -999.250000 83.765625000 101.16629791 96.663841248 1.7088495493 62.530891418 2.4458301067 2.1528828144
 2119.8747559 5.0000000000 8.6960000992 0.0320136733  -999.250000  -999.250000 86.494323730 101.31278992 96.641517639 1.8038145304 62.132556915 2.5328299999 2.2388319969
 2119.9997559 5.0000000000 8.6969995499 0.0250136722  -999.250000  -999.250000 89.415588379 101.53990173 96.756683350 1.9107910395 61.804283142 2.6098494530 2.3857128620
 2120.1247559 5.0000000000 8.6969995499 0.0200097654  -999.250000  -999.250000 91.570594788 101.60209656 97.078399658 2.0197870731 61.552978516 2.6688847542 2.6155507565
 2120.2497559 5.0000000000 8.6949996948 0.0209980458  -999.250000  -999.250000 93.127929688 102.11528778 97.587432861 2.1227986813 61.325885773 2.7179043293 2.8515391350
 2120.3747559 5.0000000000 8.6920003891 0.0289843734  -999.250000  -999.250000 93.850189209 102.73350525 98.099441528 2.2208085060 60.950469971 2.7669043541 3.0346426964
 2120.4997559 6.0000000000 8.6899995804 0.0639316440  -999.250000  -999.250000 93.455558777 103.13941193 98.489929199 2.3108243942 60.334411621 2.8159043789 3.1397950649
 2120.6247559 6.0000000000 8.6879997253 0.0889511704  -999.250000  -999.250000 92.102302551 103.21179199 98.611625671 2.3838574886 59.488307953 2.8489356041 3.1739335060
 2120.7497559 6.0000000000 8.6840000153 0.1039707065  -999.250000  -999.250000 90.096839905 102.93532562 98.300735474 2.4279141426 58.535724640 2.8589804173 3.1919648647
 2120.8747559 6.0000000000 8.6789999008 0.1049980447  -999.250000  -999.250000 86.935363770 101.89491272 97.278213501 2.4319920540 57.806842804 2.8470232487 3.2528808117
 2120.9997559 6.0000000000 8.6750001907 0.0900292993  -999.250000  -999.250000 84.989585876 100.10494995 95.666458130 2.4130373001 57.563941956 2.8200526237 3.3298494816
 2121.1247559 6.0000000000 8.6750001907 0.0740312487  -999.250000  -999.250000 83.700027466 98.472618103 93.902137756 2.3810625076 57.750263214 2.7930526733 3.3619375229
 2121.2497559 6.0000000000 8.6780004501 0.0630214885  -999.250000  -999.250000 83.295562744 96.971946716 92.318496704 2.3460683823 58.203227997 2.7660527229 3.2971267700
 2121.3747559 6.0000000000 8.6829996109 0.0570117198  -999.250000  -999.250000 83.956405640 95.767127991 91.266235352 2.3130643368 58.808631897 2.7400507927 3.1063730717
 2121.4997559 6.0000000000 8.6890001297 0.0560019538  -999.250000  -999.250000 85.597572327 95.641098022 91.115501404 2.2790665627 59.527191162 2.7130527496 2.8345313072
 2121.6247559 6.0000000000 8.6920003891 0.0560000017  -999.250000  -999.250000 87.545387268 96.815330505 92.155746460 2.2430703640 60.345798492 2.6860527992 2.6353886127
 2121.7497559 6.0000000000 8.6929998398 0.0560000017  -999.250000  -999.250000 89.223449707 98.295280457 93.605224609 2.2070703506 61.190700531 2.6590526104 2.5491681099
 2121.8747559 6.0000000000 8.6909999847 0.0490136705  -999.250000  -999.250000 90.467147827 99.859451294 95.160644531 2.1760606766 61.889270782 2.6330506802 2.5689609051
 2121.9997559 6.0000000000 8.6879997253 0.0360253900  -999.250000  -999.250000 91.177238464 101.22273254 96.562583923 2.1540429592 62.329284668 2.6060526371 2.6628165245
 2122.1247559 6.0000000000 8.6859998703 0.0300117172  -999.250000  -999.250000 91.401130676 102.14558411 97.609199524 2.1460156441 62.480411530 2.5800507069 2.7887539864
 2122.2497559 6.0000000000 8.6850004196 0.0319960937  -999.250000  -999.250000 91.583290100 102.67211151 98.137451172 2.1519882679 62.437171936 2.5780038834 2.8738341331
 2122.3747559 6.0000000000 8.6840000153 0.0429785177  -999.250000  -999.250000 91.972473145 102.95429230 98.304496765 2.1639766693 62.324443817 2.5939688683 2.9139218330
 2122.4997559 6.0000000000 8.6840000153 0.0659550801  -999.250000  -999.250000 92.393348694 102.90090179 98.313156128 2.1709864140 62.250289917 2.6109669209 2.9239804745
