# LAS format log file from PETREL
# Project units are specified as depth units
#==================================================================
~Version information
VERS.   2.0:
WRAP.   NO:
#==================================================================
~Well
STRT .m      1704.1855469 :
STOP .m      2348.0756836 :
STEP .m     0.00000000 :
NULL .        -999.250000 :
COMP.           : COMPANY
WELL.  31/5-6   : WELL
FLD.            : FIELD
LOC.            : LOCATION
SRVC.           : SERVICE COMPANY
DATE.  2018-09-11 14:48:40   : Log Export Date {yyyy-MM-dd HH:mm:ss}
PROV.           : PROVINCE
UWI.   31/5-6   : UNIQUE WELL ID
API.            : API NUMBER
#==================================================================
~Curve
DEPT .m                   : DEPTH
Lithology_geolink ._      : Lithology_geolink
CALI .in                  : CALI
BS .in                    : BS
ROP .m/h                  : ROP
DRHO .g/cm3               : DRHO
NPHI .m3/m3               : NPHI
RHOB .g/cm3               : RHOB
PEF .b/e                  : PEF
GR .gAPI                  : GR
RDEP .ohm.m               : RDEP
RMED .ohm.m               : RMED
~Parameter
#==================================================================
~Ascii
# ...
 1828.5439453 5.0000000000 8.4265003204 8.5000000000 20.027336121 0.0276999995 0.2581999898 2.1143999100 4.5963001251 74.574119568 0.4106999934 0.4228918254
 1828.6964111 5.0000000000 8.4265003204 8.5000000000 20.029527664 0.0277999993 0.2547000051 2.1259999275 4.7849998474 79.323600769 0.4176000059 0.4120087326
 1828.8487549 5.0000000000 8.4265003204 8.5000000000 20.029527664 0.0264999997 0.2669999897 2.1382999420 4.9141001701 82.413330078 0.3901999891 0.3776275814
 1829.0010986 5.0000000000 8.4265003204 8.5000000000 29.948986053 0.0282000005 0.2694000006 2.1624000072 4.8818001747 84.787101746 0.3876999915 0.3616256416
 1829.1535645 5.0000000000 8.4265003204 8.5000000000 29.964895248 0.0328000002 0.2779999971 2.1798000336 4.8930001259 88.586654663 0.4034000039 0.3966718614
 1829.3059082 5.0000000000 8.4265003204 8.5000000000 106.68370819 0.0340000018 0.2702000141 2.1925001144 4.7911000252 89.301658630 0.4866999984 0.4965398610
 1829.4583740 5.0000000000 8.4265003204 8.5000000000 106.80675507 0.0289999992 0.2684000134 2.1907999516 4.5777997971 89.302803040 0.4862000048 0.4805130064
 1829.6107178 5.0000000000 8.4265003204 8.5000000000 106.80675507 0.0293000005 0.2784999907 2.1960999966 4.3006000519 86.221443176 0.5189999938 0.5214343667
 1829.7631836 5.0000000000 8.4265003204 8.5000000000 514.47589111 0.0324999988 0.2730999887 2.1981000900 4.0727000237 86.216697693 0.5422999859 0.5328908563
 1829.9155273 2.0000000000 8.4265003204 8.5000000000 514.80279541 0.0373000018 0.2590999901 2.1975998878 4.0548000336 84.555435181 0.5496000051 0.5466889143
 1830.0679932 2.0000000000 8.4265003204 8.5000000000 536.26098633 0.0317000002 0.2511000037 2.1791999340 4.0300998688 82.180900574 0.5230000019 0.5205209851
 1830.2203369 2.0000000000 8.4265003204 8.5000000000 557.73608398 0.0340999998 0.2549000084 2.1737999916 4.0141000748 79.093070984 0.5279999971 0.5310999751
 1830.3728027 2.0000000000 8.4265003204 8.5000000000 579.21148682 0.0286999997 0.2746999860 2.1617999077 3.8303000927 80.039939880 0.4896000028 0.4912999868
 1830.5251465 2.0000000000 8.4265003204 8.5000000000 600.68688965 0.0254999995 0.2664000094 2.1530001163 3.7267000675 80.751327515 0.4821000099 0.4855999947
 1830.6776123 2.0000000000 8.4265003204 8.5000000000 600.70410156 0.0217000004 0.2716999948 2.1387999058 3.7355999947 82.413070679 0.4657000005 0.4663000107
 1830.8299561 5.0000000000 8.4265003204 8.5000000000 514.35504150 0.0217000004 0.2685999870 2.1319999695 3.9100000858 84.787597656 0.4548999965 0.4517000020
 1830.9822998 5.0000000000 8.4265003204 8.5000000000 514.28576660 0.0259000007 0.2700999975 2.1428999901 4.0426001549 87.162895203 0.4636000097 0.4636999965
 1831.1347656 5.0000000000 8.4076004028 8.5000000000 514.28576660 0.0285999998 0.2736000121 2.1600000858 4.0460000038 87.878730774 0.4650000036 0.4654000103
 1831.2871094 5.0000000000 8.3955001831 8.5000000000 1198.9019775 0.0324999988 0.2628999949 2.1798999310 3.9911000729 83.848060608 0.4546999931 0.4609000087
 1831.4395752 5.0000000000 8.4265003204 8.5000000000 1200.0000000 0.0357999988 0.2592999935 2.1919000149 3.9549999237 80.755668640 0.4677000046 0.4713999927
 1831.5919189 2.0000000000 8.4231004715 8.5000000000 644.01806641 0.0308999997 0.2481999993 2.1851999760 3.9100000858 77.433425903 0.4823000133 0.4666999876
 1831.7443848 2.0000000000 8.3921003342 8.5000000000 643.12634277 0.0208000001 0.2531999946 2.1728999615 3.7367999554 72.681709290 0.4571999907 0.4699999988
 1831.8967285 2.0000000000 8.3921003342 8.5000000000 588.26184082 0.0143999998 0.2536000013 2.1602001190 3.7179000378 71.252441406 0.4738000035 0.4781000018
 1832.0491943 2.0000000000 8.3921003342 8.5000000000 588.21783447 0.0209999997 0.2538000047 2.1648001671 3.8673999310 72.200538635 0.4948000014 0.5009999871
 1832.2015381 2.0000000000 8.3955001831 8.5000000000 400.67172241 0.0305000003 0.2517000139 2.1770000458 3.9958000183 80.983459473 0.5033000112 0.5059000254
 1832.3540039 2.0000000000 8.4265003204 8.5000000000 400.52133179 0.0322999991 0.2551999986 2.1851999760 3.9298000336 84.789154053 0.4916000068 0.4929000139
 1832.5063477 2.0000000000 8.4231004715 8.5000000000 529.67333984 0.0274999999 0.2506999969 2.1849999428 3.8080999851 84.792198181 0.5418999791 0.5408999920
 1832.6588135 2.0000000000 8.3921003342 8.5000000000 529.77691650 0.0238000005 0.2432000041 2.1721000671 3.7623000145 80.756431580 0.4945999980 0.4990000129
 1832.8111572 2.0000000000 8.3921003342 8.5000000000 450.32748413 0.0231999997 0.2360000014 2.1617000103 3.7713000774 80.040672302 0.4817999899 0.4871000051
 1832.9635010 2.0000000000 8.3921003342 8.5000000000 450.26376343 0.0241999999 0.2224999964 2.1559998989 3.7102000713 84.782691956 0.5048999786 0.5012000203
 1833.1159668 2.0000000000 8.4110002518 8.5000000000 430.49713135 0.0250000004 0.2265000045 2.1498000622 3.7676000595 93.570358276 0.5422999859 0.5551000237
 1833.2683105 2.0000000000 8.3694000244 8.5000000000 382.77075195 0.0262000002 0.2236000001 2.1445999146 3.8238000870 98.321891785 0.5324000120 0.5234000087
 1833.4207764 5.0000000000 8.3662004471 8.5000000000 382.69424438 0.0256999992 0.2456000000 2.1387999058 3.8708999157 99.992065430 0.4781000018 0.4882000089
 1833.5731201 5.0000000000 8.3576002121 8.5000000000 375.19509888 0.0212999992 0.2583000064 2.1271998882 3.8824000359 95.251007080 0.5034999847 0.5019999743
 1833.7255859 5.0000000000 8.3583002090 8.5000000000 327.52017212 0.0170000009 0.2752000093 2.1157999039 3.8938000202 92.868904114 0.5202000141 0.5163999796
 1833.8779297 5.0000000000 8.3583002090 8.5000000000 327.48196411 0.0186999999 0.2746999860 2.1147999763 3.8840999603 90.491706848 0.5182999969 0.5113000274
 1834.0303955 5.0000000000 8.3583002090 8.5000000000 315.17947388 0.0097000012 0.2603000104 2.1377999783 3.6833999157 91.202331543 0.5048000216 0.4982999861
 1834.1827393 2.0000000000 8.3921003342 8.5000000000 285.91488647 0.0249000005 0.2569999993 2.1847999096 3.6500000954 91.914825439 0.5004000068 0.4973999858
 1834.3352051 2.0000000000 8.3921003342 8.5000000000 290.55694580 0.0249000005 0.2628999949 2.1953999996 3.6846001148 92.628128052 0.4850000143 0.4850000143
 1834.4875488 2.0000000000 8.3921003342 8.5000000000 223.50619507 0.0357000008 0.2716999948 2.1858999729 3.9103000164 90.255500793 0.5364000201 0.5356000066
 1834.6400146 2.0000000000 7.9484000206 8.5000000000 223.45242310 0.0231999997 0.2800999880 2.1540000439 4.0187001228 87.880401611 0.5515000224 0.5426999927
 1834.7923584 2.0000000000 8.3576002121 8.5000000000 181.97322083 0.0197000001 0.2737999856 2.1473000050 4.1138000488 87.878501892 0.5192000270 0.5163999796
 1834.9448242 2.0000000000 8.3576002121 8.5000000000 171.51982117 0.0204000007 0.2793999910 2.1503999233 4.1079001427 88.590431213 0.5019999743 0.4970000088
 1835.0971680 2.0000000000 8.3576002121 8.5000000000 168.30670166 0.0209999997 0.2813000083 2.1552999020 4.0527000427 90.253562927 0.5458999872 0.5314000249
 1835.2495117 2.0000000000 8.3576002121 8.5000000000 165.20771790 0.0250000004 0.2896000147 2.1670999527 3.9309000969 90.254898071 0.5461999774 0.5274999738
 1835.4019775 2.0000000000 8.3576002121 8.5000000000 160.80207825 0.0250000004 0.2881000042 2.1665000916 3.9340999126 93.576835632 0.5536999702 0.5394999981
 1835.5543213 2.0000000000 8.3576002121 8.5000000000 157.96418762 0.0226000007 0.2870000005 2.1635000706 3.7836999893 96.660858154 0.5536999702 0.5394999981
 1835.7067871 2.0000000000 8.3576002121 8.5000000000 157.97604370 0.0192000009 0.2833999991 2.1563999653 3.7425000668 100.70016479 0.5684000254 0.5515000224
 1835.8591309 5.0000000000 8.3576002121 8.5000000000 150.08580017 0.0207000002 0.2897999883 2.1570000648 3.7090001106 103.78665924 0.5741999745 0.5580999851
 1836.0115967 5.0000000000 8.3576002121 8.5000000000 173.14291382 0.0226000007 0.2910999954 2.1573998928 3.7943000793 105.45226288 0.4957000017 0.4867999852
 1836.1639404 5.0000000000 8.3766002655 8.5000000000 173.16140747 0.0249000005 0.2836999893 2.1577000618 3.8447999954 104.50305939 0.5133000016 0.5027999878
