# LAS format log file from PETREL
# Project units are specified as depth units
#==================================================================
~Version information
VERS.   2.0:
WRAP.   NO:
#==================================================================
~Well
STRT .m      164.79321289 :
STOP .m      1907.4873047 :
STEP .m     0.00000000 :
NULL .        -999.250000 :
COMP.           : COMPANY
WELL.  31/5-4 S   : WELL
FLD.            : FIELD
LOC.            : LOCATION
SRVC.           : SERVICE COMPANY
DATE.  2018-09-11 14:48:39   : Log Export Date {yyyy-MM-dd HH:mm:ss}
PROV.           : PROVINCE
UWI.   31/5-4 S   : UNIQUE WELL ID
API.            : API NUMBER
#==================================================================
~Curve
DEPT .m                   : DEPTH
Lithology_geolink ._      : Lithology_geolink
CALI .in                  : CALI
DRHO .g/cm3               : DRHO
NPHI .m3/m3               : NPHI
RHOB .g/cm3               : RHOB
GR .gAPI                  : GR
DTC .us/ft                : DTC
RDEP .ohm.m               : RDEP
SP .mV                    : SP
RSHA .ohm.m               : RSHA
RMED .ohm.m               : RMED
~Parameter
#==================================================================
~Ascii
# ...
 1750.2242432 5.0000000000 8.6171875000 -0.013800000 0.3677280247 2.2178869247 101.06250000 95.625198364 1.1671395302 73.750000000 1.0439453125 0.9970483780
 1750.3765869 6.0000000000 8.6171875000 -0.013790946 0.3481977284 2.2182550430 100.37500000 86.486984253 1.1998274326 73.817306519 1.0078125000 1.0249752998
 1750.5289307 6.0000000000 8.6171875000 -0.013500961 0.3314656615 2.2215719223 103.56250000 78.112075806 1.2386467457 74.443954468 1.0722656250 1.0651152134
 1750.6813965 6.0000000000 8.6171875000 -0.011445673 0.3327180743 2.2251505852 98.812500000 71.490676880 1.2614252567 73.818908691 1.0693359375 1.0937404633
 1750.8337402 6.0000000000 8.6171875000 -0.010809455 0.3535104394 2.2289628983 98.375000000 70.409423828 1.3111371994 73.261207581 1.0449218750 1.0960156918
 1750.9862061 6.0000000000 8.6171875000 -0.009973018 0.3704052567 2.2292385101 96.812500000 72.561309814 1.2998840809 73.386215210 1.0029296875 1.1039376259
 1751.1385498 6.0000000000 8.6171875000 -0.010591347 0.3874177039 2.2379755974 98.187500000 80.536247253 1.2898790836 73.556045532 1.0947265625 1.0982058048
 1751.2910156 6.0000000000 8.6171875000 -0.009463491 0.3924834430 2.2424144745 100.25000000 87.392372131 1.3809912205 74.080131531 0.9741210938 1.0992836952
 1751.4433594 6.0000000000 8.6171875000 -0.008927966 0.3975263834 2.2480163574 101.68750000 92.852111816 1.2675731182 73.580162048 0.9443359375 1.0990927219
 1751.5958252 6.0000000000 8.6171875000 -0.007291273 0.3950045109 2.2433266640 103.87500000 97.861434937 1.3671226501 73.136215210 0.9531250000 1.1009373665
 1751.7480469 6.0000000000 8.6171875000 -0.008119231 0.3805986941 2.2436032295 104.06250000 101.97010040 1.3212521076 73.172172546 1.0087890625 1.1390473843
 1751.9003906 6.0000000000 8.6171875000 -0.007075821 0.3688901961 2.2584166527 102.75000000 103.48937225 1.4635784626 72.352783203 1.3798828125 1.2199258804
 1752.0528564 6.0000000000 8.6171875000 -0.004611539 0.3690766394 2.2727918625 104.31250000 104.17804718 1.6182162762 72.169471741 1.2255859375 1.2700822353
 1752.2052002 6.0000000000 8.6171875000 -0.002798639 0.3669163883 2.2779808044 103.37500000 103.70877075 1.5368130207 72.547241211 1.0000000000 1.2616617680
 1752.3576660 6.0000000000 8.6171875000 -0.003674359 0.3772425652 2.2759914398 104.56250000 103.47513580 1.6097815037 71.727767944 1.0078125000 1.2470986843
 1752.5100098 6.0000000000 8.6171875000 -0.002624179 0.3662882447 2.2677326202 103.81250000 103.46246338 1.4625744820 71.444458008 0.8769531250 1.2206625938
 1752.6624756 6.0000000000 8.6171875000 -0.005061538 0.3599732518 2.2514181137 101.50000000 103.28454590 1.4703686237 70.819412231 0.9667968750 1.1746444702
 1752.8148193 6.0000000000 8.6171875000 -0.007023077 0.3402553201 2.2378525734 100.93750000 102.98197174 1.4148652554 70.194458008 0.9418945313 1.1347301006
 1752.9672852 6.0000000000 8.6171875000 -0.010562371 0.3398843408 2.2270588875 99.562500000 102.50801086 1.3721280098 69.669471741 0.9111328125 1.1101963520
 1753.1196289 6.0000000000 8.6171875000 -0.013226923 0.3501040936 2.2330355644 99.250000000 102.02915955 1.4050860405 70.180541992 0.8725585938 1.1201169491
 1753.2718506 6.0000000000 8.6171875000 -0.013268935 0.3625656962 2.2446274757 100.43750000 101.61947632 1.4244153500 70.815505981 1.0703125000 1.1314442158
 1753.4243164 6.0000000000 8.6171875000 -0.010722116 0.3616681695 2.2518310547 101.31250000 101.40498352 1.3845844269 71.555046082 1.0595703125 1.1355988979
 1753.5766602 6.0000000000 8.6171875000 -0.008793354 0.3639315963 2.2533478737 100.37500000 101.47093964 1.4284722805 72.103164673 0.8701171875 1.1232745647
 1753.7291260 6.0000000000 8.6171875000 -0.007548798 0.3674995601 2.2430453300 99.500000000 101.83779907 1.3235843182 71.875000000 0.8398437500 1.0921690464
 1753.8814697 6.0000000000 8.6171875000 -0.006000000 0.3721415401 2.2344765663 100.75000000 102.29990387 1.3261973858 71.863990784 0.8066406250 1.0508351326
 1754.0339355 6.0000000000 8.6171875000 -0.006044471 0.3629329801 2.2258133888 101.43750000 102.57456970 1.4028275013 71.705932617 0.8168945313 1.0263895988
 1754.1862793 6.0000000000 8.6171875000 -0.006624420 0.3714467287 2.2242021561 102.75000000 102.76236725 1.2359824181 71.349082947 0.8559570313 1.0080661774
 1754.3387451 6.0000000000 8.6171875000 -0.007802163 0.3858210444 2.2222251892 100.93750000 102.81423950 1.2849824429 72.330932617 0.8798828125 1.0000691414
 1754.4910889 6.0000000000 8.6171875000 -0.006711129 0.3900414109 2.2229275703 104.18750000 102.94592285 1.3049607277 71.908027649 0.8188476563 1.0042760372
 1754.6435547 6.0000000000 8.6171875000 -0.005719952 0.3683996201 2.2230830193 105.37500000 103.17658997 1.2175545692 72.316108704 0.8447265625 1.0004293919
 1754.7958984 6.0000000000 8.6171875000 -0.004873339 0.3465925455 2.2271268368 103.56250000 103.46943665 1.2435314655 72.933944702 0.8261718750 0.9911125898
 1754.9481201 6.0000000000 8.6171875000 -0.004460257 0.3450282216 2.2332229614 99.812500000 103.77981567 1.2932362556 72.152641296 0.8725585938 0.9994666576
 1755.1005859 6.0000000000 8.6171875000 -0.002814904 0.3554420769 2.2390632629 97.125000000 104.07295227 1.2802710533 71.015914917 0.9140625000 1.0063431263
 1755.2529297 6.0000000000 8.6171875000 -0.000785508 0.3653308153 2.2429509163 101.75000000 104.58477020 1.2084283829 69.853363037 0.7846679688 1.0131804943
 1755.4053955 6.0000000000 8.6171875000 0.0003911859 0.3726860285 2.2402324677 105.25000000 105.49940491 1.3365314007 69.581367493 0.7861328125 1.0197391510
 1755.5577393 6.0000000000 8.6171875000 0.0002823859 0.3776037991 2.2402939796 102.62500000 105.99482727 1.2840666771 69.103363037 0.8779296875 1.0141780376
 1755.7102051 6.0000000000 8.6171875000 -0.000014583 0.3715479076 2.2445554733 102.43750000 105.96324921 1.2826495171 68.929542542 0.7783203125 1.0103874207
 1755.8625488 6.0000000000 8.6171875000 -0.001508247 0.3610455990 2.2475333214 102.43750000 105.51788330 1.2992670536 69.543266296 0.7641601563 1.0120043755
 1756.0148926 6.0000000000 8.6171875000 -0.004857211 0.3536055088 2.2474298477 109.31250000 104.98121643 1.2831370831 69.945915222 0.7500000000 0.9996204376
 1756.1673584 7.0000000000 8.6171875000 -0.006544035 0.3494468033 2.2396731377 111.18750000 104.79199982 1.2535421848 69.320457458 0.7773437500 0.9855740070
 1756.3197021 7.0000000000 8.6171875000 -0.007096074 0.3451599479 2.2289981842 112.18750000 104.63501740 1.2973909378 68.825721741 0.8217773438 0.9829254150
 1756.4721680 7.0000000000 8.6171875000 -0.008100000 0.3388825059 2.2242727280 109.43750000 104.50945282 1.2614727020 69.690452576 0.7680664063 0.9804251194
 1756.6243896 7.0000000000 8.6171875000 -0.008091346 0.3333546519 2.2236180305 106.62500000 104.52037048 1.2091500759 70.278549194 0.7382812500 0.9906327724
 1756.7768555 7.0000000000 8.6171875000 -0.008034908 0.3246670961 2.2266302109 108.56250000 104.67321014 1.3375191689 69.293235779 0.8022460938 1.0105972290
 1756.9291992 7.0000000000 8.6171875000 -0.008564423 0.3235071898 2.2348356247 111.93750000 104.84745789 1.3357245922 69.771430969 0.9057617188 1.0373098850
 1757.0815430 7.0000000000 8.6171875000 -0.010386539 0.3381142616 2.2434630394 111.68750000 105.03300476 1.3707709312 70.021415710 0.8686523438 1.0745599270
 1757.2340088 7.0000000000 8.6171875000 -0.011204003 0.3555197716 2.2541561127 106.81250000 105.22959900 1.3816196918 70.378608704 0.8896484375 1.1001636982
 1757.3863525 7.0000000000 8.6171875000 -0.010044231 0.3618674278 2.2645401955 105.06250000 105.43993378 1.4676420689 71.910629272 0.9511718750 1.1298296452
 1757.5388184 7.0000000000 8.6171875000 -0.008225461 0.3459090590 2.2800455093 104.37500000 105.66310883 1.5264630318 73.657150269 0.9648437500 1.1906700134
 1757.6911621 6.0000000000 8.6171875000 -0.006365384 0.3268965185 2.3011722565 105.56250000 105.80867767 1.4844360352 73.871498108 0.9428710938 1.2070722580
 1757.8436279 6.0000000000 8.6171875000 -0.005746918 0.3167360723 2.3176121712 100.87500000 105.86232758 1.4769563675 72.317810059 0.7724609375 1.1944265366
