# LAS format log file from PETREL
# Project units are specified as depth units
#==================================================================
~Version information
VERS.   2.0:
WRAP.   NO:
#==================================================================
~Well
STRT .m      815.00012207 :
STOP .m      2497.5000000 :
STEP .m     0.00000000 :
NULL .        -999.250000 :
COMP.           : COMPANY
WELL.  31/5-2R   : WELL
FLD.            : FIELD
LOC.            : LOCATION
SRVC.           : SERVICE COMPANY
DATE.  2018-09-11 14:48:39   : Log Export Date {yyyy-MM-dd HH:mm:ss}
PROV.           : PROVINCE
UWI.   31/5-2 R   : UNIQUE WELL ID
API.            : API NUMBER
#==================================================================
~Curve
DEPT .m                   : DEPTH
Lithology_geolink ._      : Lithology_geolink
CALI .in                  : CALI
DRHO .g/cm3               : DRHO
NPHI .m3/m3               : NPHI
RHOB .g/cm3               : RHOB
GR .gAPI                  : GR
DTC .us/ft                : DTC
DTE .us/ft                : DTE
RDEP .ohm.m               : RDEP
SP .mV                    : SP
RSHA .ohm.m               : RSHA
RMED .ohm.m               : RMED
~Parameter
#==================================================================
~Ascii
# ...
 935.00012207  -999.250000 17.100000381 0.0159941446  -999.250000 1.9919999838 77.898452759 152.20582581 151.43675232 1.7060078382 10.368953705 3.5547091961 3.5547091961
 935.12506104  -999.250000 17.142000198 0.0130019542  -999.250000 1.9910000563 77.619132996 152.48728943 151.67778015 1.7100088596 10.344981194 3.4058759212 3.4058759212
 935.25006104  -999.250000 17.222999573 0.0150087886  -999.250000 2.0020000935 77.749259949 152.68283081 151.98773193 1.7190058231 10.324997902 3.2788915634 3.2788915634
 935.37512207  -999.250000 17.327999115 0.0210136715  -999.250000 2.0199999809 78.011054993 152.79037476 152.12471008 1.7229921818 10.323023796 3.2049686909 3.2049686909
 935.50012207  -999.250000 17.436000824 0.0280156191  -999.250000 2.0409998894 78.044166565 152.62158203 151.93174744 1.7189726830 10.339049339 3.1891443729 3.1891443729
 935.62506104  -999.250000 17.511999130 0.0360087901  -999.250000 2.0599999428 77.475402832 152.05743408 151.34242249 1.7049853802 10.373033524 3.2631270885 3.2631270885
 935.75006104  -999.250000 17.555000305 0.0450087897  -999.250000 2.0720000267 76.865013123 151.09451294 150.38517761 1.6899868250 10.407016754 3.3932342529 3.3932342529
 935.87506104  -999.250000 17.583000183 0.0509985350  -999.250000 2.0729999542 76.882179260 149.87962341 149.19898987 1.6810072660 10.424988747 3.5531582832 3.5531582832
 936.00012207  -999.250000 17.660999298 0.0499863289  -999.250000 2.0629999638 78.092811584 148.94998169 148.21173096 1.6860332489 10.412951469 3.6610586643 3.6610586643
 936.12512207  -999.250000 17.812999725 0.0429785289  -999.250000 2.0469999313 80.013908386 148.53248596 147.74510193 1.7030507326 10.379959106 3.6909062862 3.6909062862
 936.25006104  -999.250000 18.037000656 0.0319912098  -999.250000 2.0329999924 81.966171265 148.58247375 147.82215881 1.7290253639 10.337967873 3.6429452896 3.6429452896
 936.37506104  -999.250000 18.259000778 0.0229941402  -999.250000 2.0239999294 83.165328979 149.05465698 148.33618164 1.7550249100 10.304986000 3.5869588852 3.5869588852
 936.50012207  -999.250000 18.420999527 0.0189980455  -999.250000 2.0220000744 83.501167297 149.81591797 149.08703613 1.7719980478 10.290004730 3.5589940548 3.5589940548
 936.62512207  -999.250000 18.475999832 0.0179980453  -999.250000 2.0230000019 82.934211731 150.45204163 149.78985596 1.7709727287 10.293019295 3.5559725761 3.5559725761
 936.75012207  -999.250000 18.457000732 0.0169980489  -999.250000 2.0220000744 81.713325500 150.90553284 150.23229980 1.7569648027 10.306015015 3.5418984890 3.5418984890
 936.87506104  -999.250000 18.402000427 0.0160019547  -999.250000 2.0239999294 80.005386353 151.17195129 150.48646545 1.7389862537 10.322014809 3.4899227619 3.4899227619
 937.00006104  -999.250000 18.364999771 0.0180087890  -999.250000 2.0320000648 78.353027344 151.31964111 150.61111450 1.7249927521 10.338011742 3.4108929634 3.4108929634
 937.12512207  -999.250000 18.363000870 0.0240097661  -999.250000 2.0469999313 77.360107422 151.36456299 150.64646912 1.7200019360 10.350010872 3.3379199505 3.3379199505
 937.25012207  -999.250000 18.395999908 0.0289999992  -999.250000 2.0599999428 77.432228088 151.27182007 150.60478210 1.7210097313 10.357013702 3.2969901562 3.2969901562
 937.37506104  -999.250000 18.440000534 0.0289921835  -999.250000 2.0620000362 78.271987915 151.27182007 150.43679810 1.7260048389 10.366014481 3.2920234203 3.2920234203
 937.50006104  -999.250000 18.469999313 0.0209838860  -999.250000 2.0490000248 79.276618958 150.94662476 150.15614319 1.7310057878 10.381016731 3.3160555363 3.3160555363
 937.62506104  -999.250000 18.489000320 0.0099868160  -999.250000 2.0280001163 79.908027649 150.52592468 149.81149292 1.7350014448 10.399017334 3.3540351391 3.3540351391
 937.75012207  -999.250000 18.521999359 0.0009941406  -999.250000 2.0090000629 79.938339233 150.12434387 149.44558716 1.7359980345 10.417018890 3.3779747486 3.3779747486
 937.87512207  -999.250000 18.569999695 -0.001996096  -999.250000 1.9980000257 79.485313416 149.79025269 149.09297180 1.7349921465 10.430005074 3.3649101257 3.3649101257
 938.00006104  -999.250000 18.590000153 0.0000048852  -999.250000 1.9919999838 78.785202026 149.49702454 148.76605225 1.7309950590 10.434991837 3.3189442158 3.3189442158
 938.12506104  -999.250000 18.520999908 0.0050073243  -999.250000 1.9910000563 77.967193604 149.20372009 148.44929504 1.7259926796 10.425983429 3.2619283199 3.2619283199
 938.25012207  -999.250000 18.341999054 0.0100097656  -999.250000 1.9900000095 77.134925842 148.91027832 148.18370056 1.7209980488 10.408975601 3.2129240036 3.2129240036
 938.37512207  -999.250000 18.086000443 0.0150039056  -999.250000 1.9880000353 76.400344849 148.81901550 148.04559326 1.7200058699 10.391991615 3.1739454269 3.1739454269
 938.50012207  -999.250000 17.836000443 0.0169960968  -999.250000 1.9819999933 75.953849792 148.93139648 148.10617065 1.7230098248 10.386005402 3.1459667683 3.1459667683
 938.62506104  -999.250000 17.650999069 0.0149970688  -999.250000 1.9759999514 75.799270630 149.11625671 148.41632080 1.7280039787 10.392011642 3.1290135384 3.1290135384
 938.75006104  -999.250000 17.563999176 0.0119941412  -999.250000 1.9720000029 76.075653076 149.75172424 148.98626709 1.7319970131 10.404004097 3.1430687904 3.1430687904
 938.87512207  -999.250000 17.542999268 0.0079941414  -999.250000 1.9739999771 76.749061584 150.34550476 149.61184692 1.7299804688 10.407992363 3.1901075840 3.1901075840
 939.00012207  -999.250000 17.548000336 0.0050039045  -999.250000 1.9809999466 77.472213745 150.86952209 150.12966919 1.7199648619 10.402983665 3.2450468540 3.2450468540
 939.12512207  -999.250000 17.549999237 0.0070161214  -999.250000 1.9969999790 77.615272522 151.15260315 150.42301941 1.7019751072 10.391986847 3.2689869404 3.2689869404
 939.25006104  -999.250000 17.533000946 0.0180205069  -999.250000 2.0190000534 77.119117737 151.09359741 150.40675354 1.6849808693 10.382991791 3.2599618435 3.2599618435
 939.37506104  -999.250000 17.493000031 0.0320161134  -999.250000 2.0390000343 76.215538025 150.80029297 150.02970886 1.6719956398 10.373993874 3.2339808941 3.2339808941
 939.50012207  -999.250000 17.429000854 0.0430019535  -999.250000 2.0499999523 75.739509583 150.07496643 149.38368225 1.6690175533 10.367995262 3.2210175991 3.2210175991
 939.62512207  -999.250000 17.346000671 0.0439843833  -999.250000 2.0469999313 76.090347290 149.52813721 148.78103638 1.6780390739 10.365004539 3.2300801277 3.2300801277
 939.75006104  -999.250000 17.236000061 0.0359882750  -999.250000 2.0309998989 77.474639893 149.11904907 148.34446716 1.6980253458 10.370010376 3.2710516453 3.2710516453
 939.87506104  -999.250000 17.107999802 0.0239853524  -999.250000 2.0130000114 79.150375366 148.88769531 148.13314819 1.7240380049 10.381009102 3.3240745068 3.3240745068
 940.00012207  -999.250000 16.976999283 0.0139902346  -999.250000 2.0009999275 80.559379578 148.90832520 148.15313721 1.7500272989 10.390999794 3.3750293255 3.3750293255
 940.12512207  -999.250000 16.874000549 0.0089999996  -999.250000 2.0009999275 81.503242493 149.10385132 148.38861084 1.7640000582 10.390991211 3.3899414539 3.3899414539
 940.25012207  -999.250000 16.806999207 0.0090156170  -999.250000 2.0109999180 82.351791382 149.47267151 148.78305054 1.7639648914 10.384992599 3.3598573208 3.3598573208
 940.37506104  -999.250000 16.781000137 0.0170127023  -999.250000 2.0290000439 83.165412903 149.99394226 149.29484558 1.7459716797 10.376991272 3.2869207859 3.2869207859
 940.50006104  -999.250000 16.783000946 0.0300190430  -999.250000 2.0460000038 83.586746216 150.58068848 149.88098145 1.7169545889 10.367986679 3.2059049606 3.2059049606
 940.62512207  -999.250000 16.795999527 0.0430058613  -999.250000 2.0529999733 83.324356079 151.16775513 150.47251892 1.6859511137 10.353969574 3.1409120560 3.1409120560
 940.75012207  -999.250000 16.815000534 0.0459863283  -999.250000 2.0399999619 82.202003479 151.75061035 150.97268677 1.6609629393 10.332975388 3.0959217548 3.0959217548
 940.87512207  -999.250000 16.840000153 0.0389707200  -999.250000 2.0120000839 80.840309143 151.94615173 151.25686646 1.6419706345 10.315992355 3.0559120178 3.0559120178
