# LAS format log file from PETREL
# Project units are specified as depth units
#==================================================================
~Version information
VERS.   2.0:
WRAP.   NO:
#==================================================================
~Well
STRT .m      1704.1855469 :
STOP .m      2348.0756836 :
STEP .m     0.00000000 :
NULL .        -999.250000 :
COMP.           : COMPANY
WELL.  31/5-6   : WELL
FLD.            : FIELD
LOC.            : LOCATION
SRVC.           : SERVICE COMPANY
DATE.  2018-09-11 14:48:40   : Log Export Date {yyyy-MM-dd HH:mm:ss}
PROV.           : PROVINCE
UWI.   31/5-6   : UNIQUE WELL ID
API.            : API NUMBER
#==================================================================
~Curve
DEPT .m                   : DEPTH
Lithology_geolink ._      : Lithology_geolink
CALI .in                  : CALI
BS .in                    : BS
ROP .m/h                  : ROP
DRHO .g/cm3               : DRHO
NPHI .m3/m3               : NPHI
RHOB .g/cm3               : RHOB
PEF .b/e                  : PEF
GR .gAPI                  : GR
RDEP .ohm.m               : RDEP
RMED .ohm.m               : RMED
~Parameter
#==================================================================
~Ascii
# ...
 2302.6604004 6.0000000000 8.3372001648 8.5000000000 120.11257935 0.0360028781 0.2770000100 2.4247999191 3.3074998856 147.96650696 1.6287000179 1.5546000004
 2302.8127441 6.0000000000 8.4575004578 8.5000000000 108.34664917 0.0377999991 0.2770999968 2.4419000149 3.4286999702 156.75509644 1.7896000147 1.7409000397
 2302.9650879 6.0000000000 8.3921003342 8.5000000000 95.844512939 0.0375000015 0.2630000114 2.4537000656 3.5594999790 160.79580688 1.8342000246 1.8190000057
 2303.1176758 6.0000000000 8.3921003342 8.5000000000 83.655845642 0.0417011231 0.2518999875 2.4609000683 3.6812000275 159.13130188 1.7568000555 1.7249000072
 2303.2700195 5.0000000000 8.3921003342 8.5000000000 78.661544800 0.0423891172 0.2542999983 2.4440999031 3.6968998909 152.00610352 1.6190999746 1.5994000435
 2303.4223633 5.0000000000 8.3921003342 8.5000000000 78.653541565 0.0355999991 0.2560999990 2.4202001095 3.7260000706 149.63099670 1.6275000572 1.6188999414
 2303.5747070 5.0000000000 8.3886003494 8.5000000000 73.225906372 0.0359999985 0.2669999897 2.4181001186 3.9261999130 142.50559998 1.6678999662 1.6282999516
 2303.7272949 5.0000000000 8.3576002121 8.5000000000 76.398292542 0.0262056086 0.2644000053 2.4059998989 4.1687002182 137.04220581 1.6428999901 1.5934000015
 2303.8796387 5.0000000000 8.3611001968 8.5000000000 70.627296448 0.0296862405 0.2723999918 2.3721001148 3.9209001064 134.66709900 1.5101000071 1.4752999544
 2304.0319824 5.0000000000 8.3921003342 8.5000000000 69.529319763 0.0210999995 0.2743000090 2.3080000877 3.6061999798 135.37660217 1.4867999554 1.3782999516
 2304.1843262 5.0000000000 8.3816003799 8.5000000000 72.903701782 0.0272000004 0.2881000042 2.2850999832 3.2539000511 128.96459961 1.3094999790 1.2244999409
 2304.3369141 5.0000000000 8.2903995514 8.5000000000 78.292648315 0.0299036857 0.2831000090 2.3136999607 3.3087999821 121.12979889 0.8499000072 0.8497999907
 2304.4892578 5.0000000000 8.3248996735 8.5000000000 86.166343689 0.0321876630 0.2937999964 2.3796999454 3.5901999474 122.08360291 0.6701999903 0.6859999895
 2304.6416016 5.0000000000 8.3576002121 8.5000000000 90.491432190 0.0245164800 0.2802999914 2.4323999882 3.9491000175 133.25109863 0.9239000082 0.8869000077
 2304.7939453 5.0000000000 8.3587999344 8.5000000000 90.491477966 0.0348000005 0.2791999876 2.4777998924 4.0812997818 139.42260742 1.3135999441 1.2628999949
 2304.9465332 5.0000000000 8.4172000885 8.5000000000 89.146987915 0.0326214731 0.2748999894 2.4802999496 4.2019000053 140.13439941 1.7481000423 1.6286000013
 2305.0988770 5.0000000000 8.3731002808 8.5000000000 88.279197693 0.0459969565 0.2910999954 2.5102999210 4.3141999245 138.46719360 1.9677000046 1.8760999441
 2305.2512207 5.0000000000 8.3576002121 8.5000000000 88.279197693 0.0440980829 0.2838999927 2.5153000355 4.7165999413 137.75549316 2.4454998970 2.3506999016
 2305.4035645 5.0000000000 8.3576002121 8.5000000000 92.341903687 0.0428999998 0.2766999900 2.5320000648 4.8282999992 140.13059998 2.3854000568 2.4258000851
 2305.5559082 5.0000000000 8.3576002121 8.5000000000 87.004638672 0.0416000001 0.2834999859 2.5338997841 4.8085999489 138.46719360 2.4544999599 2.4746999741
 2305.7084961 5.0000000000 8.3423995972 8.5000000000 78.632217407 0.0376001596 0.3104000092 2.5190000534 4.6939001083 140.84230042 2.7032999992 2.6377000809
 2305.8608398 6.0000000000 8.2887001038 8.5000000000 71.466529846 0.0377038419 0.3276999891 2.4974000454 4.5402998924 143.92919922 2.6628999710 2.6433000565
 2306.0131836 6.0000000000 8.2887001038 8.5000000000 68.727142334 0.0401000008 0.3188000023 2.4892001152 4.3956999779 146.30320740 2.6294000149 2.6670000553
 2306.1655273 6.0000000000 8.2887001038 8.5000000000 72.021606445 0.0406999998 0.3296999931 2.4883000851 4.3871002197 147.96879578 2.7114000320 2.6517999172
 2306.3181152 6.0000000000 8.2903995514 8.5000000000 70.616470337 0.0441993587 0.3479000032 2.4962999821 4.4240999222 147.96760559 2.7297000885 2.6607999802
 2306.4704590 6.0000000000 8.3213996887 8.5000000000 70.616470337 0.0438011214 0.3476999998 2.4979999065 4.4489002228 152.00720215 2.7597000599 2.6791999340
 2306.6228027 6.0000000000 8.2887001038 8.5000000000 72.600494385 0.0445046425 0.3301999867 2.5020000935 4.4524998665 154.13259888 2.7277998924 2.6524000168
 2306.7751465 6.0000000000 8.2887001038 8.5000000000 71.743507385 0.0474000014 0.3479999900 2.5130999088 4.4847002029 150.33509827 2.6068999767 2.6108000278
 2306.9277344 6.0000000000 8.2887001038 8.5000000000 73.200790405 0.0456006415 0.3912999928 2.5085000992 4.5163998604 145.58489990 2.4495999813 2.3589000702
 2307.0800781 6.0000000000 8.2887001038 8.5000000000 74.725067139 0.0459820516 0.3953000009 2.5251998901 4.4574999809 141.79389954 2.3331000805 2.2850000858
 2307.2324219 5.0000000000 8.2887001038 8.5000000000 77.945953369 0.0348006412 0.3594999909 2.5102000237 4.4103999138 139.17140198 2.0464000702 2.0478999615
 2307.3847656 5.0000000000 8.2957000732 8.5000000000 85.746345520 0.0351999998 0.3102000058 2.5046999454 4.2937002182 135.13450623 1.3839999437 1.3913999796
 2307.5371094 5.0000000000 8.3576002121 8.5000000000 88.285316467 0.0315999985 0.3152000010 2.4739999771 4.5938000679 130.38429260 1.3762999773 1.3157000542
 2307.6896973 5.0000000000 8.3611001968 8.5000000000 87.421585083 0.0368107371 0.2989999950 2.4674000740 4.8631000519 130.63279724 1.4242999554 1.3566999435
 2307.8420410 5.0000000000 8.3611001968 8.5000000000 89.151107788 0.0435118377 0.2994999886 2.4602999687 5.2993001938 134.66969299 1.4335999489 1.3805999756
 2307.9943848 5.0000000000 8.3921003342 8.5000000000 93.799629211 0.0509000011 0.2897999883 2.4702000618 4.9710998535 133.71060181 0.8937000036 0.9003999829
 2308.1467285 5.0000000000 8.3990001678 8.5000000000 86.595565796 0.0507999994 0.3034000099 2.4690999985 4.6837000847 128.00650024 1.0916999578 1.0364999771
 2308.2993164 5.0000000000 8.3990001678 8.5000000000 86.583992004 0.0487016030 0.3244999945 2.5102999210 4.8239002228 117.79440308 2.1758000851 2.0727999210
 2308.4516602 5.0000000000 8.4610004425 8.5000000000 82.610237122 0.0497043282 0.3203000128 2.5689001083 5.1710000038 115.67050171 2.4110000134 2.2442998886
 2308.6040039 5.0000000000 8.4610004425 8.5000000000 80.754287720 0.0523974411 0.3273000121 2.6175000668 5.2034001350 119.70999908 2.2467000484 2.1164000034
 2308.7563477 5.0000000000 8.4610004425 8.5000000000 78.304786682 0.0507999994 0.3240000010 2.5866999626 4.6802000999 125.88259888 2.2486999035 2.0692999363
 2308.9089355 5.0000000000 8.4593000412 8.5000000000 72.605644226 0.0465985574 0.3253999949 2.5229001045 4.3478999138 129.67520142 2.1122999191 2.0197000504
 2309.0612793 5.0000000000 8.4265003204 8.5000000000 65.471130371 0.0456892624 0.3079000115 2.4983999729 4.4074001312 130.38690186 1.9692000151 1.9732999802
 2309.2136230 5.0000000000 8.4265003204 8.5000000000 65.471130371 0.0389942415 0.3030999899 2.4925000668 4.3081998825 131.34350586 2.0148000717 2.0320999622
 2309.3659668 6.0000000000 8.4265003204 8.5000000000 62.954395294 0.0353999995 0.3167999983 2.5016999245 4.2080998421 134.67089844 2.2307999134 2.1914999485
 2309.5183105 6.0000000000 8.4160995483 8.5000000000 59.033134460 0.0274999999 0.3314999938 2.5051999092 3.9767999649 141.08439636 2.3336000443 2.2077999115
 2309.6708984 6.0000000000 8.3231000900 8.5000000000 59.033134460 0.0276043266 0.3384000063 2.5034000874 4.0601000786 143.21130371 2.3559999466 2.2802000046
 2309.8232422 6.0000000000 8.3231000900 8.5000000000 61.658794403 0.0303153601 0.3382000029 2.5064001083 4.0590000153 143.21130371 2.3993999958 2.3064000607
 2309.9755859 6.0000000000 8.3231000900 8.5000000000 65.463912964 0.0399000011 0.3274999857 2.5122001171 4.1147999763 140.12559509 2.1709001064 2.1544001102
 2310.1279297 6.0000000000 8.3231000900 8.5000000000 63.620079041 0.0436000004 0.3154000044 2.5120000839 4.1572999954 141.08169556 2.1642999649 2.1243999004
 2310.2805176 6.0000000000 8.3231000900 8.5000000000 64.534118652 0.0416009612 0.3136999905 2.4993000031 4.2553000450 141.79499817 2.2012999058 2.1630001068
