# LAS format log file from PETREL
# Project units are specified as depth units
#==================================================================
~Version information
VERS.   2.0:
WRAP.   NO:
#==================================================================
~Well
STRT .m      382.62487793 :
STOP .m      2254.4997559 :
STEP .m     0.00000000 :
NULL .        -999.250000 :
COMP.           : COMPANY
WELL.  31/5-3   : WELL
FLD.            : FIELD
LOC.            : LOCATION
SRVC.           : SERVICE COMPANY
DATE.  2018-09-11 14:48:39   : Log Export Date {yyyy-MM-dd HH:mm:ss}
PROV.           : PROVINCE
UWI.   31/5-3   : UNIQUE WELL ID
API.            : API NUMBER
#==================================================================
~Curve
DEPT .m                   : DEPTH
Lithology_geolink ._      : Lithology_geolink
CALI .in                  : CALI
DRHO .g/cm3               : DRHO
NPHI .m3/m3               : NPHI
RHOB .g/cm3               : RHOB
GR .gAPI                  : GR
DTC .us/ft                : DTC
DTE .us/ft                : DTE
RDEP .ohm.m               : RDEP
SP .mV                    : SP
RSHA .ohm.m               : RSHA
RMED .ohm.m               : RMED
~Parameter
#==================================================================
~Ascii
# ...
 1996.6248779 3.0000000000 8.7880001068 0.0169746112  -999.250000  -999.250000 36.425182343 122.82611847 118.24687958 0.9660410285 72.986129761 0.9320371151 1.2631591558
 1996.7498779 3.0000000000 8.7869997025 0.0299873035  -999.250000  -999.250000 36.946479797 118.04234314 113.45819092 0.9110537171 73.580261230 0.9060254097 1.1121474504
 1996.8747559 3.0000000000 8.7860002518 0.0399804674  -999.250000  -999.250000 37.424598694 112.84974670 108.25748444 0.8501191735 73.915023804 0.8890331984 0.9972245693
 1996.9997559 3.0000000000 8.7849998474 0.0509785153  -999.250000  -999.250000 37.902599335 107.79932404 103.24978638 0.7831308246 73.811302185 0.8730312586 0.9381152391
 1997.1247559 3.0000000000 8.7840003967 0.0609804690  -999.250000  -999.250000 38.060539246 103.95030212 99.304916382 0.7181269526 73.359329224 0.8520410061 0.9150449634
 1997.2497559 3.0000000000 8.7840003967 0.0649921820  -999.250000  -999.250000 38.059005737 101.17395020 96.632659912 0.6621093750 73.169738770 0.8270488381 0.9030234218
 1997.3747559 3.0000000000 8.7860002518 0.0610117093  -999.250000  -999.250000 38.721401215 99.555671692 94.951217651 0.6191258430 73.300483704 0.8050643802 0.8870468736
 1997.4997559 3.0000000000 8.7860002518 0.0520088077  -999.250000  -999.250000 40.250015259 98.772499084 94.109100342 0.5890293121 73.521141052 0.7940108180 0.8630234599
 1997.6247559 3.0000000000 8.7860002518 0.0529980473  -999.250000  -999.250000 42.541038513 98.558372498 93.962997437 0.5740292668 73.624595642 0.7949980497 0.8360527158
 1997.7497559 3.0000000000 8.7849998474 0.0649765581  -999.250000  -999.250000 45.217540741 99.015235901 94.403694153 0.5700078011 73.520408630 0.8009882569 0.8190332055
 1997.8748779 3.0000000000 8.7829999924 0.0859794915  -999.250000  -999.250000 47.641906738 99.699157715 95.162948608 0.5699999928 73.514015198 0.8099912405 0.8120068312
 1997.9998779 3.0000000000 8.7810001373 0.1109755859  -999.250000  -999.250000 47.910488129 100.48507690 95.895065308 0.5719980597 73.722587585 0.8199902177 0.8110009432
 1998.1247559 3.0000000000 8.7810001373 0.1050117165  -999.250000  -999.250000 47.083431244 101.04857635 96.462875366 0.5749941468 73.887519836 0.8299804330 0.8119980097
 1998.2497559 3.0000000000 8.7829999924 0.0870351568  -999.250000  -999.250000 45.900466919 101.34236145 96.772193909 0.5809882283 73.815216064 0.8349902034 0.8169901967
 1998.3747559 3.0000000000 8.7860002518 0.0600527339  -999.250000  -999.250000 44.922813416 101.44425201 96.779212952 0.5899823904 73.419548035 0.8379941583 0.8249843717
 1998.4997559 3.0000000000 8.7880001068 0.0390410163  -999.250000  -999.250000 44.881149292 101.08811188 96.520629883 0.6009785533 72.831306458 0.8409941792 0.8359785676
 1998.6247559 3.0000000000 8.7889995575 0.0350117087  -999.250000  -999.250000 45.482643127 100.90334320 96.264717102 0.6139619946 72.493316650 0.8419990540 0.8459707499
 1998.7497559 3.0000000000 8.7869997025 0.0429843627  -999.250000  -999.250000 46.484081268 100.76242065 96.162719727 0.6289706826 72.463111877 0.8420000076 0.8519882560
 1998.8747559 3.0000000000 8.7860002518 0.0549765639  -999.250000  -999.250000 47.843681335 100.84018707 96.250770569 0.6459668279 72.586517334 0.8420000076 0.8549941778
 1998.9998779 3.0000000000 8.7860002518 0.0629921854  -999.250000  -999.250000 49.490177155 101.15821838 96.506156921 0.6659804583 72.708641052 0.8420000076 0.8550000191
 1999.1248779 3.0000000000 8.7869997025 0.0620009750  -999.250000  -999.250000 51.317646027 101.45023346 96.851425171 0.6909755468 72.710990906 0.8509912491 0.8569980264
 1999.2497559 3.0000000000 8.7880001068 0.0560117215  -999.250000  -999.250000 53.748867035 101.64574432 97.078712463 0.7169492245 72.595344543 0.8649726510 0.8619902134
 1999.3747559 3.0000000000 8.7869997025 0.0480156243  -999.250000  -999.250000 57.100173950 101.81688690 97.175498962 0.7409531474 72.480339050 0.8799706697 0.8689863682
 1999.4997559 3.0000000000 8.7829999924 0.0440078117  -999.250000  -999.250000 59.297428131 101.79087067 97.195465088 0.7579668164 72.484977722 0.8959687948 0.8799785376
 1999.6247559 3.0000000000 8.7799997330 0.0479921885  -999.250000  -999.250000 60.070007324 101.74456787 97.190727234 0.7679804564 72.660316467 0.9089745879 0.8929746151
 1999.7497559 3.0000000000 8.7779998779 0.0529853664  -999.250000  -999.250000 59.669582367 101.88629913 97.210067749 0.7719883323 72.974769592 0.9129883051 0.9089531302
 1999.8747559 3.0000000000 8.7790002823 0.0569960847  -999.250000  -999.250000 57.531375885 101.88629913 97.299430847 0.7700019479 73.271842957 0.9050077796 0.9219872952
 1999.9997559 3.0000000000 8.7810001373 0.0589960963  -999.250000  -999.250000 55.486984253 102.12341309 97.448776245 0.7699999809 73.236145020 0.8950194716 0.9249941707
 2000.1248779 3.0000000000 8.7829999924 0.0599990226  -999.250000  -999.250000 53.633422852 102.22580719 97.616371155 0.7719980478 72.808258057 0.8930019736 0.9150097966
 2000.2498779 3.0000000000 8.7840003967 0.0639960989  -999.250000  -999.250000 52.014739990 102.35417175 97.779754639 0.7759960890 72.201774597 0.8989941478 0.8950195313
 2000.3747559 3.0000000000 8.7849998474 0.0679921880  -999.250000  -999.250000 50.843429565 102.52069855 97.907211304 0.7829863429 71.704460144 0.9099785686 0.8720449209
 2000.4997559 3.0000000000 8.7860002518 0.0650058538  -999.250000  -999.250000 50.463108063 102.51639557 97.954711914 0.7879902124 71.584350586 0.9229745865 0.8620195389
 2000.6247559 3.0000000000 8.7849998474 0.0570156239  -999.250000  -999.250000 50.833908081 102.41851044 97.813911438 0.7860039473 71.867164612 0.9359745979 0.8729785681
 2000.7497559 3.0000000000 8.7819995880 0.0450234376  -999.250000  -999.250000 51.255352020 102.05263519 97.485290527 0.7750214338 72.109054565 0.9459804296 0.9009453058
 2000.8747559 3.0000000000 8.7779998779 0.0370234139  -999.250000  -999.250000 51.413387299 101.62725830 97.009963989 0.7550585270 72.165779114 0.9459999800 0.9358975291
 2000.9997559 3.0000000000 8.7740001678 0.0399970636  -999.250000  -999.250000 51.175933838 101.07582855 96.446075439 0.7300732732 72.174964905 0.9320136905 0.9639179707
 2001.1247559 3.0000000000 8.7740001678 0.0469863415  -999.250000  -999.250000 50.539489746 100.40903473 95.881820679 0.7030528188 72.318435669 0.9130370617 0.9709863067
 2001.2497559 3.0000000000 8.7749996185 0.0549843758  -999.250000  -999.250000 49.633544922 100.14724731 95.466400146 0.6850351691 72.739349365 0.8990273476 0.9450507760
 2001.3748779 3.0000000000 8.7790002823 0.0639912114  -999.250000  -999.250000 48.462429047 100.01024628 95.472076416 0.6750097871 73.220588684 0.8910077810 0.8980458975
 2001.4998779 3.0000000000 8.7799997330 0.0719921812  -999.250000  -999.250000 48.336357117 100.49903870 95.876373291 0.6740009785 73.373558044 0.8880029321 0.8410556912
 2001.6247559 3.0000000000 8.7799997330 0.0739960968  -999.250000  -999.250000 49.227378845 101.28339386 96.644134521 0.6779921651 73.176582336 0.8969824314 0.7851094007
 2001.7497559 3.0000000000 8.7770004272 0.0740000010  -999.250000  -999.250000 51.533233643 102.26546478 97.684707642 0.6839882731 72.765205383 0.9449062347 0.7440800667
 2001.8747559 3.0000000000 8.7740001678 0.0690097660  -999.250000  -999.250000 55.587146759 103.53134918 98.841209412 0.6889902353 72.365562439 0.9988945723 0.7360156178
 2001.9997559 5.0000000000 8.7720003128 0.0640097708  -999.250000  -999.250000 58.714797974 104.31477356 99.744674683 0.6919941306 72.229522705 1.0528944731 0.7759218812
 2002.1247559 5.0000000000 8.7720003128 0.0620058514  -999.250000  -999.250000 60.613601685 104.82283020 100.16950226 0.6999765635 72.328613281 1.0989550352 0.8517775536
 2002.2497559 5.0000000000 8.7740001678 0.0659960881  -999.250000  -999.250000 62.699848175 104.76229095 100.17333221 0.7179824114 72.516265869 1.1239755154 0.9419119358
 2002.3747559 5.0000000000 8.7770004272 0.0769785345  -999.250000  -999.250000 65.616592407 104.37541199 99.832572937 0.7519336343 72.688331604 1.1329824924 1.0178517103
 2002.4998779 5.0000000000 8.7790002823 0.0879892558  -999.250000  -999.250000 69.378974915 103.88905334 99.268013000 0.8069462776 72.782722473 1.1499834061 1.0469716787
