# LAS format log file from PETREL
# Project units are specified as depth units
#==================================================================
~Version information
VERS.   2.0:
WRAP.   NO:
#==================================================================
~Well
STRT .m      1704.1855469 :
STOP .m      2348.0756836 :
STEP .m     0.00000000 :
NULL .        -999.250000 :
COMP.           : COMPANY
WELL.  31/5-6   : WELL
FLD.            : FIELD
LOC.            : LOCATION
SRVC.           : SERVICE COMPANY
DATE.  2018-09-11 14:48:40   : Log Export Date {yyyy-MM-dd HH:mm:ss}
PROV.           : PROVINCE
UWI.   31/5-6   : UNIQUE WELL ID
API.            : API NUMBER
#==================================================================
~Curve
DEPT .m                   : DEPTH
Lithology_geolink ._      : Lithology_geolink
CALI .in                  : CALI
BS .in                    : BS
ROP .m/h                  : ROP
DRHO .g/cm3               : DRHO
NPHI .m3/m3               : NPHI
RHOB .g/cm3               : RHOB
PEF .b/e                  : PEF
GR .gAPI                  : GR
RDEP .ohm.m               : RDEP
RMED .ohm.m               : RMED
~Parameter
#==================================================================
~Ascii
# ...
 1999.5367432 2.0000000000 8.3576002121 8.5000000000 59.043830872 -0.016103523 0.2109999955 2.1786000729 4.3440999985 97.373497009 0.8756999969 0.7376999855
 1999.6892090 2.0000000000 8.3576002121 8.5000000000 32.001007080 -0.020480931 0.1895000041 2.1789999008 4.2926001549 94.286598206 2.3842000961 1.9464000463
 1999.8415527 2.0000000000 8.3576002121 8.5000000000 31.500112534 0.0033112089 0.1928000003 2.1738998890 3.9584000111 90.249702454 2.5501000881 2.2553000450
 1999.9940186 2.0000000000 8.3645000458 8.5000000000 34.032093048 0.0173028857 0.2239000052 2.1449999809 3.9133999348 96.667098999 1.0472999811 0.9402999878
 2000.1463623 2.0000000000 8.3576002121 8.5000000000 33.589622498 0.0209125690 0.2743999958 2.1329998970 3.7890999317 100.46720123 0.6801999807 0.6420000196
 2000.2988281 2.0000000000 8.3576002121 8.5000000000 33.525314331 0.0365972780 0.2879000008 2.1733000278 3.8420999050 106.88300323 0.5242000222 0.5045999885
 2000.4511719 2.0000000000 8.3576002121 8.5000000000 35.159450531 0.0332044885 0.2768999934 2.2002999783 4.0230998993 109.25810242 0.4873000085 0.4686000049
 2000.6036377 2.0000000000 8.3576002121 8.5000000000 38.381931305 0.0387817509 0.2838000059 2.2625000477 4.2982997894 116.62169647 0.5336999893 0.4952999949
 2000.7559814 2.0000000000 8.3843002319 8.5000000000 40.003295898 0.0274015218 0.2991000116 2.2841999531 4.5785999298 124.45649719 0.8924999833 0.7549999952
 2000.9084473 2.0000000000 8.3843002319 8.5000000000 37.820976257 0.0292979181 0.3025000095 2.3148000240 4.6092000008 133.95680237 1.0537999868 0.9042999744
 2001.0607910 5.0000000000 8.3976001740 8.5000000000 35.790996552 0.0280043278 0.3066999912 2.3067998886 4.5550999641 140.84010315 0.9419999719 0.9081000090
 2001.2132568 5.0000000000 8.3611001968 8.5000000000 67.645729065 0.0334091261 0.2806999981 2.3157999516 4.5208997726 143.21519470 0.9301000237 0.9290999770
 2001.3656006 5.0000000000 8.3611001968 8.5000000000 75.702880859 0.0391007215 0.2922999859 2.3285000324 4.5469999313 147.96539307 0.8658000231 0.9100999832
 2001.5179443 5.0000000000 8.4006996155 8.5000000000 73.179580688 0.0399975181 0.2896000147 2.3415999413 4.6687998772 149.63099670 0.9157000184 0.9513999820
 2001.6704102 5.0000000000 8.3921003342 8.5000000000 65.465499878 0.0369032025 0.3086000085 2.3438999653 4.7483000755 152.71409607 1.0686999559 1.0795999765
 2001.8227539 5.0000000000 8.3634996414 8.5000000000 63.389797211 0.0409006402 0.2892999947 2.3422999382 4.6153998375 149.62719727 1.2202999592 1.1851999760
 2001.9752197 5.0000000000 8.3576002121 8.5000000000 61.864414215 0.0416997597 0.2852999866 2.3257999420 4.5029997826 149.62719727 1.0015000105 0.9890000224
 2002.1275635 5.0000000000 8.3576002121 8.5000000000 59.418296814 0.0413959175 0.2876000106 2.3050000668 4.3708000183 149.63099670 0.9007999897 0.9009000063
 2002.2800293 5.0000000000 8.3576002121 8.5000000000 60.613872528 0.0362986363 0.3041999936 2.2929000854 4.2614998817 149.63330078 0.8568999767 0.8697999716
 2002.4323730 5.0000000000 8.3576002121 8.5000000000 64.985015869 0.0346012041 0.3179999888 2.2816998959 4.1455001831 145.59249878 0.8144000173 0.8127999902
 2002.5848389 5.0000000000 8.3576002121 8.5000000000 77.247398376 0.0360955149 0.3217999935 2.2611000538 4.1114001274 141.79389954 0.7537999749 0.7556999922
 2002.7371826 5.0000000000 8.3576002121 8.5000000000 75.008033752 0.0332994424 0.3203999996 2.2314000130 4.2411999702 137.75320435 0.7307000160 0.7186999917
 2002.8896484 5.0000000000 8.3576002121 8.5000000000 70.596054077 0.0325903930 0.3195999861 2.2190999985 4.3996000290 138.70550537 0.7738000154 0.7627000213
 2003.0419922 5.0000000000 8.3576002121 8.5000000000 68.448890686 0.0265959930 0.3134000003 2.2170000076 4.3702001572 137.75399780 0.7720000148 0.7644000053
 2003.1944580 5.0000000000 8.3576002121 8.5000000000 74.999671936 0.0215948764 0.3073000014 2.2118999958 4.3673000336 141.79620361 0.7712000012 0.7580000162
 2003.3468018 5.0000000000 8.3576002121 8.5000000000 75.959869385 0.0184001606 0.3030000031 2.2216000557 4.2690000534 146.55020142 0.7509999871 0.7465999722
 2003.4991455 5.0000000000 8.3576002121 8.5000000000 73.183258057 0.0186088867 0.3089999855 2.2372999191 4.2638998032 148.21350098 0.6933000088 0.6830000281
 2003.6516113 5.0000000000 8.3576002121 8.5000000000 68.975158691 0.0297024045 0.3127000034 2.2762999535 4.1806001663 146.54640198 0.7297000289 0.7299000025
 2003.8039551 5.0000000000 8.3576002121 8.5000000000 66.185577393 0.0327044837 0.3167000115 2.2869000435 4.2958998680 144.88079834 0.8284999728 0.8245000243
 2003.9564209 5.0000000000 8.3576002121 8.5000000000 64.521011353 0.0382961556 0.3027999997 2.2927999496 4.6132998466 150.34269714 0.9125000238 0.8873999715
 2004.1087646 5.0000000000 8.3576002121 8.5000000000 64.292366028 0.0334951170 0.3030999899 2.2857999802 4.6828999519 151.75860596 0.9588999748 0.9513000250
 2004.2612305 5.0000000000 8.3576002121 8.5000000000 64.060554504 0.0274012014 0.2964999974 2.2750999928 4.4833998680 150.09419250 0.9914000034 0.9851999879
 2004.4135742 5.0000000000 8.3576002121 8.5000000000 65.699478149 0.0288973581 0.2978999913 2.2713000774 4.1048002243 149.38240051 0.9605000019 0.9685000181
 2004.5660400 5.0000000000 8.3576002121 8.5000000000 67.930625916 0.0256027244 0.3007999957 2.2409999371 4.0672001839 150.34159851 0.7809000015 0.7703999877
 2004.7183838 5.0000000000 8.3576002121 8.5000000000 64.524391174 0.0289957523 0.2962000072 2.2369000912 4.0699000359 152.00610352 0.7038000226 0.7067000270
 2004.8708496 5.0000000000 8.1452999115 8.5000000000 61.439147949 0.0237073675 0.2815000117 2.2242000103 4.1322999001 148.21499634 0.6959000230 0.6966000199
 2005.0231934 5.0000000000 8.3576002121 8.5000000000 63.606853485 0.0282979179 0.2811000049 2.2353999615 4.1016998291 149.16349792 0.6838999987 0.6822999716
 2005.1756592 5.0000000000 8.3576002121 8.5000000000 64.516334534 0.0257022418 0.2879999876 2.2383999825 4.1873998642 145.12399292 0.5838999748 0.5874999762
 2005.3280029 5.0000000000 8.3576002121 8.5000000000 65.219581604 0.0270964745 0.2971999943 2.2667000294 4.3242001534 139.41459656 0.6233000159 0.6054000258
 2005.4804688 5.0000000000 8.3587999344 8.5000000000 67.417655945 0.0227084868 0.2858000100 2.2936000824 4.4274001122 133.71589661 0.6812999845 0.6491000056
 2005.6328125 5.0000000000 8.3921003342 8.5000000000 68.966537476 0.0280008819 0.2827999890 2.3146998882 4.4387001991 133.00520325 0.6751000285 0.6567000151
 2005.7851563 5.0000000000 8.3743000031 8.5000000000 71.431755066 0.0291060861 0.2815999985 2.3078000546 4.4316000938 135.38029480 0.6779999733 0.6718999743
 2005.9376221 5.0000000000 8.3576002121 8.5000000000 71.430778503 0.0366985574 0.2962000072 2.3078000546 4.4643998146 138.46609497 0.6858000159 0.6797999740
 2006.0899658 5.0000000000 8.3576002121 8.5000000000 72.874343872 0.0348986387 0.3009000123 2.2988998890 4.5402002335 140.12939453 0.9348000288 0.9050999880
 2006.2424316 5.0000000000 8.3576002121 8.5000000000 77.924865723 0.0331989564 0.3086000085 2.2943999767 4.5016999245 141.79660034 1.0134999752 0.9657999873
 2006.3947754 5.0000000000 8.3576002121 8.5000000000 66.917327881 0.0319042429 0.3043999970 2.2955000401 4.4253001213 142.04200745 1.1103999615 1.0590000153
 2006.5472412 5.0000000000 8.3576002121 8.5000000000 65.458335876 0.0371980779 0.3030999899 2.3080000877 4.3954000473 142.04580688 1.1204999685 1.0936000347
 2006.6995850 5.0000000000 8.3576002121 8.5000000000 66.181106567 0.0347966366 0.3021999896 2.3120999336 4.3463997841 142.75379944 1.0455000401 1.0111999512
 2006.8520508 5.0000000000 8.3576002121 8.5000000000 66.920280457 0.0305963177 0.3003000021 2.3096001148 4.2747001648 141.79769897 1.0204999447 0.9959999919
 2007.0043945 5.0000000000 8.3576002121 8.5000000000 65.223754883 0.0283021629 0.2924000025 2.3038001060 4.2513999939 144.16740417 1.0099999905 0.9930999875
 2007.1568604 6.0000000000 8.3576002121 8.5000000000 63.608592987 0.0309996791 0.2931999862 2.2994000912 4.2642998695 148.20590210 0.9783999920 0.9648000002
