# LAS format log file from PETREL
# Project units are specified as depth units
#==================================================================
~Version information
VERS.   2.0:
WRAP.   NO:
#==================================================================
~Well
STRT .m      164.79321289 :
STOP .m      1907.4873047 :
STEP .m     0.00000000 :
NULL .        -999.250000 :
COMP.           : COMPANY
WELL.  31/5-4 S   : WELL
FLD.            : FIELD
LOC.            : LOCATION
SRVC.           : SERVICE COMPANY
DATE.  2018-09-11 14:48:39   : Log Export Date {yyyy-MM-dd HH:mm:ss}
PROV.           : PROVINCE
UWI.   31/5-4 S   : UNIQUE WELL ID
API.            : API NUMBER
#==================================================================
~Curve
DEPT .m                   : DEPTH
Lithology_geolink ._      : Lithology_geolink
CALI .in                  : CALI
DRHO .g/cm3               : DRHO
NPHI .m3/m3               : NPHI
RHOB .g/cm3               : RHOB
GR .gAPI                  : GR
DTC .us/ft                : DTC
RDEP .ohm.m               : RDEP
SP .mV                    : SP
RSHA .ohm.m               : RSHA
RMED .ohm.m               : RMED
~Parameter
#==================================================================
~Ascii
# ...
 1796.8544922 2.0000000000 8.6171875000 -0.015618990 0.2802160680 2.1621265411 69.125000000 104.65779114 0.7785227299 72.476264954 0.5009765625 0.5815113783
 1797.0069580 2.0000000000 8.6171875000 -0.016136991 0.2648288906 2.1502261162 65.375000000 106.28150940 0.7912499905 72.149017334 0.4404296875 0.5986951590
 1797.1593018 2.0000000000 8.6171875000 -0.019574679 0.2426769435 2.1376209259 66.312500000 107.69475555 0.8351566792 72.492088318 0.4731445313 0.6078540087
 1797.3117676 2.0000000000 8.6171875000 -0.019007847 0.2097716182 2.1394462585 65.000000000 108.80784607 0.8779443502 72.439048767 0.4194335938 0.6211251020
 1797.4641113 2.0000000000 8.6171875000 -0.016117709 0.1715455502 2.1514787674 67.312500000 109.51739502 0.8480666876 73.414566040 0.3637695313 0.6410956383
 1797.6164551 2.0000000000 8.6171875000 -0.014748198 0.1346277893 2.1794605255 66.687500000 110.01216125 0.8790676594 73.913032532 0.3740234375 0.6665792465
 1797.7689209 2.0000000000 8.6171875000 -0.012056891 0.1142956987 2.2201700211 63.875000000 110.26329803 0.9515713453 72.632911682 0.3979492188 0.6974328756
 1797.9212646 2.0000000000 8.6171875000 -0.004899119 0.1032437235 2.2833085060 65.375000000 110.32353210 0.9710894823 72.757904053 0.4565429688 0.7329902649
 1798.0737305 2.0000000000 8.6171875000 0.0043165064 0.1019525751 2.3469839096 62.343750000 109.52011108 1.0046246052 72.867088318 0.6074218750 0.7718435526
 1798.2259521 16.000000000 8.6171875000 0.0090936748 0.1228849366 2.3906011581 65.000000000 105.94395447 1.0709049702 72.671936035 0.7807617188 0.8037955761
 1798.3784180 16.000000000 8.6171875000 0.0099562500 0.1639294922 2.3513832092 59.968750000 100.85086823 1.0894103050 71.507812500 0.7905273438 0.8197149038
 1798.5307617 16.000000000 8.6171875000 0.0011999999 0.2195771933 2.2733044624 65.562500000 99.750137329 1.0268952847 71.640625000 1.1855468750 0.7896589041
 1798.6831055 2.0000000000 8.6250000000 -0.008343315 0.2696720660 2.1981582642 65.687500000 99.653030396 1.0303544998 71.937446594 2.4687500000 0.7435853481
 1798.8355713 2.0000000000 8.6406250000 -0.016818751 0.3086613119 2.1520223618 69.937500000 98.444320679 0.9092053175 72.890625000 0.5913085938 0.7038741112
 1798.9879150 2.0000000000 8.6171875000 -0.021656206 0.3207021952 2.1368708611 68.437500000 94.842231750 0.8501709700 73.054740906 0.4462890625 0.6393475533
 1799.1403809 2.0000000000 8.6171875000 -0.022462500 0.3145414591 2.1382451057 66.375000000 87.579010010 0.7893066406 71.906250000 0.3745117188 0.5879367590
 1799.2927246 2.0000000000 8.6171875000 -0.021818815 0.2976253331 2.1419100761 65.062500000 80.865058899 0.7272502184 70.507804871 0.3750000000 0.5582127571
 1799.4451904 2.0000000000 8.6484375000 -0.020481251 0.2856685221 2.1405620575 64.812500000 74.282173157 0.7439337969 70.695312500 0.4140625000 0.5414427519
 1799.5975342 2.0000000000 8.6484375000 -0.018599920 0.2863190472 2.1336674690 66.562500000 66.632446289 0.7059128284 71.765609741 0.4799804688 0.5343433619
 1799.7500000 2.0000000000 8.6250000000 -0.017023139 0.2921859920 2.1274175644 65.875000000 59.567340851 0.6896343231 71.992187500 0.4633789063 0.5288276672
 1799.9022217 2.0000000000 8.6171875000 -0.015843751 0.2958400548 2.1302714348 64.625000000 55.250820160 0.7593998909 71.844177246 0.4228515625 0.5280644894
 1800.0545654 2.0000000000 8.6171875000 -0.014943794 0.2903565466 2.1424789429 66.125000000 52.666706085 0.6601620913 71.435897827 0.3750000000 0.5249938965
 1800.2070313 2.0000000000 8.6328125000 -0.014368750 0.2941603065 2.1510968208 67.750000000 52.489570618 0.7097300291 72.428939819 0.3706054688 0.5116480589
 1800.3593750 2.0000000000 8.6484375000 -0.018699760 0.3070490360 2.1458296776 69.125000000 53.357963562 0.6923525333 73.242385864 0.4287109375 0.5100334883
 1800.5118408 2.0000000000 8.6484375000 -0.023293750 0.3216600120 2.1334824562 69.375000000 54.519023895 0.6766086817 73.078727722 0.4658203125 0.4960183501
 1800.6641846 2.0000000000 8.6328125000 -0.024668775 0.3174469471 2.1235880852 66.750000000 54.717731476 0.6806452274 72.359588623 0.4375000000 0.4917128682
 1800.8166504 2.0000000000 8.6171875000 -0.024025001 0.3069741726 2.1272873878 68.500000000 56.861595154 0.6592442989 72.094154358 0.4262695313 0.4910618067
 1800.9689941 2.0000000000 8.6171875000 -0.021168936 0.2974830270 2.1359972954 66.562500000 64.686897278 0.6684678793 71.648117065 0.4248046875 0.4976739883
 1801.1214600 2.0000000000 8.6406250000 -0.017462499 0.2883842885 2.1414928436 69.437500000 76.621902466 0.6771709919 72.038558960 0.4047851563 0.5049012899
 1801.2738037 2.0000000000 8.6484375000 -0.013737630 0.2835397124 2.1371479034 66.937500000 91.349533081 0.6638391018 72.571060181 0.4472656250 0.5120562315
 1801.4262695 2.0000000000 8.6328125000 -0.011281250 0.2860069275 2.1301841736 67.000000000 99.248405457 0.6702489853 71.757713318 0.4360351563 0.5121278763
 1801.5784912 2.0000000000 8.6171875000 -0.011141794 0.2943343520 2.1292123795 69.062500000 104.10742950 0.6839091778 71.897819519 0.3676757813 0.5059678555
 1801.7308350 2.0000000000 8.6171875000 -0.013525320 0.3065099716 2.1285595894 70.250000000 106.90247345 0.6724753380 72.152343750 0.3388671875 0.5025277138
 1801.8833008 2.0000000000 8.6171875000 -0.017104888 0.3173741698 2.1345286369 73.125000000 109.30373383 0.6238508224 70.594573975 0.3364257813 0.4940063953
 1802.0356445 2.0000000000 8.6328125000 -0.018958926 0.3163377941 2.1325159073 70.687500000 110.77894592 0.6818712950 70.207633972 0.3579101563 0.4845881462
 1802.1881104 2.0000000000 8.6562500000 -0.022967869 0.3155836165 2.1331171989 73.937500000 110.70468903 0.6409027576 71.545639038 0.4321289063 0.4764344096
 1802.3404541 2.0000000000 8.6406250000 -0.023747237 0.3027900457 2.1274137497 75.187500000 109.71711731 0.6495821476 72.167366028 0.4238281250 0.4842230678
 1802.4929199 2.0000000000 8.6171875000 -0.019640865 0.3205967247 2.1339159012 77.500000000 109.80647278 0.6416925192 70.882606506 0.4648437500 0.4946314692
 1802.6452637 2.0000000000 8.6328125000 -0.015656846 0.3204794228 2.1437702179 74.812500000 110.06207275 0.6893159151 71.015022278 0.3696289063 0.5120091438
 1802.7977295 2.0000000000 8.6640625000 -0.014882772 0.3293973505 2.1619830132 73.375000000 110.08769989 0.7075623274 71.234779358 0.4956054688 0.5295195580
 1802.9500732 2.0000000000 8.6718750000 -0.013100000 0.3224526942 2.1679301262 70.687500000 110.14026642 0.6212077141 71.106483459 0.5258789063 0.5259574652
 1803.1024170 2.0000000000 8.6718750000 -0.013252243 0.3243793547 2.1597061157 69.500000000 110.22492218 0.7476109266 72.802581787 0.4897460938 0.5288183689
 1803.2547607 2.0000000000 8.6484375000 -0.015569575 0.3253925741 2.1523795128 67.687500000 110.30206299 0.7350507975 73.640014648 0.4428710938 0.5334855318
 1803.4071045 2.0000000000 8.6484375000 -0.015015866 0.3228825331 2.1502766609 70.062500000 110.34606934 0.6952698231 73.830528259 0.3706054688 0.5336592197
 1803.5595703 5.0000000000 8.6406250000 -0.013852121 0.3146573305 2.1485261917 75.375000000 110.25465393 0.7029188871 73.125000000 0.4204101563 0.5424348116
 1803.7119141 5.0000000000 8.6640625000 -0.016404327 0.2954557240 2.1474018097 77.437500000 110.15225983 0.7058928013 73.199119568 0.4101562500 0.5547448397
 1803.8643799 5.0000000000 8.6953125000 -0.020026281 0.2795448303 2.1417708397 79.375000000 110.05345154 0.7477554083 74.337471008 0.5253906250 0.5615547895
 1804.0167236 5.0000000000 8.6718750000 -0.026673017 0.2751651108 2.1369981766 76.375000000 109.97477722 0.7356992960 73.690704346 0.4624023438 0.5727117062
 1804.1691895 5.0000000000 8.6718750000 -0.028275000 0.2944768071 2.1220502853 76.625000000 109.89289856 0.7058928013 72.795036316 0.3618164063 0.5796105862
 1804.3215332 5.0000000000 8.6718750000 -0.035709526 0.3134098053 2.1096348763 77.062500000 109.70918274 0.7476822138 73.537055969 0.3833007813 0.5999803543
 1804.4738770 5.0000000000 8.6718750000 -0.037490144 0.3219893277 2.1102690697 78.375000000 109.44903564 0.8147042990 74.184249878 0.3715820313 0.6473101377
