# LAS format log file from PETREL
# Project units are specified as depth units
#==================================================================
~Version information
VERS.   2.0:
WRAP.   NO:
#==================================================================
~Well
STRT .m      382.62487793 :
STOP .m      2254.4997559 :
STEP .m     0.00000000 :
NULL .        -999.250000 :
COMP.           : COMPANY
WELL.  31/5-3   : WELL
FLD.            : FIELD
LOC.            : LOCATION
SRVC.           : SERVICE COMPANY
DATE.  2018-09-11 14:48:39   : Log Export Date {yyyy-MM-dd HH:mm:ss}
PROV.           : PROVINCE
UWI.   31/5-3   : UNIQUE WELL ID
API.            : API NUMBER
#==================================================================
~Curve
DEPT .m                   : DEPTH
Lithology_geolink ._      : Lithology_geolink
CALI .in                  : CALI
DRHO .g/cm3               : DRHO
NPHI .m3/m3               : NPHI
RHOB .g/cm3               : RHOB
GR .gAPI                  : GR
DTC .us/ft                : DTC
DTE .us/ft                : DTE
RDEP .ohm.m               : RDEP
SP .mV                    : SP
RSHA .ohm.m               : RSHA
RMED .ohm.m               : RMED
~Parameter
#==================================================================
~Ascii
# ...
 1252.6248779  -999.250000 17.929000854 0.0799960941  -999.250000  -999.250000 79.018943787 152.91375732 149.80451965 0.8319931626 57.937885284 0.7520087361 0.7929970622
 1252.7498779  -999.250000 17.931999207 0.0839960948  -999.250000  -999.250000 78.047897339 151.74490356 148.64967346 0.8389931321 58.067745209 0.7430087328 0.7959970832
 1252.8748779  -999.250000 17.937999725 0.0849990249  -999.250000  -999.250000 76.922195435 150.28839111 147.22973633 0.8459931612 58.230682373 0.7330097556 0.7979980111
 1252.9998779  -999.250000 17.945999146 0.0840009749  -999.250000  -999.250000 76.093620300 148.80859375 145.71804810 0.8539921641 58.385700226 0.7250078321 0.7999980450
 1253.1247559  -999.250000 17.955999374 0.0830019489  -999.250000  -999.250000 76.050163269 147.63459778 144.37930298 0.8619843721 58.491588593 0.7369765639 0.8029941320
 1253.2497559  -999.250000 17.969999313 0.0849941447  -999.250000  -999.250000 77.150764465 146.95045471 143.83184814 0.8709736466 58.519916534 0.7719658017 0.8069882989
 1253.3747559  -999.250000 17.988000870 0.0879970640  -999.250000  -999.250000 78.652595520 147.02906799 143.96369934 0.8799736500 58.517005920 0.8139590025 0.8089941740
 1253.4997559  -999.250000 18.006999969 0.0939882919  -999.250000  -999.250000 79.981109619 147.65211487 144.57495117 0.8859882355 58.521984100 0.8209863305 0.8099980354
 1253.6247559  -999.250000 18.017999649 0.1019843742  -999.250000  -999.250000 80.826530457 148.49972534 145.40499878 0.8909901977 58.562881470 0.8000410199 0.8080039620
 1253.7498779  -999.250000 18.021999359 0.1069951206  -999.250000  -999.250000 81.077514648 149.23471069 146.16331482 0.8909999728 58.669788361 0.7800195217 0.8050029278
 1253.8748779  -999.250000 18.020999908 0.1070000008  -999.250000  -999.250000 80.803535461 149.62585449 146.50375366 0.8890019655 58.880588531 0.7650146484 0.8020029068
 1253.9998779  -999.250000 18.020000458 0.1020048782  -999.250000  -999.250000 80.076416016 149.66334534 146.59632874 0.8850039244 59.203369141 0.7530117631 0.8000019789
 1254.1248779  -999.250000 18.016000748 0.0920097679  -999.250000  -999.250000 79.005088806 149.86492920 146.76950073 0.8810039163 59.525371552 0.7410117388 0.8009990454
 1254.2498779  -999.250000 17.999000549 0.0810107440  -999.250000  -999.250000 77.856361389 150.20429993 147.08915710 0.8780029416 59.796207428 0.7290117145 0.8029980063
 1254.3747559  -999.250000 17.971000671 0.0780058578  -999.250000  -999.250000 76.992683411 150.61911011 147.51783752 0.8760039210 59.995609283 0.7260029316 0.8049960732
 1254.4997559  -999.250000 17.944999695 0.0799980462  -999.250000  -999.250000 76.804550171 151.09661865 147.93400574 0.8779941797 60.128612518 0.7309951186 0.8059970737
 1254.6247559  -999.250000 17.931999207 0.0839921907  -999.250000  -999.250000 77.278602600 151.19598389 148.11708069 0.8809941411 60.233692169 0.7339941859 0.8059999943
 1254.7497559  -999.250000 17.940999985 0.0889902338  -999.250000  -999.250000 77.921112061 151.29283142 148.19458008 0.8859902024 60.349658966 0.7280117273 0.8040039539
 1254.8748779  -999.250000 17.958999634 0.0929960981  -999.250000  -999.250000 78.534805298 151.33438110 148.25154114 0.8889970779 60.460781097 0.7150126696 0.8040000200
 1254.9998779  -999.250000 17.972999573 0.0930000022  -999.250000  -999.250000 78.966163635 151.40838623 148.34448242 0.8899990320 60.545833588 0.7090058327 0.8059980273
 1255.1248779  -999.250000 17.976999283 0.0920009762  -999.250000  -999.250000 79.133674622 151.61735535 148.51228333 0.8880019784 60.595901489 0.7189902067 0.8109951019
 1255.2498779  -999.250000 17.975999832 0.0900019556  -999.250000  -999.250000 79.068130493 151.90904236 148.78633118 0.8830049038 60.615962982 0.7349843979 0.8169941306
 1255.3748779  -999.250000 17.972000122 0.0890009776  -999.250000  -999.250000 78.845657349 152.20434570 149.11286926 0.8760068417 60.526264191 0.7529824376 0.8199970722
 1255.4997559  -999.250000 17.965000153 0.0870039016  -999.250000  -999.250000 78.653747559 152.49836731 149.39375305 0.8680155873 60.320804596 0.7699667811 0.8190019727
 1255.6247559  -999.250000 17.957000732 0.0800204873  -999.250000  -999.250000 78.696868896 152.69552612 149.59082031 0.8600234389 60.022872925 0.7889813781 0.8130176067
 1255.7497559  -999.250000 17.950000763 0.0700097829  -999.250000  -999.250000 78.998115540 152.81941223 149.69787598 0.8510263562 59.658069611 0.8169726133 0.8060204983
 1255.8747559  -999.250000 17.944000244 0.0630136579  -999.250000  -999.250000 79.381881714 153.00215149 149.74725342 0.8420175910 59.264156342 0.8509336710 0.7980155945
 1255.9998779  -999.250000 17.941999435 0.0649980456  -999.250000  -999.250000 79.322120667 153.00485229 149.89997864 0.8330087662 58.942626953 0.8749765754 0.7930048704
 1256.1248779  -999.250000 17.941999435 0.0769882798  -999.250000  -999.250000 78.691238403 153.33021545 150.26992798 0.8250077963 58.768341064 0.8720028996 0.7900029421
 1256.2498779  -999.250000 17.944999695 0.0919853523  -999.250000  -999.250000 77.777786255 153.90586853 150.82339478 0.8170077801 58.637256622 0.8370341659 0.7880019546
 1256.3748779  -999.250000 17.952999115 0.0939980447  -999.250000  -999.250000 76.884750366 154.59194946 151.50050354 0.8110058308 58.494277954 0.7890468240 0.7850029469
 1256.4998779  -999.250000 17.966999054 0.0870068371  -999.250000  -999.250000 76.289161682 155.27165222 152.20866394 0.8070039153 58.336307526 0.7440439463 0.7830019593
 1256.6247559  -999.250000 17.988000870 0.0780175775  -999.250000  -999.250000 76.179428101 155.96006775 152.80599976 0.8040058613 58.222446442 0.7180507779 0.7829999924
 1256.7497559  -999.250000 18.013999939 0.0740117058  -999.250000  -999.250000 76.605743408 156.26576233 153.11926270 0.8040000200 58.304756165 0.7179999948 0.7849941850
 1256.8747559  -999.250000 18.038000107 0.0809931532  -999.250000  -999.250000 77.411636353 156.34474182 153.23327637 0.8049970865 58.540309906 0.7389795184 0.7869941592
 1256.9997559  -999.250000 18.055000305 0.0959707350  -999.250000  -999.250000 78.467903137 156.29876709 153.20115662 0.8079941869 58.847099304 0.7609570622 0.7889960408
 1257.1247559  -999.250000 18.063999176 0.1059804708  -999.250000  -999.250000 79.510940552 156.20135498 153.07762146 0.8109941483 59.126182556 0.7510195374 0.7909960747
 1257.2498779  -999.250000 18.069999695 0.1069990247  -999.250000  -999.250000 80.195663452 156.08674622 152.91691589 0.8129980564 59.272712708 0.7230273485 0.7929980159
 1257.3748779  -999.250000 18.076999664 0.1040029302  -999.250000  -999.250000 80.070251465 155.89579773 152.78942871 0.8139990568 59.159221649 0.6870351434 0.7939990759
 1257.4998779  -999.250000 18.091999054 0.0990048796  -999.250000  -999.250000 79.679763794 155.86573792 152.72581482 0.8140000105 58.823657990 0.6630234122 0.7940000296
 1257.6248779  -999.250000 18.113000870 0.0940048769  -999.250000  -999.250000 79.660041809 155.87002563 152.73085022 0.8130009770 58.516597748 0.6649980545 0.7930009365
 1257.7498779  -999.250000 18.136999130 0.0890048817  -999.250000  -999.250000 80.125633240 155.91294861 152.80207825 0.8130000234 58.442218781 0.6879775524 0.7910019755
 1257.8747559  -999.250000 18.156999588 0.0840097666  -999.250000  -999.250000 80.988616943 156.00434875 152.91816711 0.8120019436 58.688034058 0.7099570036 0.7890039086
 1257.9997559  -999.250000 18.166999817 0.0790146366  -999.250000  -999.250000 82.026954651 156.10690308 153.03065491 0.8100058436 59.187534332 0.7090009451 0.7889999747
 1258.1247559  -999.250000 18.167999268 0.0770039111  -999.250000  -999.250000 82.863548279 156.10371399 153.01014709 0.8070087433 59.557914734 0.7010155916 0.7889999747
 1258.2497559  -999.250000 18.159000397 0.0779980496  -999.250000  -999.250000 83.349578857 155.95622253 152.86549377 0.8040058613 59.597885132 0.6990039349 0.7899980545
 1258.3748779  -999.250000 18.146999359 0.0809970722  -999.250000  -999.250000 83.456794739 155.76239014 152.64114380 0.8030009270 59.452285767 0.6960029006 0.7900000215
 1258.4998779  -999.250000 18.135999680 0.0869941413  -999.250000  -999.250000 83.217468262 155.56658936 152.40502930 0.8029999733 59.231430054 0.6930029392 0.7900000215
