# LAS format log file from PETREL
# Project units are specified as depth units
#==================================================================
~Version information
VERS.   2.0:
WRAP.   NO:
#==================================================================
~Well
STRT .m      1704.1855469 :
STOP .m      2348.0756836 :
STEP .m     0.00000000 :
NULL .        -999.250000 :
COMP.           : COMPANY
WELL.  31/5-6   : WELL
FLD.            : FIELD
LOC.            : LOCATION
SRVC.           : SERVICE COMPANY
DATE.  2018-09-11 14:48:40   : Log Export Date {yyyy-MM-dd HH:mm:ss}
PROV.           : PROVINCE
UWI.   31/5-6   : UNIQUE WELL ID
API.            : API NUMBER
#==================================================================
~Curve
DEPT .m                   : DEPTH
Lithology_geolink ._      : Lithology_geolink
CALI .in                  : CALI
BS .in                    : BS
ROP .m/h                  : ROP
DRHO .g/cm3               : DRHO
NPHI .m3/m3               : NPHI
RHOB .g/cm3               : RHOB
PEF .b/e                  : PEF
GR .gAPI                  : GR
RDEP .ohm.m               : RDEP
RMED .ohm.m               : RMED
~Parameter
#==================================================================
~Ascii
# ...
 1743.0474854 6.0000000000 8.4954996109 8.5000000000 71.157608032 0.0571000017 0.3801850975 2.2620000839 4.9454002380 120.41680145 0.6887000203 0.6891371608
 1743.1999512 6.0000000000 8.5459995270 8.5000000000 61.871936798 0.0659999996 0.3677100241 2.2837998867 5.1521000862 121.12932587 0.7111999989 0.7023893595
 1743.3522949 6.0000000000 8.6332998276 8.5000000000 57.339282990 0.0772000030 0.3573166728 2.2957999706 5.3478999138 118.75859833 0.7781999707 0.7636018395
 1743.5047607 6.0000000000 8.6367998123 8.5000000000 52.183917999 0.0777999982 0.3459091485 2.2838997841 5.6703000069 118.75479889 0.8059999943 0.7945752740
 1743.6571045 6.0000000000 8.7056999207 8.5000000000 53.574016571 0.0636999980 0.3556921482 2.2518000603 5.4937000275 120.41606140 0.7425000072 0.7308511138
 1743.8095703 6.0000000000 8.7763004303 8.5000000000 52.944076538 0.0504000001 0.3706879914 2.2328999043 5.1385998726 118.04419708 0.7342000008 0.7300006747
 1743.9619141 6.0000000000 8.8619003296 8.5000000000 53.257297516 0.0339000002 0.4021747708 2.2488999367 4.6545000076 115.66909790 0.7427999973 0.7472861409
 1744.1143799 6.0000000000 8.7940998077 8.5000000000 53.415885925 0.0449000001 0.4022999108 2.2737998962 4.6423997879 115.66719818 0.7634999752 0.7433032393
 1744.2667236 6.0000000000 8.6892995834 8.5000000000 54.056243896 0.0524000004 0.4118923247 2.2614998817 5.0363998413 118.04039764 0.7624999881 0.7435997725
 1744.4191895 6.0000000000 8.3051004410 8.5000000000 52.179325104 0.0551000014 0.4031070471 2.2558000088 5.2761001587 116.38182831 0.7481999993 0.7343074679
 1744.5715332 6.0000000000 8.3025999069 8.5000000000 52.482040405 0.0546999983 0.4249824584 2.2467999458 5.2976999283 111.63410950 0.7311999798 0.7249075174
 1744.7238770 5.0000000000 8.5677995682 8.5000000000 52.944797516 0.0599000007 0.4060304165 2.2672998905 5.3734998703 109.97035980 0.7168999910 0.7029352188
 1744.8763428 5.0000000000 8.6332998276 8.5000000000 50.429512024 0.0645999983 0.4176906049 2.2648000717 5.6069002151 111.62816620 0.7843999863 0.7650501728
 1745.0286865 5.0000000000 8.6711997986 8.5000000000 50.427494049 0.0703999996 0.4023246467 2.2646000385 5.7329998016 112.34095764 0.7806000113 0.7669969797
 1745.1811523 5.0000000000 8.7021999359 8.5000000000 47.881305695 0.0693000033 0.4084950089 2.2558999062 5.5745000839 114.00326538 0.7409999967 0.7317283154
 1745.3334961 5.0000000000 8.7004995346 8.5000000000 45.350513458 0.0723000020 0.3936238587 2.2604999542 5.5118999481 112.34336090 0.7138000131 0.6987528801
 1745.4859619 5.0000000000 8.6660003662 8.5000000000 43.590648651 0.0685999990 0.4229764640 2.2616000175 5.4375000000 110.67943573 0.7224000096 0.7119893432
 1745.6383057 5.0000000000 8.6585998535 8.5000000000 43.907226563 0.0626000017 0.4616689682 2.2671000957 5.3133997917 108.30490112 0.7084000111 0.7157969475
 1745.7907715 6.0000000000 8.7021999359 8.5000000000 43.588836670 0.0625000000 0.4549054503 2.2878999710 5.1357998848 111.62683868 0.7283999920 0.7254922390
 1745.9431152 6.0000000000 8.7021999359 8.5000000000 43.483680725 0.0656000003 0.4311190844 2.3006000519 5.1072998047 113.29076385 0.7272999883 0.7269988060
 1746.0955811 6.0000000000 8.6515998840 8.5000000000 43.483596802 0.0671000034 0.4100168943 2.2981998920 5.1543998718 114.95257568 0.8003000021 0.7816562057
 1746.2479248 6.0000000000 8.5350999832 8.5000000000 45.459373474 0.0570000000 0.4046043158 2.2778999805 5.0033998489 113.29263306 0.8223999739 0.8125752807
 1746.4003906 5.0000000000 8.3943996429 8.5000000000 56.246280670 0.0533000007 0.4081971049 2.2739999294 4.8750000000 110.91809845 0.7982000113 0.7942147255
 1746.5527344 5.0000000000 8.6988000870 8.5000000000 56.254920959 0.0531000011 0.4005061686 2.2815001011 4.8330998421 109.25573730 0.8076000214 0.8004949093
 1746.7050781 5.0000000000 8.5861997604 8.5000000000 59.017223358 0.0531999990 0.4013985693 2.2746000290 4.9677000046 105.22187042 0.8399999738 0.8345453739
 1746.8575439 5.0000000000 8.5291004181 8.5000000000 62.502788544 0.0533999987 0.3923073113 2.2599000931 5.1476998329 101.18093109 0.7853999734 0.7721500397
 1747.0098877 5.0000000000 8.5315999985 8.5000000000 64.289138794 0.0548000000 0.3842129707 2.2471001148 5.3253002167 105.92029572 0.7533000112 0.7503349185
 1747.1623535 5.0000000000 8.5769996643 8.5000000000 65.224975586 0.0573000014 0.3946915865 2.2683000565 5.2901000977 110.67568970 0.7631999850 0.7594926357
 1747.3146973 6.0000000000 8.5769996643 8.5000000000 65.941444397 0.0571000017 0.4024875164 2.2678000927 5.0220999718 121.11247253 0.7454000115 0.7244561911
 1747.4671631 6.0000000000 8.6022996902 8.5000000000 65.463310242 0.0625000000 0.4203856587 2.2755000591 4.9591999054 119.46793365 0.7326999903 0.7275974154
 1747.6195068 6.0000000000 8.6332998276 8.5000000000 61.028163910 0.0597999990 0.4130059183 2.2616000175 5.0714001656 115.67074585 0.7343999743 0.7293985486
 1747.7719727 6.0000000000 8.6263999939 8.5000000000 61.024608612 0.0581000000 0.3732318580 2.2583000660 5.2255997658 106.88763428 0.7730000019 0.7568780184
 1747.9243164 6.0000000000 8.5626001358 8.5000000000 57.151405334 0.0408000015 0.3568131328 2.2279000282 5.2223000526 97.387817383 0.8303999901 0.8101572394
 1748.0767822 6.0000000000 7.9857997894 8.5000000000 47.630985260 0.0185000002 0.3593979180 2.2321999073 5.2266001701 95.005203247 0.8361999989 0.8313829899
 1748.2291260 5.0000000000 7.9857997894 8.5000000000 48.652065277 0.0260000005 0.3742880523 2.2611999512 5.1156001091 95.715728760 0.7272999883 0.7330788374
 1748.3815918 5.0000000000 8.5643997192 8.5000000000 49.726177216 0.0445000008 0.3458228409 2.2915000916 4.8901000023 102.12396240 0.7239000201 0.7098186016
 1748.5339355 5.0000000000 8.5574998856 8.5000000000 50.849494934 0.0516000018 0.3458999097 2.2932999134 4.6827001572 105.21482849 0.7423999906 0.7416744232
 1748.6864014 5.0000000000 8.4954996109 8.5000000000 52.024978638 0.0507999994 0.3609879017 2.2813000679 4.6926999092 106.87797546 0.7567999959 0.7575872540
 1748.8387451 5.0000000000 8.4885997772 8.5000000000 51.726291656 0.0533999987 0.4163555801 2.2857000828 4.6961998940 106.87930298 0.7222999930 0.7145345211
 1748.9910889 5.0000000000 8.4265003204 8.5000000000 54.052700043 0.0588999987 0.3987283409 2.2997999191 4.6549000740 106.87930298 0.8172000051 0.7788966894
 1749.1435547 5.0000000000 8.4300003052 8.5000000000 54.056430817 0.0520000011 0.3760181665 2.2943999767 4.5543999672 103.79547119 1.1169999838 1.0153104067
 1749.2958984 5.0000000000 8.4610004425 8.5000000000 53.256858826 0.0557999983 0.3628211319 2.3368000984 4.3934998512 103.79299927 1.3918000460 1.3124237061
 1749.4483643 5.0000000000 8.4610004425 8.5000000000 53.894828796 0.0372000001 0.3459135294 2.3299002647 4.3955001831 104.50492859 0.9390000105 0.9079247713
 1749.6007080 5.0000000000 8.4644002914 8.5000000000 65.442436218 0.0500000007 0.3246341050 2.3763000965 4.2206001282 107.58685303 0.7788000107 0.7712187767
 1749.7531738 5.0000000000 8.4954996109 8.5000000000 61.026527405 0.0423000008 0.3134089708 2.3192000389 4.3664999008 109.96500397 0.7628999949 0.7618073821
 1749.9055176 5.0000000000 8.4954996109 8.5000000000 58.832790375 0.0516999997 0.3320850134 2.3039000034 4.4000000954 109.25497437 0.7603999972 0.7495098114
 1750.0579834 5.0000000000 8.4954996109 8.5000000000 55.564952850 0.0491000041 0.3598777354 2.2637999058 4.6514000893 109.25440216 0.7195000052 0.7179252505
 1750.2103271 5.0000000000 8.4954996109 8.5000000000 53.421665192 0.0482000001 0.3620982468 2.2583999634 4.7083997726 109.96633148 0.7005000114 0.6760335565
 1750.3627930 5.0000000000 8.4954996109 8.5000000000 53.579597473 0.0472999997 0.3990703821 2.2541999817 4.7297000885 109.96690369 0.6966999769 0.6809960008
 1750.5151367 5.0000000000 8.5023002625 8.5000000000 54.718906403 0.0439000018 0.3999992907 2.2465000153 4.7287998199 108.30433655 0.6769000292 0.6739056706
 1750.6676025 5.0000000000 8.5643997192 8.5000000000 58.072120667 0.0394000001 0.4084931910 2.2500998974 4.6023001671 105.92849731 0.7454000115 0.7280566096
