# LAS format log file from PETREL
# Project units are specified as depth units
#==================================================================
~Version information
VERS.   2.0:
WRAP.   NO:
#==================================================================
~Well
STRT .m      382.62487793 :
STOP .m      2254.4997559 :
STEP .m     0.00000000 :
NULL .        -999.250000 :
COMP.           : COMPANY
WELL.  31/5-3   : WELL
FLD.            : FIELD
LOC.            : LOCATION
SRVC.           : SERVICE COMPANY
DATE.  2018-09-11 14:48:39   : Log Export Date {yyyy-MM-dd HH:mm:ss}
PROV.           : PROVINCE
UWI.   31/5-3   : UNIQUE WELL ID
API.            : API NUMBER
#==================================================================
~Curve
DEPT .m                   : DEPTH
Lithology_geolink ._      : Lithology_geolink
CALI .in                  : CALI
DRHO .g/cm3               : DRHO
NPHI .m3/m3               : NPHI
RHOB .g/cm3               : RHOB
GR .gAPI                  : GR
DTC .us/ft                : DTC
DTE .us/ft                : DTE
RDEP .ohm.m               : RDEP
SP .mV                    : SP
RSHA .ohm.m               : RSHA
RMED .ohm.m               : RMED
~Parameter
#==================================================================
~Ascii
# ...
 1744.6247559 6.0000000000 12.470999718 0.0680019557  -999.250000  -999.250000 85.077735901 109.46458435 104.80166626 1.5519317389 54.372959137 1.3769764900 1.3819570541
 1744.7498779 6.0000000000 12.482000351 0.0699980482  -999.250000  -999.250000 84.184738159 109.34065247 104.75378418 1.5859667063 53.909904480 1.4029746056 1.4079746008
 1744.8748779 6.0000000000 12.500000000 0.0739960968  -999.250000  -999.250000 83.753837585 109.26161957 104.66654205 1.6189677715 53.416961670 1.4159873724 1.4369716644
 1744.9998779 6.0000000000 12.520999908 0.0749990270  -999.250000  -999.250000 83.799911499 109.11016083 104.52524567 1.6499696970 53.097621918 1.3940215111 1.4669706821
 1745.1247559 6.0000000000 12.539999008 0.0730039030  -999.250000  -999.250000 84.160942078 108.94499969 104.33058167 1.6779452562 53.027206421 1.3680508137 1.4979394674
 1745.2497559 6.0000000000 12.552000046 0.0680097714  -999.250000  -999.250000 84.565422058 108.77172852 104.09615326 1.7029510736 53.201316833 1.3620116711 1.5279413462
 1745.3747559 6.0000000000 12.557999611 0.0640078187  -999.250000  -999.250000 84.661628723 108.40689850 103.85142517 1.7219629288 53.539676666 1.3719804287 1.5529510975
 1745.4997559 6.0000000000 12.559999466 0.0620058514  -999.250000  -999.250000 84.197822571 108.27867126 103.67887878 1.7369561195 53.818908691 1.3869853020 1.5639678240
 1745.6247559 6.0000000000 12.559999466 0.0639960915  -999.250000  -999.250000 83.584396362 108.14065552 103.61553955 1.7489764690 53.836936951 1.3949843645 1.5600078106
 1745.7497559 6.0000000000 12.560999870 0.0749785155  -999.250000  -999.250000 83.204483032 108.20720673 103.67454529 1.7579824924 53.708503723 1.3850195408 1.5440312624
 1745.8748779 6.0000000000 12.562000275 0.0899853557  -999.250000  -999.250000 83.496429443 108.47377777 103.84315491 1.7629951239 53.578254700 1.3680166006 1.5230205059
 1745.9998779 6.0000000000 12.562999725 0.1049853489  -999.250000  -999.250000 84.700645447 108.76675415 104.07570648 1.7620009184 53.577999115 1.3510165215 1.5060166121
 1746.1248779 6.0000000000 12.564000130 0.1149902344  -999.250000  -999.250000 86.188095093 108.83829498 104.24177551 1.7450165749 53.759643555 1.3360146284 1.4980078936
 1746.2497559 6.0000000000 12.564000130 0.1199902296  -999.250000  -999.250000 86.492111206 108.78266907 104.16516876 1.7100683451 54.089035034 1.3190332651 1.4920116663
 1746.3747559 6.0000000000 12.564000130 0.1170058548  -999.250000  -999.250000 86.050735474 108.41381073 103.86634064 1.6571034193 54.435646057 1.2950468063 1.4840155840
 1746.4997559 6.0000000000 12.564000130 0.1090156212  -999.250000  -999.250000 85.388587952 107.92207336 103.37460327 1.5891327858 54.733837128 1.2620644569 1.4700273275
 1746.6247559 6.0000000000 12.562000275 0.0990292653  -999.250000  -999.250000 84.802291870 107.36353302 102.73508453 1.5092340708 54.957130432 1.2270342112 1.4450732470
 1746.7497559 6.0000000000 12.559000015 0.0900088102  -999.250000  -999.250000 84.198356628 106.48632813 102.00146484 1.4330743551 55.129329681 1.1920342445 1.4020420313
 1746.8747559 6.0000000000 12.557000160 0.0830136538  -999.250000  -999.250000 82.833343506 105.89971161 101.28137970 1.3741151094 55.337188721 1.1570682526 1.3281443119
 1746.9998779 6.0000000000 12.555000305 0.0760068372  -999.250000  -999.250000 80.203140259 105.13401031 100.55981445 1.3350380659 55.639408112 1.1190370321 1.2320936918
 1747.1248779 5.0000000000 12.553999901 0.0700058565  -999.250000  -999.250000 76.285659790 104.28227997 99.694488525 1.3190156221 56.040218353 1.0790390968 1.1330966949
 1747.2498779 5.0000000000 12.555999756 0.0690009743  -999.250000  -999.250000 71.171997070 103.06442261 98.440032959 1.3219970465 56.470161438 1.0829960108 1.0520792007
 1747.3747559 5.0000000000 12.557000160 0.0699980482  -999.250000  -999.250000 65.075881958 101.05808258 96.477424622 1.3359726667 56.832935333 1.1059550047 1.0210605860
 1747.4997559 5.0000000000 12.557999611 0.0700000003  -999.250000  -999.250000 58.241031647 97.893203735 93.240180969 1.3449825048 57.021450043 1.1179765463 1.0838769674
 1747.6247559 5.0000000000 12.559000015 0.0690019503  -999.250000  -999.250000 52.323104858 93.393554688 88.763221741 1.3430039883 57.142528534 1.1110136509 1.2207323313
 1747.7497559 5.0000000000 12.559000015 0.0660087764  -999.250000  -999.250000 48.328575134 88.664810181 84.115653992 1.3320322037 57.378078461 1.0940496922 1.3924965858
 1747.8747559 16.000000000 12.559000015 0.0669990256  -999.250000  -999.250000 46.331771851 84.695503235 80.117996216 1.3160468340 57.705718994 1.0740195513 1.5236163139
 1747.9997559 16.000000000 12.559999466 0.0660019517  -999.250000  -999.250000 46.028160095 82.291755676 77.627822876 1.2980351448 58.058624268 1.0550370216 1.5249980688
 1748.1247559 16.000000000 12.562000275 0.0620078109  -999.250000  -999.250000 46.844791412 81.985870361 77.471267700 1.2710527182 58.355838776 1.0300488472 1.3413593769
 1748.2498779 16.000000000 12.562999725 0.0540078133  -999.250000  -999.250000 47.970798492 84.868019104 80.248199463 1.2180517912 58.610504150 0.9950341582 1.1362001896
 1748.3748779 2.0000000000 12.562999725 0.0430107452  -999.250000  -999.250000 48.625720978 88.805374146 84.245819092 1.1320840120 59.002231598 0.9420517087 0.9761562347
 1748.4998779 2.0000000000 12.562000275 0.0310117174  -999.250000  -999.250000 48.800659180 93.098381042 88.528053284 1.0201094151 59.515995026 0.8680722117 0.8711025119
 1748.6247559 2.0000000000 12.559999466 0.0250117183  -999.250000  -999.250000 48.711261749 97.081718445 92.499092102 0.8942461014 60.013542175 0.8001328111 0.8151093721
 1748.7497559 2.0000000000 12.557999611 0.0259980466  -999.250000  -999.250000 48.683109283 100.31240082 95.791572571 0.7702421546 60.364631653 0.7590800524 0.7870547175
 1748.8747559 2.0000000000 12.555999756 0.0329863280  -999.250000  -999.250000 49.119285583 102.88658142 98.227447510 0.6771816015 60.510437012 0.7330507636 0.7610507607
 1748.9997559 2.0000000000 12.555000305 0.0429707319  -999.250000  -999.250000 50.442817688 104.85216522 100.22650146 0.6032165885 60.612602234 0.7150175571 0.7241082788
 1749.1247559 2.0000000000 12.555000305 0.0529902130  -999.250000  -999.250000 52.406322479 106.80238342 102.25549316 0.5470547676 60.715599060 0.7000146508 0.6830401421
 1749.2497559 2.0000000000 12.555999756 0.0559941493  -999.250000  -999.250000 54.636283875 108.92105103 104.36498260 0.5040839314 60.763813019 0.6770448685 0.6460722089
 1749.3748779 2.0000000000 12.557999611 0.0540019535  -999.250000  -999.250000 56.751873016 111.10776520 106.49864960 0.4720312655 60.709106445 0.6460303068 0.6210244298
 1749.4998779 2.0000000000 12.559000015 0.0500039086  -999.250000  -999.250000 58.395790100 113.04489899 108.50769043 0.4500214756 60.534343719 0.6250205040 0.6140068769
 1749.6248779 2.0000000000 12.559999466 0.0470029265  -999.250000  -999.250000 59.234363556 114.70698547 110.05237579 0.4350146651 60.312435150 0.6210039258 0.6179960370
 1749.7497559 2.0000000000 12.559999466 0.0469999984  -999.250000  -999.250000 59.459342957 115.60461426 111.06472778 0.4260175824 60.160446167 0.6289843917 0.6239882708
 1749.8747559 2.0000000000 12.559999466 0.0489960909  -999.250000  -999.250000 59.311435699 116.20837402 111.62540436 0.4210097790 59.999473572 0.6349882483 0.6299882531
 1749.9997559 2.0000000000 12.560999870 0.0509960912  -999.250000  -999.250000 58.926506042 116.42187500 111.78628540 0.4210000038 59.753959656 0.6290117502 0.6349902153
 1750.1247559 2.0000000000 12.562999725 0.0529941469  -999.250000  -999.250000 58.496677399 116.17586517 111.61569977 0.4239912033 59.400379181 0.6449531317 0.6399853230
 1750.2497559 2.0000000000 12.562999725 0.0549980439  -999.250000  -999.250000 58.337619781 115.80619049 111.19445038 0.4299824238 58.979644775 0.6699755788 0.6449853182
 1750.3747559 2.0000000000 12.562999725 0.0569960959  -999.250000  -999.250000 58.921707153 115.32054138 110.73946381 0.4389824271 58.511825562 0.6839727163 0.6479941607
 1750.4997559 2.0000000000 12.562000275 0.0579980463  -999.250000  -999.250000 60.016716003 114.97840881 110.37063599 0.4499785006 58.084667206 0.6760156155 0.6509941816
