# LAS format log file from PETREL
# Project units are specified as depth units
#==================================================================
~Version information
VERS.   2.0:
WRAP.   NO:
#==================================================================
~Well
STRT .m      164.79321289 :
STOP .m      1907.4873047 :
STEP .m     0.00000000 :
NULL .        -999.250000 :
COMP.           : COMPANY
WELL.  31/5-4 S   : WELL
FLD.            : FIELD
LOC.            : LOCATION
SRVC.           : SERVICE COMPANY
DATE.  2018-09-11 14:48:39   : Log Export Date {yyyy-MM-dd HH:mm:ss}
PROV.           : PROVINCE
UWI.   31/5-4 S   : UNIQUE WELL ID
API.            : API NUMBER
#==================================================================
~Curve
DEPT .m                   : DEPTH
Lithology_geolink ._      : Lithology_geolink
CALI .in                  : CALI
DRHO .g/cm3               : DRHO
NPHI .m3/m3               : NPHI
RHOB .g/cm3               : RHOB
GR .gAPI                  : GR
DTC .us/ft                : DTC
RDEP .ohm.m               : RDEP
SP .mV                    : SP
RSHA .ohm.m               : RSHA
RMED .ohm.m               : RMED
~Parameter
#==================================================================
~Ascii
# ...
 1773.5393066 2.0000000000 8.5625000000 -0.006915385 0.2990566194 2.1682877541 61.187500000 110.08143616 0.6702429056 73.125000000 0.5180664063 0.4953146577
 1773.6917725 2.0000000000 8.5625000000 -0.008564051 0.2961675823 2.1583251953 59.406250000 110.23218536 0.6833410263 73.076461792 0.4550781250 0.4948589802
 1773.8441162 2.0000000000 8.5625000000 -0.012015385 0.3009533882 2.1418147087 60.531250000 109.96955872 0.7123738527 72.461540222 0.4565429688 0.4904847741
 1773.9965820 2.0000000000 8.5625000000 -0.015893195 0.3058992028 2.1288256645 63.812500000 109.86424255 0.6999043226 72.038833618 0.4858398438 0.4814738631
 1774.1489258 2.0000000000 8.5625000000 -0.017046155 0.3042322397 2.1263027191 67.250000000 109.84886932 0.6531492472 72.509613037 0.4663085938 0.4814041257
 1774.3013916 2.0000000000 8.5625000000 -0.017739791 0.2982849479 2.1258301735 66.437500000 109.97991943 0.6352194548 72.625000000 0.4594726563 0.4709833860
 1774.4537354 2.0000000000 8.5625000000 -0.019330772 0.2976866066 2.1279044151 66.187500000 110.00923157 0.6880109310 72.653846741 0.4296875000 0.4650723934
 1774.6062012 2.0000000000 8.5625000000 -0.018189352 0.2942284346 2.1304855347 65.375000000 109.87903595 0.6764436960 72.970878601 0.4331054688 0.4661035538
 1774.7585449 2.0000000000 8.5625000000 -0.014330769 0.3023045957 2.1281390190 66.250000000 109.49183655 0.6873068810 72.605766296 0.4252929688 0.4650723934
 1774.9107666 2.0000000000 8.5625000000 -0.012193514 0.3175015450 2.1283764839 68.875000000 109.01309204 0.6464442015 72.365493774 0.4111328125 0.4668340087
 1775.0632324 2.0000000000 8.5625000000 -0.010846714 0.3251843452 2.1321039200 70.062500000 108.62009430 0.7130862474 72.288063049 0.4169921875 0.4674108624
 1775.2155762 2.0000000000 8.5625000000 -0.010260849 0.3115674555 2.1364092827 72.000000000 108.57140350 0.6706429720 72.826057434 0.4013671875 0.4702149034
 1775.3680420 2.0000000000 8.5625000000 -0.011197916 0.2985903621 2.1339416504 71.687500000 109.13719177 0.6614713669 73.845153809 0.3964843750 0.4720107317
 1775.5203857 2.0000000000 8.5781250000 -0.013866213 0.2993056178 2.1277084351 75.000000000 109.62652588 0.6897847652 75.000000000 0.4106445313 0.4752699733
 1775.6728516 2.0000000000 8.5937500000 -0.017305529 0.3019491732 2.1240887642 74.062500000 109.99971008 0.6970354319 74.933395386 0.3964843750 0.4839154482
 1775.8251953 2.0000000000 8.5937500000 -0.019822836 0.2988435030 2.1263785362 75.500000000 110.12951660 0.7218939066 74.125000000 0.4204101563 0.4901714921
 1775.9776611 2.0000000000 8.5937500000 -0.019992393 0.2972711921 2.1297750473 72.187500000 110.21903992 0.7155379057 74.076965332 0.4287109375 0.5030013323
 1776.1300049 2.0000000000 8.5937500000 -0.018479247 0.3022051454 2.1338157654 70.562500000 110.39424133 0.7146922350 73.576118469 0.3979492188 0.5069268942
 1776.2823486 2.0000000000 8.5937500000 -0.015716333 0.3116759360 2.1352205276 67.375000000 110.44403839 0.7159657478 74.471473694 0.3969726563 0.5066232681
 1776.4348145 2.0000000000 8.5937500000 -0.014623879 0.3210343122 2.1375365257 69.437500000 110.15310669 0.6965740919 74.134513855 0.3813476563 0.5047646761
 1776.5870361 2.0000000000 8.5937500000 -0.013564532 0.3196632564 2.1470470428 71.500000000 109.11862183 0.7141859531 74.250000000 0.4047851563 0.4960111380
 1776.7395020 2.0000000000 8.5937500000 -0.011892469 0.3187131286 2.1574902534 73.437500000 107.06237030 0.6554287672 74.268829346 0.4555664063 0.4846123457
 1776.8918457 2.0000000000 8.5937500000 -0.011920417 0.3241662085 2.1623306274 71.437500000 102.87141418 0.6995378733 74.490592957 0.4692382813 0.4869995713
 1777.0443115 2.0000000000 8.5937500000 -0.013475320 0.3247645795 2.1577677727 72.687500000 100.63160706 0.7535403967 74.393829346 0.5332031250 0.5201121569
 1777.1966553 2.0000000000 8.5937500000 -0.014430104 0.3143956661 2.1516523361 70.750000000 104.51011658 0.7569003105 74.596778870 0.5014648438 0.5525250435
 1777.3489990 2.0000000000 8.5937500000 -0.014777645 0.3024596870 2.1499857903 69.625000000 105.21381378 0.8161609173 74.231369019 0.4350585938 0.5823068619
 1777.5014648 2.0000000000 8.5937500000 -0.014492474 0.2974170744 2.1510968208 66.000000000 103.28499603 0.8418860435 73.887107849 0.4404296875 0.5795384645
 1777.6538086 2.0000000000 8.5937500000 -0.014377644 0.3033176661 2.1486091614 66.750000000 106.96844482 0.7843680382 72.481369019 0.4877929688 0.5651941299
 1777.8062744 2.0000000000 8.5937500000 -0.014182853 0.3059775233 2.1426172256 63.812500000 112.39876556 0.7485613823 72.193511963 0.4599609375 0.5587068796
 1777.9586182 2.0000000000 8.5937500000 -0.015162370 0.3054753542 2.1422247887 64.062500000 113.26952362 0.7564756870 71.537628174 0.4516601563 0.5448040962
 1778.1110840 2.0000000000 8.5937500000 -0.014609615 0.2925095558 2.1443405151 61.875000000 113.27651215 0.6927691698 72.047073364 0.4492187500 0.5330408812
 1778.2633057 2.0000000000 8.5937500000 -0.013529784 0.2904132605 2.1425218582 65.125000000 112.14517212 0.6990884542 72.643615723 0.4487304688 0.5197174549
 1778.4157715 2.0000000000 8.5937500000 -0.014063942 0.3002559245 2.1352000237 68.625000000 109.65835571 0.6750074625 72.856369019 0.4765625000 0.5040210485
 1778.5681152 2.0000000000 8.5937500000 -0.015980866 0.3126479387 2.1416776180 70.750000000 105.49643707 0.6828099489 72.541229248 0.4980468750 0.4986404181
 1778.7204590 2.0000000000 8.5937500000 -0.014566346 0.3056549132 2.1480269432 73.250000000 99.720146179 0.7168986797 71.481567383 0.4028320313 0.4977399111
 1778.8729248 2.0000000000 8.5937500000 -0.015541473 0.2975599766 2.1493296623 73.375000000 94.310897827 0.7215570211 71.324462891 0.4038085938 0.5089510679
 1779.0252686 2.0000000000 8.5937500000 -0.017226283 0.2979335487 2.1424565315 72.250000000 93.220237732 0.6551430225 72.250000000 0.3754882813 0.5179505348
 1779.1777344 2.0000000000 8.5937500000 -0.016292553 0.3121202886 2.1334176064 71.625000000 93.947196960 0.7105927467 72.277923584 0.3789062500 0.5231611729
 1779.3300781 2.0000000000 8.5937500000 -0.016236858 0.3304094374 2.1402816772 70.937500000 97.662872314 0.7024693489 72.578926086 0.5605468750 0.5358167887
 1779.4825439 2.0000000000 8.5937500000 -0.016595757 0.3465639651 2.1567082405 73.312500000 101.06231689 0.7138886452 72.009307861 0.6108398438 0.5567098856
 1779.6348877 2.0000000000 8.5937500000 -0.015064103 0.3361164629 2.1735224724 72.562500000 103.80491638 0.7809476852 72.106567383 0.5161132813 0.5891379118
 1779.7873535 2.0000000000 8.5937500000 -0.012174519 0.3158542514 2.1628618240 71.000000000 104.75320435 0.7660614252 71.930892944 0.4785156250 0.6154851913
 1779.9395752 2.0000000000 8.5937500000 -0.013166294 0.2852609456 2.1443395615 65.500000000 105.53487396 0.8055366278 72.735488892 0.4204101563 0.6336147785
 1780.0919189 2.0000000000 8.5937500000 -0.014000000 0.2742959559 2.1342124939 65.562500000 107.27285004 0.7631813288 74.134117126 0.4082031250 0.6120655537
 1780.2443848 2.0000000000 8.5937500000 -0.013948439 0.2861353457 2.1331391335 68.562500000 107.81948090 0.7376217842 74.148719788 0.4130859375 0.6026612520
 1780.3967285 5.0000000000 8.5937500000 -0.013496875 0.3020275831 2.1324381828 74.312500000 106.76963043 0.7192450762 72.656250000 0.3740234375 0.6023354530
 1780.5491943 5.0000000000 8.5937500000 -0.015992634 0.3299475312 2.1248192787 75.750000000 106.36503601 0.7563308477 69.828964233 0.3574218750 0.6049311161
 1780.7015381 5.0000000000 8.5859375000 -0.015848959 0.3451579511 2.1236839294 75.250000000 106.38928986 0.7218939066 69.313804626 0.4003906250 0.6166728735
 1780.8540039 5.0000000000 8.5937500000 -0.014964292 0.3527072966 2.1339912415 82.812500000 106.55315399 0.7611473799 70.244697571 0.4643554688 0.6443159580
 1781.0063477 5.0000000000 8.6171875000 -0.011970834 0.3510481715 2.1546568871 87.875000000 106.97174835 0.7819318771 71.868492126 0.4975585938 0.6929620504
 1781.1588135 6.0000000000 8.6171875000 -0.011334828 0.3486452997 2.1769075394 93.000000000 107.97962189 0.8555717468 73.347381592 0.4902343750 0.7465010881
