# LAS format log file from PETREL
# Project units are specified as depth units
#==================================================================
~Version information
VERS.   2.0:
WRAP.   NO:
#==================================================================
~Well
STRT .m      164.79321289 :
STOP .m      1907.4873047 :
STEP .m     0.00000000 :
NULL .        -999.250000 :
COMP.           : COMPANY
WELL.  31/5-4 S   : WELL
FLD.            : FIELD
LOC.            : LOCATION
SRVC.           : SERVICE COMPANY
DATE.  2018-09-11 14:48:39   : Log Export Date {yyyy-MM-dd HH:mm:ss}
PROV.           : PROVINCE
UWI.   31/5-4 S   : UNIQUE WELL ID
API.            : API NUMBER
#==================================================================
~Curve
DEPT .m                   : DEPTH
Lithology_geolink ._      : Lithology_geolink
CALI .in                  : CALI
DRHO .g/cm3               : DRHO
NPHI .m3/m3               : NPHI
RHOB .g/cm3               : RHOB
GR .gAPI                  : GR
DTC .us/ft                : DTC
RDEP .ohm.m               : RDEP
SP .mV                    : SP
RSHA .ohm.m               : RSHA
RMED .ohm.m               : RMED
~Parameter
#==================================================================
~Ascii
# ...
 1874.5717773 6.0000000000 9.6796875000 0.0020542468 0.3591321111 2.3321013451 105.68750000 98.494834900 1.6446659565 72.757209778 1.0996093750 1.5116872787
 1874.7242432 6.0000000000 9.6953125000 0.0096853487 0.3619154394 2.3561029434 104.93750000 98.083236694 1.8010036945 73.140014648 1.0244140625 1.5208768845
 1874.8764648 6.0000000000 9.7265625000 0.0137134613 0.3681495786 2.3712506294 105.12500000 97.627113342 1.7489106655 73.842750549 1.4365234375 1.5433652401
 1875.0289307 6.0000000000 9.7265625000 0.0143439546 0.3609049022 2.3742189407 105.75000000 97.249275208 1.8991153240 72.105781555 1.7431640625 1.6162199974
 1875.1812744 6.0000000000 9.7500000000 0.0114884609 0.3466110826 2.3710107803 104.81250000 97.275238037 2.0212779045 71.111175537 2.0156250000 1.7145066261
 1875.3336182 6.0000000000 9.7656250000 0.0056789429 0.3320199549 2.3602628708 106.68750000 97.471267700 1.9625272751 70.398017883 2.2441406250 1.7380750179
 1875.4860840 6.0000000000 9.7812500000 -0.000561539 0.3369547129 2.3406391144 108.31250000 97.842926025 2.0426964760 71.631912231 2.0312500000 1.7866570950
 1875.6384277 6.0000000000 9.8046875000 -0.003723077 0.3467313349 2.3155474663 109.25000000 98.117485046 2.1296114922 71.979286194 1.9208984375 1.8555517197
 1875.7908936 7.0000000000 9.7890625000 -0.004895997 0.3492153883 2.2909545898 112.87500000 98.375701904 2.1154756546 70.856567383 1.7021484375 1.8296034336
 1875.9432373 7.0000000000 9.7343750000 -0.004696154 0.3476908803 2.2735362053 111.12500000 98.672027588 1.9325399399 69.895713806 1.6064453125 1.6517500877
 1876.0957031 7.0000000000 9.6953125000 -0.004502001 0.3491758406 2.2608919144 110.43750000 98.896606445 1.8548681736 71.023033142 1.2031250000 1.5027625561
 1876.2480469 7.0000000000 9.6406250000 -0.004588461 0.3624698520 2.2538771629 105.43750000 99.066574097 1.6816096306 72.176338196 1.0664062500 1.4235401154
 1876.4005127 6.0000000000 9.5859375000 -0.004014011 0.3716677427 2.2588672638 105.62500000 99.376777649 1.6694874763 68.316810608 1.2460937500 1.3747196198
 1876.5527344 6.0000000000 9.5625000000 -0.004749760 0.3702916801 2.2782826424 106.68750000 99.671211243 1.6023662090 71.872795105 1.2353515625 1.3311245441
 1876.7050781 6.0000000000 9.5390625000 -0.007434988 0.3601122200 2.3049745560 107.56250000 99.725097656 1.5492191315 71.723579407 1.2041015625 1.2480719090
 1876.8575439 6.0000000000 9.5312500000 -0.009305529 0.3520637453 2.3229451180 107.81250000 99.391227722 1.5526127815 70.225761414 0.9252929688 1.2323780060
 1877.0098877 6.0000000000 9.4921875000 -0.009642354 0.3486492038 2.3231301308 104.18750000 98.628494263 1.6048629284 68.894813538 0.7968750000 1.2522387505
 1877.1623535 6.0000000000 9.4218750000 -0.011966347 0.3490557969 2.3009614944 102.81250000 97.627052307 1.5616929531 70.017631531 0.9750976563 1.2398233414
 1877.3146973 6.0000000000 9.3515625000 -0.015511049 0.3502523303 2.2604804039 102.06250000 96.609252930 1.5982854366 71.006607056 0.9682617188 1.2584130764
 1877.4671631 6.0000000000 9.2734375000 -0.016059456 0.3522124588 2.2191123962 100.93750000 95.836776733 1.5403027534 71.383811951 1.3867187500 1.2230584621
 1877.6195068 6.0000000000 9.1250000000 -0.013896313 0.3534784615 2.1919908524 95.312500000 95.799827576 1.4028275013 71.855186462 1.0087890625 1.1021487713
 1877.7719727 6.0000000000 9.0078125000 -0.013730745 0.3542576134 2.1863155365 90.562500000 96.492874146 1.3222661018 70.750000000 0.5766601563 1.0061752796
 1877.9243164 6.0000000000 8.8671875000 -0.015312901 0.3547128439 2.1852726936 88.000000000 97.346641541 1.0833134651 70.750000000 0.5458984375 0.9121395350
 1878.0767822 2.0000000000 8.8046875000 -0.016023058 0.3555713892 2.1759643555 86.375000000 98.180732727 1.0652329922 70.750000000 0.4277343750 0.8484258652
 1878.2290039 2.0000000000 8.7109375000 -0.017252885 0.3563179672 2.1612720490 85.437500000 98.824584961 0.9762983322 70.750000000 0.4594726563 0.8030697107
 1878.3813477 2.0000000000 8.6718750000 -0.020212330 0.3570022583 2.1503586769 83.875000000 99.359207153 0.9353611469 70.750000000 0.4428710938 0.7563309669
 1878.5338135 2.0000000000 8.6640625000 -0.020855930 0.3579127789 2.1462306976 81.687500000 99.835372925 0.8853400946 70.750000000 0.4965820313 0.7087616920
 1878.6861572 2.0000000000 8.6484375000 -0.018347159 0.3581763804 2.1424851418 76.875000000 100.59221649 0.8688933849 70.750000000 0.4169921875 0.6918940544
 1878.8386230 2.0000000000 8.6484375000 -0.015378846 0.3579020202 2.1379084587 74.625000000 101.57328796 0.9090510607 70.750000000 0.4140625000 0.6660078764
 1878.9909668 2.0000000000 8.6718750000 -0.014219375 0.3569995761 2.1305923462 75.250000000 102.90641785 0.8496994972 70.750000000 0.4111328125 0.6365282536
 1879.1434326 2.0000000000 8.6718750000 -0.015273558 0.3564270735 2.1470198631 74.000000000 103.31096649 0.8469817638 70.750000000 0.3730468750 0.6316558123
 1879.2957764 2.0000000000 8.6718750000 -0.013720737 0.3569871783 2.1827278137 73.750000000 102.28672028 0.8493815660 70.750000000 0.3457031250 0.6293295622
 1879.4482422 2.0000000000 8.6718750000 -0.009257692 0.3569315672 2.2042775154 74.187500000 97.308898926 0.7992767096 70.750000000 0.3872070313 0.6308002472
 1879.6005859 2.0000000000 8.6718750000 -0.006900000 0.3563510180 2.1943168640 77.562500000 92.712471008 0.8528760672 70.750000000 0.3881835938 0.6656762362
 1879.7529297 2.0000000000 8.6718750000 -0.006881490 0.3563510180 2.1682639122 80.562500000 91.498298645 1.0374896526 70.750000000 0.4824218750 0.7786513567
 1879.9052734 16.000000000 8.6718750000 -0.005776442 0.3563510180 2.1589145660 81.437500000 92.715095520 1.5836932659 70.750000000 15.437500000 1.1651680470
 1880.0576172 16.000000000 8.6718750000 -0.004374780 0.3563510180 2.1583318710 79.375000000 95.865249634 1.8360419273 70.750000000 0.6718750000 1.3063430786
 1880.2100830 16.000000000 8.6718750000 -0.002886538 0.3563510180 2.1601467133 80.062500000 98.630172729 1.4046740532 70.750000000 0.3837890625 1.0217530727
 1880.3624268 2.0000000000 8.6718750000 -0.002113451 0.3563510180 2.1635403633 83.250000000 100.91864014 0.8612073660 70.750000000 0.4726562500 0.6551388502
 1880.5148926 2.0000000000 8.6718750000 -0.002942067 0.3563510180 2.1608533859 88.250000000 102.21627808 0.9165040255 70.750000000 0.4433593750 0.6310380697
 1880.6672363 6.0000000000 8.6953125000 -0.005442034 0.3566334248 2.1455574036 92.375000000 103.88542175 0.8249440193 70.750000000 0.4663085938 0.6368048191
 1880.8195801 6.0000000000 8.7031250000 -0.007924038 0.3735860884 2.1237564087 93.750000000 106.37172699 0.8876031637 70.750000000 0.4609375000 0.6241285801
 1880.9720459 6.0000000000 8.7031250000 -0.009357966 0.4006593525 2.1167635918 92.500000000 111.90698242 0.8877173662 70.750000000 0.4570312500 0.6202995777
 1881.1243896 2.0000000000 8.6875000000 -0.006861538 0.4107960165 2.1207475662 88.187500000 113.89824677 0.8593016863 70.750000000 0.4501953125 0.6261425018
 1881.2768555 2.0000000000 8.6718750000 -0.004489912 0.4107960165 2.1245555878 85.625000000 106.67469788 0.8655563593 70.750000000 0.4375000000 0.6158285141
 1881.4291992 2.0000000000 8.6484375000 -0.003866346 0.4107960165 2.1315035820 88.500000000 101.91004944 0.8460899591 70.750000000 0.4038085938 0.6064194441
 1881.5815430 2.0000000000 8.6484375000 -0.001808006 0.4107960165 2.1314463615 90.437500000 98.065376282 0.8041285276 70.750000000 0.3847656250 0.6004576683
 1881.7338867 6.0000000000 8.6484375000 -0.002338061 0.4107960165 2.1265792847 94.375000000 88.783676147 0.8491545916 70.750000000 0.3828125000 0.5935765505
 1881.8862305 6.0000000000 8.6484375000 -0.004786298 0.4107960165 2.1248459816 92.250000000 79.729415894 0.7312712669 70.750000000 0.3940429688 0.5866714716
 1882.0386963 6.0000000000 8.6484375000 -0.003861569 0.4107959867 2.1274309158 93.125000000 73.134979248 0.8347008228 70.750000000 0.4008789063 0.5983240604
 1882.1910400 6.0000000000 8.6484375000 -0.001513702 0.4107949734 2.1272873878 88.937500000 69.252868652 0.8203864098 70.750000000 0.4116210938 0.6000665426
