# LAS format log file from PETREL
# Project units are specified as depth units
#==================================================================
~Version information
VERS.   2.0:
WRAP.   NO:
#==================================================================
~Well
STRT .m      405.00000000 :
STOP .m      1938.8748779 :
STEP .m     0.00000000 :
NULL .        -999.250000 :
COMP.           : COMPANY
WELL.  31/5-5 R   : WELL
FLD.            : FIELD
LOC.            : LOCATION
SRVC.           : SERVICE COMPANY
DATE.  2018-09-11 14:48:39   : Log Export Date {yyyy-MM-dd HH:mm:ss}
PROV.           : PROVINCE
UWI.   31/5-5 R   : UNIQUE WELL ID
API.            : API NUMBER
#==================================================================
~Curve
DEPT .m                   : DEPTH
Lithology_geolink ._      : Lithology_geolink
CALI .in                  : CALI
DRHO .g/cm3               : DRHO
NPHI .m3/m3               : NPHI
RHOB .g/cm3               : RHOB
GR .gAPI                  : GR
DTC .us/ft                : DTC
RDEP .ohm.m               : RDEP
SP .mV                    : SP
RSHA .ohm.m               : RSHA
~Parameter
#==================================================================
~Ascii
# ...
 1329.0000000 19.000000000 14.230800629 -0.001868248  -999.250000 2.0744314194 61.961498260 146.79449463 0.9561486244  -999.250000  -999.250000
 1329.1250000 19.000000000 14.661600113 -0.001357576  -999.250000 2.0661554337 62.968200684 146.38490295 0.9502731562  -999.250000  -999.250000
 1329.2500000 19.000000000 14.949500084 -0.001658440  -999.250000 2.0631713867 64.333602905 145.78633118 0.9450380802  -999.250000  -999.250000
 1329.3750000 19.000000000 15.032999992 -0.002477653  -999.250000 2.0642299652 65.824401855 145.17341614 0.9398936033  -999.250000  -999.250000
 1329.4998779 19.000000000 14.941599846 -0.003878593  -999.250000 2.0670986176 67.217697144 144.55720520 0.9347499609  -999.250000  -999.250000
 1329.6250000 19.000000000 14.797598839 -0.005744413  -999.250000 2.0695495605 68.181198120 143.93988037 0.9295297861  -999.250000  -999.250000
 1329.7500000 19.000000000 14.735400200 -0.007363319  -999.250000 2.0702147484 68.544998169 143.32337952 0.9239335060  -999.250000  -999.250000
 1329.8750000 19.000000000 14.788199425 -0.008570407  -999.250000 2.0686049461 68.201797485 142.70881653 0.9177165031  -999.250000  -999.250000
 1330.0000000 19.000000000 14.931200981 -0.009640694  -999.250000 2.0649995804 67.436698914 142.21453857 0.9109139442  -999.250000  -999.250000
 1330.1250000 19.000000000 15.145199776 -0.010999097  -999.250000 2.0603199005 66.882400513 142.37051392 0.9018574953  -999.250000  -999.250000
 1330.2500000 19.000000000 15.439599991 -0.012335300  -999.250000 2.0559959412 66.891098022 143.14028931 0.8877062798  -999.250000  -999.250000
 1330.3750000 19.000000000 15.857900620 -0.012646245  -999.250000 2.0528235435 67.212898254 144.27751160 0.8704024553  -999.250000  -999.250000
 1330.5000000 19.000000000 16.374000549 -0.011492729  -999.250000 2.0510025024 67.252296448 145.41567993 0.8565859795  -999.250000  -999.250000
 1330.6251221 6.0000000000 16.800199509 -0.010161087  -999.250000 2.0500922203 66.492897034 146.55326843 0.8519759178  -999.250000  -999.250000
 1330.7498779 6.0000000000 16.967199326 -0.010688782  -999.250000 2.0489468575 65.134399414 147.68939209 0.8546909094  -999.250000  -999.250000
 1330.8750000 6.0000000000 16.850500107 -0.013608033  -999.250000 2.0467514992 63.558898926 148.82432556 0.8578317165  -999.250000  -999.250000
 1331.0000000 6.0000000000 16.567800522 -0.018054962  -999.250000 2.0430822372 62.279800415 149.83274841 0.8602952957  -999.250000  -999.250000
 1331.1250000 6.0000000000 16.328699112 -0.021947488  -999.250000 2.0380063057 61.909099579 150.54129028 0.8624956608  -999.250000  -999.250000
 1331.2500000 6.0000000000 16.264999390 -0.023318291  -999.250000 2.0328116417 62.433498383 150.73272705 0.8646959066  -999.250000  -999.250000
 1331.3750000 6.0000000000 16.367799759 -0.021932904  -999.250000 2.0289688110 63.460201263 150.66252136 0.8668951988  -999.250000  -999.250000
 1331.5000000 6.0000000000 16.525499344 -0.019052505  -999.250000 2.0280103683 64.501098633 150.57284546 0.8690946102  -999.250000  -999.250000
 1331.6250000 6.0000000000 16.598899841 -0.015974771  -999.250000 2.0317163467 65.245796204 150.48320007 0.8712949753  -999.250000  -999.250000
 1331.7501221 6.0000000000 16.559999466 -0.013276100  -999.250000 2.0392055511 65.852699280 150.39349365 0.8737536669  -999.250000  -999.250000
 1331.8748779 6.0000000000 16.444400787 -0.011263082  -999.250000 2.0489673615 66.639801025 150.30400085 0.8771855831  -999.250000  -999.250000
 1332.0000000 6.0000000000 16.315099716 -0.009970665  -999.250000 2.0589036942 67.696098328 150.21488953 0.8817944527  -999.250000  -999.250000
 1332.1250000 6.0000000000 16.213499069 -0.009033432  -999.250000 2.0670018196 68.845596313 150.15559387 0.8868505955  -999.250000  -999.250000
 1332.2500000 6.0000000000 16.117399216 -0.008069515  -999.250000 2.0732903481 69.718498230 150.12500000 0.8919061422  -999.250000  -999.250000
 1332.3750000 6.0000000000 16.001199722 -0.007762650  -999.250000 2.0784163475 70.109901428 150.11096191 0.8969111443  -999.250000  -999.250000
 1332.5000000 6.0000000000 15.850199699 -0.008837700  -999.250000 2.0826778412 70.073402405 150.10055542 0.9017552137  -999.250000  -999.250000
 1332.6250000 6.0000000000 15.620100021 -0.010911284  -999.250000 2.0847978592 69.682296753 150.09014893 0.9064489603  -999.250000  -999.250000
 1332.7500000 6.0000000000 15.270000458 -0.012863636  -999.250000 2.0836925507 69.057800293 150.07980347 0.9111102819  -999.250000  -999.250000
 1332.8750000 6.0000000000 14.786899567 -0.013478288  -999.250000 2.0797629356 68.216400146 150.06910706 0.9157698154  -999.250000  -999.250000
 1333.0001221 6.0000000000 14.227600098 -0.011752129  -999.250000 2.0761651993 67.146598816 150.04571533 0.9216538668  -999.250000  -999.250000
 1333.1250000 6.0000000000 13.727000237 -0.008065521  -999.250000 2.0803098679 65.961402893 149.94808960 0.9365509748  -999.250000  -999.250000
 1333.2500000 19.000000000 13.382200241 -0.005533695  -999.250000 2.0973043442 64.795501709 149.69169617 0.9702168703  -999.250000  -999.250000
 1333.3750000 19.000000000 13.202400208 -0.007716344  -999.250000 2.1289701462 63.766700745 149.28823853 1.0158908367  -999.250000  -999.250000
 1333.5000000 19.000000000 13.130200386 -0.015028954  -999.250000 2.1704082489 62.840698242 148.88500977 1.0600252151  -999.250000  -999.250000
 1333.6250000 19.000000000 13.100500107 -0.022785775  -999.250000 2.2051367760 61.794399261 148.48181152 1.0931472778  -999.250000  -999.250000
 1333.7500000 19.000000000 13.080499649 -0.026032925  -999.250000 2.2161469460 60.625301361 148.07853699 1.1036195755  -999.250000  -999.250000
 1333.8750000 19.000000000 13.065099716 -0.022847537  -999.250000 2.1978149414 59.500598907 147.67515564 1.0997099876  -999.250000  -999.250000
 1334.0000000 19.000000000 13.048999786 -0.015151978  -999.250000 2.1588382721 58.606399536 147.27169800 1.0957999229  -999.250000  -999.250000
 1334.1251221 19.000000000 13.029999733 -0.009075724  -999.250000 2.1177592278 58.077899933 146.85937500 1.0918893814  -999.250000  -999.250000
 1334.2498779 19.000000000 13.013499260 -0.008269787  -999.250000 2.0889801979 57.994598389 146.09808350 1.0879797935  -999.250000  -999.250000
 1334.3750000 19.000000000 13.003799438 -0.011144487  -999.250000 2.0756139755 58.446701050 144.77403259 1.0843958855  -999.250000  -999.250000
 1334.5000000 19.000000000 13.000599861 -0.013305664  -999.250000 2.0748319626 59.381198883 142.95147705 1.0842752457  -999.250000  -999.250000
 1334.6250000 19.000000000 12.999999046 -0.012311166  -999.250000 2.0820178986 60.565299988 140.87542725 1.0926544666  -999.250000  -999.250000
 1334.7500000 19.000000000 13.000299454 -0.009859085  -999.250000 2.0906023979 61.500999451 138.79722595 1.1075336933  -999.250000  -999.250000
 1334.8750000 19.000000000 13.001500130 -0.006963011  -999.250000 2.0969424248 61.782501221 136.72190857 1.1230807304  -999.250000  -999.250000
 1335.0000000 19.000000000 13.002599716 -0.004384041  -999.250000 2.0997104645 61.427501678 134.64526367 1.1386337280  -999.250000  -999.250000
 1335.1250000 19.000000000 13.001399994 -0.003622930  -999.250000 2.1028466225 60.867099762 132.57240295 1.1541924477  -999.250000  -999.250000
 1335.2501221 19.000000000 12.998100281 -0.006992340  -999.250000 2.1137857437 60.492298126 130.62637329 1.1697432995  -999.250000  -999.250000
 1335.3748779 19.000000000 12.995700836 -0.014606494  -999.250000 2.1361055374 60.263198853 129.10910034 1.1852903366  -999.250000  -999.250000
 1335.5000000 19.000000000 12.998499870 -0.022451401  -999.250000 2.1649265289 60.171600342 128.99847412 1.2008435726  -999.250000  -999.250000
 1335.6250000 19.000000000 13.010399818 -0.024400361  -999.250000 2.1832609177 60.680698395 129.55429077 1.2147984505  -999.250000  -999.250000
 1335.7500000 19.000000000 13.026999474 -0.020565987  -999.250000 2.1790370941 62.288600922 130.28413391 1.2217886448  -999.250000  -999.250000
 1335.8750000 19.000000000 13.042598724 -0.014088387  -999.250000 2.1532969475 65.094497681 131.01408386 1.2187225819  -999.250000  -999.250000
