# LAS format log file from PETREL
# Project units are specified as depth units
#==================================================================
~Version information
VERS.   2.0:
WRAP.   NO:
#==================================================================
~Well
STRT .m      405.00000000 :
STOP .m      1938.8748779 :
STEP .m     0.00000000 :
NULL .        -999.250000 :
COMP.           : COMPANY
WELL.  31/5-5 R   : WELL
FLD.            : FIELD
LOC.            : LOCATION
SRVC.           : SERVICE COMPANY
DATE.  2018-09-11 14:48:39   : Log Export Date {yyyy-MM-dd HH:mm:ss}
PROV.           : PROVINCE
UWI.   31/5-5 R   : UNIQUE WELL ID
API.            : API NUMBER
#==================================================================
~Curve
DEPT .m                   : DEPTH
Lithology_geolink ._      : Lithology_geolink
CALI .in                  : CALI
DRHO .g/cm3               : DRHO
NPHI .m3/m3               : NPHI
RHOB .g/cm3               : RHOB
GR .gAPI                  : GR
DTC .us/ft                : DTC
RDEP .ohm.m               : RDEP
SP .mV                    : SP
RSHA .ohm.m               : RSHA
~Parameter
#==================================================================
~Ascii
# ...
 1931.0000000  -999.250000 6.0000000000 -0.500000000  -999.250000 1.9499998093 0.0000000000  -999.250000 0.1999999881 0.0000000000 0.3522999883
 1931.1250000  -999.250000 6.0000000000 -0.500000000  -999.250000 1.9499998093 0.0000000000  -999.250000 0.1999999881 0.0000000000 0.3517999947
 1931.2500000  -999.250000 6.0000000000 -0.500000000  -999.250000 1.9499998093 0.0000000000  -999.250000 0.1999999881 0.0000000000 0.3513000011
 1931.3750000  -999.250000 6.0000000000 -0.500000000  -999.250000 1.9499998093 0.0000000000  -999.250000 0.1999999881 0.0000000000 0.3508999944
 1931.5000000  -999.250000 6.0000000000 -0.500000000  -999.250000 1.9499998093 0.0000000000  -999.250000 0.1999999881 0.0000000000 0.3504000008
 1931.6250000  -999.250000 6.0000000000 -0.500000000  -999.250000 1.9499998093 0.0000000000  -999.250000 0.1999999881 0.0000000000 0.3499000072
 1931.7501221  -999.250000 6.0000000000 -0.500000000  -999.250000 1.9499998093 0.0000000000  -999.250000 0.1999999881 0.0000000000 0.3494000137
 1931.8748779  -999.250000 6.0000000000 -0.500000000  -999.250000 1.9499998093 0.0000000000  -999.250000 0.1999999881 0.0000000000 0.3488999903
 1932.0000000  -999.250000 6.0000000000 -0.500000000  -999.250000 1.9499998093 0.0000000000  -999.250000 0.1999999881 0.0000000000 0.3483999968
 1932.1250000  -999.250000 6.0000000000 -0.500000000  -999.250000 1.9499998093 0.0000000000  -999.250000 0.1999999881 0.0000000000 0.3479000032
 1932.2500000  -999.250000 6.0000000000 -0.500000000  -999.250000 1.9499998093 0.0000000000  -999.250000 0.1999999881 0.0000000000 0.3474000096
 1932.3750000  -999.250000 6.0000000000 -0.500000000  -999.250000 1.9499998093 0.0000000000  -999.250000 0.1999999881 0.0000000000 0.3470000029
 1932.5000000  -999.250000 6.0000000000 -0.500000000  -999.250000 1.9499998093 0.0000000000  -999.250000 0.1999999881 0.0000000000 0.3465000093
 1932.6250000  -999.250000 6.0000000000 -0.500000000  -999.250000 1.9499998093 0.0000000000  -999.250000 0.1999999881 0.0000000000 0.3461000025
 1932.7500000  -999.250000 6.0000000000 -0.500000000  -999.250000 1.9499998093 0.0000000000  -999.250000 0.1999999881 0.0000000000 0.3456000090
 1932.8750000  -999.250000 6.0000000000 -0.500000000  -999.250000 1.9499998093 0.0000000000  -999.250000 0.1999999881 0.0000000000 0.3450999856
 1933.0001221  -999.250000 6.0000000000 -0.500000000  -999.250000 1.9499998093 0.0000000000  -999.250000 0.1999999881 0.0000000000 0.3445999920
 1933.1250000  -999.250000 6.0000000000 -0.500000000  -999.250000 1.9499998093 0.0000000000  -999.250000 0.1999999881 0.0000000000 0.3440999985
 1933.2500000  -999.250000 6.0000000000 -0.500000000  -999.250000 1.9499998093 0.0000000000  -999.250000 0.1999999881 0.0000000000 0.3436000049
 1933.3750000  -999.250000 6.0000000000 -0.500000000  -999.250000 1.9499998093 0.0000000000  -999.250000 0.1999999881 0.0000000000 0.3431000113
 1933.5000000  -999.250000 6.0000000000 -0.500000000  -999.250000 1.9499998093 0.0000000000  -999.250000 0.1999999881 0.0000000000 0.3425999880
 1933.6250000  -999.250000 6.0000000000 -0.500000000  -999.250000 1.9499998093 0.0000000000  -999.250000 0.1999999881 0.0000000000 0.3420999944
 1933.7500000  -999.250000 6.0000000000 -0.500000000  -999.250000 1.9499998093 0.0000000000  -999.250000 0.1999999881 0.0000000000 0.3415000141
 1933.8750000  -999.250000 6.0000000000 -0.500000000  -999.250000 1.9499998093 0.0000000000  -999.250000 0.1999999881 0.0000000000 0.3409999907
 1934.0000000  -999.250000 6.0000000000 -0.500000000  -999.250000 1.9499998093 0.0000000000  -999.250000 0.1999999881 0.0000000000 0.3404000103
 1934.1251221  -999.250000 6.0000000000 -0.500000000  -999.250000 1.9499998093 0.0000000000  -999.250000 0.1999999881 0.0000000000 0.3398999870
 1934.2498779  -999.250000 6.0000000000 -0.500000000  -999.250000 1.9499998093 0.0000000000  -999.250000 0.1999999881 0.0000000000 0.3393000066
 1934.3750000  -999.250000 6.0000000000 -0.500000000  -999.250000 1.9499998093 0.0000000000  -999.250000 0.1999999881 0.0000000000 0.3388000131
 1934.5000000  -999.250000 6.0000000000 -0.500000000  -999.250000 1.9499998093 0.0000000000  -999.250000 0.1999999881 0.0000000000 0.3382999897
 1934.6250000  -999.250000 6.0000000000 -0.500000000  -999.250000 1.9499998093 0.0000000000  -999.250000 0.1999999881 0.0000000000 0.3377000093
 1934.7500000  -999.250000 6.0000000000 -0.500000000  -999.250000 1.9499998093 0.0000000000  -999.250000 0.1999999881 0.0000000000 0.3370999992
 1934.8750000  -999.250000 6.0000000000 -0.500000000  -999.250000 1.9499998093 0.0000000000  -999.250000 0.1999999881 0.0000000000 0.3366000056
 1935.0000000  -999.250000 6.0000000000 -0.500000000  -999.250000 1.9499998093 0.0000000000  -999.250000 0.1999999881 0.0000000000 0.3359999955
 1935.1250000  -999.250000 6.0000000000 -0.500000000  -999.250000 1.9499998093 0.0000000000  -999.250000 0.1999999881 0.0000000000 0.3353999853
 1935.2501221  -999.250000 6.0000000000 -0.500000000  -999.250000 1.9499998093 0.0000000000  -999.250000 0.1999999881 0.0000000000 0.3348999918
 1935.3748779  -999.250000 6.0000000000 -0.500000000  -999.250000 1.9499998093 0.0000000000  -999.250000 0.1999999881 0.0000000000 0.3343000114
 1935.5000000  -999.250000 6.0000000000 -0.500000000  -999.250000 1.9499998093 0.0000000000  -999.250000 0.1999999881 0.0000000000 0.3337999880
 1935.6250000  -999.250000 6.0000000000 -0.500000000  -999.250000 1.9499998093 0.0000000000  -999.250000 0.1999999881 0.0000000000 0.3332000077
 1935.7500000  -999.250000 6.0000000000 -0.500000000  -999.250000 1.9499998093 0.0000000000  -999.250000 0.1999999881 0.0000000000 0.3327000141
 1935.8750000  -999.250000 6.0000000000 -0.500000000  -999.250000 1.9499998093 0.0000000000  -999.250000 0.1999999881 0.0000000000 0.3321000040
 1936.0000000  -999.250000 6.0000000000 -0.500000000  -999.250000 1.9499998093 0.0000000000  -999.250000 0.1999999881 0.0000000000 0.3314999938
 1936.1250000  -999.250000 6.0000000000 -0.500000000  -999.250000 1.9499998093 0.0000000000  -999.250000 0.1999999881 0.0000000000 0.3310000002
 1936.2500000  -999.250000 6.0000000000 -0.500000000  -999.250000 1.9499998093 0.0000000000  -999.250000 0.1999999881 0.0000000000 0.3305000067
 1936.3750000  -999.250000 6.0000000000 -0.500000000  -999.250000 1.9499998093 0.0000000000  -999.250000 0.1999999881 0.0000000000 0.3249000013
 1936.5001221  -999.250000 6.0000000000 -0.500000000  -999.250000 1.9499998093 0.0000000000  -999.250000 0.1999999881 0.0000000000 0.2937999964
 1936.6248779  -999.250000 6.0000000000 -0.500000000  -999.250000 1.9499998093 0.0000000000  -999.250000 0.1999999881 0.0000000000 0.2353000045
 1936.7500000  -999.250000 6.0000000000 -0.500000000  -999.250000 1.9499998093 0.0000000000  -999.250000 0.1999999881 0.0000000000 0.2000000030
 1936.8750000  -999.250000 6.0000000000 -0.500000000  -999.250000 1.9499998093 0.0000000000  -999.250000 0.1999999881 0.0000000000 0.2000000030
 1937.0000000  -999.250000 6.0000000000 -0.500000000  -999.250000 1.9499998093 0.0000000000  -999.250000 0.1999999881 0.0000000000 0.2000000030
 1937.1250000  -999.250000 6.0000000000 -0.500000000  -999.250000 1.9499998093 0.0000000000  -999.250000 0.1999999881 0.0000000000 0.2000000030
 1937.2500000  -999.250000 6.0000000000 -0.500000000  -999.250000 1.9499998093 0.0000000000  -999.250000 0.1999999881 0.0000000000 0.2000000030
 1937.3750000  -999.250000 6.0000000000 -0.500000000  -999.250000 1.9499998093 0.0000000000  -999.250000 0.1999999881 0.0000000000 0.2000000030
 1937.5000000  -999.250000 6.0000000000 -0.500000000  -999.250000 1.9499998093 0.0000000000  -999.250000 0.1999999881 0.0000000000 0.2000000030
 1937.6251221  -999.250000 6.0000000000 -0.500000000  -999.250000 1.9499998093 0.0000000000  -999.250000 0.1999999881 0.0000000000 0.2000000030
 1937.7498779  -999.250000 6.0000000000 -0.500000000  -999.250000 1.9499998093 0.0000000000  -999.250000 0.1999999881 0.0000000000 0.2000000030
 1937.8750000  -999.250000 6.0000000000 -0.500000000  -999.250000 1.9499998093 0.0000000000  -999.250000 0.1999999881 0.0000000000 0.2000000030
