# LAS format log file from PETREL
# Project units are specified as depth units
#==================================================================
~Version information
VERS.   2.0:
WRAP.   NO:
#==================================================================
~Well
STRT .m      382.62487793 :
STOP .m      2254.4997559 :
STEP .m     0.00000000 :
NULL .        -999.250000 :
COMP.           : COMPANY
WELL.  31/5-3   : WELL
FLD.            : FIELD
LOC.            : LOCATION
SRVC.           : SERVICE COMPANY
DATE.  2018-09-11 14:48:39   : Log Export Date {yyyy-MM-dd HH:mm:ss}
PROV.           : PROVINCE
UWI.   31/5-3   : UNIQUE WELL ID
API.            : API NUMBER
#==================================================================
~Curve
DEPT .m                   : DEPTH
Lithology_geolink ._      : Lithology_geolink
CALI .in                  : CALI
DRHO .g/cm3               : DRHO
NPHI .m3/m3               : NPHI
RHOB .g/cm3               : RHOB
GR .gAPI                  : GR
DTC .us/ft                : DTC
DTE .us/ft                : DTE
RDEP .ohm.m               : RDEP
SP .mV                    : SP
RSHA .ohm.m               : RSHA
RMED .ohm.m               : RMED
~Parameter
#==================================================================
~Ascii
# ...
 628.62481689  -999.250000 17.864000320 0.1390029341  -999.250000  -999.250000 74.997848511 145.37059021 142.21330261 2.2199940681 76.858787537 1.9730674028 1.8630073071
 628.74987793  -999.250000 17.867000580 0.1340048909  -999.250000  -999.250000 74.968048096 146.01994324 142.90318298 2.2279920578 76.954864502 1.9710018635 1.8540087938
 628.87487793  -999.250000 17.870000839 0.1270068437  -999.250000  -999.250000 74.954032898 146.85095215 143.76608276 2.2389893532 76.990928650 2.0029842854 1.8430107832
 628.99987793  -999.250000 17.874000549 0.1220073253  -999.250000  -999.250000 75.640991211 147.51689148 144.40971375 2.2449910641 76.976020813 2.0489776134 1.8370088339
 629.12481689  -999.250000 17.877000809 0.1229985356  -999.250000  -999.250000 76.449417114 147.90789795 144.76225281 2.2469961643 76.959030151 2.0949327946 1.8330078125
 629.24981689  -999.250000 17.879999161 0.1259956062  -999.250000  -999.250000 77.144645691 147.95408630 144.81060791 2.2450027466 76.974967957 2.1399343014 1.8310029507
 629.37487793  -999.250000 17.881999969 0.1260000020  -999.250000  -999.250000 77.551406860 147.66368103 144.57063293 2.2350096703 77.029914856 2.1090302467 1.8300009966
 629.49987793  -999.250000 17.882999420 0.1190068424  -999.250000  -999.250000 77.462089539 147.17517090 144.05932617 2.2260088921 77.097930908 2.0450313091 1.8280018568
 629.62487793  -999.250000 17.882999420 0.1090048850  -999.250000  -999.250000 77.353157043 146.54450989 143.44361877 2.2150161266 77.150924683 1.9740346670 1.8240058422
 629.74981689  -999.250000 17.882999420 0.1060043946  -999.250000  -999.250000 77.824073792 145.87193298 142.73191833 2.2040214539 77.128044128 1.9200789928 1.8170137405
 629.87487793  -999.250000 17.881000519 0.1109951213  -999.250000  -999.250000 79.106124878 145.21241760 142.07873535 2.1960079670 77.058097839 1.9349852800 1.8070098162
 629.99987793  -999.250000 17.879999161 0.1169941425  -999.250000  -999.250000 81.050155640 144.78903198 141.70195007 2.1910047531 76.972129822 1.9679839611 1.7970098257
 630.12487793  -999.250000 17.879999161 0.1189970747  -999.250000  -999.250000 83.125953674 144.90968323 141.82565308 2.1850087643 76.896118164 1.9759960175 1.7830204964
 630.24987793  -999.250000 17.879999161 0.1160029247  -999.250000  -999.250000 83.991729736 145.73979187 142.60113525 2.1630322933 76.854057312 1.9759999514 1.7640278339
 630.37481689  -999.250000 17.879999161 0.1080117226  -999.250000  -999.250000 84.079833984 146.95416260 143.84423828 2.1290664673 76.868972778 1.9690102339 1.7480312586
 630.49987793  -999.250000 17.878999710 0.0990087911  -999.250000  -999.250000 83.515823364 148.19425964 145.11080933 2.0810470581 76.929908752 1.9440244436 1.7370107174
 630.62487793  -999.250000 17.877000809 0.0950039029  -999.250000  -999.250000 82.746505737 149.28970337 146.21144104 2.0140652657 77.046768188 1.9060186148 1.7330039740
 630.74987793  -999.250000 17.875000000 0.0989941433  -999.250000  -999.250000 82.012077332 150.12486267 147.02531433 1.9191391468 77.219749451 1.8650200367 1.7320014238
 630.87481689  -999.250000 17.872999191 0.1069882736  -999.250000  -999.250000 81.120742798 150.61402893 147.46044922 1.7992343903 77.421600342 1.8370410204 1.7310018539
 630.99981689  -999.250000 17.871000290 0.1159868166  -999.250000  -999.250000 79.114921570 150.42195129 147.29656982 1.7241098881 77.458930969 1.8110380173 1.7250088453
 631.12487793  -999.250000 17.871000290 0.1259902418  -999.250000  -999.250000 77.720039368 149.84715271 146.73550415 1.6650575399 77.410072327 1.7820283175 1.7090156078
 631.24987793  -999.250000 17.872999191 0.1269990206  -999.250000  -999.250000 77.012687683 148.94525146 145.83041382 1.6110526323 77.199203491 1.7680068016 1.6760321856
 631.37487793  -999.250000 17.875999451 0.1260004938  -999.250000  -999.250000 77.050949097 147.85328674 144.71754456 1.5650674105 76.951362610 1.7640019655 1.6290687323
 631.49981689  -999.250000 17.878999710 0.1220058575  -999.250000  -999.250000 77.749633789 146.78663635 143.62467957 1.5460370779 76.798294067 1.7600058317 1.5980606079
 631.62487793  -999.250000 17.881999969 0.1170048788  -999.250000  -999.250000 78.558815002 146.14993286 143.03541565 1.5290166140 76.698143005 1.7570029497 1.5780194998
 631.74987793  -999.250000 17.882999420 0.1120048836  -999.250000  -999.250000 78.759712219 145.82164001 142.72062683 1.5070214272 76.841789246 1.7530019283 1.5710067749
 631.87487793  -999.250000 17.881999969 0.1080039069  -999.250000  -999.250000 78.638122559 145.79463196 142.64625549 1.4870195389 77.135711670 1.7490018606 1.5769941807
 631.99987793  -999.250000 17.879999161 0.1089990214  -999.250000  -999.250000 78.460258484 145.96041870 142.80210876 1.4670293331 77.537414551 1.7440048456 1.5899809599
 632.12481689  -999.250000 17.877000809 0.1089999974  -999.250000  -999.250000 78.429061890 146.28691101 143.18188477 1.4420489073 78.011077881 1.7400058508 1.6009784937
 632.24987793  -999.250000 17.874000549 0.1070019528  -999.250000  -999.250000 78.642684937 146.88011169 143.78874207 1.3990420103 78.505271912 1.7370029688 1.6019990444
 632.37487793  -999.250000 17.871000290 0.1020048782  -999.250000  -999.250000 78.890518188 147.75975037 144.64723206 1.3450527191 78.788452148 1.7190088034 1.5920097828
 632.49987793  -999.250000 17.865999222 0.0960087851  -999.250000  -999.250000 79.139633179 148.63984680 145.50480652 1.2930761576 78.726089478 1.6850165129 1.5740263462
 632.62481689  -999.250000 17.853000641 0.0920058638  -999.250000  -999.250000 79.441413879 149.43424988 146.29806519 1.2401034832 78.506423950 1.6550438404 1.5470527411
 632.74981689  -999.250000 17.836000443 0.0949956030  -999.250000  -999.250000 79.812278748 150.11459351 146.99270630 1.1820850372 78.181632996 1.6250439882 1.5100542307
 632.87487793  -999.250000 17.822000504 0.0989960954  -999.250000  -999.250000 80.173477173 150.65225220 147.54238892 1.1190614700 77.868453979 1.6230019331 1.4590498209
 632.99987793  -999.250000 17.811000824 0.1029960960  -999.250000  -999.250000 80.191963196 150.89610291 147.78639221 1.0990195274 77.858024597 1.6409912109 1.4330253601
 633.12487793  -999.250000 17.801000595 0.1059985310  -999.250000  -999.250000 79.737663269 150.73318481 147.58081055 1.0920102596 78.049720764 1.6689863205 1.4180219173
 633.24981689  -999.250000 17.791000366 0.1089956015  -999.250000  -999.250000 79.202041626 150.29637146 147.16979980 1.1009824276 79.012115479 1.6969590187 1.4170019627
 633.37487793  -999.250000 17.775999069 0.1080009788  -999.250000  -999.250000 78.868484497 149.75837708 146.66397095 1.1249765158 80.295120239 1.7249727249 1.4299871922
 633.49987793  -999.250000 17.753999710 0.1060019508  -999.250000  -999.250000 78.928909302 149.28588867 146.18238831 1.1579678059 81.731895447 1.7519867420 1.4519785643
 633.62487793  -999.250000 17.715000153 0.1030029282  -999.250000  -999.250000 79.424514771 148.98779297 145.83506775 1.2099492550 83.395378113 1.7639942169 1.4799727201
 633.74987793  -999.250000 17.650999069 0.1000029296  -999.250000  -999.250000 79.970199585 148.59648132 145.48829651 1.3008667231 85.441001892 1.7659981251 1.5179443359
 633.87481689  -999.250000 17.573999405 0.0990014672  -999.250000  -999.250000 80.368225098 148.20576477 145.10897827 1.4018026590 86.619697571 1.7679970264 1.5519336462
 633.99987793  -999.250000 17.513000488 0.0980009735  -999.250000  -999.250000 80.770416260 147.81455994 144.71389771 1.5048993826 86.978469849 1.7709970474 1.5819706917
 634.12487793  -999.250000 17.469999313 0.0970009789  -999.250000  -999.250000 81.158241272 147.40432739 144.27720642 1.6168905497 86.727485657 1.7749980688 1.6079746485
 634.24987793  -999.250000 17.436000824 0.0950029269  -999.250000  -999.250000 81.484519958 146.92236328 143.75830078 1.7508038282 86.067970276 1.7779985666 1.6359590292
 634.37481689  -999.250000 17.409000397 0.0930029303  -999.250000  -999.250000 81.749481201 146.23834229 143.11566162 1.8967148066 85.097900391 1.7809956074 1.6649433374
 634.49981689  -999.250000 17.389999390 0.0920014679  -999.250000  -999.250000 81.498497009 145.59944153 142.50482178 1.9868681431 84.441284180 1.7819985151 1.6809765100
