# LAS format log file from PETREL
# Project units are specified as depth units
#==================================================================
~Version information
VERS.   2.0:
WRAP.   NO:
#==================================================================
~Well
STRT .m      382.62487793 :
STOP .m      2254.4997559 :
STEP .m     0.00000000 :
NULL .        -999.250000 :
COMP.           : COMPANY
WELL.  31/5-3   : WELL
FLD.            : FIELD
LOC.            : LOCATION
SRVC.           : SERVICE COMPANY
DATE.  2018-09-11 14:48:39   : Log Export Date {yyyy-MM-dd HH:mm:ss}
PROV.           : PROVINCE
UWI.   31/5-3   : UNIQUE WELL ID
API.            : API NUMBER
#==================================================================
~Curve
DEPT .m                   : DEPTH
Lithology_geolink ._      : Lithology_geolink
CALI .in                  : CALI
DRHO .g/cm3               : DRHO
NPHI .m3/m3               : NPHI
RHOB .g/cm3               : RHOB
GR .gAPI                  : GR
DTC .us/ft                : DTC
DTE .us/ft                : DTE
RDEP .ohm.m               : RDEP
SP .mV                    : SP
RSHA .ohm.m               : RSHA
RMED .ohm.m               : RMED
~Parameter
#==================================================================
~Ascii
# ...
 1624.6247559 5.0000000000 12.619999886 0.0450058617  -999.250000  -999.250000 73.367263794 113.83496857 109.23216248 0.9261738062 53.095096588 1.0710742474 1.0172108412
 1624.7497559 5.0000000000 12.619999886 0.0440029278  -999.250000  -999.250000 68.002960205 115.33490753 110.71530914 0.8482282758 53.310165405 1.0340361595 0.9192868471
 1624.8747559 5.0000000000 12.619999886 0.0430009812  -999.250000  -999.250000 62.807292938 116.81003571 112.11802673 0.7841874957 53.184494019 1.0090243816 0.8442196846
 1624.9997559 5.0000000000 12.619000435 0.0420019515  -999.250000  -999.250000 58.419845581 117.83416748 113.14418793 0.7360938191 52.793148041 0.9880409241 0.7990880013
 1625.1248779 5.0000000000 12.618000984 0.0400019512  -999.250000  -999.250000 55.633426666 117.91163635 113.35370636 0.7080273628 52.374816895 0.9680195451 0.7850136757
 1625.2498779 5.0000000000 12.616000175 0.0399999991  -999.250000  -999.250000 55.062107086 117.11268616 112.48064423 0.6980097890 52.073589325 0.9480195642 0.7929921746
 1625.3748779 5.0000000000 12.612999916 0.0390009768  -999.250000  -999.250000 55.472194672 115.59138489 110.98163605 0.7059921622 51.719692230 0.9310166240 0.8179755807
 1625.4998779 5.0000000000 12.611001015 0.0429960936  -999.250000  -999.250000 56.172630310 113.73347473 109.11158752 0.7339726686 51.454517365 0.9240068793 0.8559628725
 1625.6247559 5.0000000000 12.609999657 0.0499863289  -999.250000  -999.250000 56.743324280 111.76871490 107.11573029 0.7849004269 51.396171570 0.9499492049 0.8999140263
 1625.7497559 5.0000000000 12.609999657 0.0569863282  -999.250000  -999.250000 57.094631195 109.74216461 105.20523071 0.8588554859 51.603187561 1.0028965473 0.9459101558
 1625.8747559 5.0000000000 12.612000465 0.0599912181  -999.250000  -999.250000 57.846057892 108.17780304 103.58306885 0.9557160735 51.968570709 1.0658155680 1.0098127127
 1625.9997559 5.0000000000 12.614998817 0.0590009801  -999.250000  -999.250000 59.860115051 106.75297546 102.20098877 1.0596952438 52.004863739 1.1299374104 1.0987392664
 1626.1247559 5.0000000000 12.616999626 0.0570039041  -999.250000  -999.250000 62.989757538 105.63253784 101.04977417 1.1657928228 51.557754517 1.1928770542 1.2137751579
 1626.2497559 5.0000000000 12.619999886 0.0579980463  -999.250000  -999.250000 66.860649109 104.69859314 100.10063934 1.2737891674 50.823154449 1.2429023981 1.3357616663
 1626.3748779 5.0000000000 12.619999886 0.0589990243  -999.250000  -999.250000 71.033851624 103.77516937 99.237205505 1.3818944693 50.087432861 1.2849589586 1.4289091825
 1626.4998779 5.0000000000 12.619999886 0.0590000004  -999.250000  -999.250000 75.160934448 102.79666901 98.163688660 1.4958887100 49.629894257 1.3129726648 1.4309980869
 1626.6248779 6.0000000000 12.619000435 0.0570019521  -999.250000  -999.250000 78.925643921 100.90612793 96.255645752 1.6078906059 49.500251770 1.3309824467 1.3970332146
 1626.7497559 6.0000000000 12.619000435 0.0520097651  -999.250000  -999.250000 81.956115723 98.426841736 93.817977905 1.7008183002 49.490032196 1.3449727297 1.3650624752
 1626.8747559 6.0000000000 12.619999886 0.0480078124  -999.250000  -999.250000 83.694221497 95.736320496 91.127601624 1.7628788948 49.439197540 1.3529844284 1.3610078096
 1626.9997559 6.0000000000 12.619999886 0.0430097654  -999.250000  -999.250000 83.942054749 93.128105164 88.496597290 1.7879511118 49.243766785 1.3629804850 1.3979277611
 1627.1247559 6.0000000000 12.619000435 0.0370175615  -999.250000  -999.250000 82.840324402 90.807395935 86.221656799 1.7830146551 48.898349762 1.3719911575 1.4717833996
 1627.2497559 6.0000000000 12.618000984 0.0310058706  -999.250000  -999.250000 80.847793579 89.182037354 84.570869446 1.7780048847 48.658935547 1.3819901943 1.5249481201
 1627.3747559 6.0000000000 12.616999626 0.0280058552  -999.250000  -999.250000 79.296539307 88.166946411 83.592147827 1.7869824171 48.789615631 1.3919804096 1.5220057964
 1627.4998779 6.0000000000 12.619999886 0.0309970696  -999.250000  -999.250000 78.868827820 88.056480408 83.479576111 1.8089785576 48.981624603 1.4029892683 1.4800410271
 1627.6248779 6.0000000000 12.623999596 0.0429882817  -999.250000  -999.250000 79.565635681 89.068084717 84.474395752 1.8359736204 48.969028473 1.4329706430 1.4290498495
 1627.7498779 6.0000000000 12.630000114 0.0529902354  -999.250000  -999.250000 81.170867920 91.329368591 86.724220276 1.8579785824 48.649623871 1.4559775591 1.4090195894
 1627.8748779 6.0000000000 12.635999680 0.0589941405  -999.250000  -999.250000 83.382675171 94.887374878 90.231719971 1.8609969616 48.138999939 1.4729834795 1.4499599934
 1627.9997559 6.0000000000 12.640999794 0.0619941391  -999.250000  -999.250000 85.362190247 98.761795044 94.233306885 1.8540136814 47.926620483 1.4859745502 1.5168690681
 1628.1247559 6.0000000000 12.642999649 0.0639960989  -999.250000  -999.250000 86.396972656 102.38979340 97.778541565 1.8500078917 48.323444366 1.4999727011 1.5818730593
 1628.2497559 6.0000000000 12.641999245 0.0679882988  -999.250000  -999.250000 86.525512695 105.31867218 100.62560272 1.8539882898 48.967483521 1.5129872561 1.6318535805
 1628.3747559 6.0000000000 12.641999245 0.0729951039  -999.250000  -999.250000 85.933326721 107.32532501 102.65380859 1.8679590225 49.462070465 1.5259873867 1.6649032831
 1628.4997559 6.0000000000 12.641999245 0.0769921914  -999.250000  -999.250000 84.985710144 108.42623138 103.85856628 1.8909550905 49.493881226 1.5399726629 1.6839628220
 1628.6247559 6.0000000000 12.640999794 0.0779980496  -999.250000  -999.250000 84.477478027 108.94208527 104.31912231 1.9109609127 49.001449585 1.5499804020 1.6949785948
 1628.7498779 6.0000000000 12.640999794 0.0750029311  -999.250000  -999.250000 85.346298218 108.97412872 104.44251251 1.9169942141 48.326320648 1.5579921007 1.7019932270
 1628.8748779 6.0000000000 12.640000343 0.0700048804  -999.250000  -999.250000 87.214347839 109.04919434 104.44406891 1.9050116539 47.815994263 1.5659921169 1.7119902372
 1628.9998779 6.0000000000 12.637000084 0.0660039037  -999.250000  -999.250000 89.345832825 109.06038666 104.41835022 1.8740302324 47.526565552 1.5799863338 1.7279844284
 1629.1247559 6.0000000000 12.635001183 0.0659999996  -999.250000  -999.250000 90.881500244 109.00079346 104.43396759 1.8250957727 47.363475800 1.5800000429 1.7499570847
 1629.2497559 6.0000000000 12.633000374 0.0689941421  -999.250000  -999.250000 90.993583679 109.15083313 104.53973389 1.7721034288 47.125926971 1.5680234432 1.7549902201
 1629.3747559 6.0000000000 12.631999016 0.0749882832  -999.250000  -999.250000 89.329528809 109.29431915 104.78536224 1.7300820351 46.701660156 1.5520312786 1.7090898752
 1629.4997559 6.0000000000 12.633000374 0.0819931626  -999.250000  -999.250000 87.415473938 109.73365021 105.13636017 1.7030789852 46.374279022 1.5400116444 1.6292340755
 1629.6247559 6.0000000000 12.637000084 0.0839960948  -999.250000  -999.250000 86.180816650 110.21934509 105.54240417 1.6900254488 46.384952545 1.5280233622 1.5421701670
 1629.7497559 6.0000000000 12.640000343 0.0790097713  -999.250000  -999.250000 86.121162415 110.59619904 105.92872620 1.6890019178 46.777843475 1.5190175772 1.4781250954
 1629.8748779 6.0000000000 12.640999794 0.0720068365  -999.250000  -999.250000 87.315666199 110.79648590 106.19901276 1.6929960251 47.452678680 1.5170018673 1.4640136957
 1629.9998779 6.0000000000 12.638999939 0.0670048818  -999.250000  -999.250000 89.243232727 110.86943054 106.19622040 1.6979950666 48.140655518 1.5219950676 1.5169482231
 1630.1248779 6.0000000000 12.635999680 0.0660009757  -999.250000  -999.250000 90.645263672 110.44793701 105.88577271 1.7059921026 48.277732849 1.5329892635 1.5959228277
 1630.2497559 6.0000000000 12.633000374 0.0709902346  -999.250000  -999.250000 91.131584167 110.01727295 105.45090485 1.7209706306 47.957942963 1.5479706526 1.6768418550
 1630.3747559 6.0000000000 12.633999825 0.0769882798  -999.250000  -999.250000 90.630966187 109.56547546 104.98539734 1.7469491959 47.448989868 1.5659648180 1.7388788462
 1630.4997559 6.0000000000 12.637000084 0.0789960995  -999.250000  -999.250000 89.383880615 109.15988922 104.57589722 1.7839277983 47.013698578 1.5849629641 1.7699394226
