# LAS format log file from PETREL
# Project units are specified as depth units
#==================================================================
~Version information
VERS.   2.0:
WRAP.   NO:
#==================================================================
~Well
STRT .m      164.79321289 :
STOP .m      1907.4873047 :
STEP .m     0.00000000 :
NULL .        -999.250000 :
COMP.           : COMPANY
WELL.  31/5-4 S   : WELL
FLD.            : FIELD
LOC.            : LOCATION
SRVC.           : SERVICE COMPANY
DATE.  2018-09-11 14:48:39   : Log Export Date {yyyy-MM-dd HH:mm:ss}
PROV.           : PROVINCE
UWI.   31/5-4 S   : UNIQUE WELL ID
API.            : API NUMBER
#==================================================================
~Curve
DEPT .m                   : DEPTH
Lithology_geolink ._      : Lithology_geolink
CALI .in                  : CALI
DRHO .g/cm3               : DRHO
NPHI .m3/m3               : NPHI
RHOB .g/cm3               : RHOB
GR .gAPI                  : GR
DTC .us/ft                : DTC
RDEP .ohm.m               : RDEP
SP .mV                    : SP
RSHA .ohm.m               : RSHA
RMED .ohm.m               : RMED
~Parameter
#==================================================================
~Ascii
# ...
 1703.5938721 6.0000000000 8.5937500000 -0.001016987 0.3832727373 2.2425422668 105.31250000 108.80871582 1.5695970058 78.162261963 0.9960937500 1.3004851341
 1703.7462158 6.0000000000 8.5937500000 -0.001958447 0.3773823380 2.2436842918 102.68750000 108.64257050 1.6142127514 77.397720337 1.0390625000 1.3203194141
 1703.8986816 6.0000000000 8.5937500000 -0.002400000 0.3696337342 2.2429704666 100.06250000 108.89095306 1.6081516743 76.683494568 1.2343750000 1.3302154541
 1704.0510254 6.0000000000 8.6015625000 -0.002563782 0.3660619259 2.2404456139 103.06250000 109.42652130 1.6214697361 77.227363586 1.3505859375 1.3432843685
 1704.2034912 6.0000000000 8.6171875000 -0.003858847 0.3678787351 2.2434406281 106.37500000 109.25893402 1.6991302967 77.970573425 1.0937500000 1.3965873718
 1704.3558350 6.0000000000 8.6171875000 -0.004276603 0.3707047105 2.2440452576 106.87500000 108.69763947 1.6968519688 77.662261963 1.1064453125 1.4473485947
 1704.5083008 6.0000000000 8.6171875000 -0.004323619 0.3671911955 2.2440981865 101.87500000 107.81867981 1.7787621021 77.014709473 1.2539062500 1.4902489185
 1704.6606445 6.0000000000 8.6171875000 -0.006210577 0.3479726315 2.2534160614 102.68750000 107.03421021 1.7816920280 77.212738037 1.4013671875 1.5282258987
 1704.8131104 6.0000000000 8.6171875000 -0.007882386 0.3571205735 2.2533507347 104.50000000 106.39863586 1.8755171299 77.963272095 1.0625000000 1.5636849403
 1704.9654541 6.0000000000 8.6171875000 -0.008453205 0.3523648977 2.2617979050 104.00000000 105.88064575 2.0566630363 78.625000000 1.2783203125 1.6951305866
 1705.1176758 6.0000000000 8.6171875000 -0.007949079 0.3371168971 2.3062925339 97.750000000 105.51911926 2.1389021873 78.566955566 2.3847656250 1.8079409599
 1705.2701416 6.0000000000 8.6171875000 -0.005963461 0.2867465615 2.3788499832 94.812500000 105.49607086 2.3248972893 78.168571472 7.4414062500 1.9364976883
 1705.4224854 6.0000000000 8.6171875000 0.0004000000 0.2849231362 2.3933796883 95.687500000 105.53746033 2.3438811302 78.470977783 1.2392578125 1.9883756638
 1705.5749512 6.0000000000 8.6171875000 0.0003883814 0.3112770617 2.3283076286 97.687500000 105.52519989 2.2395777702 78.206428528 1.1250000000 1.8863565922
 1705.7272949 6.0000000000 8.6171875000 -0.000187590 0.3555116653 2.2678027153 102.00000000 105.01980591 2.0588026047 77.875000000 1.0009765625 1.7552540302
 1705.8797607 6.0000000000 8.6171875000 -0.003516586 0.3708114624 2.2512717247 105.87500000 103.97062683 1.9204235077 77.802383423 1.0888671875 1.6105957031
 1706.0321045 6.0000000000 8.6171875000 -0.000309535 0.3808769882 2.2495267391 110.25000000 102.12686157 1.7140758038 77.264526367 1.0214843750 1.4780957699
 1706.1845703 7.0000000000 8.6171875000 0.0020870296 0.3744854033 2.2510495186 108.68750000 101.05690002 1.6637911797 77.331161499 0.9443359375 1.4207701683
 1706.3369141 7.0000000000 8.6171875000 0.0033141028 0.3585854173 2.2456092834 107.87500000 100.51397705 1.6472215652 76.912857056 1.0507812500 1.4002830982
 1706.4892578 7.0000000000 8.6171875000 0.0020509209 0.3511954248 2.2490701675 103.68750000 97.093910217 1.6572859287 76.162933350 1.0410156250 1.4064717293
 1706.6417236 6.0000000000 8.6171875000 0.0030605770 0.3499437869 2.2412552834 102.00000000 92.463928223 1.6569154263 75.470954895 1.0439453125 1.4099235535
 1706.7939453 6.0000000000 8.6171875000 0.0019192955 0.3520564735 2.2410387993 102.12500000 89.566520691 1.6844892502 75.379707336 1.0361328125 1.4280934334
 1706.9464111 6.0000000000 8.6171875000 0.0013576923 0.3510590792 2.2402210236 105.12500000 87.691619873 1.7313606739 76.418266296 1.0449218750 1.4716360569
 1707.0987549 6.0000000000 8.6171875000 0.0019498799 0.3575159311 2.2532091141 104.81250000 87.694488525 1.8052487373 76.850883484 1.3457031250 1.5427083969
 1707.2512207 6.0000000000 8.6171875000 0.0032384617 0.3695522249 2.2692608833 105.06250000 89.517982483 1.8672468662 77.639419556 1.4482421875 1.5968992710
 1707.4035645 6.0000000000 8.6171875000 0.0042423541 0.3696814775 2.2835650444 106.81250000 92.366516113 1.8721582890 77.706764221 1.2812500000 1.6171786785
 1707.5560303 6.0000000000 8.6171875000 0.0035807693 0.3580421805 2.2828931808 110.56250000 94.709228516 1.8980886936 77.346153259 1.1044921875 1.5897705555
 1707.7083740 6.0000000000 8.6171875000 0.0014734188 0.3534975052 2.2703866959 106.18750000 97.104835510 1.8081212044 77.153823853 1.0488281250 1.5387814045
 1707.8607178 6.0000000000 8.6171875000 -0.002372917 0.3559351563 2.2573013306 101.50000000 99.671806335 1.7867567539 77.489585876 1.0576171875 1.5219128132
 1708.0131836 6.0000000000 8.6171875000 -0.007100000 0.3658584058 2.2454671860 100.75000000 101.98125458 1.7849366665 78.389419556 1.1542968750 1.4884827137
 1708.1655273 6.0000000000 8.6171875000 -0.009342354 0.3794175684 2.2376646996 102.50000000 103.43901825 1.7517096996 78.471176147 1.2167968750 1.4708976746
 1708.3179932 6.0000000000 8.6171875000 -0.009096154 0.3920820951 2.2287378311 106.37500000 102.72079468 1.7192387581 78.250000000 0.9760742188 1.4499037266
 1708.4702148 6.0000000000 8.6171875000 -0.010267974 0.3903155327 2.2273545265 107.75000000 102.35588074 1.6751000881 78.221374512 1.0107421875 1.4032897949
 1708.6226807 6.0000000000 8.6171875000 -0.007390625 0.3733707666 2.2206020355 109.68750000 103.40951538 1.6062788963 77.856773376 0.8125000000 1.3491752148
 1708.7750244 7.0000000000 8.6171875000 -0.005114492 0.3498399258 2.2117924690 109.62500000 104.16906738 1.5516445637 76.721374512 0.7915039063 1.3091752529
 1708.9273682 7.0000000000 8.6171875000 -0.005840705 0.3417755961 2.2122559547 109.31250000 104.50775146 1.5301716328 76.599555969 0.8491210938 1.2673454285
 1709.0798340 7.0000000000 8.6171875000 -0.004428263 0.3393355608 2.2228007317 108.06250000 104.21449280 1.5430841446 77.389312744 0.9399414063 1.2905805111
 1709.2321777 7.0000000000 8.6171875000 -0.003486859 0.3532978296 2.2289328575 104.43750000 104.03260040 1.6103265285 77.500000000 0.9584960938 1.3464753628
 1709.3846436 6.0000000000 8.6171875000 -0.006946517 0.3551609814 2.2283987999 101.93750000 104.43141174 1.6792500019 77.385505676 1.0136718750 1.3803081512
 1709.5369873 6.0000000000 8.6171875000 -0.010229327 0.3464581668 2.2330231667 103.25000000 104.97072601 1.6821141243 76.414665222 1.0097656250 1.4053287506
 1709.6894531 6.0000000000 8.6171875000 -0.008991593 0.3554027379 2.2288789749 105.50000000 105.62817383 1.7163946629 75.807243347 1.1083984375 1.4182243347
 1709.8417969 6.0000000000 8.6171875000 -0.009370033 0.3687868416 2.2389264107 110.93750000 106.26935577 1.7683670521 76.321113586 1.1542968750 1.4257979393
 1709.9940186 6.0000000000 8.6171875000 -0.006596798 0.3895258307 2.2417206764 108.06250000 106.89418030 1.7492415905 76.917335510 1.1630859375 1.4282011986
 1710.1464844 6.0000000000 8.6171875000 -0.004830529 0.3777968585 2.2523884773 104.56250000 107.44638824 1.7594623566 77.207633972 1.0595703125 1.4257979393
 1710.2988281 6.0000000000 8.6171875000 -0.003725962 0.3639462590 2.2609782219 99.062500000 107.78977966 1.7145106792 76.903244019 1.0136718750 1.4104385376
 1710.4512939 6.0000000000 8.6171875000 -0.005613691 0.3509584963 2.2669978142 102.75000000 107.85007477 1.7785022259 77.210266113 1.1074218750 1.4184296131
 1710.6036377 6.0000000000 8.6171875000 -0.006590385 0.3488890529 2.2735500336 102.75000000 107.60428619 1.7355115414 77.973861694 1.1093750000 1.4109241962
 1710.7561035 6.0000000000 8.6171875000 -0.007231785 0.3542010486 2.2797446251 103.50000000 107.21353912 1.7304019928 78.721580505 1.0351562500 1.3761208057
 1710.9084473 6.0000000000 8.6171875000 -0.006530529 0.3537855446 2.2888464928 99.875000000 106.71697235 1.7183954716 78.401138306 1.1015625000 1.3580634594
 1711.0609131 6.0000000000 8.6171875000 -0.005143154 0.3388435543 2.2906827927 100.31250000 106.36352539 1.6909685135 77.553939819 0.8129882813 1.3382420540
 1711.2132568 6.0000000000 8.6171875000 -0.004869471 0.3266292214 2.2821426392 98.125000000 106.14460754 1.6263549328 76.985877991 0.8437500000 1.2913761139
