# LAS format log file from PETREL
# Project units are specified as depth units
#==================================================================
~Version information
VERS.   2.0:
WRAP.   NO:
#==================================================================
~Well
STRT .m      382.62487793 :
STOP .m      2254.4997559 :
STEP .m     0.00000000 :
NULL .        -999.250000 :
COMP.           : COMPANY
WELL.  31/5-3   : WELL
FLD.            : FIELD
LOC.            : LOCATION
SRVC.           : SERVICE COMPANY
DATE.  2018-09-11 14:48:39   : Log Export Date {yyyy-MM-dd HH:mm:ss}
PROV.           : PROVINCE
UWI.   31/5-3   : UNIQUE WELL ID
API.            : API NUMBER
#==================================================================
~Curve
DEPT .m                   : DEPTH
Lithology_geolink ._      : Lithology_geolink
CALI .in                  : CALI
DRHO .g/cm3               : DRHO
NPHI .m3/m3               : NPHI
RHOB .g/cm3               : RHOB
GR .gAPI                  : GR
DTC .us/ft                : DTC
DTE .us/ft                : DTE
RDEP .ohm.m               : RDEP
SP .mV                    : SP
RSHA .ohm.m               : RSHA
RMED .ohm.m               : RMED
~Parameter
#==================================================================
~Ascii
# ...
 1372.6247559 5.0000000000 17.896999359 0.0709941462  -999.250000  -999.250000 64.395179749 131.56359863 126.95915222 1.1689863205 55.683345795 0.8229746222 0.9840136766
 1372.7497559 5.0000000000 17.888999939 0.0700029284  -999.250000  -999.250000 65.912071228 131.74804688 127.23213196 1.1789706945 55.898159027 0.8369863033 0.9800117016
 1372.8747559 5.0000000000 17.878999710 0.0660039112  -999.250000  -999.250000 67.212196350 131.86239624 127.22989655 1.1889706850 56.197124481 0.8479892612 0.9809970856
 1372.9997559 5.0000000000 17.868999481 0.0630058572  -999.250000  -999.250000 68.030601501 131.60038757 126.97463989 1.1929920912 56.468208313 0.8519921899 0.9909804463
 1373.1247559 5.0000000000 17.860000610 0.0630000010  -999.250000  -999.250000 68.319160461 131.06492615 126.44106293 1.1900058985 56.650466919 0.8579882383 1.0109609365
 1373.2498779 5.0000000000 17.854000092 0.0620009750  -999.250000  -999.250000 68.175285339 130.26008606 125.62754822 1.1810088158 56.723857880 0.8599980474 1.0379736423
 1373.3748779 5.0000000000 17.850000381 0.0570048839  -999.250000  -999.250000 67.817703247 129.08978271 124.57846832 1.1710097790 56.702041626 0.8619980216 1.0629755259
 1373.4998779 5.0000000000 17.843999863 0.0500068367  -999.250000  -999.250000 67.655311584 128.22277832 123.56529236 1.1670039892 56.623153687 0.8649970889 1.0739892721
 1373.6248779 5.0000000000 17.834999084 0.0440058596  -999.250000  -999.250000 67.757804871 127.57720184 122.96311188 1.1660009623 56.482273102 0.8699951172 1.0749990940
 1373.7497559 5.0000000000 17.818000793 0.0439999998  -999.250000  -999.250000 68.057823181 127.45686340 122.84326172 1.1660000086 56.301704407 0.8799804449 1.0710078478
 1373.8747559 6.0000000000 17.791000366 0.0539804697  -999.250000  -999.250000 68.528160095 127.84802246 123.20851135 1.1630058289 56.163536072 0.8929746151 1.0650117397
 1373.9997559 6.0000000000 17.759000778 0.0669619516  -999.250000  -999.250000 69.119270325 128.60462952 123.99317932 1.1560205221 56.142059326 0.9059873223 1.0590175390
 1374.1247559 6.0000000000 17.726999283 0.0769902170  -999.250000  -999.250000 69.717247009 129.57044983 125.06452179 1.1480234861 56.273612976 0.9159902334 1.0510234833
 1374.2497559 6.0000000000 17.697999954 0.0809921920  -999.250000  -999.250000 70.081932068 130.74670410 126.09719086 1.1480000019 56.391651154 0.9150019884 1.0400214195
 1374.3748779 6.0000000000 17.679000854 0.0780029297  -999.250000  -999.250000 70.162849426 131.48396301 126.90760803 1.1599882841 56.300178528 0.9000146389 1.0280116796
 1374.4998779 6.0000000000 17.667999268 0.0700078160  -999.250000  -999.250000 70.035255432 131.91914368 127.36898804 1.1889716387 55.993598938 0.8780214787 1.0200078487
 1374.6248779 6.0000000000 17.660999298 0.0640058592  -999.250000  -999.250000 69.724609375 131.92456055 127.32992554 1.2359540462 55.576816559 0.8809970617 1.0209990740
 1374.7498779 6.0000000000 17.656999588 0.0620019510  -999.250000  -999.250000 69.156112671 131.14379883 126.60478210 1.3019355536 55.203727722 0.8979833722 1.0329883099
 1374.8748779 19.000000000 17.655000687 0.0610009767  -999.250000  -999.250000 67.826599121 129.39546204 124.75264740 1.3909131289 55.021354675 0.9209775329 1.0619716644
 1374.9997559 19.000000000 17.653999329 0.0600019507  -999.250000  -999.250000 65.158447266 126.11057281 121.53979492 1.4937987328 54.967208862 0.9459511638 1.1069121361
 1375.1247559 19.000000000 17.656000137 0.0619941466  -999.250000  -999.250000 61.521221161 121.65474701 117.06394196 1.6026810408 55.011825562 0.9729735851 1.1668244600
 1375.2497559 19.000000000 17.658000946 0.0669951066  -999.250000  -999.250000 57.706176758 116.08883667 111.49215698 1.7066953182 55.148597717 1.0009727478 1.2377920151
 1375.3747559 19.000000000 17.660999298 0.0699941441  -999.250000  -999.250000 54.607070923 109.82747650 105.29738617 1.7898377180 55.355392456 1.0209610462 1.3028728962
 1375.4997559 19.000000000 17.662000656 0.0729941428  -999.250000  -999.250000 52.996704102 104.05438232 99.432296753 1.8239336014 55.594299316 1.0299824476 1.3299473524
 1375.6248779 19.000000000 17.662000656 0.0739990249  -999.250000  -999.250000 53.537933350 101.16017151 96.478607178 1.8120117188 55.771652222 1.0240058899 1.3110185862
 1375.7498779 19.000000000 17.660999298 0.0720019490  -999.250000  -999.250000 55.030082703 101.31546021 96.721122742 1.7560547590 55.886775970 1.0040194988 1.2610489130
 1375.8748779 19.000000000 17.659999847 0.0630087927  -999.250000  -999.250000 56.704727173 104.49012756 99.893653870 1.6660878658 55.999778748 0.9770263433 1.1990605593
 1375.9998779 19.000000000 17.659999847 0.0560068376  -999.250000  -999.250000 57.992485046 109.93625641 105.28882599 1.5571064949 56.140724182 0.9510253668 1.1440538168
 1376.1247559 19.000000000 17.662000656 0.0550019518  -999.250000  -999.250000 58.567756653 116.39524078 111.81424713 1.4472148418 56.309341431 0.9330351949 1.1050761938
 1376.2497559 19.000000000 17.663999557 0.0599902347  -999.250000  -999.250000 58.512226105 122.28311920 117.66375732 1.3541816473 56.453437805 0.9210234284 1.0800489187
 1376.3747559 19.000000000 17.666000366 0.0669931620  -999.250000  -999.250000 58.659564972 126.23476410 121.68730927 1.2782224417 56.587608337 0.9130077958 1.0600584745
 1376.4997559 19.000000000 17.666000366 0.0739863440  -999.250000  -999.250000 59.510501862 129.04139709 124.43543243 1.2161211967 56.830287933 0.9060136676 1.0450292826
 1376.6247559 19.000000000 17.663999557 0.0769941434  -999.250000  -999.250000 60.939807892 130.86509705 126.24472809 1.1670957804 57.164020538 0.8980156183 1.0340214968
 1376.7498779 5.0000000000 17.659999847 0.0779990256  -999.250000  -999.250000 62.600757599 131.96659851 127.42793274 1.1310352087 57.481380463 0.8880097866 1.0290049314
 1376.8748779 5.0000000000 17.653999329 0.0780000016  -999.250000  -999.250000 64.009254456 132.85334778 128.24160767 1.1060243845 57.606754303 0.8790087700 1.0299990177
 1376.9998779 5.0000000000 17.646999359 0.0760019496  -999.250000  -999.250000 64.581886292 133.33244324 128.77355957 1.0860195160 57.351501465 0.8720068336 1.0329970121
 1377.1248779 5.0000000000 17.642000198 0.0710048825  -999.250000  -999.250000 64.238670349 133.74981689 129.11256409 1.0730125904 56.915851593 0.8670048714 1.0349980593
 1377.2497559 5.0000000000 17.641000748 0.0620175786  -999.250000  -999.250000 63.156238556 133.91020203 129.32012939 1.0650156736 56.576328278 0.8640058637 1.0349999666
 1377.3747559 5.0000000000 17.642000198 0.0560117215  -999.250000  -999.250000 61.530357361 133.97334290 129.45976257 1.0630038977 56.500293732 0.8600078225 1.0320057869
 1377.4997559 19.000000000 17.645000458 0.0530087799  -999.250000  -999.250000 59.638393402 134.18463135 129.59185791 1.0669883490 56.740058899 0.8510088325 1.0280116796
 1377.6247559 19.000000000 17.649000168 0.0559970662  -999.250000  -999.250000 57.949943542 134.37089539 129.76843262 1.0719853640 57.157775879 0.8370136619 1.0270029306
 1377.7497559 19.000000000 17.649999619 0.0629863441  -999.250000  -999.250000 57.045642853 134.56578064 129.98001099 1.0759921074 57.578769684 0.8260214329 1.0269999504
 1377.8748779 19.000000000 17.652000427 0.0719912052  -999.250000  -999.250000 56.862354279 134.82983398 130.23071289 1.0779980421 58.073036194 0.8250009418 1.0240030289
 1377.9998779 19.000000000 17.656000137 0.0759960935  -999.250000  -999.250000 57.248245239 135.12362671 130.54501343 1.0779999495 58.724727631 0.8309941292 1.0140098333
 1378.1248779 19.000000000 17.662000656 0.0710048825  -999.250000  -999.250000 57.954620361 135.49522400 130.93925476 1.0750030279 59.479522705 0.8329980373 0.9950185418
 1378.2498779 19.000000000 17.669000626 0.0540166013  -999.250000  -999.250000 58.660621643 136.07885742 131.40866089 1.0660088062 60.145698547 0.8300029039 0.9720224738
 1378.3748779 19.000000000 17.673999786 0.0310224611  -999.250000  -999.250000 58.955425262 136.36424255 131.81448364 1.0480175018 60.285728455 0.8260039091 0.9540175796
 1378.4997559 19.000000000 17.673000336 0.0090429680  -999.250000  -999.250000 58.849414825 136.66250610 132.04788208 1.0230488777 59.987171173 0.8200117350 0.9440195560
