# LAS format log file from PETREL
# Project units are specified as depth units
#==================================================================
~Version information
VERS.   2.0:
WRAP.   NO:
#==================================================================
~Well
STRT .m      382.62487793 :
STOP .m      2254.4997559 :
STEP .m     0.00000000 :
NULL .        -999.250000 :
COMP.           : COMPANY
WELL.  31/5-3   : WELL
FLD.            : FIELD
LOC.            : LOCATION
SRVC.           : SERVICE COMPANY
DATE.  2018-09-11 14:48:39   : Log Export Date {yyyy-MM-dd HH:mm:ss}
PROV.           : PROVINCE
UWI.   31/5-3   : UNIQUE WELL ID
API.            : API NUMBER
#==================================================================
~Curve
DEPT .m                   : DEPTH
Lithology_geolink ._      : Lithology_geolink
CALI .in                  : CALI
DRHO .g/cm3               : DRHO
NPHI .m3/m3               : NPHI
RHOB .g/cm3               : RHOB
GR .gAPI                  : GR
DTC .us/ft                : DTC
DTE .us/ft                : DTE
RDEP .ohm.m               : RDEP
SP .mV                    : SP
RSHA .ohm.m               : RSHA
RMED .ohm.m               : RMED
~Parameter
#==================================================================
~Ascii
 382.62487793  -999.250000 17.166000366 0.3210000098  -999.250000  -999.250000 32.346229553 176.60473633 173.51539612 10000.000000 32.217411041  -999.250000 733.63336182
 382.74987793  -999.250000 17.166000366 0.3210000098  -999.250000  -999.250000 32.419906616 176.62918091 173.51539612 10000.000000 31.812494278  -999.250000 747.84063721
 382.87487793  -999.250000 17.166000366 0.3210000098  -999.250000  -999.250000 32.594787598 176.61196899 173.51539612 10000.000000 31.511369705  -999.250000 746.93511963
 382.99984741  -999.250000 17.166000366 0.3210000098  -999.250000  -999.250000 32.652900696 176.61846924 173.51539612 10000.000000 31.365249634  -999.250000 734.14660645
 383.12487793  -999.250000 17.166000366 0.3210000098  -999.250000  -999.250000 32.478214264 176.63279724 173.51539612 10000.000000 31.408945084  -999.250000 716.36572266
 383.24990845  -999.250000 17.166000366 0.3210000098  -999.250000  -999.250000 32.073398590 176.62893677 173.51539612 10000.000000 31.668748856  -999.250000 702.39361572
 383.37487793  -999.250000 17.166000366 0.3210000098  -999.250000  -999.250000 31.603574753 176.60908508 173.51539612 10000.000000 32.149414063  -999.250000 703.35876465
 383.49987793  -999.250000 17.166000366 0.3210000098  -999.250000  -999.250000 31.741830826 176.63243103 173.51539612 9391.1542969 32.447639465  -999.250000 718.79016113
 383.62487793  -999.250000 17.166000366 0.3210000098  -999.250000  -999.250000 32.129528046 176.61643982 173.51539612 6953.2944336 32.613796234  -999.250000 744.68640137
 383.74987793  -999.250000 17.166000366 0.3210000098  -999.250000  -999.250000 32.802181244 176.61611938 173.51539612 4471.6953125 32.459190369  -999.250000 779.56042480
 383.87484741  -999.250000 17.166000366 0.3210000098  -999.250000  -999.250000 33.394985199 176.62504578 173.51539612 4054.7355957 32.088634491  -999.250000 815.67523193
 383.99987793  -999.250000 17.166000366 0.3210000098  -999.250000  -999.250000 33.477901459 176.60540771 173.51539612 4754.4794922 31.691484451  -999.250000 821.42004395
 384.12490845  -999.250000 17.166000366 0.3210000098  -999.250000  -999.250000 33.387088776 176.62985229 173.51539612 4232.6948242 31.316368103  -999.250000 813.19604492
 384.24987793  -999.250000 17.166000366 0.3210000098  -999.250000  -999.250000 33.403980255 176.61129761 173.51539612 2811.5722656 31.027353287  -999.250000 799.10723877
 384.37487793  -999.250000 17.166000366 0.3210000098  -999.250000  -999.250000 33.596763611 176.62216187 173.51539612 1661.8260498 30.981056213  -999.250000 789.35791016
 384.49987793  -999.250000 17.166000366 0.3210000098  -999.250000  -999.250000 33.892639160 176.62559509 173.51539612 1276.8826904 31.119831085  -999.250000 786.62628174
 384.62487793  -999.250000 17.166000366 0.3210000098  -999.250000  -999.250000 34.192634583 176.60841370 173.51539612 1342.3323975 31.364700317  -999.250000 784.94006348
 384.74984741  -999.250000 17.166000366 0.3210000098  -999.250000  -999.250000 34.407634735 176.63279724 173.51539612 1782.9649658 31.631542206  -999.250000 772.30261230
 384.87487793  -999.250000 17.166000366 0.3210000098  -999.250000  -999.250000 34.419982910 176.63279724 173.51539612 2367.5942383 31.726884842  -999.250000 754.24005127
 384.99990845  -999.250000 17.166000366 0.3210000098  -999.250000  -999.250000 34.428993225 176.61364746 173.51539612 2736.0695801 31.564159393  -999.250000 740.38354492
 385.12487793  -999.250000 17.166000366 0.3210000098  -999.250000  -999.250000 34.622764587 176.61679077 173.51539612 2803.0483398 31.218421936  -999.250000 732.45861816
 385.24987793  -999.250000 17.166000366 0.3210000098  -999.250000  -999.250000 35.101417542 176.62594604 173.51539612 2594.8586426 30.661678314  -999.250000 729.28186035
 385.37487793  -999.250000 17.166000366 0.3210000098  -999.250000  -999.250000 35.759033203 176.61109924 173.51539612 2171.8068848 29.979999542  -999.250000 729.20605469
 385.49987793  -999.250000 17.166000366 0.3210000098  -999.250000  -999.250000 35.897830963 176.63093567 173.51539612 1904.3781738 29.621437073  -999.250000 731.53314209
 385.62484741  -999.250000 17.166000366 0.3210000098  -999.250000  -999.250000 35.641437531 176.61064148 173.51539612 1741.4653320 29.319517136  -999.250000 736.88983154
 385.74987793  -999.250000 17.166000366 0.3210000098  -999.250000  -999.250000 34.721126556 176.61979675 173.51539612 1725.8057861 28.944458008  -999.250000 745.65533447
 385.87487793  -999.250000 17.166000366 0.3210000098  -999.250000  -999.250000 33.819103241 176.62135315 173.51539612 1849.9782715 28.675327301  -999.250000 753.45947266
 385.99987793  -999.250000 17.166000366 0.3210000098  -999.250000  -999.250000 33.241706848 176.60908508 173.51539612 2074.3928223 28.533174515  -999.250000 753.73071289
 386.12487793  -999.250000 17.166000366 0.3210000098  -999.250000  -999.250000 32.750598907 176.63293457 173.51539612 2472.0515137 28.398164749  -999.250000 749.41522217
 386.24987793  -999.250000 17.166000366 0.3210000098  -999.250000  -999.250000 32.436462402 176.63752747 173.51539612 3499.1184082 28.143373489  -999.250000 743.79949951
 386.37487793  -999.250000 17.166000366 0.3210000098  -999.250000  -999.250000 32.529884338 176.61486816 173.51539612 5353.3295898 27.868335724  -999.250000 737.71441650
 386.49984741  -999.250000 17.166000366 0.3210000098  -999.250000  -999.250000 32.893379211 176.62016296 173.51539612 7819.2636719 27.638393402  -999.250000 728.74029541
 386.62487793  -999.250000 17.166000366 0.3210000098  -999.250000  -999.250000 33.351440430 176.62759399 173.51539612 9997.3427734 27.490180969  -999.250000 714.05194092
 386.74987793  -999.250000 17.166000366 0.3210000098  -999.250000  -999.250000 33.704570770 176.60673523 173.51539612 10000.000000 27.452045441  -999.250000 691.64031982
 386.87487793  -999.250000 17.166000366 0.3210000098  -999.250000  -999.250000 33.740955353 176.63117981 173.51539612 9890.0839844 27.539894104  -999.250000 669.28228760
 386.99987793  -999.250000 17.166000366 0.3210000098  -999.250000  -999.250000 33.533256531 176.60998535 173.51539612 8930.2001953 27.613910675  -999.250000 659.57586670
 387.12487793  -999.250000 17.166000366 0.3210000098  -999.250000  -999.250000 33.450122833 176.62045288 173.51539612 6440.0297852 27.614997864  -999.250000 655.84368896
 387.24987793  -999.250000 17.166000366 0.3210000098  -999.250000  -999.250000 33.707683563 176.62297058 173.51539612 3623.8452148 27.425231934  -999.250000 652.28533936
 387.37484741  -999.250000 17.166000366 0.3210000098  -999.250000  -999.250000 34.172206879 176.61407471 173.51539612 2408.7126465 27.184412003  -999.250000 644.95452881
 387.49987793  -999.250000 17.166000366 0.3210000098  -999.250000  -999.250000 34.475631714 176.63279724 173.51539612 2567.9257813 27.160028458  -999.250000 633.62585449
 387.62487793  -999.250000 17.166000366 0.3210000098  -999.250000  -999.250000 34.744670868 176.63279724 173.51539612 3679.0373535 27.479608536  -999.250000 621.70153809
 387.74987793  -999.250000 17.166000366 0.3210000098  -999.250000  -999.250000 35.314304352 176.61231995 173.51539612 6652.6230469 29.276803970  -999.250000 613.07348633
 387.87487793  -999.250000 17.166000366 0.3210000098  -999.250000  -999.250000 35.852344513 176.61811829 173.51539612 9203.8476563 31.243598938  -999.250000 610.27239990
 387.99987793  -999.250000 17.166000366 0.3210000098  -999.250000  -999.250000 36.261402130 176.62303162 173.51539612 9870.7724609 33.126243591  -999.250000 612.79357910
 388.12487793  -999.250000 17.166000366 0.3210000098  -999.250000  -999.250000 36.447772980 176.60823059 173.51539612 9283.3750000 34.913818359  -999.250000 616.29974365
 388.24984741  -999.250000 17.166000366 0.3210000098  -999.250000  -999.250000 36.194374084 176.63725281 173.51539612 6136.8056641 36.688400269  -999.250000 620.13037109
 388.37487793  -999.250000 17.166000366 0.3210000098  -999.250000  -999.250000 35.702598572 176.61050415 173.51539612 2981.8032227 37.928489685  -999.250000 626.40930176
 388.49987793  -999.250000 17.166000366 0.3210000098  -999.250000  -999.250000 35.490261078 176.62452698 173.51539612 1449.3353271 38.594188690  -999.250000 635.34008789
