# LAS format log file from PETREL
# Project units are specified as depth units
#==================================================================
~Version information
VERS.   2.0:
WRAP.   NO:
#==================================================================
~Well
STRT .m      164.79321289 :
STOP .m      1907.4873047 :
STEP .m     0.00000000 :
NULL .        -999.250000 :
COMP.           : COMPANY
WELL.  31/5-4 S   : WELL
FLD.            : FIELD
LOC.            : LOCATION
SRVC.           : SERVICE COMPANY
DATE.  2018-09-11 14:48:39   : Log Export Date {yyyy-MM-dd HH:mm:ss}
PROV.           : PROVINCE
UWI.   31/5-4 S   : UNIQUE WELL ID
API.            : API NUMBER
#==================================================================
~Curve
DEPT .m                   : DEPTH
Lithology_geolink ._      : Lithology_geolink
CALI .in                  : CALI
DRHO .g/cm3               : DRHO
NPHI .m3/m3               : NPHI
RHOB .g/cm3               : RHOB
GR .gAPI                  : GR
DTC .us/ft                : DTC
RDEP .ohm.m               : RDEP
SP .mV                    : SP
RSHA .ohm.m               : RSHA
RMED .ohm.m               : RMED
~Parameter
#==================================================================
~Ascii
# ...
 1555.9311523 13.000000000 12.359375000 -0.916472852 0.4897473752 1.9175841808 94.000000000 152.55409241 1.1683707237 9.8508806229 1.4765625000 0.1489194036
 1556.0836182 13.000000000 12.359375000 -0.922946155 0.5048182607 1.9080259800 91.562500000 152.55409241 1.1857542992 10.199519157 5.7226562500 0.1496957242
 1556.2359619 13.000000000 12.367187500 -0.925399005 0.5546182394 1.9036035538 93.187500000 152.55409241 1.2010478973 9.9495191574 2000.0000000 0.1485342681
 1556.3884277 13.000000000 12.367187500 -0.921313345 0.5965551734 1.9378428459 90.750000000 152.55409241 1.1433629990 9.5474376678 8.0234375000 0.1489194036
 1556.5407715 13.000000000 12.367187500 -0.906658649 0.5982704759 1.9651639462 92.000000000 152.55409241 1.1928048134 8.7500000000 0.8876953125 0.1462647021
 1556.6932373 13.000000000 12.359375000 -0.907659709 0.5738636851 1.9555263519 90.000000000 152.55409241 1.2420721054 8.7500000000 2.3828125000 0.1522082388
 1556.8454590 13.000000000 12.359375000 -0.917741954 0.5255241394 1.8956995010 90.500000000 152.55409241 1.2691059113 8.8505611420 4.3906250000 0.1490482390
 1556.9978027 13.000000000 12.367187500 -0.943930328 0.4900005460 1.8421640396 85.437500000 152.55409241 1.3373405933 9.1997594833 13.656250000 0.1489194036
 1557.1502686 13.000000000 12.367187500 -0.992095113 0.4800324440 1.8045258522 81.812500000 152.55409241 1.3963792324 8.8491582870 2.3554687500 0.1512728333
 1557.3026123 13.000000000 12.367187500 -1.013784170 0.5231938362 1.8773314953 77.937500000 152.55409241 1.2270267010 8.3504800797 8.0078125000 0.1489194036
 1557.4550781 13.000000000 12.359375000 -1.006774426 0.5539219379 1.8675551414 81.500000000 152.55409241 1.1770107746 8.6494388580 2.9960937500 0.1500868797
 1557.6074219 13.000000000 12.367187500 -1.032807112 0.5798663497 1.8901312351 82.000000000 152.55409241 1.1509649754 7.9987988472 2.7148437500 0.1511401236
 1557.7598877 13.000000000 12.367187500 -1.030010939 0.5743436813 1.9193463326 82.875000000 152.55409241 1.1734783649 6.8994393349 2.5878906250 0.1498259008
 1557.9122314 13.000000000 12.359375000 -0.996567011 0.5793197155 1.8681375980 82.812500000 152.55409241 1.2796087265 6.7512011528 3.9707031250 0.1519398093
 1558.0646973 13.000000000 12.367187500 -1.003667116 0.5513513088 1.8344688416 83.250000000 152.55409241 1.2664811611 8.1019630432 3.4824218750 0.1463889480
 1558.2170410 13.000000000 12.359375000 -1.005263567 0.5619907379 1.8123244047 83.812500000 152.55409241 1.2158796787 9.6004800797 5.3750000000 0.1499562860
 1558.3695068 13.000000000 12.367187500 -0.989649117 0.5409250855 1.8060185909 79.562500000 152.55409241 1.5171055794 9.9497194290 4.9804687500 0.1506116688
 1558.5217285 13.000000000 12.359375000 -0.982260525 0.5771725178 1.7805399895 81.250000000 152.55409241 1.2996160984 9.6999197006 5.0390625000 0.1487908363
 1558.6740723 13.000000000 12.359375000 -0.981157959 0.5995701551 1.7706475258 80.500000000 152.55409241 1.1445927620 9.8002405167 13.617187500 0.1511401236
 1558.8265381 13.000000000 12.359375000 -0.969036877 0.6335744858 1.7644994259 81.187500000 152.55409241 0.0481115952 10.849760056 2.8535156250 0.1526126862
 1558.9788818 13.000000000 12.359375000 -0.960999846 0.6293708682 1.7605257034 77.062500000 152.55409241 0.0461648032 10.199959755 6.3320312500 0.1496957242
 1559.1313477 13.000000000 12.359375000 -0.958697617 0.5809683204 1.7718172073 75.312500000 152.55409241 0.0538111776 10.000000000 1.0185546875 0.1491772830
 1559.2836914 13.000000000 12.359375000 -0.953800917 0.5443118215 1.7748403549 75.375000000 152.55409241 0.0507711247 10.200160027 1.6582031250 0.1499562860
 1559.4361572 13.000000000 12.367187500 -0.961224794 0.5463933945 1.7662458420 79.125000000 152.55409241 0.0564381778 11.100160599 6.9140625000 0.1534280777
 1559.5885010 13.000000000 12.367187500 -0.976042151 0.5864788294 1.7514898777 78.562500000 152.55409241 0.0517015830 11.500000000 1.4580078125 0.1539765000
 1559.7409668 13.000000000 12.359375000 -0.988061666 0.6143860221 1.7344412804 76.312500000 152.55409241 0.0510674044 12.201121330 1.3046875000 0.1486624479
 1559.8933105 13.000000000 12.359375000 -0.995342433 0.5891137719 1.7049970627 68.750000000 152.55409241 0.0551075414 15.400320053 8.2109375000 0.1499562860
 1560.0457764 13.000000000 12.359375000 -1.006899118 0.5824493170 1.7125222683 71.562500000 152.55409241 0.0604262576 16.399038315 1.6162109375 0.1491772830
 1560.1979980 13.000000000 12.359375000 -1.001908302 0.5679574013 1.7345855236 71.250000000 152.55409241 0.0641654283 12.953362465 1.6875000000 0.1504801512
 1560.3503418 13.000000000 12.359375000 -0.990367353 0.5880392790 1.7549104691 73.250000000 152.55409241 0.0568324476 8.5512819290 8.9843750000 0.1510076523
 1560.5028076 13.000000000 12.359375000 -0.987875044 0.5600042343 1.7511546612 70.125000000 152.55409241 0.0542567745 7.7500000000 1.0986328125 0.1523428261
 1560.6551514 13.000000000 12.359375000 -0.996857882 0.5564879179 1.7621245384 73.750000000 152.55409241 0.0584633201 8.0490388870 1.4072265625 0.1557863653
 1560.8076172 13.000000000 12.359375000 -1.001136065 0.5466406345 1.7620379925 72.687500000 152.55409241 0.0622031689 10.197716713 1.9843750000 0.1481511295
 1560.9599609 13.000000000 12.359375000 -1.007680058 0.5549976230 1.7532646656 74.000000000 152.55409241 0.0622281432 13.152722359 4.2031250000 0.1481511295
 1561.1124268 13.000000000 12.367187500 -1.005485058 0.5762594342 1.7556867599 69.875000000 152.55409241 0.0634726733 9.7500000000 1.4140625000 0.1510076523
 1561.2647705 13.000000000 12.359375000 -0.994547844 0.5461750627 1.7518551350 72.687500000 152.55409241 0.0592887104 9.8496799469 5.7148437500 0.1480238736
 1561.4171143 13.000000000 12.367187500 -0.983547449 0.5334628224 1.7525441647 73.562500000 152.55409241 0.0478464738 10.150641441 4.6171875000 0.1498259008
 1561.5695801 13.000000000 12.367187500 -0.977205455 0.5024563074 1.7701232433 75.312500000 152.55409241 0.0508218259 9.5008010864 2.2578125000 0.1503488123
 1561.7219238 13.000000000 12.367187500 -0.971274316 0.5172081590 1.7799150944 73.500000000 152.55409241 0.0571023375 8.5000000000 2.9277343750 0.1490482390
 1561.8742676 13.000000000 12.367187500 -0.977460682 0.5160275102 1.7939815521 76.000000000 152.55409241 0.0601976365 8.5000000000 2.1894531250 0.1493065357
 1562.0266113 13.000000000 12.367187500 -0.989110410 0.5344696641 1.7837462425 75.000000000 152.55409241 0.0544750392 8.7473955154 2.5625000000 0.1477699578
 1562.1790771 13.000000000 12.367187500 -0.991767526 0.5764808059 1.7718203068 75.687500000 152.55409241 0.0529064462 9.7996397018 1.5234375000 0.1494360268
 1562.3314209 13.000000000 12.359375000 -0.986729205 0.5953295827 1.7592380047 72.375000000 152.55409241 0.0540791750 10.197916985 1.4892578125 0.1496957242
 1562.4838867 13.000000000 12.359375000 -0.982206404 0.6101595759 1.7431557178 72.312500000 152.55409241 0.0587935969 11.149038315 2.6699218750 0.1491772830
 1562.6362305 13.000000000 12.367187500 -0.978259563 0.5670353770 1.7246253490 69.937500000 152.55409241 0.0572344959 11.402522087 4.0117187500 0.1500868797
 1562.7885742 13.000000000 12.367187500 -0.979925036 0.5653179884 1.7092576027 70.937500000 152.55409241 0.0560065433 10.000000000 1.9736328125 0.1496957242
 1562.9410400 13.000000000 12.367187500 -0.985878706 0.5344058871 1.7293710709 72.250000000 152.55409241 0.0667735636 9.8510808945 1.4248046875 0.1498259008
 1563.0933838 13.000000000 12.367187500 -0.982621849 0.5301635861 1.7928073406 76.250000000 152.55409241 0.0588085130 9.3489580154 2.0000000000 0.1494360268
 1563.2458496 13.000000000 12.367187500 -0.963402450 0.5014241338 1.8160607815 76.562500000 152.55409241 0.0481445268 9.8492794037 1.5000000000 0.1487908363
 1563.3981934 13.000000000 12.359375000 -0.945595860 0.4812536240 1.8272051811 78.625000000 152.55409241 0.0556758195 10.200520515 325.25000000 0.1498259008
 1563.5505371 13.000000000 12.367187500 -0.924633920 0.4780495465 1.7241423130 77.687500000 152.55409241 0.0557784960 10.247198105 1.1357421875 0.1487908363
