# LAS format log file from PETREL
# Project units are specified as depth units
#==================================================================
~Version information
VERS.   2.0:
WRAP.   NO:
#==================================================================
~Well
STRT .m      164.79321289 :
STOP .m      1907.4873047 :
STEP .m     0.00000000 :
NULL .        -999.250000 :
COMP.           : COMPANY
WELL.  31/5-4 S   : WELL
FLD.            : FIELD
LOC.            : LOCATION
SRVC.           : SERVICE COMPANY
DATE.  2018-09-11 14:48:39   : Log Export Date {yyyy-MM-dd HH:mm:ss}
PROV.           : PROVINCE
UWI.   31/5-4 S   : UNIQUE WELL ID
API.            : API NUMBER
#==================================================================
~Curve
DEPT .m                   : DEPTH
Lithology_geolink ._      : Lithology_geolink
CALI .in                  : CALI
DRHO .g/cm3               : DRHO
NPHI .m3/m3               : NPHI
RHOB .g/cm3               : RHOB
GR .gAPI                  : GR
DTC .us/ft                : DTC
RDEP .ohm.m               : RDEP
SP .mV                    : SP
RSHA .ohm.m               : RSHA
RMED .ohm.m               : RMED
~Parameter
#==================================================================
~Ascii
# ...
 1827.9415283 2.0000000000 8.6718750000 -0.006089752 0.2885349989 2.2283186913 73.625000000 98.325027466 1.0119152069 72.119194031 0.5551757813 0.9466917515
 1828.0938721 2.0000000000 8.6718750000 -0.007611859 0.2901020050 2.3267574310 74.812500000 98.109519958 1.1031925678 71.994293213 0.6005859375 1.0796546936
 1828.2460938 2.0000000000 8.6718750000 -0.001280144 0.2415927798 2.4654817581 75.125000000 98.283630371 1.1988804340 71.903022766 0.6674804688 1.1711308956
 1828.3985596 2.0000000000 8.6796875000 0.0075639421 0.1796742380 2.5704755783 72.125000000 96.976654053 1.3104054928 72.494392395 1.2421875000 1.2944614887
 1828.5509033 2.0000000000 8.6796875000 0.0089182546 0.1347852796 2.6437854767 66.625000000 93.589843750 1.5805261135 72.447860718 11.812500000 1.5365340710
 1828.7033691 16.000000000 8.6718750000 0.0091995196 0.1346111745 2.6480326653 67.562500000 90.183715820 1.9781744480 73.977561951 21.656250000 2.0115146637
 1828.8557129 16.000000000 8.6718750000 0.0069766827 0.1470784247 2.5697555542 67.875000000 87.275848389 2.9467773438 73.471977234 23.625000000 2.8357620239
 1829.0081787 16.000000000 8.6953125000 0.0040377900 0.1862060428 2.4465436935 71.750000000 86.941253662 4.8344507217 72.869392395 62.781250000 4.3265352249
 1829.1605225 2.0000000000 8.7031250000 -0.003733414 0.2158694267 2.3071041107 71.000000000 87.138946533 5.5555009842 72.733184814 5.7617187500 4.7696971893
 1829.3129883 2.0000000000 8.7031250000 -0.010908968 0.2528210878 2.2222733498 74.687500000 87.668655396 2.5825405121 72.358169556 0.7031250000 2.1538023949
 1829.4653320 2.0000000000 8.7031250000 -0.015163462 0.2856603861 2.1795601845 76.375000000 86.654449463 1.8318591118 71.949562073 0.5747070313 1.5788159370
 1829.6177979 2.0000000000 8.6953125000 -0.014525380 0.3086797595 2.1706447601 85.375000000 83.713935852 1.2505016327 70.785255432 0.5375976563 1.1264045238
 1829.7701416 2.0000000000 8.6796875000 -0.017127404 0.3227875829 2.1727700233 88.250000000 78.602096558 1.1418712139 68.925483704 0.5439453125 0.9713628292
 1829.9223633 2.0000000000 8.6718750000 -0.017569976 0.3388309479 2.1764621735 91.937500000 73.417167664 1.0980358124 70.077064514 0.5629882813 0.9375349283
 1830.0748291 2.0000000000 8.6718750000 -0.014580128 0.3773224354 2.1828875542 92.000000000 71.517974854 1.1069505215 71.832633972 0.5605468750 0.8928395510
 1830.2271729 2.0000000000 8.6718750000 -0.009805844 0.3980938792 2.1837511063 97.062500000 69.310432434 1.0772910118 73.608489990 0.6171875000 0.8952711821
 1830.3796387 6.0000000000 8.6718750000 -0.007764102 0.3867271245 2.1824955940 100.50000000 66.666847229 1.0509097576 73.216949463 0.5410156250 0.9142853022
 1830.5319824 6.0000000000 8.6718750000 -0.006986550 0.3622689545 2.1808390617 103.06250000 64.498558044 1.1410596371 72.511009216 0.5400390625 0.9289604425
 1830.6844482 6.0000000000 8.6718750000 -0.006780769 0.3477911651 2.1760621071 104.31250000 63.046188354 1.1413366795 72.733474731 0.5615234375 0.9429322481
 1830.8367920 6.0000000000 8.6718750000 -0.008486539 0.3400944471 2.1716158390 106.25000000 63.765224457 1.1607444286 72.363990784 0.5942382813 0.9414751530
 1830.9892578 6.0000000000 8.6718750000 -0.008231945 0.3358194530 2.1692728996 105.75000000 65.555305481 1.1420052052 72.102966309 0.5883789063 0.9279062748
 1831.1416016 6.0000000000 8.6718750000 -0.008944872 0.3396334350 2.1702489853 102.68750000 69.380645752 1.1139171124 71.625000000 0.5434570313 0.8962525129
 1831.2939453 6.0000000000 8.6718750000 -0.010007606 0.3573296964 2.1858520508 99.500000000 73.289123535 1.1669704914 71.641227722 0.5219726563 0.8661400080
 1831.4464111 6.0000000000 8.6718750000 -0.012304487 0.3655513227 2.1950154305 98.687500000 77.541252136 1.1152441502 71.939453125 0.5297851563 0.8678944111
 1831.5986328 6.0000000000 8.6718750000 -0.012540913 0.3765481412 2.1976661682 96.500000000 83.217964172 1.1262588501 70.630310059 0.5371093750 0.8553402424
 1831.7510986 6.0000000000 8.6718750000 -0.015736619 0.3666530550 2.1812729836 96.750000000 89.772758484 1.1590540409 70.744590759 0.7255859375 0.8398599625
 1831.9034424 6.0000000000 8.6718750000 -0.018704403 0.3591830432 2.1716458797 95.375000000 97.622612000 1.1394402981 70.641212463 0.5864257813 0.8256638050
 1832.0559082 6.0000000000 8.6718750000 -0.018469471 0.3501589298 2.1786279678 97.562500000 102.96172333 1.1628708839 71.016227722 0.5385742188 0.8369574547
 1832.2082520 6.0000000000 8.6718750000 -0.011291193 0.3530740738 2.1858558655 98.625000000 104.79190826 1.1622886658 71.342575073 0.5849609375 0.8261997700
 1832.3607178 6.0000000000 8.6718750000 -0.010936939 0.3524447680 2.1986293793 99.687500000 105.37316895 1.1669704914 70.630409241 0.5771484375 0.8222335577
 1832.5130615 6.0000000000 8.6718750000 -0.007404403 0.3547277749 2.2039766312 103.06250000 105.47867584 1.1976747513 70.722976685 0.5703125000 0.8282595873
 1832.6654053 6.0000000000 8.6718750000 -0.007512981 0.3643617928 2.2035241127 103.56250000 106.10578156 1.2323925495 70.172775269 0.6391601563 0.8185847998
 1832.8178711 6.0000000000 8.6718750000 -0.007888141 0.3746524751 2.2028217316 104.75000000 107.34399414 1.1375172138 71.325660706 0.6313476563 0.7998148203
 1832.9702148 6.0000000000 8.6718750000 -0.009716333 0.3785134256 2.2069444656 102.87500000 109.39488220 1.2447605133 72.984077454 0.5976562500 0.8097386360
 1833.1226807 6.0000000000 8.6718750000 -0.007992548 0.3620878458 2.2107405663 102.50000000 110.35379028 1.2488930225 72.597976685 0.6079101563 0.8142215014
 1833.2749023 6.0000000000 8.6718750000 -0.009952442 0.3575604558 2.2163209915 105.81250000 110.60511017 1.2511327267 71.921875000 0.5957031250 0.8324705362
 1833.4273682 6.0000000000 8.6718750000 -0.008843750 0.3518838882 2.2168431282 105.00000000 110.56939697 1.2807376385 70.109085083 0.6215820313 0.8607649803
 1833.5797119 6.0000000000 8.6718750000 -0.007552442 0.3596416116 2.2219543457 102.50000000 110.51393890 1.3697664738 69.802085876 0.6269531250 0.8809400797
 1833.7320557 6.0000000000 8.6718750000 -0.006491506 0.3577118814 2.2283730507 100.75000000 110.43274689 1.3945600986 71.020835876 0.6289062500 0.9034528732
 1833.8845215 6.0000000000 8.6718750000 -0.006204884 0.3592776656 2.2389431000 102.18750000 110.06585693 1.3561730385 71.510604858 0.6928710938 0.9121744633
 1834.0368652 6.0000000000 8.6718750000 -0.004040545 0.3703447580 2.2480101585 103.93750000 109.47023010 1.4125869274 71.718750000 0.6806640625 0.9187000990
 1834.1893311 6.0000000000 8.6718750000 -0.002773499 0.3769577146 2.2516155243 103.43750000 108.84210968 1.4416410923 71.005302429 0.6718750000 0.9238605499
 1834.3416748 6.0000000000 8.6718750000 -0.004438221 0.3629379570 2.2494454384 106.75000000 108.38942719 1.4115216732 71.171875000 0.7778320313 0.9555749893
 1834.4941406 6.0000000000 8.6718750000 -0.005386469 0.3445795476 2.2332148552 106.50000000 108.43583679 1.3642213345 72.297737122 0.8349609375 0.9714012146
 1834.6464844 6.0000000000 8.6718750000 -0.007359455 0.3386535943 2.2218847275 108.93750000 108.40148926 1.4899544716 73.427085876 0.7192382813 1.0358343124
 1834.7989502 6.0000000000 8.6718750000 -0.008656765 0.3416316509 2.2286686897 104.18750000 108.19714355 1.4190003872 74.577262878 0.6835937500 1.0380754471
 1834.9511719 6.0000000000 8.6718750000 -0.007616667 0.3338446021 2.2454590797 101.50000000 107.51235962 1.4126024246 73.469352722 0.8012695313 1.0209600925
 1835.1035156 6.0000000000 8.6718750000 -0.005658333 0.3328588605 2.2568192482 97.562500000 106.80948639 1.3553504944 72.668334961 0.8120117188 1.0178291798
 1835.2559814 6.0000000000 8.6718750000 -0.004687270 0.3401042819 2.2562599182 99.812500000 106.56976318 1.3920385838 70.724456787 0.8466796875 1.0365848541
 1835.4083252 6.0000000000 8.6718750000 -0.004412500 0.3537540734 2.2525568008 103.00000000 106.25748444 1.2943079472 70.170936584 0.7983398438 0.9991524220
 1835.5607910 7.0000000000 8.6718750000 -0.004780625 0.3555772901 2.2403192520 108.68750000 105.86131287 1.2802748680 71.260215759 0.7846679688 1.0132281780
