# LAS format log file from PETREL
# Project units are specified as depth units
#==================================================================
~Version information
VERS.   2.0:
WRAP.   NO:
#==================================================================
~Well
STRT .m      382.62487793 :
STOP .m      2254.4997559 :
STEP .m     0.00000000 :
NULL .        -999.250000 :
COMP.           : COMPANY
WELL.  31/5-3   : WELL
FLD.            : FIELD
LOC.            : LOCATION
SRVC.           : SERVICE COMPANY
DATE.  2018-09-11 14:48:39   : Log Export Date {yyyy-MM-dd HH:mm:ss}
PROV.           : PROVINCE
UWI.   31/5-3   : UNIQUE WELL ID
API.            : API NUMBER
#==================================================================
~Curve
DEPT .m                   : DEPTH
Lithology_geolink ._      : Lithology_geolink
CALI .in                  : CALI
DRHO .g/cm3               : DRHO
NPHI .m3/m3               : NPHI
RHOB .g/cm3               : RHOB
GR .gAPI                  : GR
DTC .us/ft                : DTC
DTE .us/ft                : DTE
RDEP .ohm.m               : RDEP
SP .mV                    : SP
RSHA .ohm.m               : RSHA
RMED .ohm.m               : RMED
~Parameter
#==================================================================
~Ascii
# ...
 1126.6248779  -999.250000 17.822999954 0.1229980513  -999.250000  -999.250000 75.045333862 135.34317017 132.25233459 1.1780419350 55.515419006 0.9070156217 1.0890634060
 1126.7498779  -999.250000 17.832000732 0.1120107472  -999.250000  -999.250000 76.069000244 140.90089417 137.78225708 1.1300468445 55.695648193 0.8900166154 1.0450428724
 1126.8748779  -999.250000 17.837999344 0.0920195282  -999.250000  -999.250000 77.514175415 146.29821777 143.17175293 1.0790498257 55.607173920 0.8750146627 1.0210235119
 1126.9997559  -999.250000 17.840999603 0.0780273452  -999.250000  -999.250000 79.081405640 150.79777527 147.68789673 1.0261034966 55.322834015 0.8610273600 1.0110195875
 1127.1248779  -999.250000 17.843000412 0.0700078160  -999.250000  -999.250000 80.484260559 153.97091675 150.86950684 0.9760488272 54.984661102 0.8470136523 1.0080029964
 1127.2498779  -999.250000 17.843000412 0.0690009743  -999.250000  -999.250000 81.454109192 155.64355469 152.49806213 0.9340410233 54.744468689 0.8340126872 1.0050029755
 1127.3748779  -999.250000 17.843000412 0.0729960948  -999.250000  -999.250000 81.579757690 155.94155884 152.84574890 0.9100234509 54.639205933 0.8250087500 1.0020029545
 1127.4997559  -999.250000 17.843000412 0.0799863264  -999.250000  -999.250000 80.967803955 155.73851013 152.67555237 0.8980234265 54.518356323 0.8210077882 1.0010019541
 1127.6247559  -999.250000 17.843999863 0.0859882832  -999.250000  -999.250000 79.990867615 155.38261414 152.26235962 0.8970019817 54.431255341 0.8200019598 1.0019980669
 1127.7498779  -999.250000 17.847999573 0.0879980475  -999.250000  -999.250000 79.073783875 154.87294006 151.69877625 0.9039931297 54.450962067 0.8229970932 1.0049970150
 1127.8748779  -999.250000 17.854000092 0.0850029290  -999.250000  -999.250000 78.589942932 154.17062378 151.02433777 0.9139901996 54.596714020 0.8289941549 1.0089960098
 1127.9998779  -999.250000 17.861999512 0.0800048783  -999.250000  -999.250000 78.733718872 153.39082336 150.26199341 0.9279863238 54.806587219 0.8349941373 1.0119969845
 1128.1247559  -999.250000 17.870000839 0.0750097707  -999.250000  -999.250000 79.331245422 152.60659790 149.50796509 0.9449667931 54.821952820 0.8409882784 1.0159921646
 1128.2498779  -999.250000 17.875000000 0.0720029250  -999.250000  -999.250000 80.025642395 151.96966553 148.85343933 0.9679775238 54.679279327 0.8479931355 1.0209951401
 1128.3748779  -999.250000 17.877000809 0.0700019524  -999.250000  -999.250000 80.721641541 151.43341064 148.31999207 0.9949736595 54.626102448 0.8539941311 1.0279932022
 1128.4998779  -999.250000 17.877000809 0.0680019557  -999.250000  -999.250000 81.384704590 150.97288513 147.89074707 1.0219736099 54.815631866 0.8599941730 1.0349931717
 1128.6248779  -999.250000 17.878000259 0.0660019517  -999.250000  -999.250000 82.031730652 150.57530212 147.51210022 1.0489736795 55.296062469 0.8669931293 1.0399950743
 1128.7497559  -999.250000 17.878000259 0.0650019497  -999.250000  -999.250000 82.706024170 150.08657837 147.02680969 1.0739511251 55.910198212 0.8729882836 1.0439921618
 1128.8748779  -999.250000 17.877000809 0.0649999976  -999.250000  -999.250000 83.451545715 149.42630005 146.27888489 1.0989755392 56.351142883 0.8799931407 1.0509932041
 1128.9998779  -999.250000 17.868999481 0.0630019531  -999.250000  -999.250000 84.368209839 148.42395020 145.29258728 1.1209785938 56.631454468 0.8859941363 1.0619893074
 1129.1248779  -999.250000 17.854000092 0.0610019527  -999.250000  -999.250000 85.486816406 147.20822144 144.11921692 1.1379834414 56.826618195 0.8939921856 1.0759862661
 1129.2497559  -999.250000 17.833000183 0.0639941469  -999.250000  -999.250000 86.756278992 145.95761108 142.87031555 1.1489785910 56.992515564 0.9009863734 1.0909706354
 1129.3747559  -999.250000 17.809999466 0.0729824230  -999.250000  -999.250000 88.047218323 144.78178406 141.72875977 1.1529921293 57.142562866 0.9089843631 1.1019785404
 1129.4998779  -999.250000 17.788999557 0.0859873071  -999.250000  -999.250000 89.447265625 144.19097900 141.12957764 1.1549980640 57.194896698 0.9159931540 1.1069951057
 1129.6248779  -999.250000 17.773000717 0.0999863297  -999.250000  -999.250000 91.077812195 144.13348389 141.07008362 1.1569980383 57.244899750 0.9239922166 1.1060009003
 1129.7498779  -999.250000 17.766000748 0.1119882837  -999.250000  -999.250000 92.610008240 144.60990906 141.51072693 1.1599969864 57.353786469 0.9319921732 1.1010048389
 1129.8747559  -999.250000 17.763000488 0.1199843735  -999.250000  -999.250000 93.524322510 145.48918152 142.35264587 1.1659883261 57.564380646 0.9469707012 1.0920175314
 1129.9997559  -999.250000 17.764999390 0.1239921823  -999.250000  -999.250000 93.321601868 146.56416321 143.43601990 1.1739844084 57.885059357 0.9629687667 1.0830174685
 1130.1248779  -999.250000 17.767999649 0.1230009794  -999.250000  -999.250000 91.792991638 147.64225769 144.45329285 1.1799941063 58.274242401 0.9779853225 1.0790039301
 1130.2498779  -999.250000 17.770999908 0.1160068363  -999.250000  -999.250000 89.696098328 148.10528564 145.00801086 1.1790009737 58.739093781 0.9909873009 1.0809980631
 1130.3748779  -999.250000 17.774000168 0.1050107405  -999.250000  -999.250000 87.888534546 148.16566467 145.11430359 1.1740049124 59.223052979 0.9949960709 1.0879932642
 1130.4997559  -999.250000 17.777000427 0.0990117192  -999.250000  -999.250000 86.376434326 147.88908386 144.82601929 1.1680116653 59.669692993 0.9770351648 1.0959843397
 1130.6248779  -999.250000 17.778999329 0.1009980515  -999.250000  -999.250000 84.896881104 147.35208130 144.25088501 1.1630048752 59.978397369 0.9010742307 1.1009950638
 1130.7498779  -999.250000 17.777999878 0.1059951186  -999.250000  -999.250000 83.060585022 146.67074585 143.55242920 1.1639990807 60.004951477 0.8630371094 1.1009999514
 1130.8748779  -999.250000 17.774999619 0.1069990247  -999.250000  -999.250000 81.029968262 146.18295288 143.11706543 1.1669970751 59.427127838 0.8510117531 1.0970039368
 1130.9997559  -999.250000 17.767000198 0.0990156233  -999.250000  -999.250000 79.765701294 146.08529663 142.96179199 1.1689960957 58.480777740 0.8450117707 1.0930079222
 1131.1247559  -999.250000 17.759000778 0.0840292946  -999.250000  -999.250000 79.540649414 146.14193726 143.01736450 1.1660058498 57.465976715 0.8390117288 1.0870116949
 1131.2498779  -999.250000 17.754999161 0.0780058578  -999.250000  -999.250000 80.340438843 146.38067627 143.24234009 1.1580078602 56.610668182 0.8310077786 1.0780087709
 1131.3748779  -999.250000 17.756000519 0.0829951167  -999.250000  -999.250000 81.971809387 146.85479736 143.61128235 1.1490088701 56.084026337 0.8220087886 1.0650126934
 1131.4998779  -999.250000 17.760000229 0.0949882790  -999.250000  -999.250000 84.161720276 147.24749756 144.13722229 1.1410079002 55.945270538 0.8170048594 1.0530116558
 1131.6247559  -999.250000 17.764999390 0.1069765612  -999.250000  -999.250000 86.344596863 147.90829468 144.79158020 1.1340136528 55.903121948 0.8179980516 1.0450155735
 1131.7497559  -999.250000 17.766000748 0.1109921858  -999.250000  -999.250000 87.714996338 148.52455139 145.41784668 1.1240195036 55.793319702 0.8259843588 1.0390117168
 1131.8748779  -999.250000 17.763999939 0.1020087898  -999.250000  -999.250000 87.428565979 149.01783752 145.92926025 1.1090146303 55.626327515 0.8329931498 1.0310078859
 1131.9998779  -999.250000 17.760000229 0.0880136713  -999.250000  -999.250000 85.183395386 149.35734558 146.28468323 1.0890195370 55.438365936 0.8379951119 1.0190117359
 1132.1248779  -999.250000 17.757999420 0.0750126988  -999.250000  -999.250000 81.345497131 149.55706787 146.50320435 1.0690195560 55.284301758 0.8399980068 1.0020165443
 1132.2497559  -999.250000 17.757999420 0.0650195256  -999.250000  -999.250000 77.408546448 149.85037231 146.77330017 1.0530312061 55.267047882 0.8419960737 0.9870293140
 1132.3748779  -999.250000 17.760000229 0.0610039085  -999.250000  -999.250000 75.300102234 150.30577087 147.18887329 1.0430097580 55.400737762 0.8429990411 0.9760107398
 1132.4998779  -999.250000 17.760000229 0.0610000007  -999.250000  -999.250000 75.021537781 150.85525513 147.67634583 1.0370057821 55.633544922 0.8449980617 0.9720039368
