# LAS format log file from PETREL
# Project units are specified as depth units
#==================================================================
~Version information
VERS.   2.0:
WRAP.   NO:
#==================================================================
~Well
STRT .m      815.00012207 :
STOP .m      2497.5000000 :
STEP .m     0.00000000 :
NULL .        -999.250000 :
COMP.           : COMPANY
WELL.  31/5-2R   : WELL
FLD.            : FIELD
LOC.            : LOCATION
SRVC.           : SERVICE COMPANY
DATE.  2018-09-11 14:48:39   : Log Export Date {yyyy-MM-dd HH:mm:ss}
PROV.           : PROVINCE
UWI.   31/5-2 R   : UNIQUE WELL ID
API.            : API NUMBER
#==================================================================
~Curve
DEPT .m                   : DEPTH
Lithology_geolink ._      : Lithology_geolink
CALI .in                  : CALI
DRHO .g/cm3               : DRHO
NPHI .m3/m3               : NPHI
RHOB .g/cm3               : RHOB
GR .gAPI                  : GR
DTC .us/ft                : DTC
DTE .us/ft                : DTE
RDEP .ohm.m               : RDEP
SP .mV                    : SP
RSHA .ohm.m               : RSHA
RMED .ohm.m               : RMED
~Parameter
#==================================================================
~Ascii
# ...
 2488.9997559  -999.250000 8.2510004044 0.1640214920 0.3000499904 2.4820001125 66.214996338  -999.250000  -999.250000 1.9400664568 3.9600818157 2.3260176182 2.3260176182
 2489.1247559  -999.250000 8.2620000839 0.1510253847 0.2974599898 2.4709999561 66.214996338  -999.250000  -999.250000 1.9040703773 3.9520156384 2.3230059147 2.3230059147
 2489.2497559  -999.250000 8.2709999084 0.1370273381 0.2947500050 2.4579999447 66.214996338  -999.250000  -999.250000 1.8710645437 3.9629786015 2.3180098534 2.3180098534
 2489.3747559  -999.250000 8.2749996185 0.1270195395 0.2923800051 2.4489998817 66.214996338  -999.250000  -999.250000 1.8460488319 3.9859552383 2.3080196381 2.3080196381
 2489.4997559  -999.250000 8.2760000229 0.1180175766 0.2932900190 2.4430000782 66.214996338  -999.250000  -999.250000 1.8300312757 4.0179376602 2.2930293083 2.2930293083
 2489.6247559  -999.250000 8.2799997330 0.1110136732 0.2964900136 2.4449999332 66.214996338  -999.250000  -999.250000 1.8210175037 4.0639104843 2.2760331631 2.2760331631
 2489.7497559  -999.250000 8.2910003662 0.1040136740 0.3020600080 2.4500000477 66.214996338  -999.250000  -999.250000 1.8180058002 4.1288733482 2.2650215626 2.2650215626
 2489.8747559  -999.250000 8.3030004501 0.0990097672 0.3096199930 2.4560000896 66.214996338  -999.250000  -999.250000 1.8150058985 4.2118377686 2.2659981251 2.2659981251
 2489.9997559  -999.250000 8.3140001297 0.0950078145 0.3173199892 2.4619998932 66.214996338  -999.250000  -999.250000 1.8080136776 4.2978320122 2.2859609127 2.2859609127
 2490.1247559  -999.250000 8.3090000153 0.0910078138 0.3227600157 2.4639999866 66.214996338  -999.250000  -999.250000 1.7980195284 4.3648691177 2.3209316730 2.3209316730
 2490.2497559  -999.250000 8.2919998169 0.0929960981 0.3247399926 2.4670000076 66.214996338  -999.250000  -999.250000 1.7840273380 4.3889532089 2.3609218597 2.3609218597
 2490.3747559  -999.250000 8.2849998474 0.1019824222 0.3217300177 2.4709999561 66.214996338  -999.250000  -999.250000 1.7730214596 4.3690390587 2.3859510422 2.3859510422
 2490.4997559  -999.250000 8.3000001907 0.1149746105 0.3123800159 2.4790000916 66.214996338  -999.250000  -999.250000 1.7670116425 4.3260841370 2.3820078373 2.3820078373
 2490.6247559  -999.250000 8.3170003891 0.1289726496 0.3015199900 2.4890000820 66.214996338  -999.250000  -999.250000 1.7709921598 4.2820858955 2.3410801888 2.3410801888
 2490.7497559  -999.250000 8.3260002136 0.1379824132 0.2933999896 2.4960000515 66.214996338  -999.250000  -999.250000 1.7829765081 4.2540550232 2.2811172009 2.2811172009
 2490.8747559  -999.250000 8.3299999237 0.1340078115 0.2910499871 2.4930000305 66.214996338  -999.250000  -999.250000 1.7989687920 4.2420234680 2.2171249390 2.2171249390
 2490.9997559  -999.250000 8.3339996338 0.1190292984 0.2938100100 2.4849998951 66.214996338  -999.250000  -999.250000 1.8149688244 4.2320194244 2.1680955887 2.1680955887
 2491.1247559  -999.250000 8.3389997482 0.1010351628 0.2976499796 2.4760000706 66.214996338  -999.250000  -999.250000 1.8309687376 4.2140355110 2.1400547028 2.1400547028
 2491.2497559  -999.250000 8.3430004120 0.0850312486 0.3023400009 2.4709999561 66.214996338  -999.250000  -999.250000 1.8459706306 4.1840586662 2.1459882259 2.1459882259
 2491.3747559  -999.250000 8.3450002670 0.0700292960 0.3086499870 2.4709999561 66.214996338  -999.250000  -999.250000 1.8629667759 4.1490683556 2.1849238873 2.1849238873
 2491.4997559  -999.250000 8.3450002670 0.0590214841 0.3141500056 2.4749999046 66.214996338  -999.250000  -999.250000 1.8799667358 4.1150660515 2.2458808422 2.2458808422
 2491.6247559  -999.250000 8.3450002670 0.0520136729 0.3183299899 2.4749999046 66.214996338  -999.250000  -999.250000 1.8979648352 4.0880527496 2.3198554516 2.3198554516
 2491.7497559  -999.250000 8.3400001526 0.0490058586 0.3196699917 2.4719998837 66.214996338  -999.250000  -999.250000 1.9179608822 4.0670409203 2.3878672123 2.3878672123
 2491.8747559  -999.250000 8.3350000381 0.0460058600 0.3190000057 2.4660000801 66.214996338  -999.250000  -999.250000 1.9389590025 4.0580177307 2.4438905716 2.4438905716
 2491.9997559  -999.250000 8.3299999237 0.0440039076 0.3184500039 2.4560000896 66.214996338  -999.250000  -999.250000 1.9579628706 4.0689783096 2.4899101257 2.4899101257
 2492.1247559  -999.250000 8.3229999542 0.0420039073 0.3192799985 2.4489998817 66.214996338  -999.250000  -999.250000 1.9709745646 4.1019358635 2.5289239883 2.5289239883
 2492.2497559  -999.250000 8.3140001297 0.0410019532 0.3201699853 2.4430000782 66.214996338  -999.250000  -999.250000 1.9700019360 4.1578907967 2.5489609241 2.5489609241
 2492.3747559  -999.250000 8.3059997559 0.0390039086 0.3188500106 2.4379999638 66.214996338  -999.250000  -999.250000 1.9590214491 4.2268652916 2.5450079441 2.5450079441
 2492.4997559  -999.250000 8.3000001907 0.0399980471 0.3157399893 2.4370000362 66.214996338  -999.250000  -999.250000 1.9410351515 4.3048477173 2.5180525780 2.5180525780
 2492.6247559  -999.250000 8.2939996719 0.0429941416 0.3119100034 2.4379999638 66.214996338  -999.250000  -999.250000 1.9230351448 4.3998146057 2.4780781269 2.4780781269
 2492.7497559  -999.250000 8.2899999619 0.0489882790 0.3075700104 2.4419999123 66.214996338  -999.250000  -999.250000 1.9090273380 4.5157732964 2.4370801449 2.4370801449
 2492.8747559  -999.250000 8.2899999619 0.0579824187 0.3031800091 2.4519999027 66.214996338  -999.250000  -999.250000 1.9000174999 4.6597185135 2.3920879364 2.3920879364
 2492.9997559  -999.250000 8.2899999619 0.0689785108 0.2987299860 2.4649999142 66.214996338  -999.250000  -999.250000 1.8940117359 4.8186893463 2.3321173191 2.3321173191
 2493.1247559  -999.250000 8.2910003662 0.0779824257 0.2952599823 2.4769999981 66.214996338  -999.250000  -999.250000 1.8890098333 4.9736971855 2.2561485767 2.2561485767
 2493.2497559  -999.250000 8.2910003662 0.0799960941 0.2948699892 2.4830000401 66.214996338  -999.250000  -999.250000 1.8860058784 5.1047439575 2.1731622219 2.1731622219
 2493.3747559  -999.250000 8.2919998169 0.0760078132 0.2981899977 2.4809999466 66.214996338  -999.250000  -999.250000 1.8820078373 5.1998143196 2.0991444588 2.0991444588
 2493.4997559  -999.250000 8.2919998169 0.0730058551 0.3035300076 2.4760000706 66.214996338  -999.250000  -999.250000 1.8780078888 5.2518982887 2.0530898571 2.0530898571
 2493.6247559  -999.250000 8.2930002213 0.0720019490 0.3118300140 2.4709999561 66.214996338  -999.250000  -999.250000 1.8730098009 5.2679686546 2.0410232544 2.0410232544
 2493.7497559  -999.250000 8.2930002213 0.0729980469 0.3200199902 2.4709999561 66.214996338  -999.250000  -999.250000 1.8700058460 5.2590174675 2.0539746284 2.0539746284
 2493.8747559  -999.250000 8.2939996719 0.0739980489 0.3231800199 2.4719998837 66.214996338  -999.250000  -999.250000 1.8680039644 5.2420334816 2.0649785995 2.0649785995
 2493.9997559  -999.250000 8.2939996719 0.0730019510 0.3227100074 2.4700000286 66.214996338  -999.250000  -999.250000 1.8680000305 5.2250332832 2.0630037785 2.0630037785
 2494.1247559  -999.250000 8.2939996719 0.0690078139 0.3200100064 2.4639999866 66.214996338  -999.250000  -999.250000 1.8689980507 5.2090315819 2.0570116043 2.0570116043
 2494.2497559  -999.250000 8.2950000763 0.0620136708 0.3182600141 2.4560000896 66.214996338  -999.250000  -999.250000 1.8719941378 5.1880412102 2.0689766407 2.0689766407
 2494.3747559  -999.250000 8.2950000763 0.0560117215 0.3179599941 2.4479999542 66.214996338  -999.250000  -999.250000 1.8749941587 5.1580586433 2.1139121056 2.1139121056
 2494.4997559  -999.250000 8.2959995270 0.0490136705 0.3179399967 2.4419999123 66.214996338  -999.250000  -999.250000 1.8759981394 5.1250643730 2.1678946018 2.1678946018
 2494.6247559  -999.250000 8.2959995270 0.0440097637 0.3179199994 2.4379999638 66.214996338  -999.250000  -999.250000 1.8769980669 5.0980529785 2.1779804230 2.1779804230
 2494.7497559  -999.250000 8.2969999313 0.0420039073 0.3179000020 2.4360001087 66.214996338  -999.250000  -999.250000 1.8760019541 5.0840272903 2.0901718140 2.0901718140
 2494.8747559  -999.250000 8.2969999313 0.0429980494 0.3178700209 2.4349999428 66.214996338  -999.250000  -999.250000 1.8750019073 5.0849981308 1.9402930737 1.9402930737
