# LAS format log file from PETREL
# Project units are specified as depth units
#==================================================================
~Version information
VERS.   2.0:
WRAP.   NO:
#==================================================================
~Well
STRT .m      405.00000000 :
STOP .m      1938.8748779 :
STEP .m     0.00000000 :
NULL .        -999.250000 :
COMP.           : COMPANY
WELL.  31/5-5 R   : WELL
FLD.            : FIELD
LOC.            : LOCATION
SRVC.           : SERVICE COMPANY
DATE.  2018-09-11 14:48:39   : Log Export Date {yyyy-MM-dd HH:mm:ss}
PROV.           : PROVINCE
UWI.   31/5-5 R   : UNIQUE WELL ID
API.            : API NUMBER
#==================================================================
~Curve
DEPT .m                   : DEPTH
Lithology_geolink ._      : Lithology_geolink
CALI .in                  : CALI
DRHO .g/cm3               : DRHO
NPHI .m3/m3               : NPHI
RHOB .g/cm3               : RHOB
GR .gAPI                  : GR
DTC .us/ft                : DTC
RDEP .ohm.m               : RDEP
SP .mV                    : SP
RSHA .ohm.m               : RSHA
~Parameter
#==================================================================
~Ascii
# ...
 1035.0000000  -999.250000 13.118800163 0.0148668289  -999.250000 2.0955295563 82.338401794 145.30493164 1.5780315399  -999.250000  -999.250000
 1035.1250000  -999.250000 13.115499496 0.0159182958  -999.250000 2.0893392563 83.809196472 144.61209106 1.5676419735  -999.250000  -999.250000
 1035.2500000  -999.250000 13.111800194 0.0158400536  -999.250000 2.0844721794 85.006896973 143.92027283 1.5572581291  -999.250000  -999.250000
 1035.3750000  -999.250000 13.108799934 0.0152670555  -999.250000 2.0816798210 86.182601929 143.22865295 1.5499246120  -999.250000  -999.250000
 1035.5000000  -999.250000 13.110600471 0.0147485733  -999.250000 2.0806074142 87.331001282 142.53703308 1.5506274700  -999.250000  -999.250000
 1035.6250000  -999.250000 13.130000114 0.0148333199  -999.250000 2.0800185204 88.026901245 141.84596252 1.5531957150  -999.250000  -999.250000
 1035.7500000  -999.250000 13.166700363 0.0153722763  -999.250000 2.0786747932 88.080001831 141.15756226 1.5479209423  -999.250000  -999.250000
 1035.8750000  -999.250000 13.215600967 0.0161185712  -999.250000 2.0766358376 87.531600952 140.65226746 1.5377657413  -999.250000  -999.250000
 1036.0000000  -999.250000 13.262200356 0.0167951584  -999.250000 2.0749721527 86.639099121 140.25173950 1.5279312134  -999.250000  -999.250000
 1036.1250000  -999.250000 13.279399872 0.0171549208  -999.250000 2.0753741264 85.843101501 139.89443970 1.5240685940  -999.250000  -999.250000
 1036.2500000  -999.250000 13.259900093 0.0167489052  -999.250000 2.0777788162 85.342399597 139.54542542 1.5294523239  -999.250000  -999.250000
 1036.3750000  -999.250000 13.212499619 0.0151660573  -999.250000 2.0809674263 85.184402466 139.19622803 1.5392601490  -999.250000  -999.250000
 1036.5000000  -999.250000 13.158300400 0.0125780106  -999.250000 2.0830144882 85.530899048 138.84712219 1.5476903915  -999.250000  -999.250000
 1036.6250000  -999.250000 13.121299744 0.0097361449  -999.250000 2.0818052292 86.588203430 138.49813843 1.5533063412  -999.250000  -999.250000
 1036.7500000  -999.250000 13.105299950 0.0072965622  -999.250000 2.0777688026 87.802497864 138.15486145 1.5566515923  -999.250000  -999.250000
 1036.8750000  -999.250000 13.105999947 0.0050621741  -999.250000 2.0721368790 88.461799622 138.00161743 1.5543394089  -999.250000  -999.250000
 1037.0000000  -999.250000 13.111499786 0.0025653839  -999.250000 2.0664176941 88.160102844 138.20375061 1.5383646488  -999.250000  -999.250000
 1037.1250000  -999.250000 13.115699768 0.0004818186  -999.250000 2.0619559288 86.956596375 138.79992676 1.5129725933  -999.250000  -999.250000
 1037.2500000  -999.250000 13.120800018 0.0002326965  -999.250000 2.0590472221 85.510902405 139.47019958 1.4887504578  -999.250000  -999.250000
 1037.3750000  -999.250000 13.126899719 0.0024373331  -999.250000 2.0578093529 84.175498962 140.14126587 1.4834127426  -999.250000  -999.250000
 1037.5000000  -999.250000 13.131399155 0.0059585571  -999.250000 2.0581178665 83.146400452 140.81233215 1.5162618160  -999.250000  -999.250000
 1037.6250000  -999.250000 13.130901337 0.0079370290  -999.250000 2.0589485168 82.663497925 141.48362732 1.5518023968  -999.250000  -999.250000
 1037.7500000  -999.250000 13.127499580 0.0077958107  -999.250000 2.0580115318 82.665802002 142.15476990 1.5633165836  -999.250000  -999.250000
 1037.8750000  -999.250000 13.126000404 0.0072842408  -999.250000 2.0536131859 82.899002075 142.82238770 1.5744616985  -999.250000  -999.250000
 1038.0000000  -999.250000 13.131500244 0.0083580017  -999.250000 2.0460062027 82.934402466 143.30499268 1.5830318928  -999.250000  -999.250000
 1038.1250000  -999.250000 13.146400452 0.0112717636  -999.250000 2.0384631157 82.381301880 143.65547180 1.5797238350  -999.250000  -999.250000
 1038.2500000  -999.250000 13.166998863 0.0140314102  -999.250000 2.0348544121 81.248100281 143.94226074 1.5581767559  -999.250000  -999.250000
 1038.3750000  -999.250000 13.192799568 0.0154297650  -999.250000 2.0361633301 79.709999084 144.21664429 1.5389552116  -999.250000  -999.250000
 1038.5000000  -999.250000 13.217499733 0.0158586502  -999.250000 2.0401220322 78.069000244 144.49105835 1.5379538536  -999.250000  -999.250000
 1038.6250000  -999.250000 13.217599869 0.0183538049  -999.250000 2.0411610603 76.873199463 144.76527405 1.5446095467  -999.250000  -999.250000
 1038.7500000  -999.250000 13.178700447 0.0246624947  -999.250000 2.0351505280 76.666999817 145.03942871 1.5599772930  -999.250000  -999.250000
 1038.8750000  -999.250000 13.104299545 0.0300016925  -999.250000 2.0210266113 77.681602478 145.31103516 1.5847103596  -999.250000  -999.250000
 1039.0000000  -999.250000 13.017900467 0.0278444290  -999.250000 2.0007677078 79.616203308 145.49729919 1.6078441143  -999.250000  -999.250000
 1039.1250000  -999.250000 12.958000183 0.0172057189  -999.250000 1.9789848328 81.379096985 145.51359558 1.6204521656  -999.250000  -999.250000
 1039.2500000  -999.250000 12.939399719 0.0072650909  -999.250000 1.9614295959 81.758300781 145.40898132 1.6256451607  -999.250000  -999.250000
 1039.3750000  -999.250000 12.953399658 -0.001999179  -999.250000 1.9520242214 80.427101135 145.28794861 1.6283605099  -999.250000  -999.250000
 1039.5000000  -999.250000 12.978899956 -0.008365631  -999.250000 1.9524173737 78.038299561 145.16551208 1.6287901402  -999.250000  -999.250000
 1039.6250000  -999.250000 12.998600006 -0.011085598  -999.250000 1.9617259502 75.943496704 145.04302979 1.6287906170  -999.250000  -999.250000
 1039.7500000  -999.250000 13.011799812 -0.012021542  -999.250000 1.9733262062 74.969398499 144.92044067 1.6280293465  -999.250000  -999.250000
 1039.8750000  -999.250000 13.020299911 -0.011654820  -999.250000 1.9824876785 75.170501709 144.79777527 1.6247906685  -999.250000  -999.250000
 1040.0000000  -999.250000 13.024399757 -0.009767532  -999.250000 1.9872322083 76.034797668 144.67263794 1.6208074093  -999.250000  -999.250000
 1040.1250000  -999.250000 13.024300575 -0.007070403  -999.250000 1.9893703461 76.708702087 144.43980408 1.6233339310  -999.250000  -999.250000
 1040.2500000  -999.250000 13.021400452 -0.004815102  -999.250000 1.9937696457 76.919296265 144.15042114 1.6362576485  -999.250000  -999.250000
 1040.3750000  -999.250000 13.016599655 -0.003586490  -999.250000 2.0040063858 76.940200806 143.83689880 1.6604740620  -999.250000  -999.250000
 1040.5000000  -999.250000 13.010999680 -0.004171371  -999.250000 2.0224285126 77.243103027 143.51980591 1.7172214985  -999.250000  -999.250000
 1040.6250000  -999.250000 13.007599831 -0.007533479  -999.250000 2.0513124466 78.249496460 143.20292664 1.8153314590  -999.250000  -999.250000
 1040.7500000  -999.250000 13.009900093 -0.012113571  -999.250000 2.0870742798 79.839103699 142.88606262 1.9002411366  -999.250000  -999.250000
 1040.8750000  -999.250000 13.018500328 -0.015680559  -999.250000 2.1242480278 81.696403503 142.56910706 1.9464018345  -999.250000  -999.250000
 1041.0000000  -999.250000 13.027800560 -0.016068459  -999.250000 2.1545791626 83.453598022 142.24678040 1.9589138031  -999.250000  -999.250000
 1041.1250000  -999.250000 13.030300140 -0.011387955  -999.250000 2.1671576500 85.017501831 141.77226257 1.9029226303  -999.250000  -999.250000
 1041.2500000  -999.250000 13.027500153 -0.003536224  -999.250000 2.1628928185 86.674102783 140.88461304 1.8135685921  -999.250000  -999.250000
 1041.3750000  -999.250000 13.020299911 0.0048174113  -999.250000 2.1472206116 88.485099792 139.31652832 1.7562963963  -999.250000  -999.250000
 1041.5000000  -999.250000 13.006699562 0.0113296509  -999.250000 2.1280517578 90.320098877 137.65046692 1.7286043167  -999.250000  -999.250000
 1041.6250000  -999.250000 12.981800079 0.0146464277  -999.250000 2.1128783226 92.104400635 135.96574402 1.7064683437  -999.250000  -999.250000
 1041.7500000  -999.250000 12.948399544 0.0154361725  -999.250000 2.1039161682 93.975097656 134.28004456 1.6843440533  -999.250000  -999.250000
 1041.8750000  -999.250000 12.914400101 0.0146551393  -999.250000 2.1004662514 96.003799438 132.59431458 1.6649317741  -999.250000  -999.250000
