# LAS format log file from PETREL
# Project units are specified as depth units
#==================================================================
~Version information
VERS.   2.0:
WRAP.   NO:
#==================================================================
~Well
STRT .m      405.00000000 :
STOP .m      1938.8748779 :
STEP .m     0.00000000 :
NULL .        -999.250000 :
COMP.           : COMPANY
WELL.  31/5-5 R   : WELL
FLD.            : FIELD
LOC.            : LOCATION
SRVC.           : SERVICE COMPANY
DATE.  2018-09-11 14:48:39   : Log Export Date {yyyy-MM-dd HH:mm:ss}
PROV.           : PROVINCE
UWI.   31/5-5 R   : UNIQUE WELL ID
API.            : API NUMBER
#==================================================================
~Curve
DEPT .m                   : DEPTH
Lithology_geolink ._      : Lithology_geolink
CALI .in                  : CALI
DRHO .g/cm3               : DRHO
NPHI .m3/m3               : NPHI
RHOB .g/cm3               : RHOB
GR .gAPI                  : GR
DTC .us/ft                : DTC
RDEP .ohm.m               : RDEP
SP .mV                    : SP
RSHA .ohm.m               : RSHA
~Parameter
#==================================================================
~Ascii
# ...
 1630.0000000 16.000000000 8.5354995728 0.0542913079 0.2177908272 2.3780977726 80.384201050 102.27134705 1.9772284031 68.328201294 3.5525999069
 1630.1250000 16.000000000 8.5354995728 0.0815872550 0.2903859615 2.2805910110 85.585700989 100.59516907 1.4105191231 68.116302490 1.5855000019
 1630.2500000 16.000000000 8.5354995728 0.0218636766 0.3685687184 2.2070326805 91.288299561 98.921432495 1.0128726959 67.849502563 0.9075000286
 1630.3750000 5.0000000000 8.5354995728 0.0180950798 0.4280487895 2.1654462814 96.398696899 97.246612549 0.7651103735 67.590896606 0.6406000257
 1630.5000000 5.0000000000 8.5354995728 0.0053193569 0.4588562250 2.1516628265 100.39189911 95.571594238 0.6864507198 67.404296875 0.5381000042
 1630.6251221 5.0000000000 8.5354995728 -0.003574451 0.4339837134 2.1609010696 102.60540009 93.894927979 0.6854261160 67.338996887 0.5094000101
 1630.7498779 5.0000000000 8.5354995728 0.0033663288 0.4232205153 2.1716041565 102.90380096 92.225288391 0.7024245262 67.371696472 0.5077000260
 1630.8750000 5.0000000000 8.5354995728 0.0074521918 0.4262632728 2.1746115685 101.14289856 90.559036255 0.7101165056 67.472602844 0.5044999719
 1631.0000000 5.0000000000 8.5354995728 0.0476492941 0.4221530259 2.1691370010 97.729400635 89.427253723 0.6886581182 67.599700928 0.4817000031
 1631.1250000 5.0000000000 8.5354995728 0.0088351723 0.4120690227 2.1665501595 93.821601868 89.557380676 0.6498548985 67.702903748 0.4426000118
 1631.2500000 5.0000000000 8.5354995728 0.0003405270 0.4058524072 2.1772246361 90.881202698 90.705551147 0.6259903908 67.750099182 0.4045999944
 1631.3750000 5.0000000000 8.5354995728 0.0103460699 0.4045571387 2.2074217796 89.454200745 92.381851196 0.6271632910 67.734901428 0.3813999891
 1631.5000000 5.0000000000 8.5354995728 0.0152405165 0.3895834684 2.2453813553 89.129501343 94.058143616 0.6404945850 67.680099487 0.3774999976
 1631.6250000 2.0000000000 8.5354995728 0.0240882598 0.3884137273 2.2662496567 88.799797058 95.734535217 0.6513516903 67.633300781 0.3874999881
 1631.7501221 2.0000000000 8.5354995728 0.0406488329 0.4035614133 2.2598857880 87.627197266 97.413650513 0.6622382402 67.634201050 0.4002000093
 1631.8748779 2.0000000000 8.5354995728 0.0135221072 0.4042185545 2.2403697968 85.347396851 99.086273193 0.6671723127 67.654899597 0.4043000042
 1632.0000000 2.0000000000 8.5354995728 -0.037932478 0.3908552527 2.2137775421 82.069999695 100.76411438 0.6416833401 67.625701904 0.3928999901
 1632.1250000 2.0000000000 8.5354995728 -0.014431728 0.3794756830 2.1903657913 78.471496582 102.44114685 0.6008954048 67.462402344 0.3698000014
 1632.2500000 2.0000000000 8.5354995728 0.0225972049 0.3758955896 2.1724092960 75.587699890 104.11605072 0.5759674311 67.191398621 0.3456000090
 1632.3750000 2.0000000000 8.5354995728 0.0131991953 0.3820065260 2.1601285934 73.795402527 105.77808380 0.5585594177 66.891998291 0.3278999925
 1632.5000000 2.0000000000 8.5354995728 0.0183132850 0.3788708448 2.1574335098 72.994003296 106.84954834 0.5393096209 66.672203064 0.3186999857
 1632.6250000 2.0000000000 8.5354995728 -0.015374873 0.3763355911 2.1553287506 72.837196350 107.27751160 0.5291961432 66.633300781 0.3152999878
 1632.7500000 2.0000000000 8.5354995728 0.0197329782 0.3699194193 2.1502771378 72.997200012 107.32150269 0.5279927254 66.736000061 0.3127000034
 1632.8750000 2.0000000000 8.5354995728 0.0251359567 0.3764474392 2.1436066628 73.437698364 107.33084869 0.5215014219 66.899002075 0.3079999983
 1633.0001221 2.0000000000 8.5354995728 -0.001822149 0.3859483600 2.1340265274 73.928199768 107.34022522 0.5104064941 67.038803101 0.3016999960
 1633.1250000 2.0000000000 8.5354995728 0.0100800656 0.3812639117 2.1218552589 73.957397461 107.34954834 0.4998122454 67.071502686 0.2964000106
 1633.2500000 2.0000000000 8.5354995728 0.0057394747 0.3735141754 2.1183509827 73.134101868 107.35890198 0.4911079407 67.010597229 0.2940999866
 1633.3750000 2.0000000000 8.5354995728 0.0036064601 0.3736065030 2.1231908798 71.450202942 107.36825562 0.4894604683 66.939102173 0.2946000099
 1633.5000000 2.0000000000 8.5354995728 0.0240217708 0.3773684800 2.1262617111 69.391403198 107.37762451 0.4993184805 66.980102539 0.2967000008
 1633.6250000 2.0000000000 8.5354995728 -0.003991450 0.3651674986 2.1280264854 67.701202393 107.38707733 0.5073361397 67.217697144 0.2987999916
 1633.7500000 2.0000000000 8.5354995728 0.0064052725 0.3638112545 2.1238212585 66.669799805 107.39691925 0.5042973757 67.530403137 0.2998999953
 1633.8750000 2.0000000000 8.5354995728 0.0059862742 0.3660865128 2.1195211411 66.177200317 107.42878723 0.4997112751 67.776496887 0.3007000089
 1634.0000000 2.0000000000 8.5354995728 -0.009313993 0.3697522283 2.1131534576 66.050598145 107.48845673 0.4989523888 67.865402222 0.3030000031
 1634.1251221 2.0000000000 8.5354995728 0.0068054348 0.3662417531 2.1063952446 66.386001587 107.56742096 0.4965481758 67.800201416 0.3073000014
 1634.2498779 2.0000000000 8.5354995728 0.0112172924 0.3698733449 2.1034727097 67.207702637 107.65245819 0.4933407307 67.705101013 0.3118000031
 1634.3750000 2.0000000000 8.5354995728 0.0098503958 0.3538708389 2.1007418633 68.366699219 107.73778534 0.4961022735 67.635002136 0.3136000037
 1634.5000000 2.0000000000 8.5354995728 0.0001386547 0.3422338963 2.0995950699 69.331596375 107.82297516 0.5017266273 67.565597534 0.3118000031
 1634.6250000 2.0000000000 8.5354995728 -0.014910297 0.3511009216 2.1011295319 69.625999451 107.90814972 0.5110032558 67.416702271 0.3084999919
 1634.7500000 2.0000000000 8.5354995728 0.0124936197 0.3690735698 2.1096005440 69.595100403 107.99336243 0.5210725069 67.207099915 0.3068999946
 1634.8750000 2.0000000000 8.5354995728 0.0140378308 0.3793315887 2.1173906326 69.618103027 108.07859802 0.5225638151 67.025398254 0.3068000078
 1635.0000000 2.0000000000 8.5354995728 0.0454991907 0.3801768422 2.1256389618 69.980102539 108.16373444 0.5191230774 66.949798584 0.3055000007
 1635.1250000 2.0000000000 8.5354995728 0.0212977901 0.3828750849 2.1264925003 70.614997864 108.24842834 0.5089604855 67.037200928 0.3012000024
 1635.2501221 2.0000000000 8.5354995728 -0.001608560 0.3698687851 2.1260042191 70.948402405 108.30770111 0.4956376553 67.242202759 0.2960000038
 1635.3748779 2.0000000000 8.5354995728 0.0048439279 0.3576492667 2.1278953552 70.644096375 108.32486725 0.4943444729 67.489997864 0.2937999964
 1635.5000000 2.0000000000 8.5354995728 0.0023124027 0.3575154245 2.1324625015 69.869598389 108.30770111 0.5025391579 67.675697327 0.2962000072
 1635.6250000 2.0000000000 8.5354995728 0.0038648867 0.3518780768 2.1368422508 69.321701050 108.27285004 0.5070184469 67.670303345 0.3009000123
 1635.7500000 2.0000000000 8.5354995728 0.0212180056 0.3560281396 2.1433811188 69.279899597 108.23808289 0.5077456236 67.489601135 0.3041999936
 1635.8750000 2.0000000000 8.5354995728 0.0183498636 0.3642421067 2.1466832161 69.564399719 108.20330048 0.5033884048 67.215499878 0.3041999936
 1636.0000000 2.0000000000 8.5354995728 0.0122936256 0.3736294508 2.1497535706 69.924400330 108.16851044 0.4872398376 66.962097168 0.3019999862
 1636.1250000 2.0000000000 8.5341997147 0.0057397652 0.3664324880 2.1504569054 70.339401245 108.13373566 0.4630644321 66.845901489 0.2998000085
 1636.2500000 2.0000000000 8.5298995972 0.0171641130 0.3621767759 2.1453847885 71.235496521 108.09896088 0.4430290461 66.852500916 0.2984000146
 1636.3750000 2.0000000000 8.5230998993 0.0451615006 0.3607462645 2.1375169754 72.965698242 108.06417084 0.4318649769 66.923400879 0.2969000041
 1636.5001221 2.0000000000 8.5169000626 0.0185580067 0.3727411032 2.1282758713 75.405998230 108.02938080 0.4268641472 67.004203796 0.2951999903
 1636.6248779 2.0000000000 8.5155000687 0.0146671403 0.3729571402 2.1292786598 77.843696594 107.99845123 0.4277215004 67.066299438 0.2935999930
 1636.7500000 5.0000000000 8.5193004608 0.0106693842 0.3769306540 2.1347932816 79.625099182 107.98414612 0.4300880432 67.100601196 0.2931999862
 1636.8750000 5.0000000000 8.5260000229 0.0064843437 0.3815092444 2.1379337311 80.822998047 107.98796082 0.4307628870 67.095397949 0.2940999866
