# LAS format log file from PETREL
# Project units are specified as depth units
#==================================================================
~Version information
VERS.   2.0:
WRAP.   NO:
#==================================================================
~Well
STRT .m      405.00000000 :
STOP .m      1938.8748779 :
STEP .m     0.00000000 :
NULL .        -999.250000 :
COMP.           : COMPANY
WELL.  31/5-5 R   : WELL
FLD.            : FIELD
LOC.            : LOCATION
SRVC.           : SERVICE COMPANY
DATE.  2018-09-11 14:48:39   : Log Export Date {yyyy-MM-dd HH:mm:ss}
PROV.           : PROVINCE
UWI.   31/5-5 R   : UNIQUE WELL ID
API.            : API NUMBER
#==================================================================
~Curve
DEPT .m                   : DEPTH
Lithology_geolink ._      : Lithology_geolink
CALI .in                  : CALI
DRHO .g/cm3               : DRHO
NPHI .m3/m3               : NPHI
RHOB .g/cm3               : RHOB
GR .gAPI                  : GR
DTC .us/ft                : DTC
RDEP .ohm.m               : RDEP
SP .mV                    : SP
RSHA .ohm.m               : RSHA
~Parameter
#==================================================================
~Ascii
# ...
 1727.9998779 16.000000000 8.4264001846 0.0002344990 0.1460448205 2.6093606949 84.299598694 92.708366394 88.401412964 72.174797058 159.20429993
 1728.1250000 2.0000000000 8.4264001846 0.0012231404 0.1433598995 2.6048083305 86.336700439 91.025947571 76.265930176 71.974197388 117.65299988
 1728.2500000 2.0000000000 8.4264001846 -0.015795793 0.1450684965 2.5898656845 87.896499634 89.347541809 49.575134277 71.651100159 58.358600616
 1728.3750000 2.0000000000 8.4264001846 -0.034608558 0.1488434374 2.5561556816 89.104103088 87.666625977 19.051853180 71.211097717 16.308300018
 1728.5000000 2.0000000000 8.4264001846 -0.056622498 0.1679182500 2.4969215393 90.613403320 85.986450195 4.7321624756 70.710998535 4.1497998238
 1728.6250000 2.0000000000 8.4264001846 0.1020566970 0.2174228430 2.4160962105 93.468597412 84.309646606 1.8883533478 70.229499817 1.8710999489
 1728.7500000 2.0000000000 8.4264001846 0.0636731684 0.2720543742 2.3342390060 97.723297119 82.723251343 1.1084957123 69.803199768 1.0927000046
 1728.8750000 2.0000000000 8.4264001846 0.0404272676 0.3081552386 2.2791762352 102.94170380 81.432693481 0.8506044149 69.437202454 0.7840999961
 1729.0001221 2.0000000000 8.4264001846 0.0732640028 0.3624384999 2.2539129257 108.18240356 81.243118286 0.7959192991 69.168098450 0.6578000188
 1729.1248779 2.0000000000 8.4264001846 0.0255651362 0.4297490716 2.2406435013 112.25540161 81.770523071 0.7968761921 69.096900940 0.6082999706
 1729.2500000 2.0000000000 8.4264001846 0.0050816648 0.4418145120 2.2358117104 114.84159851 82.458259583 0.8011536598 69.231697083 0.5889000297
 1729.3750000 2.0000000000 8.4264001846 0.0192407388 0.4397222400 2.2361598015 115.92929840 83.145286560 0.8078576326 69.508796692 0.5834000111
 1729.5000000 5.0000000000 8.4264001846 0.0586317703 0.4561216831 2.2342891693 115.89720154 83.832229614 0.8114581108 69.782997131 0.5845000148
 1729.6250000 5.0000000000 8.4264001846 0.0191246495 0.4803296030 2.2346463203 115.25389862 84.518768311 0.8154956102 69.870498657 0.5882999897
 1729.7500000 5.0000000000 8.4264001846 0.0246450752 0.4904912114 2.2423801422 114.84190369 85.206306458 0.8212534189 69.742599487 0.5914000273
 1729.8750000 5.0000000000 8.4264001846 0.0387245938 0.5024474859 2.2496590614 114.99199677 85.893081665 0.8260682821 69.472198486 0.5936999917
 1730.0000000 5.0000000000 8.4264001846 0.0399389416 0.5186201334 2.2510385513 115.46800232 86.580108643 0.8343638182 69.194503784 0.5990999937
 1730.1250000 5.0000000000 8.4264001846 0.0201301649 0.5303934813 2.2539362907 115.73760223 87.269340515 0.8553339243 69.050300598 0.6126999855
 1730.2501221 5.0000000000 8.4264001846 0.0360633358 0.5249140263 2.2642893791 115.66079712 87.985931396 0.8877221346 69.066596985 0.6370999813
 1730.3748779 5.0000000000 8.4264001846 0.0408136919 0.5269767046 2.2717995644 115.63790131 89.022094727 0.9281771183 69.218902588 0.6710000038
 1730.5000000 5.0000000000 8.4264001846 0.0628201962 0.5205142498 2.2791452408 116.21929932 90.489303589 0.9823004007 69.452499390 0.7105000019
 1730.6250000 5.0000000000 8.4264001846 0.0422524884 0.5303750038 2.2845692635 117.47470093 92.121383667 1.0417597294 69.704803467 0.7487999797
 1730.7500000 5.0000000000 8.4264001846 0.0128451157 0.5365461111 2.2934041023 118.70410156 93.805679321 1.0823287964 69.935798645 0.7767999768
 1730.8750000 5.0000000000 8.4264001846 0.0067837322 0.5334798098 2.2963719368 119.38020325 95.489952087 1.0898327827 70.148300171 0.7867000103
 1731.0000000 5.0000000000 8.4264001846 0.1026377082 0.5160440207 2.2963886261 119.46009827 97.174263000 1.0678288937 70.339996338 0.7777000070
 1731.1250000 5.0000000000 8.4264001846 0.0376281217 0.5039731264 2.2803788185 119.34790039 98.858612061 1.0346858501 70.474502563 0.7602999806
 1731.2500000 5.0000000000 8.4264001846 0.0050477991 0.5016556978 2.2763857841 119.25409698 100.54293060 1.0145294666 70.524497986 0.7500000000
 1731.3751221 5.0000000000 8.4264001846 0.0284214988 0.5095884800 2.2817983627 119.04409790 102.22886658 1.0191135406 70.472099304 0.7580000162
 1731.4998779 5.0000000000 8.4264001846 0.0593883023 0.5122247934 2.2929372787 118.62930298 103.90784454 1.0629255772 70.327499390 0.7894999981
 1731.6250000 5.0000000000 8.4264001846 0.0118377041 0.4990373850 2.2991714478 118.16079712 105.56148529 1.1257994175 70.136703491 0.8442000151
 1731.7500000 5.0000000000 8.4264001846 0.0187506527 0.4848827124 2.3253111839 117.54969788 106.95791626 1.1696770191 69.982002258 0.9275000095
 1731.8750000 5.0000000000 8.4264001846 0.0796750188 0.4820514023 2.3724079132 116.20590210 107.41170502 1.2286729813 69.917800903 1.0719000101
 1732.0000000 5.0000000000 8.4264001846 0.1111640334 0.4537993371 2.4319696426 113.39270020 107.15847778 1.4416792393 69.966499329 1.3652000427
 1732.1250000 5.0000000000 8.4264001846 0.0202592202 0.4149817526 2.4912805557 108.58010101 106.60324097 1.9795305729 70.118202209 2.0057001114
 1732.2500000 5.0000000000 8.4264001846 -0.015661672 0.3450999558 2.5529527664 102.87449646 106.04830170 2.8908457756 70.306396484 3.5218999386
 1732.3750000 5.0000000000 8.4264001846 -0.024380248 0.2854654193 2.5970973969 97.457702637 105.49256897 4.4431200027 70.473396301 7.8821001053
 1732.5000000 5.0000000000 8.4264001846 -0.000033087 0.2455403209 2.6174058914 93.156196594 104.93740845 8.0656547546 70.574203491 17.989500046
 1732.6248779 5.0000000000 8.4264001846 -0.015095839 0.2184040397 2.6224317551 90.395599365 104.38275146 12.511266708 70.584297180 28.569200516
 1732.7500000 16.000000000 8.4264001846 0.0048209168 0.2070609927 2.6225719452 88.847396851 103.82698822 11.461109161 70.525001526 26.319200516
 1732.8750000 16.000000000 8.4264001846 0.0450570285 0.2172542512 2.6145763397 88.798500061 103.27175903 6.0201187134 70.395103455 13.803799629
 1733.0000000 16.000000000 8.4264001846 0.0065308288 0.2508853078 2.5728969574 90.766799927 102.71654510 3.3353552818 70.184700012 5.6138000488
 1733.1250000 16.000000000 8.4264001846 0.0353118777 0.2829511762 2.5019655228 95.398200989 102.16130829 2.6652255058 69.905097961 3.0028998852
 1733.2500000 5.0000000000 8.4264001846 0.0582490265 0.3116815090 2.4418563843 101.71649933 101.60610199 2.2174644470 69.635101318 2.0086998940
 1733.3750000 5.0000000000 8.4264001846 0.0462001339 0.3458197713 2.4091959000 108.37879944 101.05092621 1.9953885078 69.427101135 1.6220999956
 1733.5000000 5.0000000000 8.4264001846 0.0357083753 0.3927919269 2.3946456909 114.00550079 100.49551392 2.0114092827 69.295600891 1.5074000359
 1733.6250000 5.0000000000 8.4264001846 0.0211318955 0.4350106716 2.3901090622 117.38459778 99.928382874 2.0804605484 69.210998535 1.5117000341
 1733.7501221 5.0000000000 8.4264001846 0.0231977068 0.4497993588 2.3821582794 118.71530151 99.323135376 2.0886869431 69.121200562 1.5412000418
 1733.8748779 5.0000000000 8.4264001846 0.0403528363 0.4483650923 2.3794794083 118.54060364 98.649955750 2.0743598938 69.025901794 1.5515999794
 1734.0000000 5.0000000000 8.4264001846 0.0495827943 0.4548513889 2.3864259720 117.76570129 97.954780579 2.0663533211 68.968696594 1.5341000557
 1734.1250000 5.0000000000 8.4264001846 0.0393126458 0.4497393668 2.3952174187 117.56250000 97.256080627 2.0446510315 69.037002563 1.5009000301
 1734.2500000 5.0000000000 8.4264001846 0.0258038342 0.4493558407 2.3959202766 118.30030060 96.557449341 1.9965815544 69.233703613 1.4630000591
 1734.3750000 5.0000000000 8.4264001846 0.0452867374 0.4553834796 2.3907208443 119.52480316 95.858230591 1.9441075325 69.505401611 1.4246000051
 1734.5000000 5.0000000000 8.4264001846 0.0448787585 0.4586209059 2.3801641464 120.45700073 95.160041809 1.9013507366 69.755203247 1.3876999617
 1734.6250000 5.0000000000 8.4264001846 0.0157002173 0.4600696564 2.3750028610 120.68430328 94.460723877 1.8728597164 69.878501892 1.3550000191
 1734.7500000 5.0000000000 8.4264001846 0.0267239362 0.4574030936 2.3696126938 120.69439697 93.761726379 1.8516361713 69.900802612 1.3300000429
 1734.8751221 5.0000000000 8.4264001846 0.0193544738 0.4732447863 2.3677153587 120.93060303 93.062240601 1.8467905521 69.862998962 1.3150999546
