# LAS format log file from PETREL
# Project units are specified as depth units
#==================================================================
~Version information
VERS.   2.0:
WRAP.   NO:
#==================================================================
~Well
STRT .m      1704.1855469 :
STOP .m      2348.0756836 :
STEP .m     0.00000000 :
NULL .        -999.250000 :
COMP.           : COMPANY
WELL.  31/5-6   : WELL
FLD.            : FIELD
LOC.            : LOCATION
SRVC.           : SERVICE COMPANY
DATE.  2018-09-11 14:48:40   : Log Export Date {yyyy-MM-dd HH:mm:ss}
PROV.           : PROVINCE
UWI.   31/5-6   : UNIQUE WELL ID
API.            : API NUMBER
#==================================================================
~Curve
DEPT .m                   : DEPTH
Lithology_geolink ._      : Lithology_geolink
CALI .in                  : CALI
BS .in                    : BS
ROP .m/h                  : ROP
DRHO .g/cm3               : DRHO
NPHI .m3/m3               : NPHI
RHOB .g/cm3               : RHOB
PEF .b/e                  : PEF
GR .gAPI                  : GR
RDEP .ohm.m               : RDEP
RMED .ohm.m               : RMED
~Parameter
#==================================================================
~Ascii
# ...
 2256.0261230 5.0000000000 8.3921003342 8.5000000000 101.19029236 0.0480865352 0.2625791728 2.4791998863 3.0583999157 133.71580505 2.3177638054 2.2778000832
 2256.1784668 5.0000000000 8.3937997818 8.5000000000 99.511810303 0.0396791697 0.2495729476 2.4416999817 3.0304000378 124.21540070 2.4194331169 2.3566999435
 2256.3308105 5.0000000000 8.4247999191 8.5000000000 105.95538330 0.0266894232 0.2327000052 2.3896000385 2.9595000744 112.33989716 2.1903998852 2.0808999538
 2256.4831543 5.0000000000 8.3794002533 8.5000000000 101.78018188 0.0201057680 0.2231999934 2.3396999836 2.8757998943 98.089401245 1.3135000467 1.3125000000
 2256.6357422 3.0000000000 8.3576002121 8.5000000000 109.18405914 0.0237185601 0.2164044827 2.3139998913 2.7281999588 88.588897705 1.0619490147 1.0731999874
 2256.7880859 3.0000000000 8.3576002121 8.5000000000 118.53675079 0.0295019224 0.2192075253 2.3113999367 2.7049000263 81.463699341 0.7809307575 0.7912999988
 2256.9404297 3.0000000000 8.3576002121 8.5000000000 116.31987762 0.0307104159 0.2239000052 2.3297998905 2.8089001179 78.377899170 0.7376999855 0.7415000200
 2257.0927734 3.0000000000 8.3576002121 8.5000000000 178.38352966 0.0371956751 0.2310999930 2.3531999588 2.9333000183 84.795303345 0.7552000284 0.7475000024
 2257.2453613 3.0000000000 8.3576002121 8.5000000000 181.99047852 0.0344775990 0.2386959940 2.3652999401 2.9344000816 91.920501709 1.1933319569 1.1266000271
 2257.3977051 3.0000000000 8.3576002121 8.5000000000 181.99047852 0.0274830125 0.2362235636 2.3501000404 2.8519999981 99.045898438 1.0887386799 1.0108000040
 2257.5500488 3.0000000000 8.3576002121 8.5000000000 176.55183411 0.0168921463 0.2509185672 2.3108999729 2.8466000557 97.378700256 1.1748273373 1.0888999701
 2257.7023926 3.0000000000 8.3576002121 8.5000000000 176.55183411 0.0119995195 0.2624999881 2.2602999210 2.8085000515 92.628501892 1.0046999454 0.9531999826
 2257.8549805 3.0000000000 8.3766002655 8.5000000000 187.44029236 0.0116974395 0.2802775502 2.2372000217 2.8245000839 85.503196716 0.8300061226 0.8414999843
 2258.0073242 3.0000000000 8.3886003494 8.5000000000 187.44029236 0.0109115383 0.2662813962 2.2193000317 2.7934999466 78.377899170 0.7090163827 0.7002999783
 2258.1596680 3.0000000000 8.3576002121 8.5000000000 171.51805115 0.0181108993 0.2546945512 2.2188999653 2.8980000019 71.252601624 0.5943160057 0.5972999930
 2258.3120117 3.0000000000 8.3558998108 8.5000000000 187.70275879 0.0249056090 0.2513000071 2.2088000774 2.8840999603 64.840599060 0.4171000123 0.4153000116
 2258.4643555 3.0000000000 8.3231000900 8.5000000000 187.70275879 0.0284006409 0.2669000030 2.2156999111 2.8175001144 62.465499878 0.4144999981 0.4104000032
 2258.6169434 3.0000000000 8.3421001434 8.5000000000 164.88058472 0.0288108792 0.2775906920 2.2302000523 2.7683999538 63.178798676 0.4798453450 0.4679999948
 2258.7692871 3.0000000000 8.3576002121 8.5000000000 164.88058472 0.0322072133 0.2717865705 2.2546999454 2.7867999077 67.215698242 0.5080521107 0.5108000040
 2258.9216309 3.0000000000 8.3576002121 8.5000000000 123.32054138 0.0367051288 0.2633999884 2.3057000637 3.0611000061 73.627700806 0.4781999886 0.4882999957
 2259.0739746 3.0000000000 8.3611001968 8.5000000000 106.56299591 0.0399208330 0.2680999935 2.3513998985 3.4498999119 85.743797302 0.6013000011 0.5913000107
 2259.2265625 3.0000000000 8.3955001831 8.5000000000 106.56299591 0.0528827198 0.2887310982 2.4084999561 3.8540999889 104.03510284 1.0726912022 1.0278999805
 2259.3789063 5.0000000000 8.4575004578 8.5000000000 102.60728455 0.0474911854 0.3081229031 2.4172999859 4.0072999001 123.03739929 1.7529670000 1.7487000227
 2259.5312500 5.0000000000 8.3921003342 8.5000000000 110.49836731 0.0419985577 0.3224326372 2.4173998833 3.9479000568 136.33410645 2.0440528393 1.9556000233
 2259.6835938 5.0000000000 8.3921003342 8.5000000000 107.85006714 0.0411020815 0.3427999914 2.3710999489 3.6891000271 145.83070374 2.1394000053 2.0917999744
 2259.8361816 6.0000000000 8.4490003586 8.5000000000 107.85006714 0.0424508788 0.3687584996 2.2702000141 3.6707999706 153.66780090 2.0339577198 2.0332999229
 2259.9885254 6.0000000000 8.5143995285 8.5000000000 92.850723267 0.0582724363 0.4052591324 2.2207999229 3.5329999924 163.16819763 1.6962329149 1.7354999781
 2260.1408691 6.0000000000 8.5108995438 8.5000000000 92.850723267 0.0410982370 0.4419484735 2.2021000385 3.6515998840 169.34120178 1.7167222500 1.6512000561
 2260.2932129 6.0000000000 8.4954996109 8.5000000000 98.969161987 0.0399850942 0.3474000096 2.2906999588 3.8773999214 170.05450439 1.7305999994 1.6547000408
 2260.4455566 6.0000000000 8.4989995956 8.5000000000 88.734909058 0.0307205133 0.3039999902 2.3822000027 4.1448998451 167.67939758 1.6654000282 1.6325000525
 2260.5981445 6.0000000000 8.5282001495 8.5000000000 83.390747070 0.0434862375 0.3057920039 2.4693000317 4.0693998337 166.96989441 1.7016097307 1.6447000504
 2260.7504883 6.0000000000 8.4954996109 8.5000000000 78.319229126 0.0392073728 0.3631643057 2.4742999077 3.8766999245 171.00680542 1.7699110508 1.6749999523
 2260.9028320 6.0000000000 8.4954996109 8.5000000000 78.319229126 0.0437977575 0.4032999873 2.4741001129 3.5789000988 171.71479797 1.7768000364 1.7079999447
 2261.0551758 6.0000000000 8.4954996109 8.5000000000 67.968505859 0.0424193889 0.3869999945 2.4407000542 3.5211000443 171.00300598 1.7992999554 1.7374000549
 2261.2077637 6.0000000000 8.4884996414 8.5000000000 67.968505859 0.0545585603 0.3882977664 2.4323000908 3.4453999996 166.96339417 1.8036971092 1.7706999779
 2261.3601074 6.0000000000 8.4265003204 8.5000000000 65.373687744 0.0727943927 0.3869041800 2.4461998940 3.4690999985 166.25549316 1.8642913103 1.7993999720
 2261.5124512 6.0000000000 8.4335002899 8.5000000000 65.373687744 0.0692958385 0.3895014226 2.4172999859 3.5850999355 161.26089478 1.9210778475 1.8291000128
 2261.6647949 6.0000000000 8.5092000961 8.5000000000 63.641082764 0.0667145774 0.3903999925 2.3506999016 3.6470999718 159.83850098 1.8447999954 1.7949999571
 2261.8173828 6.0000000000 8.5508003235 8.5000000000 64.786422729 0.0758284852 0.4343830049 2.3006999493 3.6514999866 161.50300598 1.6795054674 1.6610000134
 2261.9697266 6.0000000000 8.2920999527 8.5000000000 64.786422729 0.0846871808 0.4238828421 2.2548999786 3.6879000664 168.62829590 1.4960591793 1.4621000290
 2262.1220703 6.0000000000 8.2920999527 8.5000000000 68.739173889 0.0766469538 0.4754342139 2.2755000591 3.7046000957 171.71519470 1.5329699516 1.4969999790
 2262.2744141 6.0000000000 8.7367000580 8.5000000000 68.739173889 0.0435891040 0.4343999922 2.2902998924 3.8252999783 169.09910583 1.5765999556 1.4951000214
 2262.4267578 6.0000000000 8.7193002701 8.5000000000 71.183731079 0.0368096158 0.3759999871 2.3763999939 3.7906000614 162.92999268 1.4558000565 1.3846999407
 2262.5793457 6.0000000000 8.5643997192 8.5000000000 73.208007813 0.0428291224 0.3223979175 2.4100000858 3.5666999817 150.09840393 1.3656069040 1.3073999882
 2262.7316895 6.0000000000 8.4195995331 8.5000000000 71.749015808 0.0518905446 0.3211368024 2.4245998859 3.7953999043 135.85079956 1.2451115847 1.2101000547
 2262.8840332 6.0000000000 8.3576002121 8.5000000000 72.619422913 0.0460035242 0.3440999985 2.4179000854 4.0763998032 123.26470184 1.1275000572 1.1169999838
 2263.0363770 6.0000000000 8.3703002930 8.5000000000 70.353347778 0.0481474362 0.3580000103 2.2267999649 3.7302999496 125.88639832 1.0986000299 1.0966000557
 2263.1889648 18.000000000 8.5438003540 8.5000000000 70.629264832 0.0155155202 0.3843690753 1.9321000576 3.4007000923 133.96020508 1.3247529268 1.2889000177
 2263.3413086 18.000000000 8.6469001770 8.5000000000 73.516403198 0.0514139421 0.4274972677 1.9047000408 2.9488000870 139.42109680 1.8569350243 1.7116999626
 2263.4936523 18.000000000 8.4626998901 8.5000000000 72.920600891 -0.002162019 0.4880859256 1.9414999485 3.3341999054 141.79609680 2.3767702579 2.2242999077
 2263.6459961 18.000000000 8.4827995300 8.5000000000 64.325134277 0.0215081740 0.4792999923 2.2012000084 3.3775999546 148.20970154 2.1087000370 2.0810000896
