# LAS format log file from PETREL
# Project units are specified as depth units
#==================================================================
~Version information
VERS.   2.0:
WRAP.   NO:
#==================================================================
~Well
STRT .m      405.00000000 :
STOP .m      1938.8748779 :
STEP .m     0.00000000 :
NULL .        -999.250000 :
COMP.           : COMPANY
WELL.  31/5-5 R   : WELL
FLD.            : FIELD
LOC.            : LOCATION
SRVC.           : SERVICE COMPANY
DATE.  2018-09-11 14:48:39   : Log Export Date {yyyy-MM-dd HH:mm:ss}
PROV.           : PROVINCE
UWI.   31/5-5 R   : UNIQUE WELL ID
API.            : API NUMBER
#==================================================================
~Curve
DEPT .m                   : DEPTH
Lithology_geolink ._      : Lithology_geolink
CALI .in                  : CALI
DRHO .g/cm3               : DRHO
NPHI .m3/m3               : NPHI
RHOB .g/cm3               : RHOB
GR .gAPI                  : GR
DTC .us/ft                : DTC
RDEP .ohm.m               : RDEP
SP .mV                    : SP
RSHA .ohm.m               : RSHA
~Parameter
#==================================================================
~Ascii
# ...
 503.00000000  -999.250000 28.946699142 -0.015225410  -999.250000 1.6021947861 54.670898438 159.33090210 2.3448214531  -999.250000  -999.250000
 503.12500000  -999.250000 28.369300842 -0.040474173  -999.250000 1.5951082706 56.079700470 159.33090210 2.6000628471  -999.250000  -999.250000
 503.25000000  -999.250000 27.561399460 -0.074953079  -999.250000 1.5997362137 56.626499176 159.33090210 3.0082612038  -999.250000  -999.250000
 503.37500000  -999.250000 26.446500778 -0.105786324  -999.250000 1.6481513977 56.492000580 159.33090210 3.5374379158  -999.250000  -999.250000
 503.50000000  -999.250000 25.250299454 -0.117406845  -999.250000 1.7374963760 55.973400116 159.33090210 4.1429662704  -999.250000  -999.250000
 503.62500000  -999.250000 24.550199509 -0.092967033  -999.250000 1.8621060848 55.697799683 159.33090210 4.9341411591  -999.250000  -999.250000
 503.75003052  -999.250000 24.631702423 -0.047862530  -999.250000 1.9898309708 56.201000214 159.33090210 5.8724975586  -999.250000  -999.250000
 503.87500000  -999.250000 25.405099869 -0.013046265  -999.250000 2.0867295265 57.622798920 159.33090210 6.8094320297  -999.250000  -999.250000
 504.00000000  -999.250000 26.443500519 -0.001840591  -999.250000 2.1297578812 59.513099670 159.33090210 7.6457271576  -999.250000  -999.250000
 504.12500000  -999.250000 27.138500214 -0.000679493  -999.250000 2.1358475685 60.686500549 159.33090210 8.1813316345  -999.250000  -999.250000
 504.25000000  -999.250000 27.286897659 -0.000449181  -999.250000 2.1352062225 60.313701630 159.33090210 8.4242401123  -999.250000  -999.250000
 504.37500000  -999.250000 27.049900055 -0.000708818  -999.250000 2.1356968880 58.406501770 159.33090210 8.6010341644  -999.250000  -999.250000
 504.50000000  -999.250000 26.695602417 -0.000835419  -999.250000 2.1393582821 55.691898346 159.33090210 8.7987098694  -999.250000  -999.250000
 504.62503052  -999.250000 26.376098633 0.0003299713  -999.250000 2.1469407082 53.291400909 159.33090210 9.0329780579  -999.250000  -999.250000
 504.75000000  -999.250000 26.153200150 0.0064959526  -999.250000 2.1564755440 51.892898560 159.33090210 9.2499866486  -999.250000  -999.250000
 504.87500000  -999.250000 26.038297653 0.0207214355  -999.250000 2.1650056839 51.784099579 159.33090210 9.4179115295  -999.250000  -999.250000
 505.00000000  -999.250000 26.001499176 0.0422554016  -999.250000 2.1688175201 52.771800995 159.33090210 9.5561275482  -999.250000  -999.250000
 505.12500000  -999.250000 26.000200272 0.0522851944  -999.250000 2.1684420109 53.848300934 159.33090210 9.7099666595  -999.250000  -999.250000
 505.24996948  -999.250000 26.000900269 0.0458803177  -999.250000 2.1715345383 53.992198944 159.33090210 9.9759502411  -999.250000  -999.250000
 505.37500000  -999.250000 26.002799988 0.0285449028  -999.250000 2.1827101707 52.810398102 159.33090210 10.278158188  -999.250000  -999.250000
 505.50003052  -999.250000 26.012699127 0.0138444901  -999.250000 2.2018795013 50.352100372 159.33090210 10.535568237  -999.250000  -999.250000
 505.62500000  -999.250000 26.030899048 0.0095868111  -999.250000 2.2237205505 47.076198578 159.33090210 10.818965912  -999.250000  -999.250000
 505.75000000  -999.250000 26.045999527 0.0099353790  -999.250000 2.2396311760 43.822399139 159.33090210 11.145498276  -999.250000  -999.250000
 505.87500000  -999.250000 26.046800613 0.0080301762  -999.250000 2.2457971573 41.031101227 159.33090210 11.239721298  -999.250000  -999.250000
 506.00000000  -999.250000 26.031600952 0.0018968582  -999.250000 2.2437543869 38.834400177 159.33090210 10.713657379  -999.250000  -999.250000
 506.12496948  -999.250000 26.030700684 -0.001634359  -999.250000 2.2315106392 37.409000397 159.33090210 10.056953430  -999.250000  -999.250000
 506.25000000  -999.250000 26.083702087 0.0000796318  -999.250000 2.1948485374 36.705001831 159.33090210 9.8252620697  -999.250000  -999.250000
 506.37503052  -999.250000 26.204799652 -0.004350424  -999.250000 2.1102471352 36.701000214 159.33090210 9.7735519409  -999.250000  -999.250000
 506.50000000  -999.250000 26.371000290 -0.026078224  -999.250000 1.9696836472 37.642101288 159.33090210 9.6480979919  -999.250000  -999.250000
 506.62500000  -999.250000 26.591999054 -0.053887133  -999.250000 1.7987871170 40.027900696 159.33090210 9.2780056000  -999.250000  -999.250000
 506.75000000  -999.250000 27.048799515 -0.074346542  -999.250000 1.6456599236 43.187801361 159.33090210 8.8933544159  -999.250000  -999.250000
 506.87500000  -999.250000 28.051399231 -0.086677790  -999.250000 1.5327465534 46.008701324 159.33090210 8.6310291290  -999.250000  -999.250000
 506.99996948  -999.250000 29.803602219 -0.091839790  -999.250000 1.4647130966 47.419898987 159.33090210 8.5288352966  -999.250000  -999.250000
 507.12500000  -999.250000 32.212001801 -0.086938620  -999.250000 1.4440870285 46.695499420 159.33090210 8.4760074615  -999.250000  -999.250000
 507.25003052  -999.250000 34.594100952 -0.071203232  -999.250000 1.4583616257 44.528198242 159.33090210 8.2865047455  -999.250000  -999.250000
 507.37500000  -999.250000 36.332199097 -0.045165297  -999.250000 1.5031397343 41.743499756 159.33090210 7.9046306610  -999.250000  -999.250000
 507.50000000  -999.250000 36.948299408 -0.011652946  -999.250000 1.5718469620 39.249401093 159.33090210 7.6541280746  -999.250000  -999.250000
 507.62500000  -999.250000 36.091201782 0.0289237499  -999.250000 1.6517117023 38.018901825 159.33090210 7.7262315750  -999.250000  -999.250000
 507.75000000  -999.250000 34.285198212 0.0776724890  -999.250000 1.7201609612 38.328899384 159.33090210 7.8232507706  -999.250000  -999.250000
 507.87496948  -999.250000 32.049198151 0.1051495075  -999.250000 1.7616479397 40.090999603 159.33090210 7.8307523727  -999.250000  -999.250000
 508.00000000  -999.250000 29.941799164 0.1074209213  -999.250000 1.7785186768 42.634700775 159.33090210 7.8307552338  -999.250000  -999.250000
 508.12500000  -999.250000 28.522899628 0.0956583023  -999.250000 1.7837865353 44.757099152 159.33090210 7.8336105347  -999.250000  -999.250000
 508.25000000  -999.250000 27.786500931 0.0863547400  -999.250000 1.7936062813 45.731700897 159.33090210 7.8770389557  -999.250000  -999.250000
 508.37500000  -999.250000 27.508499146 0.0821309015  -999.250000 1.8164429665 45.589698792 159.33090210 7.9941692352  -999.250000  -999.250000
 508.50000000  -999.250000 27.378799438 0.0800638199  -999.250000 1.8544197083 44.840499878 159.33090210 8.0122509003  -999.250000  -999.250000
 508.62500000  -999.250000 27.170200348 0.0725054815  -999.250000 1.8931140900 44.059101105 159.33090210 7.7687082291  -999.250000  -999.250000
 508.74996948  -999.250000 26.846799850 0.0517311096  -999.250000 1.9165792465 43.560001373 159.33090210 7.5408105850  -999.250000  -999.250000
 508.87500000  -999.250000 26.441099167 0.0222392082  -999.250000 1.9262471199 43.345798492 159.33090210 7.5355224609  -999.250000  -999.250000
 509.00000000  -999.250000 26.008899689 0.0035476685  -999.250000 1.9338454008 43.375999451 159.33090210 7.5399227142  -999.250000  -999.250000
 509.12500000  -999.250000 25.618799210 -0.000549555  -999.250000 1.9561874866 44.122299194 159.33090210 7.4197359085  -999.250000  -999.250000
 509.25000000  -999.250000 25.304599762 0.0088534355  -999.250000 1.9938778877 46.052700043 159.33090210 7.2786922455  -999.250000  -999.250000
 509.37500000  -999.250000 25.078300476 0.0358066559  -999.250000 2.0387315750 49.109901428 159.33090210 7.2346572876  -999.250000  -999.250000
 509.50000000  -999.250000 24.935699463 0.0716609955  -999.250000 2.0829639435 52.500701904 159.33090210 7.2346496582  -999.250000  -999.250000
 509.62496948  -999.250000 24.873901367 0.0935008526  -999.250000 2.1035695076 54.840301514 159.33090210 7.2346439362  -999.250000  -999.250000
 509.75000000  -999.250000 24.850299835 0.1020364761  -999.250000 2.1130623817 55.684501648 159.33090210 7.2938146591  -999.250000  -999.250000
 509.87500000  -999.250000 24.833099365 0.1021678448  -999.250000 2.1220593452 55.400798798 159.33090210 7.5075120926  -999.250000  -999.250000
