# LAS format log file from PETREL
# Project units are specified as depth units
#==================================================================
~Version information
VERS.   2.0:
WRAP.   NO:
#==================================================================
~Well
STRT .m      164.79321289 :
STOP .m      1907.4873047 :
STEP .m     0.00000000 :
NULL .        -999.250000 :
COMP.           : COMPANY
WELL.  31/5-4 S   : WELL
FLD.            : FIELD
LOC.            : LOCATION
SRVC.           : SERVICE COMPANY
DATE.  2018-09-11 14:48:39   : Log Export Date {yyyy-MM-dd HH:mm:ss}
PROV.           : PROVINCE
UWI.   31/5-4 S   : UNIQUE WELL ID
API.            : API NUMBER
#==================================================================
~Curve
DEPT .m                   : DEPTH
Lithology_geolink ._      : Lithology_geolink
CALI .in                  : CALI
DRHO .g/cm3               : DRHO
NPHI .m3/m3               : NPHI
RHOB .g/cm3               : RHOB
GR .gAPI                  : GR
DTC .us/ft                : DTC
RDEP .ohm.m               : RDEP
SP .mV                    : SP
RSHA .ohm.m               : RSHA
RMED .ohm.m               : RMED
~Parameter
#==================================================================
~Ascii
# ...
 1532.6160889 13.000000000  -999.250000  -999.250000  -999.250000 1.9068458080 85.812500000 152.55409241 1.2893695831  -999.250000  -999.250000  -999.250000
 1532.7684326 13.000000000  -999.250000  -999.250000  -999.250000 1.9062075615 85.625000000 152.55409241 1.3581795692  -999.250000  -999.250000  -999.250000
 1532.9208984 13.000000000  -999.250000  -999.250000  -999.250000 1.9061887264 85.812500000 152.55409241 1.3715281487  -999.250000  -999.250000  -999.250000
 1533.0732422 13.000000000  -999.250000  -999.250000  -999.250000 1.9061701298 84.812500000 152.55409241 1.3602454662  -999.250000  -999.250000  -999.250000
 1533.2257080 13.000000000  -999.250000  -999.250000  -999.250000 1.9061515331 84.562500000 152.55409241 1.3680770397  -999.250000  -999.250000  -999.250000
 1533.3780518 13.000000000  -999.250000  -999.250000  -999.250000 1.9061326981 87.250000000 152.55409241 1.4098703861  -999.250000  -999.250000  -999.250000
 1533.5303955 13.000000000  -999.250000  -999.250000  -999.250000 1.9061141014 93.875000000 152.55409241 1.4156284332  -999.250000  -999.250000  -999.250000
 1533.6827393 13.000000000  -999.250000  -999.250000  -999.250000 1.9060952663 90.312500000 152.55409241 1.4420850277  -999.250000  -999.250000  -999.250000
 1533.8350830 13.000000000  -999.250000  -999.250000  -999.250000 1.9060766697 91.250000000 152.55409241 1.4406440258  -999.250000  -999.250000  -999.250000
 1533.9875488 13.000000000  -999.250000  -999.250000  -999.250000 1.9060580730 89.812500000 152.55409241 1.3881547451  -999.250000  -999.250000  -999.250000
 1534.1398926 13.000000000 12.367187500  -999.250000  -999.250000 1.9060392380 97.250000000 152.55409241 1.4103865623  -999.250000 8.5234375000 0.1490482390
 1534.2923584 13.000000000 12.367187500  -999.250000  -999.250000 1.9060206413 98.687500000 152.55409241 1.4738161564 14.196514130 2000.0000000 0.1502177417
 1534.4447021 13.000000000 12.367187500  -999.250000  -999.250000 1.9060018063 98.500000000 152.55409241 1.4832112789 13.893029213 102.81250000 0.1489194036
 1534.5970459 13.000000000 12.367187500  -999.250000  -999.250000 1.9059832096 96.000000000 152.55409241 1.3878211975 13.606885910 28.625000000 0.1494360268
 1534.7495117 13.000000000 12.367187500  -999.250000  -999.250000 1.9059646130 93.000000000 152.55409241 1.5925714970 14.160456657 9.1640625000 0.1486624479
 1534.9018555 13.000000000 12.367187500  -999.250000  -999.250000 1.9059457779 88.312500000 152.55409241 1.7296094894 14.536229134 83.250000000 0.1491772830
 1535.0543213 13.000000000 12.367187500  -999.250000  -999.250000 1.9059271812 86.437500000 152.55409241 1.8142819405 13.750000000 5.8046875000 0.1500868797
 1535.2065430 13.000000000 12.367187500  -999.250000  -999.250000 1.9069869518 88.125000000 152.55409241 1.9801011086 13.696757317 11.476562500 0.1494360268
 1535.3590088 13.000000000 12.367187500  -999.250000  -999.250000 1.9115185738 84.750000000 152.55409241 2.0236849785 13.446714401 72.750000000 0.1485342681
 1535.5113525 13.000000000 12.367187500  -999.250000  -999.250000 1.9219381809 80.750000000 152.55409241 2.3316450119 13.356485367 9.4609375000 0.1499562860
 1535.6636963 13.000000000 12.367187500  -999.250000  -999.250000 1.9300518036 75.625000000 152.55409241 2.2562351227 13.856169701 3.3398437500 0.1491772830
 1535.8161621 13.000000000 12.367187500  -999.250000  -999.250000 1.9290134907 69.250000000 152.55409241 2.5408554077 14.303242683 60.250000000 0.1486624479
 1535.9685059 13.000000000 12.367187500  -999.250000  -999.250000 1.9307305813 65.812500000 152.55409241 2.8748230934 14.393830299 46.500000000 0.1498259008
 1536.1209717 13.000000000 12.367187500  -999.250000  -999.250000 1.9380915165 68.500000000 152.55409241 2.8252539635 14.053242683 79.687500000 0.1503488123
 1536.2733154 13.000000000 12.367187500  -999.250000  -999.250000 1.9387693405 80.312500000 152.55409241 2.6990604401 14.356169701 21.734375000 0.1498259008
 1536.4257813 13.000000000 12.367187500  -999.250000  -999.250000 1.9352509975 88.500000000 152.55409241 2.7964606285 14.643429756 1.8378906250 0.1498259008
 1536.5781250 13.000000000 12.367187500  -999.250000  -999.250000 1.9320805073 97.937500000 152.55409241 3.0936441422 14.409728050 2000.0000000 0.1487908363
 1536.7305908 13.000000000 12.367187500  -999.250000  -999.250000 1.9223415852 100.37500000 152.55409241 3.2115511894 14.786858559 2000.0000000 0.1489194036
 1536.8828125 13.000000000 12.367187500  -999.250000  -999.250000 1.9114170074 104.62500000 152.55409241 2.9829177856 13.840872765 12.445312500 0.1493065357
 1537.0351563 13.000000000 12.367187500  -999.250000  -999.250000 1.9114413261 105.25000000 152.55409241 2.5884938240 13.197114944 4.5117187500 0.1486624479
 1537.1876221 13.000000000 12.367187500  -999.250000  -999.250000 1.9186513424 102.68750000 152.55409241 2.1927280426 13.265212059 3.0195312500 0.1489194036
 1537.3399658 13.000000000 12.367187500  -999.250000  -999.250000 1.9233100414 99.312500000 152.55409241 1.7473628521 14.355769157 6.1289062500 0.1493065357
 1537.4924316 13.000000000 12.367187500  -999.250000  -999.250000 1.9252910614 97.937500000 152.55409241 1.4968819618 14.325660706 5.8828125000 0.1500868797
 1537.6447754 13.000000000 12.367187500  -999.250000  -999.250000 1.9288187027 96.125000000 152.55409241 1.4570112228 12.961538315 25.250000000 0.1485342681
 1537.7972412 13.000000000 12.367187500  -999.250000  -999.250000 1.9242386818 93.250000000 152.55409241 1.4040727615 13.166533470 4.0976562500 0.1486624479
 1537.9495850 13.000000000 12.359375000  -999.250000  -999.250000 1.9081313610 86.062500000 152.55409241 1.4368550777 11.158654213 20.515625000 0.1496957242
 1538.1020508 13.000000000 12.367187500  -999.250000  -999.250000 1.9033541679 87.375000000 152.55409241 1.4211895466 11.537830353 2000.0000000 0.1493065357
 1538.2543945 13.000000000 12.359375000  -999.250000  -999.250000 1.9111356735 86.312500000 152.55409241 1.3807559013 10.591345787 17.875000000 0.1490482390
 1538.4068604 13.000000000 12.359375000  -999.250000  -999.250000 1.9180204868 84.625000000 152.55409241 1.4081661701 10.053085327 18.609375000 0.1495657563
 1538.5590820 13.000000000 12.359375000  -999.250000  -999.250000 1.9245207310 87.312500000 152.55409241 1.4141037464 10.302842140 8.6875000000 0.1500868797
 1538.7114258 13.000000000 12.367187500  -999.250000  -999.250000 1.9274597168 88.875000000 152.55409241 1.3983550072 10.552683830 8.8046875000 0.1498259008
 1538.8638916 13.000000000 12.367187500  -999.250000  -999.250000 1.9236886501 93.125000000 152.55409241 1.3623173237 10.644315720 431.75000000 0.1494360268
 1539.0162354 13.000000000 12.359375000  -999.250000  -999.250000 1.9200565815 89.062500000 152.55409241 1.3614618778 10.197316170 2.8945312500 0.1490482390
 1539.1687012 13.000000000 12.359375000  -999.250000  -999.250000 1.9246146679 90.562500000 152.55409241 1.3638007641 10.105684280 13.500000000 0.1511401236
 1539.3210449 13.000000000 12.367187500  -999.250000  -999.250000 1.9296472073 90.187500000 152.55409241 1.3696463108 10.447316170 108.37500000 0.1503488123
 1539.4735107 13.000000000 12.359375000  -999.250000  -999.250000 1.9276072979 88.250000000 152.55409241 1.3990406990 10.514423370 48.156250000 0.1518059373
 1539.6258545 13.000000000 12.359375000  -999.250000  -999.250000 1.9217665195 92.187500000 152.55409241 1.3868649006 11.605769157 5.0195312500 0.1530192792
 1539.7783203 13.000000000 12.359375000  -999.250000  -999.250000 1.9147830009 91.312500000 152.55409241 1.3436365128 12.000000000 4.2343750000 0.1493065357
 1539.9306641 13.000000000 12.359375000  -999.250000  -999.250000 1.9062287807 95.375000000 152.55409241 1.3654301167 12.212169647 2000.0000000 0.1496957242
 1540.0830078 13.000000000 12.367187500  -999.250000  -999.250000 1.9019277096 95.375000000 152.55409241 1.3446345329 13.052885056 6.1679687500 0.1489194036
 1540.2353516 13.000000000 12.359375000  -999.250000  -999.250000 1.9080495834 100.56250000 152.55409241 1.3307847977 13.144315720 58.562500000 0.1508754194
