# LAS format log file from PETREL
# Project units are specified as depth units
#==================================================================
~Version information
VERS.   2.0:
WRAP.   NO:
#==================================================================
~Well
STRT .m      164.79321289 :
STOP .m      1907.4873047 :
STEP .m     0.00000000 :
NULL .        -999.250000 :
COMP.           : COMPANY
WELL.  31/5-4 S   : WELL
FLD.            : FIELD
LOC.            : LOCATION
SRVC.           : SERVICE COMPANY
DATE.  2018-09-11 14:48:39   : Log Export Date {yyyy-MM-dd HH:mm:ss}
PROV.           : PROVINCE
UWI.   31/5-4 S   : UNIQUE WELL ID
API.            : API NUMBER
#==================================================================
~Curve
DEPT .m                   : DEPTH
Lithology_geolink ._      : Lithology_geolink
CALI .in                  : CALI
DRHO .g/cm3               : DRHO
NPHI .m3/m3               : NPHI
RHOB .g/cm3               : RHOB
GR .gAPI                  : GR
DTC .us/ft                : DTC
RDEP .ohm.m               : RDEP
SP .mV                    : SP
RSHA .ohm.m               : RSHA
RMED .ohm.m               : RMED
~Parameter
#==================================================================
~Ascii
# ...
 1579.2463379 6.0000000000 14.312500000 0.0224676281 0.4318223000 2.1826796532 124.00000000 152.55409241 3.1460223198 52.008914948 0.7695312500 1.5090219975
 1579.3988037 6.0000000000 14.664062500 0.0141875101 0.4679638743 2.1494512558 125.68750000 152.55409241 2.2233963013 53.266712189 0.8115234375 1.5195255280
 1579.5511475 6.0000000000 15.546875000 0.0096266828 0.4809596241 2.1114768982 127.87500000 152.55409241 0.2317506969 53.686698914 0.5034179688 1.3873374462
 1579.7036133 6.0000000000 16.562500000 0.0041875099 0.4720446765 2.0862512589 133.12500000 152.55409241 1.9952411652 52.827762604 0.4233398438 1.4090161324
 1579.8559570 6.0000000000 17.234375000 0.0017356571 0.4418835342 2.0688724518 136.87500000 152.55409241 2.0869460106 52.648536682 0.6376953125 1.3886568546
 1580.0084229 7.0000000000 15.679687500 0.0074848682 0.4505688548 2.0412797928 136.25000000 152.55409241 0.8366374969 52.915332794 0.7636718750 1.3372669220
 1580.1606445 7.0000000000 14.757813454 0.0131875006 0.4554616213 2.0367736816 132.37500000 152.55409241 1.4324316978 53.835937500 0.5781250000 1.4035756588
 1580.3129883 7.0000000000 15.250000000 0.0143747004 0.4537178874 2.0713911057 135.12500000 152.55409241 1.4441995621 54.843673706 0.4707031250 1.4161491394
 1580.4654541 7.0000000000 15.781250000 0.0163562503 0.4512076974 2.1307239532 134.37500000 152.55409241 2.6964268684 55.203125000 0.5375976563 1.4871304035
 1580.6177979 7.0000000000 15.468750000 0.0159328263 0.4443353117 2.1547522545 139.37500000 152.55409241 3.0234160423 55.187351227 1.4052734375 1.5533683300
 1580.7702637 7.0000000000 15.304688454 0.0058625001 0.4338669181 2.1564378738 133.00000000 152.55409241 4.0632133484 55.718750000 1.1855468750 1.5389835835
 1580.9226074 7.0000000000 16.421875000 -0.001418255 0.4221775234 2.1472258568 135.25000000 152.55409241 1.1402494907 54.125301361 1.1396484375 1.5426037312
 1581.0750732 7.0000000000 17.687500000 -0.003518750 0.4188538194 2.1455011368 131.50000000 152.55409241 1.6961238384 52.359375000 1.0595703125 1.4906413555
 1581.2274170 7.0000000000 16.703125000 0.0006312500 0.4359512627 2.1273446083 130.00000000 152.55409241 2.0178885460 51.960937500 0.7402343750 1.3454971313
 1581.3798828 7.0000000000 14.320312500 0.0083961571 0.4750735164 2.0671386719 124.75000000 152.55409241 2.2894678116 52.945556641 1.1806640625 1.3146893978
 1581.5322266 6.0000000000 14.609375000 0.0109500000 0.5228974819 2.0154352188 122.12500000 152.55409241 1.2460842133 53.015625000 1.0400390625 1.2599356174
 1581.6845703 6.0000000000 13.460936546 0.0087564448 0.5402106047 1.9963736534 121.25000000 152.55409241 1.6385438442 51.648719788 0.3403320313 1.2534141541
 1581.8369141 6.0000000000 13.343750954 0.0079800477 0.5274826288 2.0241065025 126.50000000 152.55409241 1.6691291332 49.961639404 0.3354492188 1.2309501171
 1581.9892578 6.0000000000 15.187500954 0.0080247400 0.4896484613 2.0415930748 129.62500000 152.55409241 2.4401674271 49.273319244 0.4057617188 1.1640477180
 1582.1417236 6.0000000000 17.343750000 0.0022278845 0.4681412876 2.0557141304 129.87500000 152.55409241 2.2687792778 49.491687775 0.5473632813 1.2125394344
 1582.2940674 6.0000000000 16.921875000 -0.000494796 0.4512958825 2.0657167435 127.50000000 152.55409241 2.0368943214 50.023319244 0.6254882813 1.2316100597
 1582.4465332 6.0000000000 16.125000000 0.0004186699 0.4586848021 2.0660452843 129.25000000 152.55409241 0.7668443918 50.171672821 0.8823242188 1.2001142502
 1582.5988770 6.0000000000 17.218750000 0.0006492394 0.4504488111 2.0764183998 130.12500000 152.55409241 2.1279315948 50.421638489 0.4672851563 1.1949317455
 1582.7513428 7.0000000000 16.281250000 0.0020467949 0.4428472221 2.0972638130 131.75000000 152.55409241 1.9628117085 50.741687775 0.6015625000 1.2141203880
 1582.9036865 7.0000000000 14.843749046 0.0048895916 0.4303902388 2.1202802658 131.00000000 152.55409241 1.3981413841 51.389911652 0.4682617188 1.2571084499
 1583.0560303 7.0000000000 15.601562500 0.0023192309 0.4251582026 2.1381201744 134.25000000 152.55409241 0.2382229269 52.232372284 0.8344726563 1.2499008179
 1583.2084961 7.0000000000 16.093750000 -0.001174679 0.4250534773 2.1471905708 139.75000000 152.55409241 2.8827791214 53.390022278 1.1572265625 1.4059860706
 1583.3608398 7.0000000000 15.718750000 -0.001667894 0.4401594400 2.1517491341 144.00000000 152.55409241 2.5477504730 53.906726837 1.1103515625 1.4616863728
 1583.5131836 7.0000000000 9.7500000000 -0.003143590 0.4535760283 2.1675634384 145.12500000 152.55409241 1.7869560719 53.685897827 1.1103515625 1.5086541176
 1583.6655273 7.0000000000 9.7968750000 -0.006307126 0.4389143586 2.1892881393 140.25000000 152.55409241 2.3655667305 54.592872620 1.2285156250 1.5345695019
 1583.8179932 7.0000000000 14.289063454 -0.005472436 0.4311449230 2.1984996796 137.87500000 152.55409241 2.2439908981 55.302082062 1.5419921875 1.5367259979
 1583.9703369 6.0000000000 16.609375000 -0.003748599 0.4393308759 2.1882658005 135.87500000 152.55409241 1.3521249294 56.671436310 1.5839843750 1.5481750965
 1584.1226807 6.0000000000 16.609375000 -0.004159375 0.4506842494 2.1655831337 130.62500000 152.55409241 2.3535265923 57.129508972 1.6074218750 1.4058077335
 1584.2751465 6.0000000000 17.734375000 -0.002932826 0.4380623102 2.1368041039 128.12500000 152.55409241 2.1056880951 58.319656372 1.2041015625 1.3207423687
 1584.4274902 6.0000000000 17.531250000 -0.002033413 0.4429865479 2.1193881035 126.43750000 152.55409241 2.3027877808 58.486179352 0.6621093750 1.3208789825
 1584.5799561 6.0000000000 16.046875000 -0.000984227 0.4509544373 2.1236095428 126.25000000 152.55409241 1.8529803753 57.967872620 0.8583984375 1.2676856518
 1584.7322998 6.0000000000 14.968749046 0.0003814904 0.4616043270 2.1324696541 126.00000000 152.55409241 2.2959303856 58.560096741 0.6430664063 1.2797482014
 1584.8847656 6.0000000000 16.031250000 -0.000573018 0.4726642072 2.1341485977 129.75000000 152.55409241 2.2673349380 59.491092682 0.7812500000 1.3144927025
 1585.0371094 7.0000000000 16.609375000 -0.004603606 0.4771445692 2.1309714317 129.62500000 152.55409241 2.0203881264 60.115684509 0.8813476563 1.3163838387
 1585.1893311 7.0000000000 16.765625000 -0.005684147 0.4741780162 2.1299982071 134.62500000 152.55409241 1.9989356995 60.509906769 0.8383789063 1.3367986679
 1585.3417969 7.0000000000 16.968750000 -0.007034455 0.4540939033 2.1402816772 133.25000000 152.55409241 1.9240853786 59.884815216 0.8383789063 1.3297069073
 1585.4941406 7.0000000000 16.750000000 -0.009436859 0.4328284264 2.1649808884 135.62500000 152.55409241 1.9339351654 59.328926086 1.0673828125 1.3679594994
 1585.6466064 7.0000000000 16.046875000 -0.008471818 0.4087764323 2.1899013519 127.25000000 152.55409241 2.1233978271 59.125000000 1.5917968750 1.4942326546
 1585.7989502 6.0000000000 15.976562500 -0.002375801 0.3884595931 2.1802740097 126.12500000 152.55409241 2.0583095551 59.332332611 1.1572265625 1.4867727757
 1585.9514160 6.0000000000 17.125000000 0.0028404323 0.3875596523 2.1445937157 127.43750000 152.55409241 2.1619606018 60.411830902 0.6225585938 1.4751541615
 1586.1037598 6.0000000000 17.218750000 0.0041764420 0.4294321835 2.1209392548 128.87500000 152.55409241 1.3916814327 61.125000000 0.4814453125 1.4449288845
 1586.2562256 6.0000000000 16.156250000 0.0063062450 0.4606430829 2.1451411247 126.68750000 152.55409241 1.9026036263 61.055644989 0.5429687500 1.2979090214
 1586.4085693 6.0000000000 16.343750000 0.0106133018 0.4483967125 2.2180032730 121.87500000 152.55409241 2.4194588661 60.726963043 0.6455078125 1.5532941818
 1586.5610352 16.000000000 17.593750000 0.0127767818 0.3758795261 2.3219366074 118.68750000 152.55409241 2.4264426231 60.486289978 1.4091796875 1.6743466854
 1586.7133789 16.000000000 17.781250000 0.0186879802 0.3004278243 2.3789458275 119.18750000 152.55409241 2.8674592972 60.059295654 2.5097656250 1.7272422314
 1586.8656006 16.000000000 18.218750000 0.0298466776 0.2641509771 2.3292727470 121.62500000 152.55409241 2.3750286102 60.966674805 11.679687500 1.7733232975
