# LAS format log file from PETREL
# Project units are specified as depth units
#==================================================================
~Version information
VERS.   2.0:
WRAP.   NO:
#==================================================================
~Well
STRT .m      164.79321289 :
STOP .m      1907.4873047 :
STEP .m     0.00000000 :
NULL .        -999.250000 :
COMP.           : COMPANY
WELL.  31/5-4 S   : WELL
FLD.            : FIELD
LOC.            : LOCATION
SRVC.           : SERVICE COMPANY
DATE.  2018-09-11 14:48:39   : Log Export Date {yyyy-MM-dd HH:mm:ss}
PROV.           : PROVINCE
UWI.   31/5-4 S   : UNIQUE WELL ID
API.            : API NUMBER
#==================================================================
~Curve
DEPT .m                   : DEPTH
Lithology_geolink ._      : Lithology_geolink
CALI .in                  : CALI
DRHO .g/cm3               : DRHO
NPHI .m3/m3               : NPHI
RHOB .g/cm3               : RHOB
GR .gAPI                  : GR
DTC .us/ft                : DTC
RDEP .ohm.m               : RDEP
SP .mV                    : SP
RSHA .ohm.m               : RSHA
RMED .ohm.m               : RMED
~Parameter
#==================================================================
~Ascii
# ...
 1851.2567139 7.0000000000 10.148438454 0.0019529224 0.3753982484 2.3460049629 113.43750000 90.190666199 2.0432519913 70.512611389 1.5693359375 1.8675978184
 1851.4090576 7.0000000000 10.156250000 0.0005310096 0.3846017718 2.3397564888 109.25000000 91.308586121 2.0731244087 70.838043213 1.5273437500 1.8818871975
 1851.5612793 7.0000000000 10.179687500 -0.001525641 0.3821122944 2.3450965881 105.00000000 93.024749756 2.1716675758 69.701919556 1.5976562500 2.0204219818
 1851.7137451 7.0000000000 10.210937500 -0.002319696 0.3833238184 2.3587789536 100.56250000 95.008003235 2.3321580887 68.204864502 1.6181640625 2.1176953316
 1851.8660889 6.0000000000 10.124999046 -0.002916026 0.3756960034 2.3592562675 102.00000000 96.522331238 2.2549514771 66.899040222 1.7841796875 2.1483254433
 1852.0185547 6.0000000000 10.070312500 -0.003468935 0.3642320037 2.3499655724 107.31250000 96.641258240 2.2678294182 67.629104614 1.8535156250 2.1563787460
 1852.1708984 6.0000000000 10.093750000 -0.005605769 0.3602526784 2.3463191986 111.00000000 97.176429749 2.1573944092 67.758010864 1.8271484375 2.0383567810
 1852.3233643 6.0000000000 10.203124046 -0.008793435 0.3640253544 2.3496437073 111.00000000 98.033103943 2.1973648071 68.032829285 1.8837890625 2.0340647697
 1852.4757080 6.0000000000 10.234374046 -0.008673718 0.3719244897 2.3501291275 103.37500000 98.415000916 2.1651058197 69.004005432 1.9248046875 2.0598306656
 1852.6280518 6.0000000000 10.242186546 -0.010826341 0.3625594079 2.3484630585 100.50000000 98.614982605 2.2112007141 69.108985901 2.0195312500 2.1158471107
 1852.7805176 6.0000000000 10.242186546 -0.008609615 0.3555989563 2.3517456055 96.125000000 98.640235901 2.4117178917 68.612983704 1.9765625000 2.1899523735
 1852.9328613 6.0000000000 10.242186546 -0.008874379 0.3551762402 2.3534851074 98.875000000 98.706504822 2.2826337814 68.266014099 2.0039062500 2.2262387276
 1853.0853271 6.0000000000 10.281249046 -0.008039103 0.3615000248 2.3528571129 99.000000000 98.806495667 2.3810229301 68.774040222 1.9580078125 2.2510490417
 1853.2375488 6.0000000000 10.296875000 -0.006090713 0.3593617976 2.3506488800 103.43750000 98.804595947 2.4383206367 69.492195129 1.9326171875 2.3019375801
 1853.3900146 6.0000000000 10.296875000 -0.002721875 0.3790950775 2.3471674919 101.68750000 98.696083069 2.4177970886 69.242187500 2.0605468750 2.3738784790
 1853.5423584 6.0000000000 10.296875000 -0.003290625 0.3764563799 2.3489589691 103.06250000 98.235267639 2.5455508232 68.953125000 2.5351562500 2.4365892410
 1853.6948242 6.0000000000 10.296875000 0.0000807846 0.3766860366 2.3506259918 100.12500000 97.778945923 2.4889178276 67.491996765 2.7304687500 2.4124569893
 1853.8471680 6.0000000000 10.351562500 -0.000606250 0.3610490561 2.3463010788 102.06250000 97.373985291 2.4955186844 67.265625000 2.3046875000 2.4064483643
 1853.9995117 6.0000000000 10.328125000 -0.003981185 0.3694982529 2.3425955772 99.125000000 97.234344482 2.5439090729 67.757804871 2.1972656250 2.3857603073
 1854.1519775 6.0000000000 10.351562500 -0.006459375 0.3819343448 2.3416962624 99.437500000 97.250061035 2.5250573158 67.992187500 2.0058593750 2.3877301216
 1854.3043213 6.0000000000 10.382813454 -0.005168775 0.3946591020 2.3460946083 98.250000000 97.325408936 2.5029354095 67.726577759 2.0371093750 2.3629374504
 1854.4567871 6.0000000000 10.382813454 -0.004078125 0.3848899901 2.3504390717 98.125000000 97.393539429 2.4657077789 67.011718750 2.0019531250 2.3343410492
 1854.6091309 6.0000000000 10.382813454 -0.000234428 0.3760880828 2.3537435532 99.437500000 97.429290771 2.4081726074 67.398422241 2.0996093750 2.3302683830
 1854.7615967 6.0000000000 10.375000000 0.0017750000 0.3717371821 2.3519749641 99.500000000 97.406608582 2.4739203453 68.105468750 2.2636718750 2.3408365250
 1854.9138184 6.0000000000 10.375000000 0.0008995997 0.3843359351 2.3533425331 101.62500000 97.298973083 2.4202055931 67.461967468 2.3046875000 2.3554115295
 1855.0661621 6.0000000000 10.382813454 -0.002302965 0.3973770440 2.3580961227 100.50000000 96.947654724 2.4843688011 66.242591858 2.3144531250 2.3760194778
 1855.2186279 6.0000000000 10.382813454 -0.002463891 0.3959463239 2.3591961861 100.81250000 96.625152588 2.5366497040 66.026618958 2.2656250000 2.3749179840
 1855.3709717 6.0000000000 10.390625000 -0.004502965 0.3737950325 2.3548741341 105.00000000 96.483985901 2.4965934753 66.871292114 2.0976562500 2.3768744469
 1855.5234375 6.0000000000 10.398436546 -0.004481345 0.3567789197 2.3538103104 108.37500000 96.354927063 2.4812998772 66.822257996 2.1347656250 2.3705449104
 1855.6757813 6.0000000000 10.382813454 -0.000616987 0.3614752293 2.3528480530 104.87500000 96.256088257 2.4250764847 69.121292114 2.0097656250 2.3253679276
 1855.8282471 6.0000000000 10.382813454 0.0021274039 0.3768984675 2.3538188934 97.875000000 96.273597717 2.3556008339 69.003807068 1.9755859375 2.2835450172
 1855.9805908 6.0000000000 10.382813454 0.0030730185 0.3886644244 2.3577294350 94.000000000 96.377738953 2.3829851151 69.159225464 2.0097656250 2.2587118149
 1856.1330566 6.0000000000 10.351562500 0.0054152245 0.3977208436 2.3629946709 101.31250000 96.673057556 2.3729238510 70.208129883 1.9160156250 2.2657685280
 1856.2854004 6.0000000000 10.351562500 0.0059152124 0.3932746053 2.3696708679 104.06250000 96.886108398 2.4346270561 68.859786987 2.1894531250 2.2745480537
 1856.4378662 6.0000000000 10.351562500 0.0063908654 0.3885604143 2.3709626198 107.87500000 96.980102539 2.3407459259 68.428283691 2.2753906250 2.2647247314
 1856.5900879 6.0000000000 10.375000000 0.0060881502 0.3831618428 2.3681778908 103.93750000 96.935882568 2.4028944969 70.143516541 2.1992187500 2.2911243439
 1856.7424316 6.0000000000 10.382813454 0.0056942310 0.3901761472 2.3633942604 103.81250000 96.839256287 2.4468398094 70.710334778 2.0332031250 2.2955398560
 1856.8948975 6.0000000000 10.375000000 0.0055118497 0.3793061376 2.3640356064 103.37500000 96.749145508 2.4027428627 69.337966919 1.9394531250 2.2656049728
 1857.0472412 6.0000000000 10.382813454 0.0057644234 0.3736711740 2.3603405952 103.43750000 96.723022461 2.4574193954 68.103363037 2.0703125000 2.2764382362
 1857.1997070 6.0000000000 10.320311546 0.0011851882 0.3698752522 2.3634319305 104.00000000 96.789978027 2.4621300697 67.378700256 1.9433593750 2.2870011330
 1857.3520508 6.0000000000 10.296875000 0.0006307692 0.3600737453 2.3585228920 104.37500000 96.844451904 2.4339203835 67.514419556 1.9335937500 2.3008136749
 1857.5045166 6.0000000000 10.304688454 -0.001800721 0.3616953492 2.3511424065 106.93750000 96.890609741 2.4036631584 68.025917053 1.9277343750 2.2912235260
 1857.6568604 6.0000000000 10.367187500 -0.005082692 0.3593430519 2.3454108238 106.62500000 96.919998169 2.4452161789 68.878608704 2.4335937500 2.2542886734
 1857.8093262 6.0000000000 10.406250954 -0.004416987 0.3752397895 2.3511166573 104.93750000 96.905326843 2.4473929405 69.003707886 1.8398437500 2.2005805969
 1857.9616699 6.0000000000 10.414062500 -0.001628903 0.3596972525 2.3586950302 103.06250000 96.794395447 2.2506775856 69.128700256 1.6845703125 2.1273221970
 1858.1141357 6.0000000000 10.382813454 0.0008215545 0.3511286378 2.3623256683 100.43750000 96.596633911 2.2065882683 69.246292114 1.6777343750 2.0581231117
 1858.2663574 6.0000000000 10.406250954 0.0049441154 0.3390844166 2.3554639816 101.75000000 96.346771240 2.2007775307 69.132202148 1.8476562500 2.0262522697
 1858.4187012 6.0000000000 10.437500000 0.0098112179 0.3594142795 2.3490757942 101.81250000 96.133369446 2.2205452919 69.375000000 1.7011718750 2.0338225365
 1858.5711670 6.0000000000 10.453125000 0.0102345878 0.3614128828 2.3474755287 106.81250000 95.946838379 2.1760497093 69.396614075 1.8574218750 2.0665445328
 1858.7235107 6.0000000000 10.507811546 0.0113074519 0.3520661891 2.3540096283 107.93750000 95.803451538 2.2497177124 70.132011414 1.8154296875 2.0646524429
 1858.8759766 6.0000000000 10.562500000 0.0080048842 0.3363277614 2.3561658859 108.31250000 95.577766418 2.1830310822 70.396614075 1.7031250000 2.0596218109
