# LAS format log file from PETREL
# Project units are specified as depth units
#==================================================================
~Version information
VERS.   2.0:
WRAP.   NO:
#==================================================================
~Well
STRT .m      382.62487793 :
STOP .m      2254.4997559 :
STEP .m     0.00000000 :
NULL .        -999.250000 :
COMP.           : COMPANY
WELL.  31/5-3   : WELL
FLD.            : FIELD
LOC.            : LOCATION
SRVC.           : SERVICE COMPANY
DATE.  2018-09-11 14:48:39   : Log Export Date {yyyy-MM-dd HH:mm:ss}
PROV.           : PROVINCE
UWI.   31/5-3   : UNIQUE WELL ID
API.            : API NUMBER
#==================================================================
~Curve
DEPT .m                   : DEPTH
Lithology_geolink ._      : Lithology_geolink
CALI .in                  : CALI
DRHO .g/cm3               : DRHO
NPHI .m3/m3               : NPHI
RHOB .g/cm3               : RHOB
GR .gAPI                  : GR
DTC .us/ft                : DTC
DTE .us/ft                : DTE
RDEP .ohm.m               : RDEP
SP .mV                    : SP
RSHA .ohm.m               : RSHA
RMED .ohm.m               : RMED
~Parameter
#==================================================================
~Ascii
# ...
 1000.6248169  -999.250000 17.705999374 0.0309999995  -999.250000  -999.250000 80.817344666 145.76962280 142.70492554 1.3280038834 43.840816498 0.8629970551 1.0400018692
 1000.7498169  -999.250000 17.702999115 0.0300014634  -999.250000  -999.250000 79.231094360 145.96524048 142.91777039 1.3279999495 43.483699799 0.8639985323 1.0390014648
 1000.8748779  -999.250000 17.701999664 0.0260039065  -999.250000  -999.250000 78.322326660 146.16094971 143.08232117 1.3289990425 43.127521515 0.8640000224 1.0390000343
 1000.9998169  -999.250000 17.704000473 0.0230043940  -999.250000  -999.250000 78.194313049 146.31912231 143.19790649 1.3309969902 42.848678589 0.8640000224 1.0399985313
 1001.1248169  -999.250000 17.707000732 0.0230000000  -999.250000  -999.250000 78.592025757 146.41123962 143.26119995 1.3329960108 42.680412292 0.8649990559 1.0399999619
 1001.2498169  -999.250000 17.709999084 0.0259956084  -999.250000  -999.250000 79.333190918 146.44309998 143.26599121 1.3349970579 42.608177185 0.8699926734 1.0399999619
 1001.3748779  -999.250000 17.709999084 0.0279980469  -999.250000  -999.250000 80.270629883 146.41967773 143.20568848 1.3330018520 42.603008270 0.8590107560 1.0399999619
 1001.4998779  -999.250000 17.708999634 0.0289990231  -999.250000  -999.250000 81.281517029 146.22390747 143.06939697 1.3240088224 42.662910461 0.8410088420 1.0390009880
 1001.6248169  -999.250000 17.708000183 0.0250078086  -999.250000  -999.250000 81.974304199 146.02836609 142.87873840 1.3120235205 42.971244812 0.8220185637 1.0370038748
 1001.7498169  -999.250000 17.708000183 0.0200073272  -999.250000  -999.250000 82.278259277 145.80018616 142.66795349 1.2970293760 43.698223114 0.8030278087 1.0340058804
 1001.8748169  -999.250000 17.709999084 0.0219970699  -999.250000  -999.250000 82.360801697 145.55577087 142.46290588 1.2840191126 44.663642883 0.7870234251 1.0300058126
 1001.9998779  -999.250000 17.711000443 0.0339882821  -999.250000  -999.250000 82.466850281 145.36979675 142.30697632 1.2750087976 45.530731201 0.8099775314 1.0250048637
 1002.1248779  -999.250000 17.711000443 0.0559785180  -999.250000  -999.250000 82.872207642 145.37567139 142.26730347 1.2680068016 45.894290924 0.8769672513 1.0180068016
 1002.2498169  -999.250000 17.711000443 0.0819745958  -999.250000  -999.250000 83.845619202 145.62112427 142.54324341 1.2580195665 45.475025177 0.9319462776 1.0120116472
 1002.3748169  -999.250000 17.712999344 0.1049663201  -999.250000  -999.250000 84.813636780 146.25828552 143.12556458 1.2450253963 44.832572937 0.9359941483 1.0070097446
 1002.4998169  -999.250000 17.715999603 0.1119897515  -999.250000  -999.250000 85.371910095 147.07723999 143.93463135 1.2280249596 44.406829834 0.8900673389 1.0050029755
 1002.6248779  -999.250000 17.718000412 0.1000117213  -999.250000  -999.250000 85.368003845 147.99377441 144.87951660 1.2100175619 44.338100433 0.8380507827 1.0069980621
 1002.7498169  -999.250000 17.718999863 0.0790307671  -999.250000  -999.250000 84.822334290 148.96415710 145.85614014 1.1950219870 44.544494629 0.8170204759 1.0109941959
 1002.8748169  -999.250000 17.718999863 0.0580205172  -999.250000  -999.250000 83.917213440 149.89302063 146.74726868 1.1860175133 44.665706635 0.8120048642 1.0149921179
 1002.9998169  -999.250000 17.718999863 0.0430219620  -999.250000  -999.250000 83.273574829 150.64109802 147.55055237 1.1830043793 44.589187622 0.8169926405 1.0140014887
 1003.1248779  -999.250000 17.718999863 0.0340087898  -999.250000  -999.250000 83.176139832 151.37582397 148.29283142 1.1869961023 44.541069031 0.8259912133 1.0100039244
 1003.2498779  -999.250000 17.718000412 0.0300039053  -999.250000  -999.250000 83.570419312 151.98922729 148.89517212 1.1969902515 44.628871918 0.8349912167 1.0060039759
 1003.3748169  -999.250000 17.718000412 0.0299999993  -999.250000  -999.250000 84.239364624 152.33183289 149.23222351 1.2089765072 44.835494995 0.8439911604 1.0060000420
 1003.4998169  -999.250000 17.721000671 0.0349926725  -999.250000  -999.250000 84.863471985 152.25669861 149.15071106 1.2199785709 45.037506104 0.8529868126 1.0139844418
 1003.6248169  -999.250000 17.726999283 0.0439868160  -999.250000  -999.250000 85.156288147 151.66984558 148.47349548 1.2289867401 44.931259155 0.8619868159 1.0259823799
 1003.7498779  -999.250000 17.732000351 0.0559882820  -999.250000  -999.250000 85.266838074 150.71607971 147.58642578 1.2379912138 44.642421722 0.8709912300 1.0349911451
 1003.8748779  -999.250000 17.733999252 0.0659902319  -999.250000  -999.250000 85.378776550 149.80902100 146.73464966 1.2469911575 44.403465271 0.8759975433 1.0419932604
 1003.9998169  -999.250000 17.732000351 0.0659999996  -999.250000  -999.250000 85.517662048 149.15132141 146.08731079 1.2569804192 44.268329620 0.8730029464 1.0469902754
 1004.1248169  -999.250000 17.729999542 0.0610073283  -999.250000  -999.250000 85.632720947 148.83659363 145.75959778 1.2659825087 44.199169159 0.8610175848 1.0499941111
 1004.2498169  -999.250000 17.732000351 0.0520131849  -999.250000  -999.250000 85.606056213 148.88548279 145.81364441 1.2709927559 44.076240540 0.8480190039 1.0499999523
 1004.3748779  -999.250000 17.738000870 0.0420097634  -999.250000  -999.250000 85.203590393 149.21466064 146.07711792 1.2700009346 43.838348389 0.8370107412 1.0480018854
 1004.4998169  -999.250000 17.745000839 0.0340117216  -999.250000  -999.250000 84.391983032 149.52090454 146.36865234 1.2650072575 43.577636719 0.8320049047 1.0420088768
 1004.6248169  -999.250000 17.752000809 0.0270068403  -999.250000  -999.250000 83.343566895 149.76385498 146.65544128 1.2580137253 43.393451691 0.8409912586 1.0360116959
 1004.7498169  -999.250000 17.756000519 0.0210087840  -999.250000  -999.250000 82.228721619 150.03190613 146.92608643 1.2520087957 43.402976990 0.8499868512 1.0300087929
 1004.8748779  -999.250000 17.757999420 0.0160048828  -999.250000  -999.250000 81.181533813 150.44888306 147.18309021 1.2510010004 43.696567535 0.8589912653 1.0270029306
 1004.9998779  -999.250000 17.756000519 0.0130029302  -999.250000  -999.250000 80.315269470 150.59611511 147.42733765 1.2559951544 44.243198395 0.8679912090 1.0269999504
 1005.1248169  -999.250000 17.752000809 0.0159941446  -999.250000  -999.250000 79.585777283 150.74342346 147.62316895 1.2669785023 44.866477966 0.8759921789 1.0279980898
 1005.2498169  -999.250000 17.745000839 0.0249868110  -999.250000  -999.250000 79.029357910 150.85824585 147.73178101 1.2809727192 45.325878143 0.8819912672 1.0299960375
 1005.3748169  -999.250000 17.735000610 0.0389794931  -999.250000  -999.250000 78.817520142 150.85289001 147.70246887 1.2979750633 45.477630615 0.8700175881 1.0319969654
 1005.4998779  -999.250000 17.722999573 0.0489902347  -999.250000  -999.250000 79.048660278 150.61808777 147.47599792 1.3149834871 45.302257538 0.8350341320 1.0359960794
 1005.6248779  -999.250000 17.711000443 0.0549941398  -999.250000  -999.250000 79.660804749 150.03091431 146.97785950 1.3319834471 44.921745300 0.8090127110 1.0399960279
 1005.7498169  -999.250000 17.701000214 0.0609882884  -999.250000  -999.250000 80.284477234 149.30020142 146.16421509 1.3459726572 44.595798492 0.8119970560 1.0449901819
 1005.8748169  -999.250000 17.695999146 0.0719838738  -999.250000  -999.250000 80.795745850 148.41748047 145.24687195 1.3599727154 44.523174286 0.8409575820 1.0499901772
 1005.9998169  -999.250000 17.701999664 0.0939677730  -999.250000  -999.250000 81.370880127 147.48869324 144.36471558 1.3709839582 44.613819122 0.8519839048 1.0549926758
 1006.1248779  -999.250000 17.718999863 0.1179765612  -999.250000  -999.250000 82.143867493 146.71807861 143.65538025 1.3789920807 44.760787964 0.8380136490 1.0589960814
 1006.2498169  -999.250000 17.739999771 0.1329780221  -999.250000  -999.250000 83.118621826 146.32380676 143.24180603 1.3819955587 44.877712250 0.8210166097 1.0609970093
 1006.3748169  -999.250000 17.756000519 0.1369960904  -999.250000  -999.250000 83.895111084 146.32380676 143.24943542 1.3780078888 44.937854767 0.8050156236 1.0580058098
 1006.4998169  -999.250000 17.756999969 0.1340043992  -999.250000  -999.250000 83.903984070 146.67033386 143.54466248 1.3700156212 44.941989899 0.7940161228 1.0540078878
