# LAS format log file from PETREL
# Project units are specified as depth units
#==================================================================
~Version information
VERS.   2.0:
WRAP.   NO:
#==================================================================
~Well
STRT .m      815.00012207 :
STOP .m      2497.5000000 :
STEP .m     0.00000000 :
NULL .        -999.250000 :
COMP.           : COMPANY
WELL.  31/5-2R   : WELL
FLD.            : FIELD
LOC.            : LOCATION
SRVC.           : SERVICE COMPANY
DATE.  2018-09-11 14:48:39   : Log Export Date {yyyy-MM-dd HH:mm:ss}
PROV.           : PROVINCE
UWI.   31/5-2 R   : UNIQUE WELL ID
API.            : API NUMBER
#==================================================================
~Curve
DEPT .m                   : DEPTH
Lithology_geolink ._      : Lithology_geolink
CALI .in                  : CALI
DRHO .g/cm3               : DRHO
NPHI .m3/m3               : NPHI
RHOB .g/cm3               : RHOB
GR .gAPI                  : GR
DTC .us/ft                : DTC
DTE .us/ft                : DTE
RDEP .ohm.m               : RDEP
SP .mV                    : SP
RSHA .ohm.m               : RSHA
RMED .ohm.m               : RMED
~Parameter
#==================================================================
~Ascii
# ...
 1714.9998779 2.0000000000 12.473999977 -0.057999998 0.2467200160 2.1730000973 75.532997131 109.12907410 106.85555267 0.6660000086 10.125000000 0.8510000110 0.8510000110
 1715.1248779 2.0000000000 12.470999718 -0.050000001 0.2467699945 2.1860001087 75.371002197 109.14202118 106.86480713 0.6980000138 10.131999969 0.8519999981 0.8519999981
 1715.2500000 2.0000000000 12.468999863 -0.046000000 0.2498899996 2.1919999123 75.773002625 109.10767365 106.86547852 0.7310000062 10.161000252 0.8569999933 0.8569999933
 1715.3750000 2.0000000000 12.470000267 -0.050000001 0.2568199933 2.1909999847 77.141998291 108.84064484 106.66044617 0.7680000067 10.208999634 0.8700000048 0.8700000048
 1715.5000000 2.0000000000 12.472000122 -0.057999998 0.2669900060 2.1840000153 78.991996765 108.37115479 106.17218781 0.8119999766 10.258999825 0.8870000243 0.8870000243
 1715.6250000 2.0000000000 12.472999573 -0.064000003 0.2771700025 2.1789999008 80.533996582 107.65486908 105.41689301 0.8619999886 10.298999786 0.9060000181 0.9060000181
 1715.7498779 2.0000000000 12.472999573 -0.062001951 0.2835000157 2.1830000877 80.924621582 106.70899200 104.46140289 0.9179452658 10.318981171 0.9369696975 0.9369696975
 1715.8748779 2.0000000000 12.470999718 -0.056000002 0.2847900093 2.1970000267 80.451461792 105.62946320 103.41985321 0.9769999981 10.331987381 0.9909999967 0.9909999967
 1715.9998779 2.0000000000 12.470000267 -0.048000000 0.2838200033 2.2200000286 79.723999023 104.68080902 102.49095917 1.0349999666 10.347000122 1.0779999495 1.0779999495
 1716.1248779 2.0000000000 12.470000267 -0.039000001 0.2850799859 2.2460000515 79.379997253 104.13517761 101.93267822 1.0930000544 10.369999886 1.1859999895 1.1859999895
 1716.2498779 2.0000000000 12.470999718 -0.030999999 0.2910200059 2.2679998875 79.424003601 104.01002502 101.75559998 1.1490000486 10.395000458 1.2860000134 1.2860000134
 1716.3750000 2.0000000000 12.472000122 -0.026000001 0.3000800014 2.2790000439 79.642997742 104.15656281 101.93083954 1.1920000315 10.413000107 1.3500000238 1.3500000238
 1716.5000000 2.0000000000 12.472000122 -0.027000001 0.3085100055 2.2769999504 79.970001221 104.56584167 102.39124298 1.2109999657 10.416000366 1.3769999743 1.3769999743
 1716.6250000 2.0000000000 12.472000122 -0.034000002 0.3120400012 2.2620000839 80.709999084 105.34386444 103.04169464 1.2009999752 10.404000282 1.3730000257 1.3730000257
 1716.7500000 2.0000000000 12.472000122 -0.045000002 0.3094899952 2.2439999580 82.212997437 106.05680847 103.77335358 1.1599999666 10.378000259 1.3270000219 1.3270000219
 1716.8748779 2.0000000000 12.473999977 -0.053991213 0.3034199774 2.2260000706 84.091163635 106.72149658 104.47180939 1.1090497971 10.352025986 1.2500752211 1.2500752211
 1716.9998779 5.0000000000 12.475999832 -0.059999999 0.2982000113 2.2130000591 85.908226013 107.29090118 105.10112000 1.0559999943 10.335016251 1.1579999924 1.1579999924
 1717.1248779 5.0000000000 12.479999542 -0.064999998 0.2959699929 2.2000000477 87.101829529 107.82481384 105.63550568 1.0099999905 10.336997986 1.0839999914 1.0839999914
 1717.2498779 5.0000000000 12.482000351 -0.071000002 0.2952400148 2.1889998913 87.591003418 108.34068298 106.05847168 0.9689999819 10.348999977 1.0379999876 1.0379999876
 1717.3748779 5.0000000000 12.482999802 -0.079000004 0.2918500006 2.1779999733 87.407997131 108.66034698 106.35623932 0.9350000024 10.352999687 1.0210000277 1.0210000277
 1717.5000000 5.0000000000 12.480999947 -0.085000001 0.2854100168 2.1700000763 86.853996277 108.83531189 106.53546906 0.9079999924 10.333000183 1.0190000534 1.0190000534
 1717.6250000 5.0000000000 12.477000237 -0.086999997 0.2782999873 2.1679999828 86.189002991 108.89781952 106.65876770 0.8889999986 10.289999962 1.0199999809 1.0199999809
 1717.7500000 5.0000000000 12.472999573 -0.085000001 0.2745000124 2.1700000763 85.609001160 108.99942780 106.74790192 0.8799999952 10.237000465 1.0169999599 1.0169999599
 1717.8750000 5.0000000000 12.468999863 -0.081000000 0.2744599879 2.1749999523 85.244003296 109.12481689 106.80913544 0.8790000081 10.190999985 1.0119999647 1.0119999647
 1717.9998779 5.0000000000 12.470000267 -0.074006841 0.2765200138 2.1840000153 85.163078308 109.12931824 106.83399963 0.8859931231 10.164026260 1.0090029240 1.0090029240
 1718.1248779 5.0000000000 12.472999573 -0.067000002 0.2779799998 2.1960000992 85.492675781 108.90754700 106.78107452 0.8980000019 10.152011871 1.0119999647 1.0119999647
 1718.2498779 5.0000000000 12.477000237 -0.061000001 0.2795200050 2.2079999447 86.360153198 108.81623840 106.63031769 0.9129999876 10.146005630 1.0219999552 1.0219999552
 1718.3748779 5.0000000000 12.477999687 -0.057999998 0.2836099863 2.2139999866 87.570999146 108.64712524 106.40716553 0.9319999814 10.142000198 1.0329999924 1.0329999924
 1718.4998779 5.0000000000 12.475999832 -0.059999999 0.2886599898 2.2139999866 88.500000000 108.39445496 106.14454651 0.9549999833 10.142000198 1.0399999619 1.0399999619
 1718.6248779 5.0000000000 12.470999718 -0.064000003 0.2905200124 2.2079999447 88.718002319 108.10672760 105.88212585 0.9819999933 10.154000282 1.0399999619 1.0399999619
 1718.7500000 5.0000000000 12.465999603 -0.070000000 0.2871499956 2.2019999027 88.277999878 107.83988190 105.66152191 1.0119999647 10.175999641 1.0379999876 1.0379999876
 1718.8750000 5.0000000000 12.461999893 -0.071999997 0.2820099890 2.2009999752 87.502998352 107.81111908 105.52387238 1.0429999828 10.201999664 1.0429999828 1.0429999828
 1719.0000000 5.0000000000 12.461001396 -0.068999998 0.2801800072 2.2079999447 86.779998779 107.67475128 105.42938232 1.0789999962 10.223999977 1.0559999943 1.0559999943
 1719.1250000 5.0000000000 12.461999893 -0.064000003 0.2826400101 2.2179999352 86.321998596 107.58451843 105.34318542 1.1169999838 10.239999771 1.0759999752 1.0759999752
 1719.2498779 5.0000000000 12.465999603 -0.060003906 0.2875100076 2.2290000916 86.249069214 107.47782898 105.22106934 1.1559619904 10.260978699 1.1039726734 1.1039726734
 1719.3748779 5.0000000000 12.470999718 -0.056000002 0.2908599973 2.2420001030 86.606651306 107.20533752 105.01104736 1.1890000105 10.292968750 1.1419999599 1.1419999599
 1719.4998779 5.0000000000 12.477000237 -0.052999999 0.2912400067 2.2560000420 87.531097412 106.88452148 104.62639618 1.2039999962 10.334959030 1.1959999800 1.1959999800
 1719.6248779 5.0000000000 12.482999802 -0.050999999 0.2896600068 2.2730000019 89.027000427 106.26329041 104.02828979 1.1950000525 10.369000435 1.2649999857 1.2649999857
 1719.7498779 5.0000000000 12.487999916 -0.048000000 0.2869800031 2.2890000343 90.815002441 105.43635559 103.28678894 1.1649999619 10.387999535 1.3320000172 1.3320000172
 1719.8750000 5.0000000000 12.493000031 -0.043000001 0.2829500139 2.3020000458 92.400001526 104.64287567 102.49140167 1.1169999838 10.387999535 1.3580000401 1.3580000401
 1720.0000000 5.0000000000 12.498000145 -0.039000001 0.2774600089 2.3080000877 93.232002258 104.04364014 101.77616882 1.0650000572 10.380000114 1.3159999847 1.3159999847
 1720.1250000 5.0000000000 12.503999710 -0.035999998 0.2714799941 2.3010001183 92.914001465 103.63168335 101.31211853 1.0160000324 10.371000290 1.2100000381 1.2100000381
 1720.2500000 5.0000000000 12.508000374 -0.035999998 0.2669599950 2.2799999714 91.123001099 103.66135406 101.43074799 0.9739999771 10.359999657 1.0750000477 1.0750000477
 1720.3748779 5.0000000000 12.510000229 -0.041994140 0.2653900087 2.2490000725 88.587478638 104.19073486 102.05619812 0.9400331974 10.342017174 0.9601122737 0.9601122737
 1720.4998779 2.0000000000 12.508000374 -0.050999999 0.2683199942 2.2160000801 86.006515503 105.25988007 103.06494141 0.9150000215 10.315026283 0.8899999857 0.8899999857
 1720.6248779 2.0000000000 12.503000259 -0.061000001 0.2748000026 2.1909999847 84.259704590 106.56829834 104.28353882 0.8939999938 10.287027359 0.8690000176 0.8690000176
 1720.7498779 2.0000000000 12.500000000 -0.068000004 0.2829400003 2.1779999733 83.616996765 107.73432922 105.50236511 0.8780000210 10.260999680 0.8809999824 0.8809999824
 1720.8748779 2.0000000000 12.500000000 -0.071999997 0.2905899882 2.1749999523 84.240997314 108.68647766 106.45475769 0.8719999790 10.239000320 0.9120000005 0.9120000005
