# LAS format log file from PETREL
# Project units are specified as depth units
#==================================================================
~Version information
VERS.   2.0:
WRAP.   NO:
#==================================================================
~Well
STRT .m      815.00012207 :
STOP .m      2497.5000000 :
STEP .m     0.00000000 :
NULL .        -999.250000 :
COMP.           : COMPANY
WELL.  31/5-2R   : WELL
FLD.            : FIELD
LOC.            : LOCATION
SRVC.           : SERVICE COMPANY
DATE.  2018-09-11 14:48:39   : Log Export Date {yyyy-MM-dd HH:mm:ss}
PROV.           : PROVINCE
UWI.   31/5-2 R   : UNIQUE WELL ID
API.            : API NUMBER
#==================================================================
~Curve
DEPT .m                   : DEPTH
Lithology_geolink ._      : Lithology_geolink
CALI .in                  : CALI
DRHO .g/cm3               : DRHO
NPHI .m3/m3               : NPHI
RHOB .g/cm3               : RHOB
GR .gAPI                  : GR
DTC .us/ft                : DTC
DTE .us/ft                : DTE
RDEP .ohm.m               : RDEP
SP .mV                    : SP
RSHA .ohm.m               : RSHA
RMED .ohm.m               : RMED
~Parameter
#==================================================================
~Ascii
# ...
 1936.9998779 5.0000000000 12.769000053 0.0269853529 0.2925499976 2.4400000572 93.676933289 96.843612671 94.601516724 3.1069786549 10.085992813 4.9728240967 4.9728240967
 1937.1248779 5.0000000000 12.819999695 0.0339931659 0.2883999944 2.4460000992 92.766891479 96.515899658 94.250007629 3.0960106850 10.084001541 5.0709042549 5.0709042549
 1937.2498779 5.0000000000 12.880000114 0.0280058607 0.2838100195 2.4389998913 91.730010986 96.248809814 93.968711853 3.0560390949 10.066017151 4.9601082802 4.9601082802
 1937.3748779 5.0000000000 12.937999725 0.0080195321 0.2796599865 2.4179999828 91.289428711 96.008811951 93.802017212 2.9930000305 10.035030365 4.5960001945 4.5960001945
 1937.4998779 5.0000000000 12.984000206 -0.015000000 0.2753199935 2.3929998875 91.753540039 95.937889099 93.771629333 2.9200000763 10.003031731 4.1090002060 4.1090002060
 1937.6248779 5.0000000000 13.016999245 -0.033000000 0.2698799968 2.3740000725 92.712997437 96.098075867 93.880111694 2.8570001125 9.9739999771 3.6760001183 3.6760001183
 1937.7498779 5.0000000000 13.039999962 -0.041999999 0.2639399767 2.3659999371 93.661003113 96.357017517 94.111015320 2.8169999123 9.9460000992 3.3800001144 3.3800001144
 1937.8750000 5.0000000000 13.060000420 -0.045000002 0.2591200173 2.3659999371 94.244003296 96.684783936 94.430000305 2.8069999218 9.9149999619 3.2490000725 3.2490000725
 1937.9997559 5.0000000000 13.079000473 -0.045000002 0.2570799887 2.3710000515 94.352783203 96.958473206 94.769767761 2.8149843216 9.8840599060 3.2589805126 3.2589805126
 1938.1248779 5.0000000000 13.097000122 -0.045000002 0.2584600151 2.3770000935 94.008338928 97.311134338 95.115760803 2.8269882202 9.8610229492 3.3798818588 3.3798818588
 1938.2498779 5.0000000000 13.111000061 -0.045000002 0.2645699978 2.3819999695 93.493499756 97.712898254 95.453712463 2.8309962749 9.8560047150 3.5947899818 3.5947899818
 1938.3748779 5.0000000000 13.121000290 -0.046998046 0.2756200135 2.3859999180 93.213272095 98.050453186 95.771736145 2.8240067959 9.8759813309 3.8547461033 3.8547461033
 1938.4998779 5.0000000000 13.126999855 -0.048998047 0.2897800207 2.3889999390 93.382835388 98.245986938 96.044586182 2.8150088787 9.9179592133 4.1057548523 4.1057548523
 1938.6248779 5.0000000000 13.128999710 -0.048999999 0.3037399948 2.3910000324 93.642745972 98.471565247 96.254127502 2.8180000782 9.9679517746 4.2849998474 4.2849998474
 1938.7498779 5.0000000000 13.128999710 -0.048000000 0.3127900064 2.3910000324 93.473999023 98.654991150 96.416397095 2.8450000286 10.015000343 4.3920001984 4.3920001984
 1938.8748779 5.0000000000 13.128000259 -0.046999998 0.3154200017 2.3910000324 92.483001709 98.802665710 96.550285339 2.9110000134 10.048999786 4.4260001183 4.4260001183
 1939.0000000 5.0000000000 13.126000404 -0.045000002 0.3143399954 2.3889999390 91.227996826 98.917121887 96.680351257 3.0039999485 10.074000359 4.4229998589 4.4229998589
 1939.1247559 5.0000000000 13.126000404 -0.044001952 0.3134900033 2.3889999390 90.393630981 98.989112854 96.833419800 3.1067988873 10.092963219 4.3980484009 4.3980484009
 1939.2498779 5.0000000000 13.126000404 -0.042001951 0.3132199943 2.3910000324 90.655738831 99.315238953 97.042854309 3.1949141026 10.109983444 4.3660316467 4.3660316467
 1939.3748779 5.0000000000 13.125000000 -0.041999999 0.3113600016 2.3919999599 91.698974609 99.588714600 97.290893555 3.2609355450 10.123986244 4.3410243988 4.3410243988
 1939.4998779 5.0000000000 13.123999596 -0.042999025 0.3073800206 2.3929998875 93.006729126 99.830039978 97.560531616 3.3129491806 10.130992889 4.3320083618 4.3320083618
 1939.6248779 5.0000000000 13.123000145 -0.046996091 0.3044799864 2.3900001049 93.633392334 100.03395081 97.837745667 3.3699443340 10.133996964 4.3419904709 4.3419904709
 1939.7498779 5.0000000000 13.121999741 -0.050999999 0.3066000044 2.3859999180 93.255371094 100.23678589 98.110366821 3.4379999638 10.137995720 4.3660001755 4.3660001755
 1939.8748779 5.0000000000 13.121999741 -0.052999999 0.3148100078 2.3829998970 92.089134216 100.65950012 98.367141724 3.5090000629 10.140996933 4.4000000954 4.4000000954
 1939.9998779 5.0000000000 13.121000290 -0.052999999 0.3247199953 2.3810000420 91.100997925 100.84120941 98.597366333 3.5620000362 10.137999535 4.4340000153 4.4340000153
 1940.1248779 6.0000000000 13.118999481 -0.052999999 0.3311699927 2.3800001144 90.880996704 100.95796967 98.788391113 3.5840001106 10.130000114 4.4629998207 4.4629998207
 1940.2497559 6.0000000000 13.114999771 -0.053998049 0.3322878182 2.3750000000 91.590614319 101.11920166 98.918830872 3.5740194321 10.115029335 4.4859552383 4.4859552383
 1940.3748779 6.0000000000 13.111999512 -0.056997072 0.3310599923 2.3689999580 92.676940918 101.27552795 98.970947266 3.5570166111 10.099015236 4.5129737854 4.5129737854
 1940.4998779 6.0000000000 13.111000061 -0.059997071 0.3334299922 2.3629999161 93.853851318 101.23702240 98.935340881 3.5500068665 10.084013939 4.5559582710 4.5559582710
 1940.6248779 6.0000000000 13.111999512 -0.061998047 0.3404499888 2.3619999886 95.082801819 101.07274628 98.835395813 3.5539960861 10.071012497 4.6119451523 4.6119451523
 1940.7498779 6.0000000000 13.114999771 -0.059002928 0.3482300043 2.3670001030 96.371742249 100.93776703 98.770095825 3.5579962730 10.057013512 4.6579551697 4.6579551697
 1940.8748779 6.0000000000 13.118000031 -0.050008789 0.3483400047 2.3800001144 97.558837891 100.96799469 98.794815063 3.5580000877 10.038018227 4.6649932861 4.6649932861
 1940.9998779 6.0000000000 13.118000031 -0.037999999 0.3401699960 2.3970000744 98.289291382 101.14999390 98.929771423 3.5620000362 10.017021179 4.6240000725 4.6240000725
 1941.1248779 6.0000000000 13.118999481 -0.026000001 0.3274000287 2.4119999409 98.353996277 101.42324829 99.165191650 3.5869998932 9.9969997406 4.5469999313 4.5469999313
 1941.2498779 6.0000000000 13.121999741 -0.017999999 0.3182899952 2.4200000763 97.848999023 101.74750519 99.453857422 3.6440000534 9.9759998322 4.4629998207 4.4629998207
 1941.3750000 6.0000000000 13.128999710 -0.017999999 0.3149800003 2.4189999104 97.247001648 101.82499695 99.683959961 3.7249999046 9.9510002136 4.3990001678 4.3990001678
 1941.4997559 6.0000000000 13.135999680 -0.025984375 0.3155800104 2.4079999924 96.980522156 102.00958252 99.776191711 3.8108320236 9.9220561981 4.3650660515 4.3650660515
 1941.6248779 5.0000000000 13.140999794 -0.035990234 0.3142400086 2.3970000744 97.118865967 102.00042725 99.680969238 3.8839287758 9.8950271606 4.3540110588 4.3540110588
 1941.7498779 5.0000000000 13.142000198 -0.042993166 0.3087999821 2.3929998875 97.398727417 101.64524841 99.376258850 3.9299552441 9.8820123672 4.3500037193 4.3500037193
 1941.8748779 5.0000000000 13.140999794 -0.042000975 0.3014000058 2.3970000744 97.411987305 101.00308990 98.877182007 3.9499804974 9.8899927139 4.3370127678 4.3370127678
 1941.9998779 5.0000000000 13.138999939 -0.035006836 0.2959800065 2.4059998989 96.734664917 100.48247528 98.276084900 3.9490008354 9.9149751663 4.3120241165 4.3120241165
 1942.1248779 5.0000000000 13.138999939 -0.028999999 0.2944599986 2.4140000343 95.468238831 99.989250183 97.776672363 3.9289999008 9.9459695816 4.2870001793 4.2870001793
 1942.2498779 5.0000000000 13.140999794 -0.027000001 0.2956800163 2.4140000343 94.117996216 99.709861755 97.451477051 3.8889999390 9.9759998322 4.2779998779 4.2779998779
 1942.3748779 5.0000000000 13.142000198 -0.030999999 0.2977000177 2.4070000648 93.200996399 99.560623169 97.309295654 3.8169999123 10.005000114 4.2909998894 4.2909998894
 1942.5000000 5.0000000000 13.143000603 -0.037000000 0.2999099791 2.3970000744 92.825996399 99.504180908 97.323165894 3.7239999771 10.038999557 4.3029999733 4.3029999733
 1942.6247559 5.0000000000 13.144000053 -0.039994139 0.3027400076 2.3900001049 92.937782288 99.731758118 97.440185547 3.6251933575 10.077923775 4.2940177917 4.2940177917
 1942.7498779 5.0000000000 13.144000053 -0.039000977 0.3060199916 2.3880000114 93.381568909 99.896186829 97.620857239 3.5480751991 10.111967087 4.2580351830 4.2580351830
 1942.8748779 5.0000000000 13.144000053 -0.036002927 0.3090299964 2.3900001049 93.848541260 100.10878754 97.832336426 3.5020449162 10.132979393 4.2280292511 4.2280292511
