# LAS format log file from PETREL
# Project units are specified as depth units
#==================================================================
~Version information
VERS.   2.0:
WRAP.   NO:
#==================================================================
~Well
STRT .m      669.21893311 :
STOP .m      2146.7373047 :
STEP .m     0.00000000 :
NULL .        -999.250000 :
COMP.           : COMPANY
WELL.  31/6-8   : WELL
FLD.            : FIELD
LOC.            : LOCATION
SRVC.           : SERVICE COMPANY
DATE.  2018-09-11 14:48:41   : Log Export Date {yyyy-MM-dd HH:mm:ss}
PROV.           : PROVINCE
UWI.   31/6-8   : UNIQUE WELL ID
API.            : API NUMBER
#==================================================================
~Curve
DEPT .m                   : DEPTH
Lithology_geolink ._      : Lithology_geolink
CALI .in                  : CALI
BS .in                    : BS
DRHO .g/cm3               : DRHO
NPHI .m3/m3               : NPHI
RHOB .g/cm3               : RHOB
GR .gAPI                  : GR
DTC .us/ft                : DTC
DTE .us/ft                : DTE
RDEP .ohm.m               : RDEP
SP .mV                    : SP
RSHA .ohm.m               : RSHA
RMED .ohm.m               : RMED
~Parameter
#==================================================================
~Ascii
# ...
 1259.3118896 12.000000000 17.500000000  -999.250000 -0.004996798 0.2465612441 2.4690065384 50.065551758 82.355758667 79.223281860 3.1946125031 18.229801178 4.1521410942 4.1517758369
 1259.4642334 12.000000000 17.500000000  -999.250000 -0.003004006 0.2348740846 2.4729936123 49.656974792 82.053627014 79.047492981 2.9530594349 18.727602005 4.0121121407 4.0119433403
 1259.6166992 12.000000000 17.500000000  -999.250000 -0.007991994 0.2524423599 2.4650127888 50.342899323 81.684066772 78.604850769 3.0269279480 17.726802826 3.9410567284 3.9410192966
 1259.7690430 12.000000000 17.500000000  -999.250000 -0.003000000 0.2539127469 2.4729969501 53.619743347 81.037544250 77.999992371 2.9819769859 17.973802567 3.9529905319 3.9529592991
 1259.9215088 12.000000000 17.500000000  -999.250000 -0.002996797 0.2573184669 2.4690032005 55.590847015 81.073295593 78.007431030 2.9529936314 17.721202850 3.9020407200 3.9018061161
 1260.0738525 12.000000000 17.500000000  -999.250000 -0.001002404 0.2563558817 2.4709968567 59.806240082 81.170509338 78.212768555 2.9489140511 18.468400955 3.7810969353 3.7809453011
 1260.2261963 12.000000000 17.500000000  -999.250000 -0.004005605 0.2636680305 2.4669969082 58.908176422 82.078697205 78.978187561 2.8419983387 19.215801239 3.7131090164 3.7131032944
 1260.3786621 12.000000000 17.500000000  -999.250000 -0.010997596 0.2612167001 2.4630064964 55.318756104 81.301506042 78.323249817 2.8400824070 19.714601517 3.8418965340 3.8421673775
 1260.5310059 12.000000000 17.500000000  -999.250000 -0.007998399 0.2446159124 2.4710047245 52.101734161 81.062637329 78.024108887 2.9430801868 20.212202072 4.0506653786 4.0510530472
 1260.6834717 12.000000000 17.500000000  -999.250000 -0.005998398 0.2270492166 2.4769999981 51.157501221 80.529418945 77.499000549 3.0429310799 20.210000992 4.1169471741 4.1169967651
 1260.8358154 12.000000000 17.500000000  -999.250000 -0.004004804 0.2260547578 2.4769983292 52.310218811 79.933624268 76.844146729 2.9568872452 19.958404541 4.1130061150 4.1132159233
 1260.9882813 12.000000000 17.500000000  -999.250000 -0.010002404 0.2070280463 2.4749999046 51.969554901 78.947463989 75.927024841 2.8161289692 19.706201553 4.3827834129 4.3831214905
 1261.1406250 12.000000000 17.500000000  -999.250000 -0.013000000 0.2045868635 2.4750118256 52.312171936 77.493667603 74.392913818 2.9770593643 19.704002380 4.5348782539 4.5350222588
 1261.2930908 12.000000000 17.500000000  -999.250000 -0.013003203 0.2006995529 2.4899935722 49.629306793 76.696151733 73.678840637 3.0506398678 18.202203751 4.5629777908 4.5628991127
 1261.4454346 12.000000000 17.500000000  -999.250000 -0.015004807 0.2128841281 2.4859881401 45.572757721 78.359466553 75.270423889 2.8258373737 18.199001312 4.5000505447 4.4999246597
 1261.5979004 12.000000000 17.500000000  -999.250000 -0.021003202 0.2055543512 2.4709520340 46.030246735 80.197746277 77.125404358 2.6230399609 17.697402954 4.4060754776 4.4056444168
 1261.7502441 12.000000000 17.500000000  -999.250000 -0.022999199 0.1958090067 2.4409976006 50.988063812 81.363838196 78.370231628 2.6480960846 17.445201874 4.1841778755 4.1837100983
 1261.9027100 12.000000000 17.500000000  -999.250000 -0.021995196 0.2070339024 2.4380080700 54.338642120 82.561141968 79.463562012 2.7676987648 16.943403244 3.8222899437 3.8216350079
 1262.0550537 12.000000000 17.500000000  -999.250000 -0.018999999 0.2094692290 2.4430081844 53.096004486 82.581291199 79.621223450 2.5799391270 17.439601898 3.5941827297 3.5941107273
 1262.2073975 12.000000000 17.500000000  -999.250000 -0.018997597 0.2084992081 2.4530031681 49.945579529 81.351058960 78.292770386 2.5039215088 16.689203262 3.7317790985 3.7320537567
 1262.3598633 12.000000000 17.500000000  -999.250000 -0.015996795 0.2075161040 2.4570016861 48.939601898 80.078453064 77.074501038 2.4058845043 16.686002731 3.7989463806 3.7988164425
 1262.5122070 12.000000000 17.500000000  -999.250000 -0.011995997 0.2026509345 2.4590001106 53.145866394 81.150505066 78.052589417 2.2619745731 15.935204506 3.5703666210 3.5698533058
 1262.6646729 12.000000000 17.500000000  -999.250000 -0.006995994 0.2162990570 2.4590001106 52.438575745 82.005195618 78.992843628 2.2300505638 15.182602882 3.3871467113 3.3869671822
 1262.8170166 12.000000000 17.500000000  -999.250000 -0.002002402 0.2026388198 2.4590082169 55.932395935 83.063514709 80.032417297 2.2930183411 14.679805756 3.3460655212 3.3460576534
 1262.9694824 12.000000000 17.500000000  -999.250000 -0.005000801 0.2011766583 2.4690105915 55.844078064 83.316818237 80.357749939 2.3160223961 14.926801682 3.4179422855 3.4180800915
 1263.1218262 12.000000000 17.500000000  -999.250000 -0.006005609 0.2094672620 2.4820032120 57.467700958 84.148483276 81.103088379 2.3439688683 14.925002098 3.5179197788 3.5180904865
 1263.2742920 12.000000000 17.500000000  -999.250000 -0.013000000 0.2060734481 2.4859888554 55.220802307 82.895324707 79.841522217 2.3049712181 14.923002243 3.6309096813 3.6311314106
 1263.4266357 13.000000000 17.500000000  -999.250000 -0.013001603 0.2207023501 2.4790008068 54.344703674 82.593215942 79.458526611 2.2869653702 15.419601440 3.7129342556 3.7131626606
 1263.5791016 13.000000000 17.500000000  -999.250000 -0.014990392 0.2236386091 2.4800064564 53.250877380 84.415885925 81.339370728 2.2439215183 15.168202400 3.9158372879 3.9160192013
 1263.7314453 13.000000000 17.500000000  -999.250000 -0.008996795 0.2290281802 2.4839982986 51.814151764 87.629974365 84.591789246 2.1949951649 14.666402817 3.9279904366 3.9277603626
 1263.8839111 13.000000000 17.531000137  -999.250000 -0.004996798 0.2641748786 2.4819729328 52.655323029 92.235137939 89.180816650 2.1889791489 14.664001465 3.6292393208 3.6284875870
 1264.0362549 13.000000000 17.608999252  -999.250000 -0.003001603 0.2734525204 2.4649918079 58.558265686 95.126930237 92.095603943 2.1759495735 13.662802696 3.3092563152 3.3088068962
 1264.1885986 13.000000000 17.608999252  -999.250000 -0.005000000 0.2890474796 2.4550046921 61.651046753 95.520217896 92.464294434 2.1129469872 13.159806252 3.0683860779 3.0679295063
 1264.3410645 13.000000000 17.608999252  -999.250000 -0.005002404 0.2734372616 2.4610030651 65.934570313 95.025756836 92.033714294 2.0470016003 12.407602310 2.9800705910 2.9800319672
 1264.4934082 13.000000000 17.608999252  -999.250000 -0.008000801 0.2700348496 2.4649951458 65.001502991 93.594642639 90.554878235 2.0490889549 12.155403137 3.0199358463 3.0200889111
 1264.6458740 13.000000000 17.608999252  -999.250000 -0.009002403 0.2885684669 2.4589831829 66.498794556 93.338714600 90.322578430 2.1600971222 12.153001785 3.1309111118 3.1310889721
 1264.7982178 12.000000000 17.608999252  -999.250000 -0.011997598 0.2866192460 2.4379839897 59.916557312 93.751403809 90.623367310 2.2810654640 11.901403427 3.2418222427 3.2419953346
 1264.9506836 12.000000000 17.608999252  -999.250000 -0.009001602 0.2856454849 2.4179823399 53.942783356 93.583030701 90.569053650 2.3629751205 12.147801399 3.2360048294 3.2357373238
 1265.1030273 12.000000000 17.608999252  -999.250000 -0.010994395 0.2924905419 2.3960046768 50.815502167 93.224449158 90.153961182 2.3319358826 11.896202087 2.9082627296 2.9078047276
 1265.2554932 12.000000000 17.608999252  -999.250000 -0.004000000 0.3056553006 2.4020159245 52.529621124 92.133316040 89.151557922 2.2519199848 11.394401550 2.6641952991 2.6640672684
 1265.4078369 12.000000000 17.608999252  -999.250000 -0.003998398 0.2997894585 2.4220230579 56.715644836 91.807014465 88.694206238 2.1520440578 10.892402649 2.7479326725 2.7483203411
 1265.5603027 12.000000000 17.608999252  -999.250000 -0.002006405 0.2865879536 2.4510095119 59.716598511 91.316047668 88.281372070 2.2069375515 10.139602661 3.1476798058 3.1482787132
 1265.7126465 12.000000000 17.608999252  -999.250000 -0.005999199 0.2666027546 2.4569983482 58.781749725 90.482955933 87.352531433 2.1679246426 9.6374025345 3.3218605518 3.3220160007
 1265.8651123 12.000000000 17.608999252  -999.250000 -0.005006405 0.2700458169 2.4549806118 60.436672211 90.351974487 87.299209595 2.0740878582 9.6350021362 3.3419840336 3.3419022560
