# LAS format log file from PETREL
# Project units are specified as depth units
#==================================================================
~Version information
VERS.   2.0:
WRAP.   NO:
#==================================================================
~Well
STRT .m      669.21893311 :
STOP .m      2146.7373047 :
STEP .m     0.00000000 :
NULL .        -999.250000 :
COMP.           : COMPANY
WELL.  31/6-8   : WELL
FLD.            : FIELD
LOC.            : LOCATION
SRVC.           : SERVICE COMPANY
DATE.  2018-09-11 14:48:41   : Log Export Date {yyyy-MM-dd HH:mm:ss}
PROV.           : PROVINCE
UWI.   31/6-8   : UNIQUE WELL ID
API.            : API NUMBER
#==================================================================
~Curve
DEPT .m                   : DEPTH
Lithology_geolink ._      : Lithology_geolink
CALI .in                  : CALI
BS .in                    : BS
DRHO .g/cm3               : DRHO
NPHI .m3/m3               : NPHI
RHOB .g/cm3               : RHOB
GR .gAPI                  : GR
DTC .us/ft                : DTC
DTE .us/ft                : DTE
RDEP .ohm.m               : RDEP
SP .mV                    : SP
RSHA .ohm.m               : RSHA
RMED .ohm.m               : RMED
~Parameter
#==================================================================
~Ascii
# ...
 1165.4333496 5.0000000000 18.766000748  -999.250000 -0.005999200 0.5786025524 1.7829183340 84.567352295 170.81469727 166.38681030 0.5190032125 21.843601227 0.7120288610 0.7118959427
 1165.5858154 5.0000000000 19.625000000  -999.250000 -0.005000000 0.5693501830 1.6809302568 87.994491577 169.99708557 165.48301697 0.5230336785 20.593002319 0.5821040869 0.5819807649
 1165.7381592 5.0000000000 19.422000885  -999.250000 -0.005007206 0.5819803476 1.5940079689 82.451362610 167.01580811 162.52995300 0.5650952458 21.589200974 0.5580192804 0.5580112338
 1165.8906250 5.0000000000 20.843999863  -999.250000 -0.014000801 0.5200552344 1.6041474342 79.754310608 161.64277649 157.15647888 0.6840056181 20.587999344 0.5720000267 0.5720761418
 1166.0429688 5.0000000000 18.218999863  -999.250000 -0.015001601 0.5639005899 1.7881641388 79.999397278 154.12565613 149.61746216 0.6909623742 19.585802078 0.6669239402 0.6671392918
 1166.1954346 5.0000000000 17.891000748  -999.250000 -0.016998399 0.4897378683 1.9930745363 85.678886414 149.89082336 145.46844482 0.6440023780 19.833000183 0.8410000205 0.8409631848
 1166.3477783 5.0000000000 17.843999863  -999.250000 -0.014998399 0.4745865166 2.0859782696 87.994445801 152.77577209 148.20890808 0.6470464468 20.080801010 0.7950368524 0.7950696945
 1166.5002441 5.0000000000 17.827999115  -999.250000 -0.012987981 0.4453342557 2.0589365959 86.752006531 151.53132629 146.96134949 0.7050336599 21.079000473 0.8820000291 0.8819543719
 1166.6525879 6.0000000000 17.827999115  -999.250000 0.0020064104 0.4755974114 1.9799207449 86.625297546 151.57711792 147.06407166 0.7469703555 22.075201035 0.8250456452 0.8249431252
 1166.8050537 6.0000000000 17.937999725  -999.250000 0.0100160129 0.4848099649 1.8808912039 90.244194031 153.50555420 149.03645325 0.7099599242 21.073999405 0.7540000081 0.7540592551
 1166.9573975 6.0000000000 18.781000137  -999.250000 0.0199839734 0.4535751939 1.8129326105 88.192955017 158.20571899 153.76365662 0.6849487424 13.827805519 0.7909703851 0.7908293605
 1167.1098633 6.0000000000 20.266000748  -999.250000 -0.000016013 0.4101967216 1.7288750410 85.068008423 166.11289978 161.60897827 0.6209920049 15.319999695 0.5780000091 0.5781297088
 1167.2622070 6.0000000000 19.468999863  -999.250000 -0.010010417 0.4331725836 1.6509799957 84.376106262 168.15902710 163.66430664 0.6159655452 15.068202019 0.6589351296 0.6590376496
 1167.4146729 6.0000000000 22.077999115  -999.250000 -0.022993594 0.5113003850 1.6261345148 86.933898926 165.58979797 161.05426025 0.5729183555 17.065000534 0.7059999704 0.7058863044
 1167.5670166 6.0000000000 19.297000885  -999.250000 -0.018990384 0.5551694632 1.7101442814 90.057998657 163.50601196 159.02670288 0.5220080018 19.061399460 0.6350568533 0.6350392699
 1167.7193604 6.0000000000 18.266000748  -999.250000 -0.006990393 0.5419443250 1.8901176453 87.444305420 156.78616333 152.51258850 0.5319951773 20.060201645 0.6839607358 0.6840272546
 1167.8718262 6.0000000000 18.202999115  -999.250000 0.0050048074 0.4848619699 2.0370328426 87.749496460 153.86370850 150.34773254 0.5259904265 21.557800293 0.7179727554 0.7180424333
 1168.0241699 5.0000000000 18.156000137  -999.250000 0.0109911934 0.4873046875 2.0780065060 85.630104065 152.59371948 149.55368042 0.5140576363 22.556200027 0.7709575891 0.7709816098
 1168.1766357 5.0000000000 18.141000748  -999.250000 -0.000005609 0.4931467175 2.0860168934 85.812705994 151.63154602 148.64628601 0.5860617161 23.554000854 0.7480000257 0.7480601072
 1168.3289795 5.0000000000 17.937999725  -999.250000 -0.007005605 0.4765338004 2.1070048809 84.129051208 151.16299438 148.06687927 0.6630359888 23.552001953 0.8229399920 0.8230216503
 1168.4814453 5.0000000000 17.937999725  -999.250000 -0.013995994 0.4438546896 2.1130063534 81.192710876 150.52386475 147.55020142 0.7080208659 18.549999237 0.8500000238 0.8500056267
 1168.6337891 5.0000000000 17.937999725  -999.250000 -0.008995993 0.4497225285 2.1210000515 81.374549866 152.13577271 149.04269409 0.7339399457 13.801804543 0.8569943905 0.8570023775
 1168.7862549 5.0000000000 17.937999725  -999.250000 -0.004003203 0.4653612673 2.1209840775 79.378204346 153.33438110 150.34004211 0.6589951515 11.795000076 0.8600000143 0.8599135280
 1168.9385986 5.0000000000 17.937999725  -999.250000 -0.006001602 0.4848568738 2.1109969616 80.186050415 153.64509583 150.54656982 0.6560048461 12.042801857 0.8060432076 0.8059511185
 1169.0910645 5.0000000000 17.983999252  -999.250000 -0.008009608 0.4809537530 2.1070001125 79.501106262 152.43594360 149.44784546 0.6619951725 12.541000366 0.7450000048 0.7449584007
 1169.2434082 5.0000000000 18.108999252  -999.250000 -0.013998398 0.4770120680 2.1070129871 77.006004333 151.04833984 147.91282654 0.6589911580 13.038600922 0.7190207839 0.7190560699
 1169.3958740 5.0000000000 17.827999115  -999.250000 -0.012001601 0.4296602905 2.1229999065 78.934898376 149.58132935 146.54338074 0.6479951739 13.286999702 0.7889999747 0.7891713381
 1169.5482178 5.0000000000 17.827999115  -999.250000 -0.012995193 0.4111205935 2.1230030060 79.312400818 149.68699646 146.61425781 0.6449911594 11.285604477 0.8959143758 0.8959863782
 1169.7005615 5.0000000000 17.827999115  -999.250000 -0.006999200 0.3994471431 2.1269953251 83.115844727 149.39274597 146.29611206 0.6340184212 10.532602310 0.8790136576 0.8789655566
 1169.8530273 5.0000000000 17.827999115  -999.250000 -0.005998398 0.4458070397 2.1209952831 79.880210876 150.66667175 147.69421387 0.6570312381 11.029601097 0.8360344768 0.8359743953
 1170.0053711 5.0000000000 17.827999115  -999.250000 -0.004000801 0.4545938969 2.1149969101 81.309547424 151.60824585 148.55358887 0.6959975958 12.027199745 0.8040256500 0.8039687872
 1170.1578369 5.0000000000 17.827999115  -999.250000 -0.005001602 0.4594488442 2.1109969616 81.937004089 153.01730347 150.03242493 0.6929791570 12.776000023 0.7649999857 0.7650039792
 1170.3101807 5.0000000000 17.827999115  -999.250000 -0.007003203 0.4331154525 2.1070017815 83.620948792 158.89578247 155.83024597 0.6669823527 13.522401810 0.7699959874 0.7700151801
 1170.4626465 5.0000000000 17.827999115  -999.250000 -0.011003205 0.4399384558 2.1090095043 81.191909790 155.07569885 152.04966736 0.6450071931 14.520999908 0.7889999747 0.7890440226
 1170.6149902 5.0000000000 17.827999115  -999.250000 -0.014989583 0.4379927516 2.1210346222 79.068107605 151.55705261 148.44647217 0.6540424228 14.019401550 0.8439559340 0.8440512419
 1170.7674561 5.0000000000 17.827999115  -999.250000 -0.001987190 0.4413959086 2.1640353203 79.124900818 158.67527771 155.70498657 0.7069855928 13.017000198 0.9079999924 0.9079983830
 1170.9197998 5.0000000000 17.733999252  -999.250000 0.0060008015 0.4326282442 2.1859905720 79.997901917 158.84458923 155.72636414 0.6980007887 12.264602661 0.9070007801 0.9069535136
 1171.0722656 6.0000000000 17.733999252  -999.250000 0.0069791838 0.4428692162 2.1739344597 85.304489136 155.39567566 152.45320129 0.6990496516 13.012000084 0.8489999771 0.8489103317
 1171.2246094 6.0000000000 17.733999252  -999.250000 -0.006002404 0.4423678517 2.1329855919 84.066009521 160.26234436 157.22422791 0.7300007939 14.009201050 0.7930448055 0.7929927707
 1171.3770752 6.0000000000 17.733999252  -999.250000 -0.008995196 0.4272413850 2.1150159836 89.304588318 157.09323120 154.08522034 0.7308766842 14.508000374 0.7839999795 0.7840848565
 1171.5294189 6.0000000000 17.733999252  -999.250000 -0.005996795 0.4218893945 2.1249592304 87.066612244 147.25379944 144.15339661 0.6539871693 17.503601074 0.8369575739 0.8369791508
 1171.6817627 6.0000000000 17.733999252  -999.250000 -0.001998399 0.4335857332 2.0739045143 87.873046875 147.99946594 145.02301025 0.6380096078 18.252401352 0.8110208511 0.8110784292
 1171.8342285 6.0000000000 17.812999725  -999.250000 0.0000088141 0.4282356203 1.9549207687 82.009414673 150.04205322 146.94245911 0.6499687433 18.500801086 0.9089215398 0.9089895487
 1171.9865723 6.0000000000 17.922000885  -999.250000 0.0110184150 0.4477308393 1.8560007811 79.568855286 154.40676880 151.34390259 0.6110112071 15.501404762 0.8960104585 0.8960336447
