# LAS format log file from PETREL
# Project units are specified as depth units
#==================================================================
~Version information
VERS.   2.0:
WRAP.   NO:
#==================================================================
~Well
STRT .m      669.21893311 :
STOP .m      2146.7373047 :
STEP .m     0.00000000 :
NULL .        -999.250000 :
COMP.           : COMPANY
WELL.  31/6-8   : WELL
FLD.            : FIELD
LOC.            : LOCATION
SRVC.           : SERVICE COMPANY
DATE.  2018-09-11 14:48:41   : Log Export Date {yyyy-MM-dd HH:mm:ss}
PROV.           : PROVINCE
UWI.   31/6-8   : UNIQUE WELL ID
API.            : API NUMBER
#==================================================================
~Curve
DEPT .m                   : DEPTH
Lithology_geolink ._      : Lithology_geolink
CALI .in                  : CALI
BS .in                    : BS
DRHO .g/cm3               : DRHO
NPHI .m3/m3               : NPHI
RHOB .g/cm3               : RHOB
GR .gAPI                  : GR
DTC .us/ft                : DTC
DTE .us/ft                : DTE
RDEP .ohm.m               : RDEP
SP .mV                    : SP
RSHA .ohm.m               : RSHA
RMED .ohm.m               : RMED
~Parameter
#==================================================================
~Ascii
# ...
 970.97100830 6.0000000000 22.077999115  -999.250000 -0.002007209 0.4638911486 2.0289652348 97.256309509 142.11564636 137.61201477 1.4211610556 12.918999672 1.2079999447 1.2080159187
 971.12341309 6.0000000000 22.000000000  -999.250000 -0.007996396 0.4814851880 1.9999819994 100.05624390 145.48089600 140.93440247 1.5555466413 12.666999817 1.2480000257 1.2479431629
 971.27581787 6.0000000000 20.016000748  -999.250000 -0.004995194 0.5107418299 1.9850059748 95.510963440 149.58486938 145.17845154 2.0101284981 13.164999962 1.1770000458 1.1770129204
 971.42822266 6.0000000000 19.827999115  -999.250000 -0.000974770 0.5122000575 1.9900889397 99.303840637 150.03892517 145.55305481 2.1171274185 13.163000107 1.1929999590 1.1930564642
 971.58056641 6.0000000000 21.375000000  -999.250000 0.0199975967 0.5039197803 2.0640141964 97.505081177 140.61236572 136.12149048 2.2230513096 12.911000252 1.2400000095 1.2400064468
 971.73297119 6.0000000000 21.125000000  -999.250000 0.0170056075 0.5160962939 2.0820455551 91.203178406 126.96337128 122.39068604 2.2866716385 12.657999992 1.2480000257 1.2480672598
 971.88537598 6.0000000000 20.500000000  -999.250000 0.0239815786 0.4990078807 2.1390528679 86.823516846 117.49155426 112.94554901 1.8768733740 12.406000137 1.3320000172 1.3322227001
 972.03778076 6.0000000000 19.593999863  -999.250000 0.0009983982 0.4838352501 2.2050936222 80.515167236 114.58882904 110.11547852 1.7190544605 13.154000282 1.6100000143 1.6102418900
 972.19018555 6.0000000000 18.937999725  -999.250000 -0.001008010 0.4155182838 2.3219568729 85.238586426 119.29705811 114.76793671 1.7870055437 12.902000427 1.9119999409 1.9117132425
 972.34259033 5.0000000000 18.937999725  -999.250000 -0.010985583 0.4008584917 2.2679228783 86.684547424 132.12144470 127.57046509 1.7940160036 13.149000168 1.5540000200 1.5537734032
 972.49499512 5.0000000000 19.062999725  -999.250000 0.0070048077 0.3740669787 2.1719462872 92.922988892 142.95103455 138.46701050 1.8142083883 13.647000313 1.2710000277 1.2709382772
 972.64739990 5.0000000000 19.766000748  -999.250000 0.0130000003 0.4326141477 2.1049916744 91.254058838 138.22114563 133.74607849 2.0738630295 13.145000458 1.1940000057 1.1940889359
 972.79980469 5.0000000000 19.218999863  -999.250000 0.0129915904 0.4277851284 2.0980577469 90.003005981 135.54208374 131.13093567 1.9596683979 13.392999649 1.2680000067 1.2681297064
 972.95220947 5.0000000000 19.547000885  -999.250000 0.0059891869 0.4736094475 2.1460876465 84.576065063 132.21177673 127.68793488 1.6837981939 12.890999794 1.3760000467 1.3762151003
 973.10461426 5.0000000000 18.750000000  -999.250000 -0.002987985 0.4565452635 2.2190444469 85.123649597 129.05712891 124.53103638 1.5158426762 12.887999535 1.5549999475 1.5549939871
 973.25701904 5.0000000000 18.922000885  -999.250000 0.0069987988 0.4608830810 2.2559218407 91.048736572 136.27212524 131.72122192 1.3849723339 12.135999680 1.5499999523 1.5499362946
 973.40942383 5.0000000000 19.077999115  -999.250000 0.0060180216 0.4135940373 2.1909255981 92.559402466 140.32670593 135.89004517 1.3620059490 11.883999825 1.4969999790 1.4969375134
 973.56176758 5.0000000000 18.922000885  -999.250000 0.0209943932 0.4335853457 2.1289591789 96.177841187 142.06718445 137.52326965 1.3669390678 11.631999969 1.4450000525 1.4449647665
 973.71417236 5.0000000000 18.906000137  -999.250000 0.0140024032 0.4277538657 2.0779607296 93.569313049 147.69628906 143.19389343 1.2909920216 10.630000114 1.4010000229 1.4009319544
 973.86657715 5.0000000000 19.327999115  -999.250000 0.0169967972 0.4575059116 2.0289494991 90.632057190 149.79148865 145.24366760 1.2809416056 10.126999855 1.3159999847 1.3159614801
 974.01898193 5.0000000000 19.483999252  -999.250000 0.0129943937 0.4399748147 1.9659790993 86.198661804 150.81385803 146.30004883 1.2079575062 9.6250000000 1.2680000067 1.2679719925
 974.17138672 5.0000000000 18.406000137  -999.250000 0.0059951944 0.4834019542 1.9400048256 86.623947144 150.98962402 146.56002808 1.1549583673 9.1230001450 1.2330000401 1.2330144644
 974.32379150 5.0000000000 18.702999115  -999.250000 -0.000001602 0.4858622849 1.9459815025 91.675834656 151.65501404 147.09210205 1.1029959917 8.6210002899 1.2510000467 1.2508671284
 974.47619629 5.0000000000 18.516000748  -999.250000 -0.001994393 0.5136715770 1.9229943752 93.932594299 153.12620544 148.58512878 1.0979416370 7.8680005074 1.0850000381 1.0848822594
 974.62860107 5.0000000000 18.452999115  -999.250000 0.0049903844 0.5156307817 1.9160215855 92.378753662 153.18641663 148.63294983 1.0250279903 8.1160001755 0.9380000234 0.9380072355
 974.78094482 6.0000000000 18.781000137  -999.250000 -0.007000000 0.5165702701 1.9430816174 97.797760010 150.97106934 146.43220520 1.0599639416 7.8641014099 0.9469964504 0.9470505118
 974.93334961 6.0000000000 20.937999725  -999.250000 -0.007008811 0.4794591069 2.0450265408 102.23756409 147.52297974 143.07849121 1.0149871111 8.3618011475 1.0099747181 1.0100088120
 975.08575439 6.0000000000 21.358997345  -999.250000 -0.017989587 0.4409250915 2.0779905319 108.23317719 147.45095825 142.95298767 0.9990577102 8.6099004745 1.0209956169 1.0209800005
 975.23809814 6.0000000000 18.922000885  -999.250000 -0.005002002 0.4472678602 2.0659868717 101.52162933 144.77963257 140.23486328 1.0710196495 8.6070032120 0.9960200191 0.9960260391
 975.39050293 6.0000000000 19.452999115  -999.250000 -0.009991590 0.4418958724 2.0330181122 94.834426880 141.80026245 137.26237488 1.1200176477 9.6042003632 1.0609478951 1.0610480309
 975.54290771 6.0000000000 19.547000885  -999.250000 0.0110004004 0.4565347135 2.0780088902 89.143226624 137.11811829 132.56546021 1.1640484333 9.8528013229 1.1809039116 1.1810604334
 975.69531250 6.0000000000 19.608999252  -999.250000 0.0120064076 0.4433677793 2.1000230312 89.000396729 133.97454834 129.54992676 1.2849851847 10.350800514 1.3319395781 1.3320665359
 975.84771729 6.0000000000 19.531000137  -999.250000 0.0279923920 0.4628863037 2.1579983234 88.875350952 134.24989319 129.72909546 1.2479696274 10.099101067 1.4979335070 1.4979439974
 976.00012207 5.0000000000 19.608999252  -999.250000 0.0090008005 0.4536219239 2.1540024281 87.317382813 139.95953369 135.38125610 1.1720484495 9.8461008072 1.3580560684 1.3579788208
 976.15252686 5.0000000000 20.250000000  -999.250000 0.0109983981 0.4833978415 2.1599931717 82.950271606 142.64503479 138.10653687 1.2930067778 9.5941009521 1.3050211668 1.3050011396
 976.30493164 5.0000000000 20.922000885  -999.250000 0.0070052063 0.4780167341 2.1430130005 83.685897827 143.23469543 138.75996399 1.3099746704 9.0922012329 1.3079987764 1.3080008030
 976.45733643 5.0000000000 21.952999115  -999.250000 0.0200020019 0.4448015988 2.1760060787 82.503334045 143.57040405 139.13059998 1.2470244169 8.5902013779 1.3099991083 1.3100163937
 976.60974121 5.0000000000 23.781000137  -999.250000 0.0250016022 0.3989307880 2.1910104752 85.117637634 140.03216553 135.52157593 1.3080379963 7.8373017311 1.3509835005 1.3509663343
 976.76214600 5.0000000000 22.983999252  -999.250000 0.0289783739 0.4008917511 2.2169559002 88.304069519 140.69355774 136.14288330 1.4027508497 7.3352012634 1.2670335770 1.2670432329
 976.91455078 5.0000000000 21.608999252  -999.250000 0.0019935924 0.4155034125 2.1619782448 87.876228333 143.75205994 139.19456482 1.0921096802 6.3334016800 1.3209784031 1.3209896088
 977.06695557 5.0000000000 20.969001770  -999.250000 -0.006009612 0.3823153079 2.1349639893 87.563880920 145.84361267 141.31420898 1.2288982868 5.8312010765 1.3080052137 1.3078614473
 977.21929932 5.0000000000 21.547000885  -999.250000 -0.017999198 0.3765026927 2.0899927616 85.880409241 147.64369202 143.18338013 1.1019840240 5.5792016983 1.1351385117 1.1349419355
 977.37170410 5.0000000000 21.625000000  -999.250000 -0.016000802 0.4082191586 2.0719976425 90.049583435 149.62762451 145.06990051 1.0620220900 5.0764031410 0.9901161194 0.9900152087
 977.52410889 6.0000000000 21.312999725  -999.250000 -0.017998397 0.4560533464 2.0660135746 97.600769043 144.08200073 139.54013062 1.1170008183 5.5736007690 1.0279695988 1.0279952288
