# LAS format log file from PETREL
# Project units are specified as depth units
#==================================================================
~Version information
VERS.   2.0:
WRAP.   NO:
#==================================================================
~Well
STRT .m      376.12503052 :
STOP .m      2088.7500000 :
STEP .m     0.00000000 :
NULL .        -999.250000 :
COMP.           : COMPANY
WELL.  31/6-5   : WELL
FLD.            : FIELD
LOC.            : LOCATION
SRVC.           : SERVICE COMPANY
DATE.  2018-09-11 14:48:40   : Log Export Date {yyyy-MM-dd HH:mm:ss}
PROV.           : PROVINCE
UWI.   31/6-5   : UNIQUE WELL ID
API.            : API NUMBER
#==================================================================
~Curve
DEPT .m                   : DEPTH
Lithology_geolink ._      : Lithology_geolink
CALI .in                  : CALI
BS .in                    : BS
DRHO .g/cm3               : DRHO
NPHI .m3/m3               : NPHI
RHOB .g/cm3               : RHOB
GR .gAPI                  : GR
DTC .us/ft                : DTC
DTE .us/ft                : DTE
RDEP .ohm.m               : RDEP
SP .mV                    : SP
RSHA .ohm.m               : RSHA
RMED .ohm.m               : RMED
~Parameter
#==================================================================
~Ascii
# ...
 1399.1250000 7.0000000000 17.256999969  -999.250000 0.0140000004  -999.250000 2.2058999538 132.19900513 136.07049561 131.74351501 1.1740000248 34.956001282 1.1759999990 0.8669999838
 1399.2500000 7.0000000000 17.305000305  -999.250000 0.0049999999  -999.250000 2.2080025673 132.28199768 135.29089355 130.90603638 1.1619999409 34.728000641 1.1660000086 0.8629999757
 1399.3750000 7.0000000000 17.337999344  -999.250000 0.0020000001  -999.250000 2.2119319439 132.25500488 134.96240234 130.56945801 1.1519999504 34.515998840 1.1540000439 0.8579999804
 1399.5000000 7.0000000000 17.354000092  -999.250000 0.0070000002  -999.250000 2.2161214352 132.57000732 134.96839905 130.68234253 1.1430000067 34.375999451 1.1440000534 0.8519999981
 1399.6250000 7.0000000000 17.357999802  -999.250000 0.0130000003 0.3999700248 2.2178444862 133.83464050 135.46644592 131.10285950 1.1330000162 34.344001770 1.1369999647 0.8439999819
 1399.7501221 7.0000000000 17.354000092  -999.250000 0.0199999996 0.3999700248 2.2182972431 135.52719116 135.94752502 131.64334106 1.1239999533 34.410999298 1.1330000162 0.8379999995
 1399.8751221 7.0000000000 17.347999573  -999.250000 0.0280000009 0.3999700248 2.2220258713 137.16116333 136.50772095 132.13314819 1.1150000095 34.490001678 1.1299999952 0.8330000043
 1400.0000000 7.0000000000 17.339000702  -999.250000 0.0369912125 0.3999700248 2.2296373844 138.26800537 136.89111328 132.50550842 1.1059999466 34.543998718 1.1260000467 0.8309999704
 1400.1250000 7.0000000000 17.327999115  -999.250000 0.0459912121 0.3999700248 2.2391400337 138.61099243 137.05938721 132.71890259 1.0970000029 34.553001404 1.1230000257 0.8309999704
 1400.2500000 7.0000000000 17.318000793  -999.250000 0.0489970706 0.3999700248 2.2466742992 138.25900269 137.12425232 132.75480652 1.0889999866 34.506000519 1.1239999533 0.8309999704
 1400.3750000 7.0000000000 17.312999725  -999.250000 0.0460000001 0.3999700248 2.2474944592 137.57299805 136.93649292 132.61096191 1.0829999447 34.375999451 1.1299999952 0.8309999704
 1400.5000000 7.0000000000 17.316999435  -999.250000 0.0370000005 0.3999700248 2.2437403202 137.27299500 136.82023621 132.47087097 1.0809999704 34.158000946 1.1360000372 0.8299999833
 1400.6250000 7.0000000000 17.326000214  -999.250000 0.0280000009 0.3999700248 2.2405955791 137.33900452 136.85237122 132.51995850 1.0800000429 33.902999878 1.1399999857 0.8280000091
 1400.7500000 7.0000000000 17.334999084  -999.250000 0.0240000002 0.3999700248 2.2407975197 137.78599548 137.20521545 132.85038757 1.0800000429 33.661998749 1.1390000582 0.8249999881
 1400.8751221 7.0000000000 17.343999863  -999.250000 0.0320000015 0.3999700248 2.2446160316 138.38125610 137.88598633 133.47401428 1.0789999962 33.472999573 1.1349999905 0.8220000267
 1401.0001221 7.0000000000 17.350999832  -999.250000 0.0430000015 0.3999700248 2.2488791943 139.01950073 138.57713318 134.30346680 1.0750000477 33.356998444 1.1319999695 0.8190000057
 1401.1250000 7.0000000000 17.371000290  -999.250000 0.0499931648 0.3999700248 2.2468607426 139.78199768 139.44931030 135.06187439 1.0659999847 33.301998138 1.1330000162 0.8149999976
 1401.2500000 7.0000000000 17.405000687  -999.250000 0.0490009747 0.3999700248 2.2381293774 140.76100159 139.87770081 135.55584717 1.0549999475 33.277000427 1.1349999905 0.8100000024
 1401.3750000 7.0000000000 17.447000504  -999.250000 0.0340146497 0.3999690711 2.2242727280 141.79200745 140.11605835 135.76080322 1.0420000553 33.310001373 1.1339999437 0.8029999733
 1401.5000000 7.0000000000 17.486999512  -999.250000 0.0099999998 0.3989750743 2.2082581520 142.60400391 140.14299011 135.74493408 1.0310000181 33.412998199 1.1299999952 0.7960000038
 1401.6250000 7.0000000000 17.517999649  -999.250000 -0.012000000 0.3939321637 2.1936275959 142.91700745 139.89564514 135.63307190 1.0219999552 33.581001282 1.1239999533 0.7900000215
 1401.7500000 7.0000000000 17.531999588  -999.250000 -0.028000001 0.3756555319 2.1837074757 142.91000366 139.99346924 135.56649780 1.0199999809 33.787998199 1.1160000563 0.7879999876
 1401.8750000 7.0000000000 17.538999557  -999.250000 -0.034000002 0.3710665405 2.1804146767 142.94700623 139.91545105 135.60983276 1.0210000277 33.950000763 1.1100000143 0.7879999876
 1402.0000000 7.0000000000 17.545000076  -999.250000 -0.032000002 0.3777904809 2.1838908195 143.28248596 140.08726501 135.71565247 1.0249999762 34.020999908 1.1069999933 0.7900000215
 1402.1251221 7.0000000000 17.549999237  -999.250000 -0.022000000 0.3885343075 2.1925191879 143.78298950 140.24612427 135.83094788 1.0310000181 34.000999451 1.1069999933 0.7950000167
 1402.2498779 7.0000000000 17.555000305  -999.250000 -0.009025390 0.3958500028 2.2029514313 144.28900146 140.26670837 135.91210938 1.0399999619 33.909999847 1.1089999676 0.8000000119
 1402.3750000 7.0000000000 17.559000015  -999.250000 -0.001007813 0.3941625357 2.2104718685 144.71899414 140.36567688 135.93806458 1.0499999523 33.770999908 1.1119999886 0.8050000072
 1402.5000000 7.0000000000 17.562000275  -999.250000 -0.000000977 0.3852266371 2.2091588974 144.89399719 140.26229858 135.91929626 1.0629999638 33.669998169 1.1150000095 0.8100000024
 1402.6250000 7.0000000000 17.565999985  -999.250000 -0.005000000 0.3818032444 2.2024502754 144.80900574 140.24638367 135.88276672 1.0759999752 33.627998352 1.1169999838 0.8130000234
 1402.7500000 7.0000000000 17.569999695  -999.250000 -0.014000000 0.3851263523 2.1947469711 144.47099304 140.18838501 135.82229614 1.0870000124 33.625999451 1.1180000305 0.8149999976
 1402.8750000 7.0000000000 17.575000763  -999.250000 -0.018999999 0.3916346431 2.1893429756 144.21400452 140.08909607 135.73242188 1.0950000286 33.652999878 1.1200000048 0.8140000105
 1403.0000000 7.0000000000 17.582000732  -999.250000 -0.020000000 0.3963989913 2.1878948212 144.44999695 139.99542236 135.61190796 1.1000000238 33.701000214 1.1210000515 0.8109999895
 1403.1250000 7.0000000000 17.590000153  -999.250000 -0.020000000 0.3953433931 2.1885514259 145.63499451 139.89178467 135.46990967 1.1039999723 33.756999969 1.1239999533 0.8069999814
 1403.2501221 7.0000000000 17.594999313  -999.250000 -0.022000000 0.3885852993 2.1866989136 147.41874695 139.70835876 135.34136963 1.1100000143 33.778999329 1.1250000000 0.8019999862
 1403.3751221 7.0000000000 17.594999313  -999.250000 -0.028999999 0.3861881793 2.1820948124 149.33811951 139.64869690 135.26145935 1.1180000305 33.768001556 1.1230000257 0.7990000248
 1403.5000000 7.0000000000 17.591999054  -999.250000 -0.037991211 0.3903599977 2.1770007610 150.93299866 139.60089111 135.24462891 1.1269999743 33.729000092 1.1189999580 0.7960000038
 1403.6250000 7.0000000000 17.587999344  -999.250000 -0.042995118 0.3966684341 2.1737661362 152.05900574 139.58468628 135.28822327 1.1360000372 33.671001434 1.1139999628 0.7950000167
 1403.7500000 7.0000000000 17.584999084  -999.250000 -0.041001953 0.3958533704 2.1741402149 152.80200195 139.76489258 135.37088013 1.1430000067 33.610000610 1.1119999886 0.7940000296
 1403.8750000 7.0000000000 17.583999634  -999.250000 -0.037000000 0.3787885904 2.1770119667 153.18699646 139.76489258 135.42863464 1.1469999552 33.569000244 1.1180000305 0.7950000167
 1404.0000000 7.0000000000 17.583999634  -999.250000 -0.033000000 0.3568453789 2.1795415878 152.92700195 139.76979065 135.38191223 1.1499999762 33.557998657 1.1289999485 0.7950000167
 1404.1250000 7.0000000000 17.584999084  -999.250000 -0.032000002 0.3418776691 2.1827034950 152.55700684 139.58930969 135.24394226 1.1510000229 33.577999115 1.1399999857 0.7940000296
 1404.2500000 7.0000000000 17.586000443  -999.250000 -0.032000002 0.3395004570 2.1880464554 152.56900024 139.37127686 135.06877136 1.1519999504 33.645000458 1.1490000486 0.7910000086
 1404.3750000 7.0000000000 17.587999344  -999.250000 -0.027000001 0.3501971960 2.1963357925 153.12815857 139.29335022 134.93287659 1.1519999504 33.765998840 1.1519999504 0.7870000005
 1404.5001221 7.0000000000 17.591999054  -999.250000 -0.018999999 0.3677878976 2.2058632374 154.31124878 139.28077698 134.92984009 1.1510000229 33.928001404 1.1490000486 0.7820000052
