# LAS format log file from PETREL
# Project units are specified as depth units
#==================================================================
~Version information
VERS.   2.0:
WRAP.   NO:
#==================================================================
~Well
STRT .m      376.12503052 :
STOP .m      2088.7500000 :
STEP .m     0.00000000 :
NULL .        -999.250000 :
COMP.           : COMPANY
WELL.  31/6-5   : WELL
FLD.            : FIELD
LOC.            : LOCATION
SRVC.           : SERVICE COMPANY
DATE.  2018-09-11 14:48:40   : Log Export Date {yyyy-MM-dd HH:mm:ss}
PROV.           : PROVINCE
UWI.   31/6-5   : UNIQUE WELL ID
API.            : API NUMBER
#==================================================================
~Curve
DEPT .m                   : DEPTH
Lithology_geolink ._      : Lithology_geolink
CALI .in                  : CALI
BS .in                    : BS
DRHO .g/cm3               : DRHO
NPHI .m3/m3               : NPHI
RHOB .g/cm3               : RHOB
GR .gAPI                  : GR
DTC .us/ft                : DTC
DTE .us/ft                : DTE
RDEP .ohm.m               : RDEP
SP .mV                    : SP
RSHA .ohm.m               : RSHA
RMED .ohm.m               : RMED
~Parameter
#==================================================================
~Ascii
# ...
 717.12500000  -999.250000 20.298000336  -999.250000 -0.010000000  -999.250000 2.0193591118 103.16721344 162.73783875 158.37754822 1.3519999981 9.1339998245 1.1840000153 0.9010000229
 717.25000000  -999.250000 20.288999557  -999.250000 -0.008000977  -999.250000 2.0218553543 103.60507965 162.55581665 158.20286560 1.3619999886 8.9569997787 1.1970000267 0.9150000215
 717.37500000  -999.250000 20.281999588  -999.250000 -0.008000000  -999.250000 2.0191555023 103.76882172 162.16685486 157.82263184 1.3760000467 8.7629995346 1.2079999447 0.9359999895
 717.50006104  -999.250000 20.277999878  -999.250000 -0.010998535  -999.250000 2.0109088421 103.41613770 161.55906677 157.22297668 1.3930000067 8.6140003204 1.2189999819 0.9599999785
 717.62506104  -999.250000 20.274002075  -999.250000 -0.014998047  -999.250000 2.0016410351 102.53554535 160.77693176 156.40919495 1.4110000134 8.6199998856 1.2269999981 0.9819999933
 717.75000000  -999.250000 20.267997742  -999.250000 -0.016998047  -999.250000 1.9977620840 101.59380341 159.90837097 155.53712463 1.4270000458 8.8100004196 1.2339999676 0.9969999790
 717.87500000  -999.250000 20.259000778  -999.250000 -0.014001466  -999.250000 1.9988914728 101.18204498 159.12641907 154.75975037 1.4409999847 9.1219997406 1.2380000353 1.0089999437
 718.00000000  -999.250000 20.247997284  -999.250000 -0.007006833  -999.250000 2.0015463829 101.28012848 158.50282288 154.15145874 1.4509999752 9.4829998016 1.2410000563 1.0180000067
 718.12506104  -999.250000 20.236000061  -999.250000 -0.004001465  -999.250000 2.0018870831 101.54795837 158.08183289 153.74610901 1.4570000172 9.8140001297 1.2419999838 1.0240000486
 718.25006104  -999.250000 20.226001740  -999.250000 -0.004999511  -999.250000 1.9970004559 101.46270752 157.89137268 153.53770447 1.4570000172 10.032999992 1.2419999838 1.0260000229
 718.37500000  -999.250000 20.221000671  -999.250000 -0.009995117  -999.250000 1.9877369404 100.87365723 157.88833618 153.53804016 1.4500000477 10.086999893 1.2389999628 1.0210000277
 718.50000000  -999.250000 20.218000412  -999.250000 -0.017992187  -999.250000 1.9771711826 100.16681671 158.04483032 153.71130371 1.4409999847 10.034000397 1.2330000401 1.0119999647
 718.62506104  -999.250000 20.215000153  -999.250000 -0.025996095  -999.250000 1.9663513899 99.789230347 158.37992859 154.05593872 1.4309999943 9.9230003357 1.2230000496 1.0060000420
 718.75006104  -999.250000 20.213001251  -999.250000 -0.033996094  -999.250000 1.9568520784 100.02426910 158.86968994 154.53553772 1.4229999781 9.7980003357 1.2100000381 1.0069999695
 718.87500000  -999.250000 20.208999634  -999.250000 -0.038995117  -999.250000 1.9506000280 100.57409668 159.43646240 155.07353210 1.4179999828 9.6949996948 1.1959999800 1.0169999599
 719.00000000  -999.250000 20.207000732  -999.250000 -0.037000977  -999.250000 1.9506000280 100.77378082 159.87638855 155.50283813 1.4140000343 9.6409997940 1.1840000153 1.0349999666
 719.12500000  -999.250000 20.207000732  -999.250000 -0.032004882  -999.250000 1.9564477205 100.31758118 159.95887756 155.58868408 1.4119999409 9.6269998550 1.1799999475 1.0520000458
 719.25006104  -999.250000 20.208000183  -999.250000 -0.027002443  -999.250000 1.9631904364 99.451492310 159.76986694 155.40252686 1.4099999666 9.6359996796 1.1790000200 1.0609999895
 719.37506104  -999.250000 20.208999634  -999.250000 -0.027000001  -999.250000 1.9675030708 98.932136536 159.40666199 155.05654907 1.4110000134 9.6960000992 1.1779999733 1.0599999428
 719.50000000  -999.250000 20.208999634  -999.250000 -0.031995118  -999.250000 1.9679890871 99.213546753 159.02958679 154.70478821 1.4170000553 9.8159999847 1.1740000248 1.0520000458
 719.62500000  -999.250000 20.208999634  -999.250000 -0.036997557  -999.250000 1.9656568766 100.33553314 158.84875488 154.52355957 1.4270000458 9.9790000916 1.1619999409 1.0420000553
 719.75000000  -999.250000 20.208000183  -999.250000 -0.037999023  -999.250000 1.9645086527 101.43603516 159.04428101 154.69291687 1.4400000572 10.121000290 1.1419999599 1.0329999924
 719.87506104  -999.250000 20.206001282  -999.250000 -0.036000974  -999.250000 1.9652402401 101.51522827 159.40002441 155.04219055 1.4509999752 10.185000420 1.1210000515 1.0249999762
 720.00006104  -999.250000 20.204000473  -999.250000 -0.032001954  -999.250000 1.9657492638 100.72852325 159.76177979 155.40696716 1.4579999447 10.175999641 1.1050000191 1.0180000067
 720.12500000  -999.250000 20.201999664  -999.250000 -0.031000976  -999.250000 1.9646471739 99.759849548 160.01234436 155.66383362 1.4600000381 10.118000031 1.0939999819 1.0099999905
 720.25000000  -999.250000 20.197999954  -999.250000 -0.033998538  -999.250000 1.9615993500 99.443176270 160.07334900 155.72851563 1.4600000381 10.043999672 1.0889999866 1.0019999743
 720.37506104  -999.250000 20.194000244  -999.250000 -0.037998047  -999.250000 1.9584810734 99.798469543 159.92294312 155.56965637 1.4609999657 9.9680004120 1.0889999866 0.9929999709
 720.50006104  -999.250000 20.190000534  -999.250000 -0.040998537  -999.250000 1.9594588280 100.28507996 159.59521484 155.25086975 1.4670000076 9.8690004349 1.0920000076 0.9869999886
 720.62500000  -999.250000 20.184999466  -999.250000 -0.040000975  -999.250000 1.9651308060 100.44500732 159.21633911 154.86828613 1.4769999981 9.7679996490 1.0950000286 0.9900000095
 720.75000000  -999.250000 20.180000305  -999.250000 -0.035002444  -999.250000 1.9737498760 100.46517944 158.79893494 154.44786072 1.4900000095 9.6579999924 1.0970000029 1.0000000000
 720.87500000  -999.250000 20.173999786  -999.250000 -0.029005855  -999.250000 1.9824287891 100.84659576 158.34509277 154.00056458 1.5019999743 9.5299997330 1.0980000496 1.0160000324
 721.00006104  -999.250000 20.170999527  -999.250000 -0.026001465  -999.250000 1.9877520800 102.06939697 157.85913086 153.52641296 1.5110000372 9.3819999695 1.1000000238 1.0310000181
 721.12506104  -999.250000 20.170999527  -999.250000 -0.025000488  -999.250000 1.9870138168 103.50043488 157.41918945 153.04058838 1.5160000324 9.2980003357 1.1059999466 1.0349999666
 721.25000000  -999.250000 20.173999786  -999.250000 -0.025999025  -999.250000 1.9825326204 104.39294434 156.97946167 152.63179016 1.5190000534 9.3970003128 1.1109999418 1.0269999504
 721.37500000  -999.250000 20.176000595  -999.250000 -0.026000001  -999.250000 1.9774681330 104.27672577 156.72309875 152.37312317 1.5199999809 9.7489995956 1.1119999886 1.0130000114
 721.50000000  -999.250000 20.177000046  -999.250000 -0.022003904  -999.250000 1.9739993811 103.71383667 156.65597534 152.30142212 1.5199999809 10.291000366 1.1089999676 0.9969999790
 721.62506104  -999.250000 20.177000046  -999.250000 -0.018001953  -999.250000 1.9735565186 103.38417816 156.75097656 152.42260742 1.5180000067 10.861000061 1.1030000448 0.9840000272
 721.75006104  -999.250000 20.177000046  -999.250000 -0.015001465  -999.250000 1.9765092134 103.56421661 157.04428101 152.71203613 1.5110000372 11.196999550 1.0970000029 0.9729999900
 721.87500000  -999.250000 20.177000046  -999.250000 -0.014000977  -999.250000 1.9827181101 103.99594879 157.47950745 153.11747742 1.5000000000 11.109000206 1.0939999819 0.9629999995
 722.00000000  -999.250000 20.179000854  -999.250000 -0.014000000  -999.250000 1.9891564846 103.88275146 157.95614624 153.59497070 1.4859999418 10.784000397 1.0939999819 0.9499999881
 722.12506104  -999.250000 20.180000305  -999.250000 -0.014000000  -999.250000 1.9929835796 103.36539459 158.52482605 154.16372681 1.4709999561 10.427000046 1.0939999819 0.9359999895
 722.25006104  -999.250000 20.180000305  -999.250000 -0.016998537  -999.250000 1.9927223921 102.75180817 159.19200134 154.83229065 1.4579999447 10.210000038 1.0939999819 0.9229999781
 722.37500000  -999.250000 20.179000854  -999.250000 -0.019997070  -999.250000 1.9886234999 102.35800171 159.92227173 155.58377075 1.4470000267 10.234999657 1.0930000544 0.9139999747
 722.50000000  -999.250000 20.176000595  -999.250000 -0.020000000  -999.250000 1.9845225811 102.26589966 160.65945435 156.29118347 1.4379999638 10.394000053 1.0900000334 0.9120000005
