# LAS format log file from PETREL
# Project units are specified as depth units
#==================================================================
~Version information
VERS.   2.0:
WRAP.   NO:
#==================================================================
~Well
STRT .m      376.12503052 :
STOP .m      2088.7500000 :
STEP .m     0.00000000 :
NULL .        -999.250000 :
COMP.           : COMPANY
WELL.  31/6-5   : WELL
FLD.            : FIELD
LOC.            : LOCATION
SRVC.           : SERVICE COMPANY
DATE.  2018-09-11 14:48:40   : Log Export Date {yyyy-MM-dd HH:mm:ss}
PROV.           : PROVINCE
UWI.   31/6-5   : UNIQUE WELL ID
API.            : API NUMBER
#==================================================================
~Curve
DEPT .m                   : DEPTH
Lithology_geolink ._      : Lithology_geolink
CALI .in                  : CALI
BS .in                    : BS
DRHO .g/cm3               : DRHO
NPHI .m3/m3               : NPHI
RHOB .g/cm3               : RHOB
GR .gAPI                  : GR
DTC .us/ft                : DTC
DTE .us/ft                : DTE
RDEP .ohm.m               : RDEP
SP .mV                    : SP
RSHA .ohm.m               : RSHA
RMED .ohm.m               : RMED
~Parameter
#==================================================================
~Ascii
# ...
 601.62500000  -999.250000 13.051000595  -999.250000  -999.250000  -999.250000 2.0027732849 64.988708496 176.55505371 172.18579102 1.2790000439 -18.32699966 1.5279999971 1.2819999456
 601.75006104  -999.250000 12.996999741  -999.250000  -999.250000  -999.250000 2.0018551350 66.438720703 176.84684753 172.50123596 1.2779999971 -18.14900017 1.5269999504 1.2819999456
 601.87500000  -999.250000 12.949999809  -999.250000  -999.250000  -999.250000 2.0004749298 67.173027039 177.30574036 172.97996521 1.2779999971 -18.06200027 1.5260000229 1.2829999924
 602.00006104  -999.250000 12.927999496  -999.250000  -999.250000  -999.250000 1.9985809326 67.228843689 177.97354126 173.63887024 1.2790000439 -18.08499908 1.5249999762 1.2840000391
 602.12500000  -999.250000 12.942000389  -999.250000  -999.250000  -999.250000 1.9961869717 67.068870544 178.84635925 174.47863770 1.2790000439 -18.19300079 1.5249999762 1.2849999666
 602.25000000  -999.250000 12.991999626  -999.250000  -999.250000  -999.250000 1.9933983088 66.806655884 179.78538513 175.44441223 1.2799999714 -18.29999924 1.5269999504 1.2860000134
 602.37506104  -999.250000 13.036000252  -999.250000  -999.250000  -999.250000 1.9910128117 66.107223511 180.63644409 176.28851318 1.2810000181 -18.31100082 1.5299999714 1.2879999876
 602.50000000  -999.250000 13.061000824  -999.250000  -999.250000  -999.250000 1.9893099070 65.311805725 181.25483704 176.89578247 1.2810000181 -18.22999954 1.5319999456 1.2879999876
 602.62506104  -999.250000 13.068000793  -999.250000  -999.250000  -999.250000 1.9883742332 64.918464661 181.59162903 177.22753906 1.2810000181 -18.09600067 1.5329999924 1.2890000343
 602.75000000  -999.250000 13.071998596  -999.250000  -999.250000  -999.250000 1.9882476330 65.398536682 181.62640381 177.26788330 1.2810000181 -17.96800041 1.5319999456 1.2890000343
 602.87500000  -999.250000 13.095001221  -999.250000  -999.250000  -999.250000 1.9891498089 66.487472534 181.28405762 176.95335388 1.2819999456 -17.90600014 1.5299999714 1.2899999619
 603.00000000  -999.250000 13.147999763  -999.250000  -999.250000  -999.250000 1.9913686514 67.449165344 180.51634216 176.14898682 1.2829999924 -17.92200089 1.5290000439 1.2899999619
 603.12500000  -999.250000 13.211999893  -999.250000  -999.250000  -999.250000 1.9944977760 67.786857605 179.41935730 175.05874634 1.2840000391 -17.95100021 1.5290000439 1.2899999619
 603.25006104  -999.250000 13.270999908  -999.250000  -999.250000  -999.250000 1.9977365732 67.484680176 178.27073669 173.93025208 1.2849999666 -17.94099998 1.5299999714 1.2899999619
 603.37500000  -999.250000 13.315999985  -999.250000  -999.250000  -999.250000 2.0004875660 67.153114319 177.30348206 172.97033691 1.2849999666 -17.86599922 1.5310000181 1.2899999619
 603.50006104  -999.250000 13.338999748  -999.250000  -999.250000  -999.250000 2.0024724007 67.381736755 176.64723206 172.30165100 1.2849999666 -17.72699928 1.5319999456 1.2890000343
 603.62500000  -999.250000 13.331999779  -999.250000  -999.250000  -999.250000 2.0035381317 68.136505127 176.25611877 171.91783142 1.2840000391 -17.59700012 1.5310000181 1.2890000343
 603.75000000  -999.250000 13.302000046  -999.250000  -999.250000  -999.250000 2.0043959618 69.172584534 175.98171997 171.62248230 1.2829999924 -17.56699944 1.5299999714 1.2879999876
 603.87500000  -999.250000 13.258000374  -999.250000  -999.250000  -999.250000 2.0051646233 70.375495911 175.73948669 171.36953735 1.2810000181 -17.65600014 1.5290000439 1.2869999409
 604.00000000  -999.250000 13.215999603  -999.250000  -999.250000  -999.250000 2.0057680607 71.388107300 175.53672791 171.17335510 1.2790000439 -17.83799934 1.5290000439 1.2849999666
 604.12506104  -999.250000 13.187999725  -999.250000  -999.250000  -999.250000 2.0061156750 71.612152100 175.40322876 171.05755615 1.2760000229 -18.06399918 1.5290000439 1.2840000391
 604.25000000  -999.250000 13.187001228  -999.250000  -999.250000  -999.250000 2.0061976910 70.747016907 175.36312866 171.03239441 1.2740000486 -18.26499939 1.5290000439 1.2819999456
 604.37506104  -999.250000 13.208000183  -999.250000  -999.250000  -999.250000 2.0060405731 68.727401733 175.40100098 171.07644653 1.2740000486 -18.37100029 1.5269999504 1.2810000181
 604.50000000  -999.250000 13.230999947  -999.250000  -999.250000  -999.250000 2.0058150291 66.064880371 175.49111938 171.15412903 1.2740000486 -18.37199974 1.5249999762 1.2810000181
 604.62500000  -999.250000 13.253000259  -999.250000  -999.250000  -999.250000 2.0055251122 63.773582458 175.58834839 171.25032043 1.2749999762 -18.29000092 1.5230000019 1.2810000181
 604.75000000  -999.250000 13.272001266  -999.250000  -999.250000  -999.250000 2.0051970482 62.921249390 175.69822693 171.35876465 1.2749999762 -18.15500069 1.5219999552 1.2819999456
 604.87500000  -999.250000 13.288000107  -999.250000  -999.250000  -999.250000 2.0048146248 63.429943085 175.86595154 171.49656677 1.2749999762 -17.99600029 1.5230000019 1.2819999456
 605.00006104  -999.250000 13.300000191  -999.250000  -999.250000  -999.250000 2.0039117336 65.361228943 176.15052795 171.80625916 1.2749999762 -17.86300087 1.5249999762 1.2829999924
 605.12500000  -999.250000 13.300999641  -999.250000  -999.250000  -999.250000 2.0022201538 67.644187927 176.75025940 172.38298035 1.2749999762 -17.77000046 1.5279999971 1.2840000391
 605.25006104  -999.250000 13.284999847  -999.250000  -999.250000  -999.250000 2.0005764961 70.076240540 177.31893921 172.95460510 1.2749999762 -17.69700050 1.5310000181 1.2840000391
 605.37500000  -999.250000 13.246999741  -999.250000  -999.250000  -999.250000 1.9996999502 72.374977112 177.62036133 173.25767517 1.2740000486 -17.64900017 1.5329999924 1.2840000391
 605.50000000  -999.250000 13.190999985  -999.250000  -999.250000  -999.250000 2.0001287460 74.378631592 177.47869873 173.09962463 1.2740000486 -17.63500023 1.5340000391 1.2829999924
 605.62506104  -999.250000 13.133000374  -999.250000  -999.250000  -999.250000 2.0020980835 75.682479858 176.79367065 172.41780090 1.2740000486 -17.65900040 1.5329999924 1.2819999456
 605.75000000  -999.250000 13.102999687  -999.250000  -999.250000  -999.250000 2.0049674511 76.172561646 175.80720520 171.43972778 1.2730000019 -17.73699951 1.5319999456 1.2799999714
 605.87506104  -999.250000 13.100999832  -999.250000  -999.250000  -999.250000 2.0072000027 75.285339355 175.06240845 170.68833923 1.2730000019 -17.84399986 1.5299999714 1.2790000439
 606.00000000  -999.250000 13.118000031  -999.250000  -999.250000  -999.250000 2.0084218979 73.582992554 174.62391663 170.26838684 1.2730000019 -17.97800064 1.5299999714 1.2779999971
 606.12506104  -999.250000 13.144000053  -999.250000  -999.250000  -999.250000 2.0088000298 71.523208618 174.46018982 170.13250732 1.2730000019 -18.13599968 1.5299999714 1.2769999504
 606.25000000  -999.250000 13.173000336  -999.250000  -999.250000  -999.250000 2.0087699890 69.685302734 174.47953796 170.15074158 1.2740000486 -18.30400085 1.5299999714 1.2769999504
 606.37500000  -999.250000 13.211999893  -999.250000  -999.250000  -999.250000 2.0085239410 68.264572144 174.57730103 170.22857666 1.2749999762 -18.43000031 1.5290000439 1.2779999971
 606.50006104  -999.250000 13.248998642  -999.250000  -999.250000  -999.250000 2.0082776546 67.393226624 174.66748047 170.32037354 1.2760000229 -18.41200066 1.5269999504 1.2799999714
 606.62500000  -999.250000 13.253999710  -999.250000  -999.250000  -999.250000 2.0080878735 66.605720520 174.73493958 170.38856506 1.2760000229 -18.26899910 1.5249999762 1.2810000181
 606.75006104  -999.250000 13.213000298  -999.250000  -999.250000  -999.250000 2.0080761909 66.033790588 174.73901367 170.39630127 1.2760000229 -18.06699944 1.5249999762 1.2819999456
 606.87500000  -999.250000 13.130999565  -999.250000  -999.250000  -999.250000 2.0083005428 65.820228577 174.66181946 170.32192993 1.2760000229 -17.89100075 1.5260000229 1.2810000181
 607.00006104  -999.250000 13.043000221  -999.250000  -999.250000  -999.250000 2.0087149143 66.296051025 174.52183533 170.16691589 1.2760000229 -17.82600021 1.5279999971 1.2790000439
