# LAS format log file from PETREL
# Project units are specified as depth units
#==================================================================
~Version information
VERS.   2.0:
WRAP.   NO:
#==================================================================
~Well
STRT .m      669.21893311 :
STOP .m      2146.7373047 :
STEP .m     0.00000000 :
NULL .        -999.250000 :
COMP.           : COMPANY
WELL.  31/6-8   : WELL
FLD.            : FIELD
LOC.            : LOCATION
SRVC.           : SERVICE COMPANY
DATE.  2018-09-11 14:48:41   : Log Export Date {yyyy-MM-dd HH:mm:ss}
PROV.           : PROVINCE
UWI.   31/6-8   : UNIQUE WELL ID
API.            : API NUMBER
#==================================================================
~Curve
DEPT .m                   : DEPTH
Lithology_geolink ._      : Lithology_geolink
CALI .in                  : CALI
BS .in                    : BS
DRHO .g/cm3               : DRHO
NPHI .m3/m3               : NPHI
RHOB .g/cm3               : RHOB
GR .gAPI                  : GR
DTC .us/ft                : DTC
DTE .us/ft                : DTE
RDEP .ohm.m               : RDEP
SP .mV                    : SP
RSHA .ohm.m               : RSHA
RMED .ohm.m               : RMED
~Parameter
#==================================================================
~Ascii
# ...
 1554.3583984 1.0000000000 12.093999863 12.250000954 -0.030995196 0.1342084557 1.8859567642 43.812999725 137.05619812 132.69438171 9.9230880737 13.599599838 159.43719482 159.54623413
 1554.5107422 1.0000000000 12.093999863 12.250000954 -0.028996794 0.1044712216 1.8680096865 44.905998230 137.88172913 133.50329590 10.385442734 13.350400925 178.71917725 178.72636414
 1554.6632080 1.0000000000 12.093999863 12.250000954 -0.026987990 0.0928005055 1.8740576506 43.719001770 138.04602051 133.60052490 17.069156647 15.098598480 164.01182556 163.91473389
 1554.8155518 1.0000000000 12.093999863 12.250000954 -0.022001602 0.1054817289 1.8980047703 44.437999725 138.57359314 134.11698914 94.122200012 15.100000381 128.55683899 128.49559021
 1554.9680176 2.0000000000 12.093999863 12.250000954 -0.022990393 0.1128169745 1.9010168314 44.625000000 139.58749390 135.06278992 1995.7738037 16.099199295 125.75220490 125.71096802
 1555.1203613 2.0000000000 12.093999863 12.250000954 -0.018993590 0.1240411401 1.9080240726 48.280998230 141.36174011 136.94171143 240.20358276 16.849399567 109.51302338 109.46614838
 1555.2728271 2.0000000000 12.093999863 12.250000954 -0.014997598 0.1372486949 1.9230600595 52.812999725 139.60157776 135.20135498 55.518314362 17.599399567 88.391914368 88.294609070
 1555.4251709 2.0000000000 12.093999863 12.250000954 -0.013993590 0.1533599049 1.9480447769 51.875000000 141.90397644 137.45146179 50.208133698 18.349399567 54.932815552 54.888370514
 1555.5776367 2.0000000000 12.093999863 12.250000954 -0.010004804 0.1782727987 1.9759855270 47.844001770 138.78666687 134.27685547 24.104883194 19.349199295 43.914806366 43.911781311
 1555.7299805 2.0000000000 12.093999863 12.250000954 -0.012000000 0.2002054751 1.9699759483 43.375000000 138.85237122 134.45030212 15.745593071 19.100200653 46.311069489 46.320663452
 1555.8824463 2.0000000000 12.093999863 12.250000954 -0.012014411 0.2036076784 1.9549832344 44.562999725 136.21104431 131.80430603 12.992907524 19.849399567 51.090175629 51.085296631
 1556.0347900 2.0000000000 12.093999863 12.250000954 -0.017999999 0.2026360929 1.9480447769 45.594001770 134.28642273 129.82589722 10.042981148 20.599399567 47.471904755 47.455078125
 1556.1871338 2.0000000000 12.093999863 12.250000954 -0.018001601 0.2002343982 1.9760512114 49.155998230 134.24185181 129.69711304 7.5389809608 20.350400925 38.794910431 38.774093628
 1556.3395996 2.0000000000 12.093999863 12.250000954 -0.018998398 0.2217253745 2.0080239773 52.437999725 139.80068970 135.37463379 7.5269885063 21.349199295 34.472457886 34.464893341
 1556.4919434 2.0000000000 12.093999863 12.250000954 -0.018001601 0.2500054836 2.0230159760 54.750000000 154.32525635 149.87750244 7.5186600685 20.601202011 31.910104752 31.900817871
 1556.6444092 5.0000000000 12.093999863 12.250000954 -0.018995196 0.2534188330 2.0330047607 52.094001770 157.03118896 152.55934143 6.6842617989 18.851402283 28.674592972 28.662281036
 1556.7967529 5.0000000000 12.093999863 12.250000954 -0.017006410 0.2529025972 2.0349969864 55.719001770 161.44413757 156.93847656 6.7935819626 22.593996048 24.631481171 24.617137909
 1556.9492188 5.0000000000 12.093999863 12.250000954 -0.021000000 0.2358646095 2.0329952240 57.875000000 178.87335205 174.42517090 7.1556735039 22.100400925 19.722930908 19.712957382
 1557.1015625 5.0000000000 12.093999863 12.250000954 -0.021001602 0.2460860908 2.0309791565 63.405998230 156.32179260 151.88444519 7.0213766098 21.350601196 17.205015182 17.206930161
 1557.2540283 2.0000000000 12.093999863 12.250000954 -0.022000000 0.2436183542 2.0180070400 60.594001770 129.29794312 124.91458893 7.8834943771 21.849599838 19.654035568 19.676002502
 1557.4063721 2.0000000000 12.093999863 12.250000954 -0.022003205 0.2304566950 2.0210816860 59.719001770 123.76910400 119.33976746 9.7529678345 22.099800110 27.977325439 27.983999252
 1557.5588379 2.0000000000 12.093999863 12.250000954 -0.024024019 0.2222169042 2.0722498894 53.969001770 121.47678375 116.92559814 11.613203049 22.100000381 27.983999252 27.966661453
 1557.7111816 2.0000000000 12.093999863 12.250000954 -0.034001604 0.2416765094 2.1762852669 50.780998230 104.16072083 99.788177490 16.328725815 23.099199295 20.771783829 20.765298843
 1557.8636475 16.000000000 12.093999863 12.250000954 -0.034987990 0.2269233465 2.3543891907 45.937999725 72.647476196 68.231674194 55.933444977 23.349800110 20.328350067 20.342523575
 1558.0159912 16.000000000 12.093999863 12.250000954 -0.029985577 0.1741814911 2.5161843300 42.500000000 63.984527588 59.575378418 275.08975220 23.100200653 26.370155334 26.393629074
 1558.1684570 16.000000000 12.187999725 12.250000954 -0.020985588 0.0877879634 2.6310455799 39.594001770 64.880661011 60.393375397 331.18493652 24.348999023 37.990692139 38.052616119
 1558.3208008 1.0000000000 12.187999725 12.250000954 -0.015004807 0.0453857370 2.6499936581 35.594001770 77.154647827 72.740516663 407.42422485 24.849599838 59.888446808 59.982471466
 1558.4731445 1.0000000000 12.187999725 12.250000954 -0.017998397 0.0302715693 2.6459887028 33.687999725 75.114067078 70.745887756 48.680416107 26.347599030 107.54859161 107.75740814
 1558.6256104 1.0000000000 12.147998810 12.250000954 -0.017021619 0.0312570371 2.6387453079 31.812999725 84.624397278 80.184555054 24.670686722 27.598999023 190.18379211 190.25000000
 1558.7779541 1.0000000000 12.093999863 12.250000954 -0.026001602 0.0342042632 2.5327899456 35.625000000 102.86123657 98.369743347 37.065906525 28.847999573 190.25000000 190.09335327
 1558.9304199 1.0000000000 12.093999863 12.250000954 -0.027002404 0.0493915305 2.4017429352 37.187999725 100.32625580 95.890045166 78.162384033 29.349599838 92.578323364 92.396568298
 1559.0827637 1.0000000000 12.093999863 12.250000954 -0.027985578 0.0791798234 2.2950129509 36.562999725 108.94542694 104.56645966 93.651145935 30.348398209 49.506954193 49.427631378
 1559.2352295 1.0000000000 12.093999863 12.250000954 -0.019009607 0.1289311200 2.3031873703 33.312999725 121.82118988 117.39517212 70.608665466 30.350000381 42.974185944 43.045936584
 1559.3875732 1.0000000000 12.093999863 12.250000954 -0.022990385 0.1376538426 2.3812003136 33.344001770 110.52701569 106.01353455 37.625701904 30.599800110 74.974334717 75.242790222
 1559.5400391 1.0000000000 12.093999863 12.250000954 -0.017012011 0.1087656766 2.5059256554 35.437999725 103.52450562 99.119964600 18.735927582 30.600000381 226.37870789 226.38531494
 1559.6923828 1.0000000000 12.093999863 12.250000954 -0.021993591 0.0571112148 2.4747049809 43.250000000 111.33940887 106.91197968 12.893815041 30.600000381 178.78825378 178.54992676
 1559.8448486 5.0000000000 12.093999863 12.250000954 -0.018004803 0.0454932749 2.2905771732 51.094001770 119.47080231 115.05301666 14.674965858 31.099599838 54.005954742 53.866142273
 1559.9971924 5.0000000000 12.093999863 12.250000954 -0.020001601 0.0801590234 2.1148445606 62.187999725 132.37495422 127.84123230 25.902393341 30.350601196 37.326293945 37.307540894
 1560.1496582 5.0000000000 12.093999863 12.250000954 -0.021007206 0.1295166761 2.0179038048 63.375000000 127.67601013 123.27423096 42.964046478 31.349201202 33.908725739 33.907348633
 1560.3020020 5.0000000000 12.093999863 12.250000954 -0.024000000 0.1821565926 1.9779744148 62.812999725 143.06706238 138.68103027 40.873573303 31.849597931 34.468551636 34.470703125
 1560.4543457 5.0000000000 12.093999863 12.250000954 -0.023995193 0.1987362653 1.9620047808 57.219001770 162.76374817 158.35314941 20.658378601 32.349197388 35.529296875 35.540966034
 1560.6068115 2.0000000000 12.093999863 12.250000954 -0.021012010 0.2026024610 1.9650071859 57.405998230 157.95512390 153.51757813 12.167008400 33.349197388 41.745018005 41.763736725
 1560.7591553 2.0000000000 12.093999863 12.250000954 -0.026000001 0.1869998276 1.9680209160 56.812999725 138.05117798 133.52558899 10.095752716 32.850799561 47.459842682 47.452724457
 1560.9116211 2.0000000000 12.093999863 12.250000954 -0.026002403 0.1806623489 1.9810023308 58.030998230 131.39274597 126.97709656 11.193759918 33.599395752 37.321136475 37.281063080
