# LAS format log file from PETREL
# Project units are specified as depth units
#==================================================================
~Version information
VERS.   2.0:
WRAP.   NO:
#==================================================================
~Well
STRT .m      669.21893311 :
STOP .m      2146.7373047 :
STEP .m     0.00000000 :
NULL .        -999.250000 :
COMP.           : COMPANY
WELL.  31/6-8   : WELL
FLD.            : FIELD
LOC.            : LOCATION
SRVC.           : SERVICE COMPANY
DATE.  2018-09-11 14:48:41   : Log Export Date {yyyy-MM-dd HH:mm:ss}
PROV.           : PROVINCE
UWI.   31/6-8   : UNIQUE WELL ID
API.            : API NUMBER
#==================================================================
~Curve
DEPT .m                   : DEPTH
Lithology_geolink ._      : Lithology_geolink
CALI .in                  : CALI
BS .in                    : BS
DRHO .g/cm3               : DRHO
NPHI .m3/m3               : NPHI
RHOB .g/cm3               : RHOB
GR .gAPI                  : GR
DTC .us/ft                : DTC
DTE .us/ft                : DTE
RDEP .ohm.m               : RDEP
SP .mV                    : SP
RSHA .ohm.m               : RSHA
RMED .ohm.m               : RMED
~Parameter
#==================================================================
~Ascii
# ...
 1359.8958740 13.000000000 17.500000000  -999.250000 -0.006998398 0.3613612950 2.3629999161 74.438407898 114.83885956 111.86151886 1.4139407873 -0.730798066 1.8399959803 1.8399471045
 1360.0483398 13.000000000 17.500000000  -999.250000 -0.006012009 0.3809995353 2.3630094528 72.001953125 115.78104401 112.69033813 1.3768942356 -1.232598066 1.7740528584 1.7738671303
 1360.2006836 13.000000000 17.500000000  -999.250000 -0.011001603 0.4390828609 2.3670096397 68.502807617 117.56251526 114.58975220 1.3329807520 -1.734597802 1.6910665035 1.6909543276
 1360.3531494 13.000000000 17.500000000  -999.250000 -0.011990393 0.5156663656 2.3730046749 66.439651489 117.91135406 114.80249786 1.3209760189 -2.737196922 1.6340456009 1.6339182854
 1360.5054932 13.000000000 17.500000000  -999.250000 -0.007991987 0.5306739211 2.3750000000 66.687805176 116.93509674 113.90857697 1.3109855652 -2.490198612 1.5830408335 1.5829943419
 1360.6579590 13.000000000 17.500000000  -999.250000 -0.003012010 0.4769069254 2.3749711514 71.621047974 116.74601746 113.64080048 1.3020071983 -2.491998434 1.5760055780 1.5760480165
 1360.8103027 13.000000000 17.500000000  -999.250000 -0.008009615 0.4175042808 2.3629856110 72.374397278 117.11666107 114.09981537 1.3049999475 -1.494799614 1.6059758663 1.6060584784
 1360.9626465 13.000000000 17.500000000  -999.250000 -0.014004808 0.4326333106 2.3540017605 70.690704346 116.41928101 113.35482788 1.3049983978 -1.496995211 1.6788830757 1.6790144444
 1361.1151123 13.000000000 17.500000000  -999.250000 -0.016997598 0.4409950674 2.3550240993 66.691207886 115.77608490 112.74505615 1.3040239811 -1.249198675 1.6969856024 1.6969799995
 1361.2674561 13.000000000 17.500000000  -999.250000 -0.016000001 0.4720972180 2.3650031090 68.746696472 115.58583069 112.61035156 1.3140256405 -1.250996828 1.6720401049 1.6720168591
 1361.4199219 13.000000000 17.500000000  -999.250000 -0.016007207 0.4267388880 2.3669593334 72.996597290 115.21556091 112.15059662 1.3300071955 1.7445977926 1.6929831505 1.6930311918
 1361.5722656 13.000000000 17.500000000  -999.250000 -0.018999999 0.4178854823 2.3499646187 74.747200012 115.93083191 112.90135193 1.3330111504 -0.002194555 1.7319375277 1.7319991589
 1361.7247314 13.000000000 17.500000000  -999.250000 -0.019002402 0.3653390706 2.3279592991 72.065155029 116.78375244 113.69750214 1.3400192261 -0.507596970 1.7310007811 1.7309639454
 1361.8770752 13.000000000 17.500000000  -999.250000 -0.019988781 0.4107080996 2.3110144138 70.751052856 117.56251526 114.59309387 1.3480048180 0.2394006401 1.6860359907 1.6859871149
 1362.0295410 13.000000000 17.500000000  -999.250000 -0.012990393 0.4532683790 2.3200192451 67.815353394 117.98697662 114.89628601 1.3509951830 0.4878014326 1.6700127125 1.6700119972
 1362.1818848 13.000000000 17.500000000  -999.250000 -0.009000000 0.5107564926 2.3280000687 73.683296204 117.33679962 114.31707001 1.3489599228 0.2362019271 1.6749958992 1.6750705242
 1362.3343506 13.000000000 17.500000000  -999.250000 -0.009012009 0.5208932161 2.3279640675 73.688003540 116.85936737 113.79295349 1.3239183426 -0.015798239 1.7189646959 1.7191032171
 1362.4866943 13.000000000 17.500000000  -999.250000 -0.014011218 0.4765099287 2.3129839897 79.370445251 118.02065277 115.05491638 1.2899374962 2.4789991379 1.7619655132 1.7619726658
 1362.6391602 13.000000000 17.500000000  -999.250000 -0.020987989 0.4452220500 2.3030407429 78.375801086 118.59026337 115.46567535 1.2508847713 -0.768396318 1.7450135946 1.7448030710
 1362.7915039 13.000000000 17.500000000  -999.250000 -0.016003206 0.4087338448 2.3200159073 80.748100281 119.89957428 116.88689423 1.2029502392 -1.272597790 1.6630656719 1.6628268957
 1362.9438477 13.000000000 17.500000000  -999.250000 -0.017995192 0.4360157549 2.3300094604 76.944107056 122.92181396 119.79919434 1.1719359159 -1.025397062 1.5551729202 1.5548124313
 1363.0963135 13.000000000 17.468999863  -999.250000 -0.014997598 0.4209410250 2.3359663486 80.060501099 124.28591156 121.29367828 1.1319663525 -1.527596951 1.4380936623 1.4376996756
 1363.2486572 13.000000000 17.375000000  -999.250000 -0.013995193 0.4378937483 2.3219904900 78.815002441 125.63307190 122.57969666 1.1180000305 -1.529996753 1.3132001162 1.3129214048
 1363.4011230 13.000000000 17.327999115  -999.250000 -0.011004804 0.3779991865 2.3159999847 78.937904358 125.52774048 122.49128723 1.1180288792 -2.031597853 1.2640392780 1.2640360594
 1363.5534668 13.000000000 17.375000000  -999.250000 -0.013011218 0.4067087173 2.3159887791 74.881507874 122.76719666 119.80464172 1.1300256252 -1.784397125 1.2789760828 1.2791442871
 1363.7059326 13.000000000 17.375000000  -999.250000 -0.020002402 0.3872944415 2.3089904785 78.310249329 119.49671173 116.40574646 1.1460648775 -2.035798073 1.3689278364 1.3692834377
 1363.8582764 13.000000000 17.375000000  -999.250000 -0.020993590 0.4223341942 2.3050241470 76.189704895 116.64653015 113.67240143 1.1730368137 -1.539398313 1.4869054556 1.4872756004
 1364.0107422 13.000000000 17.375000000  -999.250000 -0.016987991 0.4062863588 2.3200383186 77.748748779 115.66761780 112.54792023 1.1961824894 -0.541799068 1.6588623524 1.6592282057
 1364.1630859 13.000000000 17.375000000  -999.250000 -0.011991987 0.4214416444 2.3360030651 78.374496460 116.90351868 113.93291473 1.2721233368 -0.293198735 1.7539237738 1.7539021969
 1364.3155518 13.000000000 17.375000000  -999.250000 -0.007004804 0.4536018074 2.3379712105 79.624000549 117.47818756 114.45034790 1.3491656780 0.2046012729 1.6930488348 1.6927862167
 1364.4678955 13.000000000 17.327999115  -999.250000 -0.009004807 0.4501906037 2.3259968758 77.626602173 115.96874237 112.99205780 1.4180480242 -0.546397448 1.6040712595 1.6040753126
 1364.6203613 13.000000000 17.312999725  -999.250000 -0.012002402 0.4442614019 2.3240478039 70.880401611 114.58600616 111.50778961 1.4480215311 0.1994019300 1.6509623528 1.6512882710
 1364.7727051 13.000000000 17.343999863  -999.250000 -0.012995193 0.4116082489 2.3440177441 72.062049866 112.32412720 109.31687927 1.4569582939 0.4478012919 1.7709038258 1.7712035179
 1364.9250488 13.000000000 17.375000000  -999.250000 -0.009995196 0.4042788744 2.3549792767 74.309402466 111.85151672 108.79755402 1.4309760332 0.4460031986 1.8977966309 1.8980656862
 1365.0775146 13.000000000 17.437999725  -999.250000 -0.006998398 0.3911029696 2.3419582844 74.749649048 113.30312347 110.25687408 1.4159855843 -0.055597760 1.9389671087 1.9389119148
 1365.2298584 13.000000000 17.531000137  -999.250000 -0.005996795 0.3867231309 2.3159759045 75.623596191 114.82610321 111.69587708 1.4069935083 0.1906044781 1.8840880394 1.8838140965
 1365.3823242 13.000000000 17.608999252  -999.250000 -0.003990393 0.3887122273 2.3010144234 74.625801086 116.91609192 113.84647369 1.4029687643 0.4388012886 1.7680929899 1.7678102255
 1365.5346680 13.000000000 17.608999252  -999.250000 -0.000004808 0.4062977433 2.3070030212 74.250602722 118.47243500 115.44297028 1.3899807930 0.1874035299 1.6891264915 1.6887980700
 1365.6871338 13.000000000 17.625000000  -999.250000 -0.003002402 0.4360423386 2.3090264797 73.500602722 119.35454559 116.24338531 1.3779567480 -0.064798072 1.5631009340 1.5628750324
 1365.8394775 13.000000000 17.531000137  -999.250000 -0.004017628 0.4370248616 2.3199968338 71.439659119 119.00609589 116.04866028 1.3599776030 -0.566597700 1.5110417604 1.5109711885
 1365.9919434 13.000000000 17.500000000  -999.250000 -0.015002402 0.4463580251 2.3180143833 74.747344971 118.09296417 114.99236298 1.3460023403 -0.819797456 1.4930144548 1.4932281971
 1366.1442871 13.000000000 17.500000000  -999.250000 -0.016008014 0.4746170044 2.3240029812 74.125503540 116.53368378 113.55914307 1.3470464945 -1.071798086 1.5879238844 1.5881940126
 1366.2967529 13.000000000 17.500000000  -999.250000 -0.020983186 0.4789355099 2.3260383606 75.686752319 114.59342194 111.55249786 1.3760937452 -1.573598027 1.7089030743 1.7092137337
 1366.4490967 13.000000000 17.500000000  -999.250000 -0.013983975 0.4521163404 2.3420305252 75.313301086 113.69680023 110.65523529 1.4150832891 -1.575998425 1.7979286909 1.7980945110
