# LAS format log file from PETREL
# Project units are specified as depth units
#==================================================================
~Version information
VERS.   2.0:
WRAP.   NO:
#==================================================================
~Well
STRT .m      376.12503052 :
STOP .m      2088.7500000 :
STEP .m     0.00000000 :
NULL .        -999.250000 :
COMP.           : COMPANY
WELL.  31/6-5   : WELL
FLD.            : FIELD
LOC.            : LOCATION
SRVC.           : SERVICE COMPANY
DATE.  2018-09-11 14:48:40   : Log Export Date {yyyy-MM-dd HH:mm:ss}
PROV.           : PROVINCE
UWI.   31/6-5   : UNIQUE WELL ID
API.            : API NUMBER
#==================================================================
~Curve
DEPT .m                   : DEPTH
Lithology_geolink ._      : Lithology_geolink
CALI .in                  : CALI
BS .in                    : BS
DRHO .g/cm3               : DRHO
NPHI .m3/m3               : NPHI
RHOB .g/cm3               : RHOB
GR .gAPI                  : GR
DTC .us/ft                : DTC
DTE .us/ft                : DTE
RDEP .ohm.m               : RDEP
SP .mV                    : SP
RSHA .ohm.m               : RSHA
RMED .ohm.m               : RMED
~Parameter
#==================================================================
~Ascii
# ...
 1283.6250000 13.000000000 17.645000458  -999.250000 -0.070000000  -999.250000 2.2773997784 73.883872986 117.88147736 113.53115845 1.7230000496 8.3629999161 1.5049999952 0.8209999800
 1283.7501221 13.000000000 17.641000748  -999.250000 -0.068000004  -999.250000 2.2849001884 73.750892639 117.67887878 113.31440735 1.7480000257 8.5290002823 1.5230000019 0.8220000267
 1283.8751221 13.000000000 17.628999710  -999.250000 -0.063000001  -999.250000 2.2938964367 74.207962036 117.32172394 112.91597748 1.7699999809 8.6850004196 1.5509999990 0.8249999881
 1284.0000000 13.000000000 17.608999252  -999.250000 -0.058004882  -999.250000 2.3015997410 75.209999084 116.77330017 112.38518524 1.7890000343 8.8210000992 1.5870000124 0.8259999752
 1284.1250000 13.000000000 17.579999924  -999.250000 -0.054003909  -999.250000 2.3063745499 76.538002014 116.12004852 111.83042908 1.8020000458 8.9300003052 1.6250000000 0.8270000219
 1284.2500000 13.000000000 17.548000336  -999.250000 -0.049004883  -999.250000 2.3094923496 77.931999207 115.84821320 111.43911743 1.8059999943 8.9930000305 1.6549999714 0.8249999881
 1284.3750000 13.000000000 17.520999908  -999.250000 -0.043000001  -999.250000 2.3148989677 79.401000977 115.80188751 111.44961548 1.8029999733 9.0010004044 1.6679999828 0.8209999800
 1284.5000000 13.000000000 17.500999451  -999.250000 -0.034000002  -999.250000 2.3220691681 80.908996582 116.27627563 111.88434601 1.7940000296 8.9580001831 1.6660000086 0.8159999847
 1284.6250000 13.000000000 17.486999512  -999.250000 -0.026000001  -999.250000 2.3281610012 82.291000366 117.05335236 112.64819336 1.7829999924 8.8889999390 1.6510000229 0.8100000024
 1284.7500000 13.000000000 17.476999283  -999.250000 -0.022000000  -999.250000 2.3302390575 83.313682556 117.94649506 113.59782410 1.7699999809 8.8159999847 1.6319999695 0.8050000072
 1284.8751221 13.000000000 17.471000671  -999.250000 -0.023000000  -999.250000 2.3261415958 84.008163452 118.93639374 114.57030487 1.7580000162 8.7609996796 1.6119999886 0.8000000119
 1285.0001221 13.000000000 17.468999863  -999.250000 -0.028000001  -999.250000 2.3159673214 84.088310242 119.60166168 115.31755066 1.7500000000 8.7370004654 1.5980000496 0.7979999781
 1285.1250000 13.000000000 17.472000122  -999.250000 -0.036991213  -999.250000 2.3046865463 83.736000061 120.12417603 115.76240540 1.7439999580 8.7639999390 1.5939999819 0.7990000248
 1285.2500000 13.000000000 17.481000900  -999.250000 -0.044992190  -999.250000 2.2959096432 82.870002747 120.28025055 115.94809723 1.7419999838 8.8310003281 1.5970000029 0.8029999733
 1285.3750000 13.000000000 17.496999741  -999.250000 -0.050994139  -999.250000 2.2920815945 81.901000977 120.22331238 115.92368317 1.7410000563 8.9160003662 1.6039999723 0.8100000024
 1285.5000000 13.000000000 17.521999359  -999.250000 -0.050999999  -999.250000 2.2943372726 81.285003662 120.14958954 115.74790192 1.7430000305 8.9949998856 1.6130000353 0.8180000186
 1285.6250000 13.000000000 17.555999756  -999.250000 -0.046999998  -999.250000 2.3020501137 81.467002869 119.75820160 115.47238159 1.7460000515 9.0380001068 1.6200000048 0.8270000219
 1285.7500000 13.000000000 17.593000412  -999.250000 -0.039999999  -999.250000 2.3107469082 81.983001709 119.54870605 115.12681580 1.7519999743 9.0559997559 1.6269999743 0.8360000253
 1285.8750000 13.000000000 17.627000809  -999.250000 -0.034000002  -999.250000 2.3158595562 82.350997925 119.08953094 114.71158600 1.7580000162 9.0869998932 1.6349999905 0.8450000286
 1286.0000000 13.000000000 17.656000137  -999.250000 -0.030999999  -999.250000 2.3162529469 82.431991577 118.59893799 114.22610474 1.7649999857 9.1300001144 1.6430000067 0.8539999723
 1286.1251221 13.000000000 17.679000854  -999.250000 -0.035000000  -999.250000 2.3130977154 82.425483704 118.11893463 113.69625092 1.7699999809 9.1719999313 1.6529999971 0.8619999886
 1286.2500000 13.000000000 17.694000244  -999.250000 -0.037997071  -999.250000 2.3095874786 82.669998169 117.47841644 113.18169403 1.7710000277 9.1820001602 1.6599999666 0.8700000048
 1286.3750000 13.000000000 17.701999664  -999.250000 -0.037999999  -999.250000 2.3093411922 83.205001831 117.26229858 112.83821869 1.7660000324 9.1429996490 1.6579999924 0.8780000210
 1286.5000000 13.000000000 17.705999374  -999.250000 -0.036001951  -999.250000 2.3107335567 83.652000427 117.16188812 112.79398346 1.7539999485 9.0939998627 1.6449999809 0.8859999776
 1286.6250000 13.000000000 17.708000183  -999.250000 -0.034001954  -999.250000 2.3109469414 83.707000732 117.41938019 113.01727295 1.7389999628 9.0659999847 1.6230000257 0.8909999728
 1286.7500000 13.000000000 17.708999634  -999.250000 -0.034000002  -999.250000 2.3085591793 83.066001892 117.82669067 113.42153931 1.7230000496 9.0659999847 1.5950000286 0.8960000277
 1286.8750000 13.000000000 17.709999084  -999.250000 -0.037000000  -999.250000 2.3034386635 82.013999939 118.16738892 113.88504791 1.7100000381 9.0769996643 1.5650000572 0.8989999890
 1287.0000000 13.000000000 17.709999084  -999.250000 -0.037999999  -999.250000 2.2973668575 81.096000671 118.63639069 114.26535797 1.7009999752 9.0489997864 1.5360000134 0.9029999971
 1287.1250000 13.000000000 17.708999634  -999.250000 -0.037999999  -999.250000 2.2923970222 80.897384644 118.75051117 114.40056610 1.7000000477 8.9399995804 1.5140000582 0.9079999924
 1287.2501221 13.000000000 17.709999084  -999.250000 -0.035000000  -999.250000 2.2880752087 81.289871216 118.71876526 114.33894348 1.7039999962 8.8170003891 1.4950000048 0.9150000215
 1287.3751221 13.000000000 17.711999893  -999.250000 -0.032000002  -999.250000 2.2834641933 81.735275269 118.46811676 114.11131287 1.7130000591 8.7239999771 1.4809999466 0.9229999781
 1287.5000000 13.000000000 17.715000153  -999.250000 -0.032000002  -999.250000 2.2782137394 81.875000000 118.06342316 113.75094604 1.7259999514 8.6899995804 1.4730000496 0.9300000072
 1287.6250000 13.000000000 17.715999603  -999.250000 -0.035996091  -999.250000 2.2727601528 81.672996521 117.64886475 113.28492737 1.7430000305 8.7290000916 1.4689999819 0.9380000234
 1287.7500000 13.000000000 17.714000702  -999.250000 -0.040995117  -999.250000 2.2697265148 81.484001160 116.96444702 112.70341492 1.7649999857 8.8780002594 1.4739999771 0.9430000186
 1287.8750000 13.000000000 17.709999084  -999.250000 -0.046999998  -999.250000 2.2715563774 81.364997864 116.38215637 112.01989746 1.7910000086 9.1020002365 1.4869999886 0.9470000267
 1288.0000000 13.000000000 17.708000183  -999.250000 -0.050000001  -999.250000 2.2780148983 80.841003418 115.60141754 111.27393341 1.8179999590 9.3789997101 1.5060000420 0.9499999881
 1288.1250000 13.000000000 17.707000732  -999.250000 -0.050000001  -999.250000 2.2878348827 79.875999451 114.84183502 110.52421570 1.8450000286 9.6610002518 1.5290000439 0.9530000091
 1288.2500000 13.000000000 17.708000183  -999.250000 -0.043000001  -999.250000 2.2991378307 78.790000916 114.26834869 109.84263611 1.8669999838 9.8950004578 1.5520000458 0.9539999962
 1288.3751221 13.000000000 17.711000443  -999.250000 -0.035000000  -999.250000 2.3097245693 78.051620483 113.65851593 109.31059265 1.8780000210 10.029000282 1.5709999800 0.9520000219
 1288.5001221 13.000000000 17.712999344  -999.250000 -0.028000001  -999.250000 2.3172426224 78.881072998 113.47879028 109.11117554 1.8719999790 10.043999672 1.5839999914 0.9440000057
 1288.6250000 13.000000000 17.715999603  -999.250000 -0.023004882  -999.250000 2.3215692043 80.452003479 113.56991577 109.24027252 1.8519999981 9.9600000381 1.5889999866 0.9279999733
 1288.7500000 13.000000000 17.718999863  -999.250000 -0.022000976  -999.250000 2.3232786655 82.539001465 113.98038483 109.64547729 1.8229999542 9.8009996414 1.5859999657 0.9079999924
 1288.8750000 13.000000000 17.722999573  -999.250000 -0.022999024  -999.250000 2.3234198093 84.422996521 114.60688782 110.24706268 1.7869999409 9.6120004654 1.5770000219 0.8849999905
 1289.0000000 13.000000000 17.728000641  -999.250000 -0.024998046  -999.250000 2.3232347965 85.512001038 115.28195190 110.94909668 1.7480000257 9.4580001831 1.5659999847 0.8619999886
