# LAS format log file from PETREL
# Project units are specified as depth units
#==================================================================
~Version information
VERS.   2.0:
WRAP.   NO:
#==================================================================
~Well
STRT .m      669.21893311 :
STOP .m      2146.7373047 :
STEP .m     0.00000000 :
NULL .        -999.250000 :
COMP.           : COMPANY
WELL.  31/6-8   : WELL
FLD.            : FIELD
LOC.            : LOCATION
SRVC.           : SERVICE COMPANY
DATE.  2018-09-11 14:48:41   : Log Export Date {yyyy-MM-dd HH:mm:ss}
PROV.           : PROVINCE
UWI.   31/6-8   : UNIQUE WELL ID
API.            : API NUMBER
#==================================================================
~Curve
DEPT .m                   : DEPTH
Lithology_geolink ._      : Lithology_geolink
CALI .in                  : CALI
BS .in                    : BS
DRHO .g/cm3               : DRHO
NPHI .m3/m3               : NPHI
RHOB .g/cm3               : RHOB
GR .gAPI                  : GR
DTC .us/ft                : DTC
DTE .us/ft                : DTE
RDEP .ohm.m               : RDEP
SP .mV                    : SP
RSHA .ohm.m               : RSHA
RMED .ohm.m               : RMED
~Parameter
#==================================================================
~Ascii
# ...
 1064.8493652 6.0000000000 17.827999115  -999.250000 -0.005003202 0.5087876916 1.9599912167 81.243537903 150.71072388 146.14299011 0.8940048218 11.054602623 0.9240007997 0.9240040183
 1065.0017090 6.0000000000 17.843999863  -999.250000 -0.009000000 0.5058599710 1.9490000010 83.183341980 151.17396545 146.71476746 0.8999999762 11.302802086 0.9289960265 0.9290000200
 1065.1541748 6.0000000000 17.827999115  -999.250000 -0.009001601 0.5629548430 1.9409872293 80.755859375 151.29415894 146.88920593 0.9060063958 10.300999641 0.9179999828 0.9179887772
 1065.3065186 6.0000000000 17.937999725  -999.250000 -0.011000000 0.5190399885 1.9249999523 78.194160461 153.07437134 148.58685303 0.9139999747 10.299001694 0.9040111899 0.9039999843
 1065.4589844 6.0000000000 17.937999725  -999.250000 -0.010995196 0.5336461663 1.9140015841 74.633560181 153.25309753 148.71058655 0.9230039716 10.546999931 0.9020000100 0.9020128250
 1065.6113281 5.0000000000 17.937999725  -999.250000 -0.005000000 0.4790000021 1.9160000086 71.133415222 152.00991821 147.47323608 0.9279999733 11.543201447 0.9179871678 0.9179999828
 1065.7637939 5.0000000000 17.937999725  -999.250000 -0.004997598 0.4682713151 1.9179903269 69.254501343 151.20500183 146.73390198 0.9189792275 11.791999817 0.9319999814 0.9320079684
 1065.9161377 5.0000000000 17.858999252  -999.250000 -0.002000000 0.4824199975 1.9060000181 66.444763184 148.20014954 143.74772644 0.8930000067 12.539401054 0.9419919848 0.9419999719
 1066.0686035 5.0000000000 17.827999115  -999.250000 -0.006997596 0.5127313137 1.8869984150 71.986640930 149.45536804 144.94520569 0.8770023584 13.038000107 0.9490000010 0.9490072131
 1066.2209473 5.0000000000 17.827999115  -999.250000 -0.004003203 0.5517392159 1.8850071430 75.928535461 150.31539917 145.80320740 0.8800119758 14.285000801 0.9579927921 0.9580135942
 1066.3734131 5.0000000000 17.827999115  -999.250000 -0.008000801 0.5258820057 1.8940072060 79.928398132 150.72897339 146.15502930 0.8950039744 14.032999992 0.9750000238 0.9749711752
 1066.5257568 5.0000000000 17.827999115  -999.250000 -0.008998399 0.5283372402 1.9029911757 82.182594299 151.52169800 147.02583313 0.9000063539 13.281601906 0.9390288591 0.9389703870
 1066.6781006 6.0000000000 17.827999115  -999.250000 -0.007000000 0.5497999787 1.8919999599 78.262611389 152.20408630 147.82344055 0.9079999924 13.279002190 0.9020296335 0.9020000100
 1066.8305664 6.0000000000 17.827999115  -999.250000 -0.006996798 0.5410133600 1.8779991865 76.379508972 149.55775452 145.04655457 0.9309951663 13.277002335 0.8940063715 0.8940368295
 1066.9829102 6.0000000000 17.922000885  -999.250000 -0.003000000 0.5327100158 1.8769999743 71.948669434 144.57533264 140.04165649 0.9250000119 13.024203300 0.9399631619 0.9399999976
 1067.1353760 6.0000000000 17.906000137  -999.250000 -0.004999199 0.4907078743 1.8910144567 72.561500549 144.64234924 140.08885193 0.9110136032 11.272000313 0.9900000095 0.9900504351
 1067.2877197 5.0000000000 17.656000137  -999.250000 -0.004000000 0.4755899906 1.9090000391 75.368240356 144.65682983 140.18049622 0.9279999733 11.020202637 1.0529495478 1.0529999733
 1067.4401855 5.0000000000 17.641000748  -999.250000 -0.008000801 0.5244217515 1.8959952593 74.814353943 148.73385620 144.31954956 0.9259967804 10.517999649 1.0110000372 1.0109744072
 1067.5925293 5.0000000000 17.733999252  -999.250000 -0.009000000 0.5390599966 1.8899999857 76.059997559 149.70745850 145.20132446 0.9219999909 10.765801430 0.9790256023 0.9789999723
 1067.7449951 5.0000000000 17.812999725  -999.250000 -0.013004007 0.5805136561 1.8890177011 75.688903809 147.00271606 142.48406982 0.9169543386 10.262999535 0.9679999948 0.9680048227
 1067.8973389 5.0000000000 17.827999115  -999.250000 -0.017998397 0.5102500319 1.9110000134 73.692810059 145.28797913 140.74211121 0.8600000143 10.760601044 0.9739951491 0.9739999771
 1068.0498047 5.0000000000 17.827999115  -999.250000 -0.015991995 0.5268080235 1.9349967241 71.443405151 147.60508728 143.04034424 0.8109839559 11.758999825 0.9919999838 0.9919871688
 1068.2021484 19.000000000 17.827999115  -999.250000 -0.010995192 0.4619100094 1.9309999943 71.873947144 148.74649048 144.28179932 0.7910000086 12.506401062 0.9760128260 0.9760000110
 1068.3546143 19.000000000 17.827999115  -999.250000 -0.004995196 0.5053676367 1.9049726725 69.942657471 149.68145752 145.17449951 0.7739775777 12.505000114 0.8970000148 0.8969623446
 1068.5069580 19.000000000 17.827999115  -999.250000 -0.001999199 0.5024716258 1.8709896803 71.060302734 153.71107483 149.15795898 0.7459767461 11.752602577 0.8500376344 0.8499992490
 1068.6594238 19.000000000 17.843999863  -999.250000 -0.000998399 0.5419771075 1.8580015898 66.012161255 154.61497498 150.14378357 0.7169791460 10.500000000 0.8489999771 0.8489871621
 1068.8117676 19.000000000 17.827999115  -999.250000 -0.000001603 0.5259101391 1.8599952459 71.237380981 156.35243225 151.91273499 0.6909919977 8.0000028610 0.8330128193 0.8329711556
 1068.9641113 19.000000000 17.827999115  -999.250000 -0.002003203 0.5634800196 1.8539999723 68.320060730 156.35806274 151.86598206 0.6809999943 7.9960007668 0.7970288396 0.7969999909
 1069.1165771 19.000000000 17.827999115  -999.250000 -0.006000801 0.5986605287 1.8340064287 69.809402466 152.26754761 147.75924683 0.7170072198 8.4926023483 0.7900056243 0.7900184393
 1069.2689209 19.000000000 17.827999115  -999.250000 -0.006999200 0.6367200017 1.8420000076 70.187103271 150.05128479 145.50328064 0.7260000110 8.7408018112 0.8129816055 0.8130000234
 1069.4213867 19.000000000 17.827999115  -999.250000 -0.005997596 0.6703822017 1.8810280561 72.058502197 148.85327148 144.37834167 0.7510176301 9.4890003204 0.9179999828 0.9181016684
 1069.5737305 19.000000000 17.827999115  -999.250000 -0.002995997 0.6357400417 1.9160000086 72.187705994 148.89619446 144.42317200 0.7730000019 9.9866018295 1.0448982716 1.0449999571
 1069.7261963 19.000000000 17.827999115  -999.250000 0.0020024038 0.5995372534 1.9159752131 69.007659912 151.75093079 147.19668579 0.8010119796 10.734999657 0.9250000119 0.9249455929
 1069.8785400 19.000000000 17.827999115  -999.250000 0.0049991985 0.5087900162 1.8849999905 68.189956665 151.30102539 146.80856323 0.8159999847 10.482202530 0.8570544124 0.8569999933
 1070.0310059 19.000000000 17.827999115  -999.250000 0.0039823861 0.5087716579 1.8709928989 67.315101624 149.42352295 144.87837219 0.8260111809 10.229999542 0.8750000000 0.8750640750
 1070.1833496 19.000000000 17.781000137  -999.250000 -0.007001603 0.4858399928 1.8619999886 72.924484253 143.32496643 138.78967285 0.8399999738 9.7284011841 0.9549359083 0.9549999833
 1070.3358154 19.000000000 17.656000137  -999.250000 -0.008996797 0.4760594368 1.9060432911 72.251655579 141.80967712 137.36764526 0.7810056210 8.7259998322 0.9700000286 0.9700449109
 1070.4881592 19.000000000 17.733999252  -999.250000 -0.006994391 0.4629107416 1.9600104094 70.941154480 144.18998718 139.69100952 0.7880167961 8.2244014740 1.0259552002 1.0259679556
 1070.6406250 19.000000000 17.547000885  -999.250000 -0.000012810 0.4887852371 1.9729712009 62.614044189 143.62472534 139.07929993 0.8089928031 7.7210001945 0.9860000014 0.9859110713
 1070.7929688 19.000000000 17.641000748  -999.250000 -0.008000000 0.5077986717 1.9369760752 62.095203400 147.18988037 142.68113708 0.8000296354 7.4692015648 0.8750888705 0.8749992251
 1070.9453125 19.000000000 17.687999725  -999.250000 -0.008002402 0.4936500192 1.9069999456 68.977882385 147.69424438 143.15272522 0.8370000124 7.9666008949 0.8740007877 0.8740000129
 1071.0977783 19.000000000 17.733999252  -999.250000 -0.010997596 0.4941310287 1.9029984474 72.740982056 145.87821960 141.45565796 0.8439911604 9.2140007019 0.9549351335 0.9550232291
 1071.2501221 19.000000000 17.750000000  -999.250000 -0.008006405 0.4829100072 1.9010000229 74.371093750 144.64245605 140.08406067 0.8330000043 9.4618015289 0.9839767814 0.9840000272
 1071.4025879 19.000000000 17.827999115  -999.250000 -0.016000001 0.4955869317 1.8910112381 68.888214111 143.45263672 138.87458801 0.8340128064 7.9600000381 0.9860000014 0.9861264825
