# LAS format log file from PETREL
# Project units are specified as depth units
#==================================================================
~Version information
VERS.   2.0:
WRAP.   NO:
#==================================================================
~Well
STRT .m      376.12503052 :
STOP .m      2088.7500000 :
STEP .m     0.00000000 :
NULL .        -999.250000 :
COMP.           : COMPANY
WELL.  31/6-5   : WELL
FLD.            : FIELD
LOC.            : LOCATION
SRVC.           : SERVICE COMPANY
DATE.  2018-09-11 14:48:40   : Log Export Date {yyyy-MM-dd HH:mm:ss}
PROV.           : PROVINCE
UWI.   31/6-5   : UNIQUE WELL ID
API.            : API NUMBER
#==================================================================
~Curve
DEPT .m                   : DEPTH
Lithology_geolink ._      : Lithology_geolink
CALI .in                  : CALI
BS .in                    : BS
DRHO .g/cm3               : DRHO
NPHI .m3/m3               : NPHI
RHOB .g/cm3               : RHOB
GR .gAPI                  : GR
DTC .us/ft                : DTC
DTE .us/ft                : DTE
RDEP .ohm.m               : RDEP
SP .mV                    : SP
RSHA .ohm.m               : RSHA
RMED .ohm.m               : RMED
~Parameter
#==================================================================
~Ascii
# ...
 1173.6250000 13.000000000 17.792999268  -999.250000 -0.046000000  -999.250000 2.1183776855 97.639999390 141.67149353 137.34526062 1.0460000038 6.3499999046 1.0470000505 0.6460000277
 1173.7500000 13.000000000 17.784999847  -999.250000 -0.044001952  -999.250000 2.1228117943 96.988998413 141.77874756 137.33959961 1.0599999428 6.3340001106 1.0609999895 0.6480000019
 1173.8750000 13.000000000 17.777999878  -999.250000 -0.042001951  -999.250000 2.1253526211 96.748001099 141.47245789 137.12370300 1.0729999542 6.2639999390 1.0800000429 0.6480000019
 1174.0000000 13.000000000 17.773000717  -999.250000 -0.043000001  -999.250000 2.1249146461 96.517997742 141.08248901 136.75473022 1.0889999866 6.1760001183 1.0980000496 0.6460000277
 1174.1250000 13.000000000 17.770000458  -999.250000 -0.047995124  -999.250000 2.1227819920 96.179000854 140.65489197 136.31715393 1.1059999466 6.0949997902 1.1119999886 0.6449999809
 1174.2500000 13.000000000 17.768999100  -999.250000 -0.051996093  -999.250000 2.1212019920 95.745002747 140.20979309 135.90074158 1.1239999533 6.0510001183 1.1219999790 0.6439999938
 1174.3750000 13.000000000 17.768999100  -999.250000 -0.052000001  -999.250000 2.1224327087 95.328002930 140.01409912 135.57435608 1.1399999857 6.0819997787 1.1299999952 0.6439999938
 1174.5000000 13.000000000 17.770000458  -999.250000 -0.051000975  -999.250000 2.1261425018 95.066001892 139.73182678 135.37469482 1.1460000277 6.2729997635 1.1430000067 0.6449999809
 1174.6250000 13.000000000 17.771999359  -999.250000 -0.048000000  -999.250000 2.1311888695 94.833999634 139.64859009 135.25007629 1.1440000534 6.6040000916 1.1619999409 0.6470000148
 1174.7500000 13.000000000 17.774999619  -999.250000 -0.041006830  -999.250000 2.1380968094 94.561996460 139.54960632 135.17050171 1.1369999647 7.0000000000 1.1799999475 0.6470000148
 1174.8750000 13.000000000 17.777000427  -999.250000 -0.028012697  -999.250000 2.1472275257 94.206634521 139.44093323 135.13363647 1.1250000000 7.3769998550 1.1920000315 0.6460000277
 1175.0000000 13.000000000 17.777000427  -999.250000 -0.012015625  -999.250000 2.1583950520 93.831001282 139.54016113 135.16911316 1.1119999886 7.6459999084 1.1929999590 0.6430000067
 1175.1250000 13.000000000 17.774000168  -999.250000 0.0010000000  -999.250000 2.1685609818 93.867996216 139.74160767 135.38998413 1.1009999514 7.7270002365 1.1770000458 0.6389999986
 1175.2500000 13.000000000 17.770999908  -999.250000 0.0060000001  -999.250000 2.1744866371 94.357002258 140.26528931 135.83401489 1.0930000544 7.7119998932 1.1549999714 0.6359999776
 1175.3750000 13.000000000 17.768999100  -999.250000 0.0020039026  -999.250000 2.1758830547 95.151000977 140.79177856 136.42172241 1.0889999866 7.6690001488 1.1380000114 0.6340000033
 1175.5000000 13.000000000 17.767999649  -999.250000 -0.008989258  -999.250000 2.1738495827 95.726997375 141.36030579 137.03865051 1.0880000591 7.6329998970 1.1280000210 0.6349999905
 1175.6250000 13.000000000 17.767999649  -999.250000 -0.018990234  -999.250000 2.1701247692 95.616996765 141.94506836 137.55514526 1.0900000334 7.6250000000 1.1280000210 0.6380000114
 1175.7500000 13.000000000 17.767999649  -999.250000 -0.026000001  -999.250000 2.1665966511 94.982002258 142.14970398 137.84078979 1.0959999561 7.6680002213 1.1399999857 0.6430000067
 1175.8750000 13.000000000 17.766000748  -999.250000 -0.026999025  -999.250000 2.1653039455 94.394996643 142.15100098 137.77925110 1.1030000448 7.7839999199 1.1610000134 0.6489999890
 1176.0000000 13.000000000 17.761999130  -999.250000 -0.024002930  -999.250000 2.1656177044 94.726997375 141.78515625 137.47637939 1.1109999418 7.9739995003 1.1849999428 0.6529999971
 1176.1250000 13.000000000 17.757999420  -999.250000 -0.018005859  -999.250000 2.1657810211 95.429000854 141.34805298 137.03430176 1.1189999580 8.2069997787 1.2089999914 0.6570000052
 1176.2500000 13.000000000 17.752000809  -999.250000 -0.014003906  -999.250000 2.1644163132 95.817001343 140.92285156 136.55802917 1.1239999533 8.4390001297 1.2300000191 0.6589999795
 1176.3750000 13.000000000 17.747999191  -999.250000 -0.013000000  -999.250000 2.1609311104 95.570999146 140.46221924 136.14529419 1.1280000210 8.6250000000 1.2419999838 0.6600000262
 1176.5000000 13.000000000 17.746999741  -999.250000 -0.012000976  -999.250000 2.1570777893 94.580001831 140.27226257 135.89651489 1.1280000210 8.7510004044 1.2430000305 0.6589999795
 1176.6250000 13.000000000 17.750000000  -999.250000 -0.010001953  -999.250000 2.1553061008 93.830055237 140.15806580 135.84483337 1.1269999743 8.8959999084 1.2269999981 0.6579999924
 1176.7500000 13.000000000 17.756000519  -999.250000 -0.007002930  -999.250000 2.1552848816 93.882003784 140.25477600 135.92826843 1.1250000000 9.1049995422 1.2020000219 0.6570000052
 1176.8750000 13.000000000 17.760000229  -999.250000 -0.006000000  -999.250000 2.1555204391 94.823997498 140.45108032 136.10093689 1.1239999533 9.3690004349 1.1770000458 0.6570000052
 1177.0000000 13.000000000 17.761999130  -999.250000 -0.011000000  -999.250000 2.1544108391 96.320999146 140.64350891 136.30522156 1.1260000467 9.6420001984 1.1560000181 0.6579999924
 1177.1250000 13.000000000 17.760000229  -999.250000 -0.020990243  -999.250000 2.1508035660 97.544998169 140.84429932 136.47079468 1.1310000420 9.8430004120 1.1469999552 0.6610000134
 1177.2500000 13.000000000 17.756000519  -999.250000 -0.031989258  -999.250000 2.1458816528 98.180511475 140.74154663 136.44758606 1.1430000067 9.8999996185 1.1579999924 0.6690000296
 1177.3750000 13.000000000 17.756000519  -999.250000 -0.039992187  -999.250000 2.1423051357 97.679000854 140.49436951 136.13179016 1.1610000134 9.9499998093 1.1820000410 0.6800000072
 1177.5000000 13.000000000 17.760999680  -999.250000 -0.041999999  -999.250000 2.1416358948 96.531997681 139.81275940 135.46565247 1.1859999895 10.078000069 1.2150000334 0.6949999928
 1177.6250000 13.000000000 17.768999100  -999.250000 -0.037999999  -999.250000 2.1441826820 95.266998291 138.79763794 134.48837280 1.2150000334 10.321000099 1.2530000210 0.7099999785
 1177.7500000 13.000000000 17.778999329  -999.250000 -0.032005854  -999.250000 2.1490547657 94.496002197 137.70831299 133.31904602 1.2469999790 10.668000221 1.2890000343 0.7239999771
 1177.8750000 13.000000000 17.784999847  -999.250000 -0.028003907  -999.250000 2.1535639763 94.278999329 136.43008423 132.16868591 1.2790000439 11.043999672 1.3109999895 0.7350000143
 1178.0000000 13.000000000 17.785999298  -999.250000 -0.026001954  -999.250000 2.1549634933 94.529998779 135.78402710 131.39149475 1.3059999943 11.314999580 1.3140000105 0.7419999838
 1178.1250000 13.000000000 17.781000137  -999.250000 -0.028000001  -999.250000 2.1536724567 94.638000488 135.39483643 131.02444458 1.3220000267 11.487000465 1.3040000200 0.7459999919
 1178.2500000 13.000000000 17.774000168  -999.250000 -0.029998047  -999.250000 2.1512939930 94.223999023 135.32415771 130.97631836 1.3259999752 11.616000175 1.2899999619 0.7459999919
 1178.3750000 13.000000000 17.767000198  -999.250000 -0.032997072  -999.250000 2.1501052380 93.339797974 135.49790955 131.11537170 1.3159999847 11.762000084 1.2799999714 0.7429999709
 1178.5000000 13.000000000 17.761999130  -999.250000 -0.033000000  -999.250000 2.1528115273 92.108001709 135.60910034 131.30624390 1.2949999571 11.967000008 1.2769999504 0.7360000014
 1178.6250000 13.000000000 17.763999939  -999.250000 -0.031001953  -999.250000 2.1646268368 90.875999451 135.89399719 131.45414734 1.2669999599 12.208000183 1.2810000181 0.7300000191
 1178.7500000 13.000000000 17.767000198  -999.250000 -0.026000001  -999.250000 2.1867637634 89.763000488 135.95562744 131.63488770 1.2400000095 12.413000107 1.2790000439 0.7250000238
 1178.8750000 13.000000000 17.768999100  -999.250000 -0.017008781  -999.250000 2.2146029472 89.146003723 136.24172974 131.93424988 1.2159999609 12.576999664 1.2660000324 0.7220000029
 1179.0000000 13.000000000 17.768999100  -999.250000 -0.006010742  -999.250000 2.2391080856 89.093444824 136.76435852 132.40440369 1.1990000010 12.722999573 1.2430000305 0.7229999900
