# LAS format log file from PETREL
# Project units are specified as depth units
#==================================================================
~Version information
VERS.   2.0:
WRAP.   NO:
#==================================================================
~Well
STRT .m      669.21893311 :
STOP .m      2146.7373047 :
STEP .m     0.00000000 :
NULL .        -999.250000 :
COMP.           : COMPANY
WELL.  31/6-8   : WELL
FLD.            : FIELD
LOC.            : LOCATION
SRVC.           : SERVICE COMPANY
DATE.  2018-09-11 14:48:41   : Log Export Date {yyyy-MM-dd HH:mm:ss}
PROV.           : PROVINCE
UWI.   31/6-8   : UNIQUE WELL ID
API.            : API NUMBER
#==================================================================
~Curve
DEPT .m                   : DEPTH
Lithology_geolink ._      : Lithology_geolink
CALI .in                  : CALI
BS .in                    : BS
DRHO .g/cm3               : DRHO
NPHI .m3/m3               : NPHI
RHOB .g/cm3               : RHOB
GR .gAPI                  : GR
DTC .us/ft                : DTC
DTE .us/ft                : DTE
RDEP .ohm.m               : RDEP
SP .mV                    : SP
RSHA .ohm.m               : RSHA
RMED .ohm.m               : RMED
~Parameter
#==================================================================
~Ascii
# ...
 870.38696289  -999.250000 20.655998230  -999.250000 -0.001005607 0.4648388624 1.9979903698 91.998802185 150.10472107 145.58312988 1.3520096540 5.3810000420 1.4650000334 1.4650152922
 870.53936768  -999.250000 20.437997818  -999.250000 -0.008000801 0.4633862674 1.9860079288 92.187477112 151.41615295 146.87493896 1.3640015125 5.3779997826 1.4839999676 1.4840015173
 870.69171143  -999.250000 20.202999115  -999.250000 -0.008996395 0.4711960554 1.9960000515 93.060203552 151.38323975 146.85159302 1.3659880161 5.8759999275 1.4859999418 1.4859970808
 870.84411621  -999.250000 20.063001633  -999.250000 0.0000004005 0.4863303900 1.9959932566 90.134414673 154.41963196 149.91496277 1.3360011578 6.1240000725 1.4789999723 1.4789675474
 870.99652100  -999.250000 19.906002045  -999.250000 0.0010004005 0.4872968793 1.9789867401 87.072814941 156.98809814 152.45237732 1.3389967680 5.6220002174 1.3980000019 1.3979784250
 871.14892578  -999.250000 19.766000748  -999.250000 0.0019983982 0.4794733822 1.9459971189 88.931999207 155.47550964 150.98689270 1.3309915066 5.8699998856 1.3439999819 1.3439831734
 871.30133057  -999.250000 19.672000885  -999.250000 -0.001999600 0.4379954934 1.9390103817 91.991409302 153.86334229 149.36540222 1.3099951744 6.1170001030 1.3020000458 1.3020241261
 871.45373535  -999.250000 19.500000000  -999.250000 -0.001000401 0.4516869783 1.9650141001 88.821937561 151.04927063 146.57998657 1.2979867458 6.8649997711 1.3619999886 1.3620584011
 871.60614014  -999.250000 19.218999863  -999.250000 -0.002001202 0.5190358758 2.0000023842 82.019096375 151.01483154 146.43618774 1.2649763823 6.8629999161 1.5080000162 1.5080144405
 871.75854492  -999.250000 19.125000000  -999.250000 -0.004998398 0.5087776780 2.0059971809 82.810722351 154.01962280 149.54313660 1.2060199976 7.1110000610 1.5440000296 1.5439772606
 871.91094971  -999.250000 18.858999252  -999.250000 -0.000999199 0.4780102670 1.9989928007 84.370620728 155.37225342 150.84329224 1.2559992075 7.6090002060 1.4869999886 1.4869635105
 872.06335449  -999.250000 18.733999252  -999.250000 0.0009995996 0.4287260175 1.9809967279 90.856781006 155.55924988 151.13368225 1.2539899349 6.8559999466 1.3960000277 1.3959956169
 872.21575928  -999.250000 18.766000748  -999.250000 0.0000000000 0.4687509835 1.9729984999 90.439231873 154.71655273 150.15541077 1.2289923429 7.1040000916 1.3849999905 1.3850015402
 872.36816406  -999.250000 18.468999863  -999.250000 0.0000016019 0.4712095559 1.9690120220 91.435203552 151.78652954 147.33023071 1.2099623680 6.3520002365 1.3890000582 1.3890072107
 872.52056885  -999.250000 18.452999115  -999.250000 0.0020056069 0.4956115484 1.9840128422 89.568260193 150.41836548 145.91976929 1.1630064249 6.3499999046 1.3980000019 1.3980472088
 872.67297363  -999.250000 18.516000748  -999.250000 0.0089983977 0.4976108372 2.0000030994 88.876930237 151.86811829 147.31860352 1.1710680723 6.0970001221 1.4570000172 1.4569511414
 872.82531738  -999.250000 18.281000137  -999.250000 0.0070000002 0.5610284209 2.0040006638 87.379806519 150.05439758 145.58976746 1.2560148239 5.5949997902 1.3960000277 1.3960320950
 872.97772217  -999.250000 18.172000885  -999.250000 0.0069959955 0.5322366953 2.0059993267 89.119392395 150.38766479 145.81037903 1.2930179834 5.5929999352 1.4759999514 1.4760315418
 873.13012695  -999.250000 18.172000885  -999.250000 -0.002999199 0.5488209724 2.0040056705 89.935401917 149.55895996 145.09492493 1.3380012512 4.8410000801 1.5549999475 1.5549658537
 873.28253174  -999.250000 17.937999725  -999.250000 -0.001003604 0.5263649225 2.0179991722 95.108383179 149.92297363 145.43678284 1.3410108089 4.8390002251 1.4700000286 1.4700204134
 873.43493652  -999.250000 17.952999115  -999.250000 -0.009997997 0.5136506557 2.0160019398 91.510169983 149.37405396 144.82525635 1.3679555655 3.8359999657 1.5210000277 1.5209699869
 873.58734131  -999.250000 17.937999725  -999.250000 -0.005000400 0.4653147459 2.0209994316 91.250701904 147.75149536 143.29646301 1.2569835186 3.5840001106 1.4459999800 1.4460003376
 873.73974609  -999.250000 18.047000885  -999.250000 -0.005996796 0.4272660315 2.0199928284 89.193786621 149.18566895 144.70310974 1.2159802914 3.8320000172 1.4470000267 1.4469828606
 873.89215088  -999.250000 18.125000000  -999.250000 0.0020068083 0.4672876596 2.0019943714 90.371673584 150.37492371 145.82055664 1.1670129299 3.5799999237 1.4040000439 1.4040185213
 874.04455566  -999.250000 18.343999863  -999.250000 0.0190024022 0.4614292383 1.9879876375 84.828598022 152.38179016 147.93110657 1.1990032196 4.3280000687 1.4500000477 1.4499992132
 874.19696045  -999.250000 18.500000000  -999.250000 0.0249975957 0.4594554901 1.9569923878 81.509284973 156.73626709 152.18304443 1.2070188522 4.0749998093 1.4479999542 1.4479438066
 874.34936523  -999.250000 18.547000885  -999.250000 0.0189863835 0.4233454764 1.9379839897 78.757705688 158.46817017 153.93179321 1.2539646626 5.8229999542 1.3079999685 1.3079614639
 874.50177002  -999.250000 18.733999252  -999.250000 0.0019919905 0.4301725924 1.9180184603 82.489486694 157.57754517 153.12222290 1.2099655867 6.5710000992 1.2599999905 1.2599319220
 874.65417480  -999.250000 18.843999863  -999.250000 -0.008000000 0.4209187627 1.9410616159 84.557220459 153.85745239 149.34757996 1.1669416428 7.0689997673 1.1749999523 1.1751593351
 874.80651855  -999.250000 18.781000137  -999.250000 -0.008002403 0.4443470240 2.0180318356 88.051788330 147.91532898 143.46008301 1.0939903259 7.3159999847 1.3739999533 1.3740556240
 874.95892334  -999.250000 19.016000748  -999.250000 -0.013994794 0.4619205594 2.0980165005 89.495399475 148.02127075 143.51257324 1.0700008869 7.0640001297 1.5130000114 1.5130180120
 875.11132813  -999.250000 19.141000748  -999.250000 -0.001001201 0.4882751107 2.1389794350 86.323211670 149.63287354 145.13020325 1.0720320940 7.0619997978 1.5579999685 1.5579519272
 875.26373291  -999.250000 19.343999863  -999.250000 -0.003997197 0.4760840535 2.0879828930 84.755004883 152.41993713 147.85154724 1.1520287991 6.8099999428 1.4379999638 1.4379914999
 875.41613770  -999.250000 19.547000885  -999.250000 0.0029963958 0.5112558007 2.0449817181 81.385810852 152.91554260 148.39320374 1.2240144014 6.5580000877 1.4170000553 1.4169672728
 875.56854248  -999.250000 19.750000000  -999.250000 -0.006000000 0.5756794214 1.9989959002 81.499649048 153.39868164 148.94175720 1.2599823475 6.5549998283 1.3350000381 1.3350120783
 875.72094727  -999.250000 19.656000137  -999.250000 -0.006000801 0.5742123723 1.9889931679 85.613433838 153.04455566 148.45854187 1.2160015106 6.8029999733 1.3650000095 1.3650252819
 875.87335205  -999.250000 19.608999252  -999.250000 -0.007995996 0.5551763177 1.9720008373 86.934326172 151.68060303 147.21339417 1.2199679613 6.8010001183 1.4279999733 1.4279959202
 876.02575684  -999.250000 19.608999252  -999.250000 0.0019983982 0.5458914042 1.9739955664 90.490013123 151.89273071 147.35137939 1.1399991512 6.5489997864 1.4179999828 1.4179940224
 876.17816162  -999.250000 19.516000748  -999.250000 -0.002001602 0.5244092345 1.9629968405 86.823341370 153.61805725 149.13972473 1.1380096674 6.0469999313 1.4029999971 1.4029887915
 876.33056641  -999.250000 19.343999863  -999.250000 -0.006002404 0.5224364996 1.9550020695 88.682746887 155.40003967 150.85653687 1.1620019674 5.2940001488 1.3750000000 1.3749879599
 876.48297119  -999.250000 19.202999115  -999.250000 -0.011994394 0.4639067948 1.9600185156 92.489311218 156.03726196 151.53816223 1.1670097113 4.7919998169 1.3450000286 1.3450032473
 876.63537598  -999.250000 19.297000885  -999.250000 -0.004998398 0.5097477436 1.9830136299 93.372543335 157.24754333 152.69839478 1.1790184975 4.2899999619 1.3489999771 1.3489887714
 876.78778076  -999.250000 18.891000748  -999.250000 -0.002999199 0.4819656014 2.0000016689 95.120094299 156.89965820 152.40342712 1.2020248175 3.7880001068 1.3350000381 1.3349959850
 876.94012451  -999.250000 18.781000137  -999.250000 -0.002000000 0.5263680220 2.0019989014 93.380607605 156.41647339 151.99835205 1.2329884768 3.2850000858 1.3300000429 1.3299876451
