# LAS format log file from PETREL
# Project units are specified as depth units
#==================================================================
~Version information
VERS.   2.0:
WRAP.   NO:
#==================================================================
~Well
STRT .m      669.21893311 :
STOP .m      2146.7373047 :
STEP .m     0.00000000 :
NULL .        -999.250000 :
COMP.           : COMPANY
WELL.  31/6-8   : WELL
FLD.            : FIELD
LOC.            : LOCATION
SRVC.           : SERVICE COMPANY
DATE.  2018-09-11 14:48:41   : Log Export Date {yyyy-MM-dd HH:mm:ss}
PROV.           : PROVINCE
UWI.   31/6-8   : UNIQUE WELL ID
API.            : API NUMBER
#==================================================================
~Curve
DEPT .m                   : DEPTH
Lithology_geolink ._      : Lithology_geolink
CALI .in                  : CALI
BS .in                    : BS
DRHO .g/cm3               : DRHO
NPHI .m3/m3               : NPHI
RHOB .g/cm3               : RHOB
GR .gAPI                  : GR
DTC .us/ft                : DTC
DTE .us/ft                : DTE
RDEP .ohm.m               : RDEP
SP .mV                    : SP
RSHA .ohm.m               : RSHA
RMED .ohm.m               : RMED
~Parameter
#==================================================================
~Ascii
# ...
 675.92443848  -999.250000 18.590000153  -999.250000  -999.250000 0.5747299790 2.1889998913 73.574096680 169.69845581 165.19599915 1996.2180176 32.592998505 1467.0799561 1467.0799561
 676.07684326  -999.250000 18.683000565  -999.250000  -999.250000 0.5808200240 2.0980000496 71.079032898 169.74870300 165.19599915 1994.1519775 33.328998566 1684.3189697 1684.3189697
 676.22924805  -999.250000 18.700000763  -999.250000  -999.250000 0.5868200064 2.0569999218 68.477462769 169.73931885 165.19599915 1992.0860596 33.313999176 1300.8000488 1300.8000488
 676.38165283  -999.250000 18.690999985  -999.250000  -999.250000 0.6008499861 2.0510001183 66.928802490 169.69847107 165.19599915 1990.0209961 33.549999237 604.06896973 604.06896973
 676.53405762  -999.250000 18.680999756  -999.250000  -999.250000 0.6148799658 2.0620000362 67.566146851 169.73931885 165.19599915 1987.9549561 33.284999847 125.49800110 125.49800110
 676.68646240  -999.250000 18.672000885  -999.250000  -999.250000 0.6289199591 2.0650000572 68.872230530 169.69847107 165.19599915 1985.8890381 32.770000458 31.927000046 31.927000046
 676.83886719  -999.250000 18.631000519  -999.250000  -999.250000 0.6421800256 2.0729999542 68.806320190 169.74870300 165.19599915 1983.8229980 32.756000519 20.006000519 20.006000519
 676.99127197  -999.250000 18.551000595  -999.250000  -999.250000 0.6265199780 2.1349999905 68.009521484 169.73931885 165.19599915 1981.7569580 32.491001129 238.52600098 238.52600098
 677.14367676  -999.250000 18.433000565  -999.250000  -999.250000 0.5938400030 2.2230000496 67.114944458 169.69847107 165.19599915 1979.6910400 32.977001190 824.91198730 824.91198730
 677.29602051  -999.250000 18.447999954  -999.250000  -999.250000 0.5484799743 2.2950000763 66.710769653 169.73934937 165.19599915 1977.6250000 32.462001801 1364.5749512 1364.5749512
 677.44842529  -999.250000 18.468000412  -999.250000  -999.250000 0.5323199630 2.3050000668 66.713973999 169.69976807 165.19599915 1975.5600586 31.697000504 1117.2349854 1117.2349854
 677.60083008  -999.250000 18.541999817  -999.250000  -999.250000 0.5312300324 2.2550001144 67.413902283 169.75578308 165.19599915 1973.5980225 31.183000565 365.64999390 365.64999390
 677.75323486  -999.250000 18.617000580  -999.250000  -999.250000 0.5354599953 2.2009999752 68.525093079 169.73934937 165.19599915 1976.5209961 30.917999268 24.516000748 24.516000748
 677.90563965  -999.250000 18.670000076  -999.250000  -999.250000 0.5232799649 2.1809999943 69.678916931 169.69844055 165.19599915 1979.4460449 30.903999329 20.055999756 20.055999756
 678.05804443  -999.250000 18.677000046  -999.250000  -999.250000 0.5067899823 2.1870000362 69.784561157 169.73933411 165.19599915 1982.3699951 30.138999939 19.393999100 19.393999100
 678.21044922  -999.250000 18.684000015  -999.250000  -999.250000 0.5038300157 2.2030000687 68.914855957 169.69847107 165.19599915 1985.2950439 30.124000549 18.024999619 18.024999619
 678.36285400  -999.250000 18.690000534  -999.250000  -999.250000 0.5096900463 2.2239999771 67.808876038 169.74870300 165.19599915 1988.2189941 30.110000610 16.364000320 16.364000320
 678.51525879  -999.250000 18.697000504  -999.250000  -999.250000 0.5262799859 2.2249999046 67.533195496 169.73931885 165.19599915 1991.1440430 30.094999313 15.057999611 15.057999611
 678.66766357  -999.250000 18.704000473  -999.250000  -999.250000 0.5518600345 2.1900000572 68.000923157 169.69847107 165.19599915 1994.0679932 30.580999374 15.118000031 15.118000031
 678.82006836  -999.250000 18.704999924  -999.250000  -999.250000 0.5445600152 2.1440000534 68.895057678 169.73931885 165.19599915 1996.9930420 30.815999985 18.118999481 18.118999481
 678.97247314  -999.250000 18.701000214  -999.250000  -999.250000 0.5232700109 2.1159999371 69.389823914 169.69847107 165.19599915 1999.9169922 31.051000595 23.662000656 23.662000656
 679.12487793  -999.250000 18.697000504  -999.250000  -999.250000 0.5019800067 2.1119999886 67.075256348 169.74870300 165.19599915 2002.8420410 31.537000656 32.229999542 32.229999542
 679.27728271  -999.250000 18.693000793  -999.250000  -999.250000 0.5143600106 2.1310000420 65.596496582 169.74063110 165.19599915 2005.7669678 31.771999359 40.638000488 40.638000488
 679.42962646  -999.250000 18.687999725  -999.250000  -999.250000 0.5273500085 2.1519999504 65.508361816 169.70545959 165.19599915 2008.6910400 32.007999420 41.198001862 41.198001862
 679.58203125  -999.250000 18.684000015  -999.250000  -999.250000 0.5296900272 2.1730000973 66.892875671 169.73934937 165.19599915 2011.6159668 31.993001938 39.417999268 39.417999268
 679.73443604  -999.250000 18.680000305  -999.250000  -999.250000 0.5233700275 2.1830000877 69.193847656 169.69844055 165.19599915 2014.5400391 32.228000641 65.820999146 65.820999146
 679.88684082  -999.250000 18.676000595  -999.250000  -999.250000 0.5173299909 2.1800000668 71.150382996 169.74870300 165.19599915 2017.4639893 32.214000702 132.21400452 132.21400452
 680.03924561  -999.250000 18.672000885  -999.250000  -999.250000 0.5340200067 2.1779999733 72.598632813 169.73934937 165.19599915 2020.3890381 32.949001312 162.41700745 162.41700745
 680.19165039  -999.250000 18.667999268  -999.250000  -999.250000 0.5415000319 2.1860001087 72.107208252 169.69845581 165.19599915 2023.3129883 32.935001373 129.01800537 129.01800537
 680.34405518  -999.250000 18.667999268  -999.250000  -999.250000 0.5448600054 2.2090001106 69.152069092 169.73931885 165.19599915 2026.2380371 32.669998169 72.237998962 72.237998962
 680.49645996  -999.250000 18.667999268  -999.250000  -999.250000 0.5602899790 2.2260000706 67.126899719 169.69847107 165.19599915 2029.1629639 32.654998779 28.152999878 28.152999878
 680.64886475  -999.250000 18.667999268  -999.250000  -999.250000 0.5923699737 2.2330000401 67.817901611 169.74870300 165.19599915 2026.4840088 31.640998840 15.975999832 15.975999832
 680.80126953  -999.250000 18.667999268  -999.250000  -999.250000 0.5992000103 2.2279999256 70.863533020 169.73931885 165.19599915 2022.1679688 31.626001358 13.048000336 13.048000336
 680.95367432  -999.250000 18.667999268  -999.250000  -999.250000 0.5763499737 2.2209999561 73.286338806 169.69847107 165.19599915 2017.8520508 30.861999512 10.302000046 10.302000046
 681.10607910  -999.250000 18.667999268  -999.250000  -999.250000 0.5502299666 2.2109999657 75.137855530 169.73931885 165.19599915 2013.5350342 30.347000122 8.3070001602 8.3070001602
 681.25848389  -999.250000 18.667999268  -999.250000  -999.250000 0.5482000113 2.2039999962 74.771652222 169.69978333 165.19599915 2009.2189941 30.332000732 9.3640003204 9.3640003204
 681.41088867  -999.250000 18.667999268  -999.250000  -999.250000 0.5620099902 2.1970000267 71.470275879 169.75576782 165.19599915 2004.9019775 30.318000793 14.468999863 14.468999863
 681.56323242  -999.250000 18.667999268  -999.250000  -999.250000 0.5713999867 2.1889998913 68.786819458 169.73934937 165.19599915 2000.5860596 30.802999496 19.547000885 19.547000885
 681.71563721  -999.250000 18.667999268  -999.250000  -999.250000 0.5570899844 2.1830000877 67.327407837 169.69844055 165.19599915 1996.2709961 30.788999557 22.106000900 22.106000900
 681.86804199  -999.250000 18.667999268  -999.250000  -999.250000 0.5404999852 2.1830000877 67.519119263 169.73934937 165.19599915 1991.9549561 31.024000168 23.652000427 23.652000427
 682.02044678  -999.250000 18.669000626  -999.250000  -999.250000 0.5347599983 2.1900000572 67.817680359 169.69844055 165.19599915 1987.6379395 31.009000778 21.731000900 21.731000900
 682.17285156  -999.250000 18.669000626  -999.250000  -999.250000 0.5515800118 2.1919999123 67.917564392 169.74870300 165.19599915 1983.3220215 30.995000839 18.812000275 18.812000275
 682.32525635  -999.250000 18.669000626  -999.250000  -999.250000 0.5675899982 2.1860001087 67.717811584 169.73931885 165.19599915 1979.0050049 31.229999542 18.253000259 18.253000259
 682.47766113  -999.250000 18.669000626  -999.250000  -999.250000 0.5861700177 2.1789999008 67.832534790 169.69847107 165.19599915 1974.6889648 30.715999603 19.016000748 19.016000748
