# LAS format log file from PETREL
# Project units are specified as depth units
#==================================================================
~Version information
VERS.   2.0:
WRAP.   NO:
#==================================================================
~Well
STRT .m      376.12503052 :
STOP .m      2088.7500000 :
STEP .m     0.00000000 :
NULL .        -999.250000 :
COMP.           : COMPANY
WELL.  31/6-5   : WELL
FLD.            : FIELD
LOC.            : LOCATION
SRVC.           : SERVICE COMPANY
DATE.  2018-09-11 14:48:40   : Log Export Date {yyyy-MM-dd HH:mm:ss}
PROV.           : PROVINCE
UWI.   31/6-5   : UNIQUE WELL ID
API.            : API NUMBER
#==================================================================
~Curve
DEPT .m                   : DEPTH
Lithology_geolink ._      : Lithology_geolink
CALI .in                  : CALI
BS .in                    : BS
DRHO .g/cm3               : DRHO
NPHI .m3/m3               : NPHI
RHOB .g/cm3               : RHOB
GR .gAPI                  : GR
DTC .us/ft                : DTC
DTE .us/ft                : DTE
RDEP .ohm.m               : RDEP
SP .mV                    : SP
RSHA .ohm.m               : RSHA
RMED .ohm.m               : RMED
~Parameter
#==================================================================
~Ascii
# ...
 942.62506104 19.000000000 17.899000168  -999.250000 -0.040001951  -999.250000 1.8986426592 87.839942932 144.86874390 140.54132080 1.2259999514 18.812999725 0.9693220258 0.8619999886
 942.75000000 19.000000000 17.899000168  -999.250000 -0.036001954  -999.250000 1.9008481503 87.725997925 144.82835388 140.42936707 1.2300000191 18.840000153 0.9691640139 0.8640000224
 942.87500000 19.000000000 17.898000717  -999.250000 -0.033001464  -999.250000 1.9113465548 86.841537476 143.85069275 139.50018311 1.2280000448 18.856000900 0.9748070240 0.8590000272
 943.00000000 19.000000000 17.902000427  -999.250000 -0.033000000  -999.250000 1.9287117720 85.881744385 142.69476318 138.28329468 1.2269999981 18.916000366 0.9683949947 0.8479999900
 943.12506104 19.000000000 17.912000656  -999.250000 -0.033000000  -999.250000 1.9449535608 85.355979919 141.92611694 137.58015442 1.2250000238 19.011999130 0.9504849911 0.8339999914
 943.25000000 19.000000000 17.929000854  -999.250000 -0.032000490  -999.250000 1.9533318281 85.306999207 142.07685852 137.72705078 1.2200000286 19.143999100 0.9291579723 0.8180000186
 943.37500000 19.000000000 17.947999954  -999.250000 -0.028001955  -999.250000 1.9497115612 85.326858521 143.17770386 138.75694275 1.2079999447 19.305999756 0.9128630161 0.7969999909
 943.50000000 5.0000000000 17.966999054  -999.250000 -0.024003904  -999.250000 1.9336163998 85.026786804 144.65386963 140.38839722 1.1890000105 19.488000870 0.9077489972 0.7689999938
 943.62506104 5.0000000000 17.979999542  -999.250000 -0.025999025  -999.250000 1.9096554518 84.588989258 146.41461182 141.99722290 1.1679999828 19.672000885 0.9118220210 0.7350000143
 943.75006104 5.0000000000 17.993000031  -999.250000 -0.034995604  -999.250000 1.8851720095 84.578468323 147.65701294 143.34449768 1.1529999971 19.857000351 0.9122380018 0.7030000091
 943.87500000 5.0000000000 18.014999390  -999.250000 -0.049992673  -999.250000 1.8638439178 85.536003113 148.95518494 144.60884094 1.1460000277 20.048999786 0.9060760140 0.6790000200
 944.00000000 5.0000000000 18.045999527  -999.250000 -0.060994629  -999.250000 1.8473787308 86.942352295 150.35467529 145.96263123 1.1460000277 20.239000320 0.8959929943 0.6629999876
 944.12500000 5.0000000000 18.084999084  -999.250000 -0.062998049  -999.250000 1.8359352350 87.663673401 151.79954529 147.51499939 1.1490000486 20.416999817 0.8877930045 0.6560000181
 944.25006104 5.0000000000 18.125000000  -999.250000 -0.061000977  -999.250000 1.8278113604 86.989990234 153.65809631 149.20286560 1.1510000229 20.586999893 0.8896350265 0.6549999714
 944.37506104 5.0000000000 18.146999359  -999.250000 -0.059000976  -999.250000 1.8194611073 84.931976318 154.78285217 150.42739868 1.1480000019 20.746000290 0.9035099745 0.6560000181
 944.50000000 5.0000000000 18.124000549  -999.250000 -0.060999025  -999.250000 1.8110405207 82.841003418 155.15652466 150.79556274 1.1419999599 20.850000381 0.9253360033 0.6539999843
 944.62500000 5.0000000000 18.052999496  -999.250000 -0.065997556  -999.250000 1.8052068949 81.497962952 154.62124634 150.29449463 1.1360000372 20.885999680 0.9484779835 0.6480000019
 944.75000000 5.0000000000 17.937000275  -999.250000 -0.068997070  -999.250000 1.8044778109 81.413307190 153.36622620 149.08337402 1.1289999485 20.854000092 0.9652310014 0.6389999986
 944.87506104 5.0000000000 17.787000656  -999.250000 -0.068000495  -999.250000 1.8104453087 82.044433594 151.89903259 147.47409058 1.1230000257 20.768999100 0.9683550000 0.6269999743
 945.00000000 5.0000000000 17.645000458  -999.250000 -0.064001955  -999.250000 1.8211845160 82.486000061 150.43316650 146.14570618 1.1160000563 20.695999146 0.9560179710 0.6159999967
 945.12500000 5.0000000000 17.544000626  -999.250000 -0.062000975  -999.250000 1.8311740160 82.482910156 150.03462219 145.69735718 1.1050000191 20.686000824 0.9373949766 0.6060000062
 945.25000000 5.0000000000 17.478000641  -999.250000 -0.061000489  -999.250000 1.8386726379 82.289985657 150.38598633 146.04096985 1.0859999657 20.701999664 0.9205219746 0.5970000029
 945.37506104 19.000000000 17.440999985  -999.250000 -0.061999511  -999.250000 1.8439850807 82.251205444 151.30700684 146.96731567 1.0599999428 20.711999893 0.9096350074 0.5899999738
 945.50006104 19.000000000 17.420999527  -999.250000 -0.061000489  -999.250000 1.8480173349 82.462135315 152.54214478 148.17507935 1.0290000439 20.691999435 0.9063659906 0.5820000172
 945.62500000 19.000000000 17.409999847  -999.250000 -0.059000976  -999.250000 1.8513785601 82.739997864 153.61703491 149.30538940 0.9969999790 20.650999069 0.9093239903 0.5749999881
 945.75000000 19.000000000 17.400999069  -999.250000 -0.057000976  -999.250000 1.8514209986 82.976058960 154.45877075 150.07994080 0.9670000076 20.643999100 0.9128450155 0.5669999719
 945.87500000 19.000000000 17.395999908  -999.250000 -0.057999022  -999.250000 1.8473080397 83.105064392 154.92488098 150.57650757 0.9449999928 20.731000900 0.9100390077 0.5590000153
 946.00006104 19.000000000 17.393999100  -999.250000 -0.062997557  -999.250000 1.8406023979 83.226219177 155.13780212 150.79386902 0.9290000200 20.934999466 0.8997960091 0.5529999733
 946.12506104 19.000000000 17.393999100  -999.250000 -0.067997560  -999.250000 1.8338166475 83.451171875 155.05570984 150.69644165 0.9160000086 21.224000931 0.8851479888 0.5490000248
 946.25000000 19.000000000 17.395999908  -999.250000 -0.066000976  -999.250000 1.8296786547 83.815002441 154.53312683 150.22106934 0.9039999843 21.513999939 0.8723620176 0.5460000038
 946.37500000 19.000000000 17.398000717  -999.250000 -0.061002441  -999.250000 1.8294324875 84.186935425 153.65313721 149.20460510 0.8889999986 21.669000626 0.8707209826 0.5419999957
 946.50000000 19.000000000 17.399999619  -999.250000 -0.056004882  -999.250000 1.8314636946 84.064773560 152.17935181 147.80577087 0.8730000257 21.670999527 0.8780720234 0.5379999876
 946.62506104 19.000000000 17.400999069  -999.250000 -0.056000002  -999.250000 1.8351207972 83.598442078 150.80464172 146.42675781 0.8600000143 21.621000290 0.8840360045 0.5329999924
 946.75000000 19.000000000 17.402000427  -999.250000 -0.057998046  -999.250000 1.8398177624 83.026000977 149.78604126 145.42787170 0.8529999852 21.597000122 0.8818560243 0.5299999714
 946.87500000 19.000000000 17.405000687  -999.250000 -0.055001464  -999.250000 1.8443648815 82.764297485 149.38900757 145.09898376 0.8569999933 21.645000458 0.8693370223 0.5289999843
 947.00000000 19.000000000 17.410999298  -999.250000 -0.049002927  -999.250000 1.8465795517 83.370536804 150.07345581 145.61233521 0.8700000048 21.757999420 0.8512849808 0.5329999924
 947.12506104 19.000000000 17.420999527  -999.250000 -0.043002930  -999.250000 1.8430215120 84.456993103 151.24313354 146.91146851 0.8939999938 21.808000565 0.8419060111 0.5419999957
 947.25006104 19.000000000 17.433000565  -999.250000 -0.040001463  -999.250000 1.8349775076 85.473205566 152.49203491 148.15911865 0.9190000296 21.763999939 0.8446050286 0.5519999862
 947.37500000 19.000000000 17.447999954  -999.250000 -0.043998044  -999.250000 1.8250426054 85.888000488 153.27606201 148.94361877 0.9419999719 21.636999130 0.8613280058 0.5630000234
 947.50000000 19.000000000 17.464000702  -999.250000 -0.052995604  -999.250000 1.8163768053 85.698669434 153.40628052 149.08348083 0.9629999995 21.465000153 0.8902390003 0.5720000267
 947.62500000 19.000000000 17.482000351  -999.250000 -0.060992192  -999.250000 1.8119031191 85.031570435 152.95390320 148.59973145 0.9810000062 21.308000565 0.9265170097 0.5789999962
 947.75006104 19.000000000 17.502000809  -999.250000 -0.062999025  -999.250000 1.8128056526 84.153160095 152.02565002 147.69404602 0.9980000257 21.253000259 0.9626190066 0.5820000172
 947.87506104 19.000000000 17.523000717  -999.250000 -0.062000487  -999.250000 1.8159114122 83.290740967 151.35867310 146.94813538 1.0140000582 21.284000397 0.9856449962 0.5830000043
 948.00000000 19.000000000 17.542999268  -999.250000 -0.056002934  -999.250000 1.8173880577 82.764999390 151.02046204 146.66290283 1.0279999971 21.323999405 0.9903470278 0.5820000172
