# LAS format log file from PETREL
# Project units are specified as depth units
#==================================================================
~Version information
VERS.   2.0:
WRAP.   NO:
#==================================================================
~Well
STRT .m      669.21893311 :
STOP .m      2146.7373047 :
STEP .m     0.00000000 :
NULL .        -999.250000 :
COMP.           : COMPANY
WELL.  31/6-8   : WELL
FLD.            : FIELD
LOC.            : LOCATION
SRVC.           : SERVICE COMPANY
DATE.  2018-09-11 14:48:41   : Log Export Date {yyyy-MM-dd HH:mm:ss}
PROV.           : PROVINCE
UWI.   31/6-8   : UNIQUE WELL ID
API.            : API NUMBER
#==================================================================
~Curve
DEPT .m                   : DEPTH
Lithology_geolink ._      : Lithology_geolink
CALI .in                  : CALI
BS .in                    : BS
DRHO .g/cm3               : DRHO
NPHI .m3/m3               : NPHI
RHOB .g/cm3               : RHOB
GR .gAPI                  : GR
DTC .us/ft                : DTC
DTE .us/ft                : DTE
RDEP .ohm.m               : RDEP
SP .mV                    : SP
RSHA .ohm.m               : RSHA
RMED .ohm.m               : RMED
~Parameter
#==================================================================
~Ascii
# ...
 1453.7742920 5.0000000000 20.437997818 12.250000954 -0.006983974 0.5082827806 1.6420977116 70.063003540 147.15472412 142.74166870 5.7686681747 43.600399017 1.3355284929 1.3347933292
 1453.9267578 5.0000000000 21.077999115 12.250000954 0.0029903923 0.4975517690 1.7028006315 66.188003540 130.77844238 126.34599304 3.0661568642 43.849796295 1.2061033249 1.2060047388
 1454.0791016 5.0000000000 21.062999725 12.250000954 -0.000998397 0.4941478372 1.6199182272 62.219001770 112.82318115 108.42185974 1.4692500830 43.600399017 1.2079967260 1.2080208063
 1454.2315674 5.0000000000 20.187999725 12.250000954 0.0000072058 0.4991490245 1.5689735413 59.750000000 120.62531281 116.19081116 1.0020071268 44.099597931 1.2209895849 1.2211824656
 1454.3839111 5.0000000000 19.093999863 12.250000954 0.0030176283 0.5527581573 1.5580624342 61.312999725 125.12795258 120.64241028 1.0050432682 43.600399017 1.2969391346 1.2972692251
 1454.5363770 5.0000000000 19.812999725 12.250000954 0.0140384315 0.5702971220 1.5970624685 64.188003540 130.41117859 126.03424835 1.0324250460 43.599998474 1.4648655653 1.4646902084
 1454.6887207 5.0000000000 20.672000885 12.250000954 0.0299823713 0.5648891330 1.6230400801 65.500000000 144.00471497 139.63536072 1.2095352411 43.100399017 1.3361033201 1.3359919786
 1454.8411865 5.0000000000 21.452999115 12.250000954 0.0189807843 0.5330792069 1.6481465101 68.063003540 145.51426697 141.04783630 1.5432401896 43.849399567 1.3310040236 1.3308078051
 1454.9935303 5.0000000000 19.812999725 12.250000954 0.0109919868 0.4829217494 1.7091186047 67.563003540 154.56074524 150.02243042 1.6429743767 43.350399017 1.2510641813 1.2511202097
 1455.1459961 5.0000000000 20.093999863 12.250000954 0.0060216174 0.4902569652 1.7829735279 66.938003540 151.31915283 146.85743713 1.6269639730 43.599800110 1.3259398937 1.3258823156
 1455.2983398 5.0000000000 21.000000000 12.250000954 0.0149951922 0.5014694333 1.7718573809 64.313003540 148.50738525 144.05947876 1.6119840145 43.849796295 1.2770391703 1.2771425247
 1455.4506836 5.0000000000 20.781000137 12.250000954 0.0119935954 0.5073621869 1.6829295158 64.813003540 137.75109863 133.33384705 1.6018350124 43.849998474 1.3658576012 1.3660160303
 1455.6031494 5.0000000000 21.875000000 12.250000954 0.0079951929 0.5337087512 1.6390368938 64.188003540 140.44250488 135.88912964 1.4987932444 45.098995209 1.3759920597 1.3760433197
 1455.7554932 5.0000000000 20.875000000 12.250000954 0.0050016022 0.5454725623 1.6620576382 61.155998230 140.68789673 136.30625916 1.3700224161 45.099998474 1.4029567242 1.4028749466
 1455.9079590 5.0000000000 20.391000748 12.250000954 0.0060000001 0.5844453573 1.6979495287 59.750000000 139.90916443 135.52157593 1.3843338490 45.099998474 1.3250625134 1.3246204853
 1456.0603027 5.0000000000 20.750000000 12.250000954 0.0059983977 0.5742427111 1.6769776344 57.687999725 140.53385925 136.14805603 1.5231266022 45.349597931 1.1672530174 1.1668734550
 1456.2127686 5.0000000000 21.562997818 12.250000954 0.0049879905 0.5883847475 1.6630624533 55.155998230 143.68818665 139.22650146 1.6020504236 45.849597931 1.0880633593 1.0878559351
 1456.3651123 5.0000000000 21.797000885 12.250000954 0.0000064103 0.5902869701 1.6891074181 53.530998230 144.12677002 139.76156616 1.6227709055 45.600200653 1.0280480385 1.0282067060
 1456.5175781 5.0000000000 20.141000748 12.250000954 0.0040096077 0.5634858608 1.7560480833 54.969001770 137.03732300 132.65765381 1.4793202877 45.350196838 1.1568967104 1.1574394703
 1456.6699219 5.0000000000 20.655998230 12.250000954 0.0080016032 0.5658440590 1.7758814096 58.780998230 138.04899597 133.61776733 1.1973654032 45.349998474 1.3398534060 1.3400881290
 1456.8223877 5.0000000000 19.937999725 12.250000954 0.0090096071 0.5185710788 1.7018582821 58.594001770 140.25477600 135.78469849 1.4259006977 44.100997925 1.3949559927 1.3946541548
 1456.9747314 5.0000000000 21.906000137 12.250000954 0.0129967956 0.5273047686 1.6429054737 55.280998230 143.57931519 139.16676331 1.8000400066 44.099998474 1.2511154413 1.2509359121
 1457.1271973 5.0000000000 23.812999725 12.250000954 0.0109975981 0.5054156780 1.5840528011 54.594001770 143.53178406 139.17176819 1.8246949911 43.100799561 1.2110320330 1.2112016678
 1457.2795410 5.0000000000 23.172000885 12.250000954 0.0099951923 0.5244272351 1.6061265469 53.687999725 140.12847900 135.72613525 1.6969983578 43.099998474 1.2949326038 1.2952387333
 1457.4318848 5.0000000000 21.577999115 12.250000954 0.0069967979 0.5351881385 1.6850159168 52.844001770 140.72868347 136.25329590 1.0726156235 42.600799561 1.4437614679 1.4438911676
 1457.5843506 5.0000000000 21.968999863 12.250000954 0.0049887821 0.5527871251 1.6947115660 47.844001770 144.58807373 140.08474731 0.8330079913 41.850601196 1.3760545254 1.3754407167
 1457.7366943 5.0000000000 21.937997818 12.250000954 -0.002008013 0.5883855224 1.5147659779 41.625000000 149.27893066 144.87170410 0.8381249905 42.349197388 1.0275588036 1.0266634226
 1457.8891602 5.0000000000 23.202999115 12.250000954 -0.007004804 0.5917167068 1.3689254522 37.594001770 156.61064148 152.17417908 0.9159351587 42.349998474 0.8171682358 0.8170143962
 1458.0415039 5.0000000000 23.483999252 12.250000954 -0.008988782 0.5571081042 1.3381602764 37.375000000 159.13201904 154.73429871 0.8888092637 42.849197388 0.8229904175 0.8232564330
 1458.1939697 5.0000000000 23.766000748 12.250000954 -0.001995196 0.5435209870 1.4380191565 39.500000000 157.53457642 153.02603149 0.7696493268 42.600200653 0.9828717709 0.9831320643
 1458.3463135 5.0000000000 24.078001022 12.250000954 -0.000016026 0.5688750148 1.4459582567 43.530998230 153.46807861 149.03269958 0.6239951849 43.848995209 1.0379558802 1.0379166603
 1458.4987793 5.0000000000 23.468999863 12.250000954 -0.009992794 0.5843867064 1.4199495316 42.030998230 148.18016052 143.78857422 0.6213434935 43.100597382 0.9860416055 0.9857261777
 1458.6511230 5.0000000000 24.218999863 12.250000954 -0.007000000 0.5497741699 1.3990545273 42.844001770 146.89889526 142.49754333 0.7643301487 43.349796295 0.8720913529 0.8719038367
 1458.8035889 5.0000000000 24.312999725 12.250000954 -0.006987991 0.5336418748 1.4330960512 43.780998230 144.55130005 140.07592773 0.9699928164 43.599800110 0.8120480180 0.8125259876
 1458.9559326 5.0000000000 24.312999725 12.250000954 -0.001988782 0.5137342215 1.4730737209 48.750000000 143.05432129 138.63505554 0.9669535160 44.099597931 1.0308245420 1.0311714411
 1459.1083984 5.0000000000 24.047000885 12.250000954 0.0050096074 0.5537416339 1.5190120935 51.155998230 144.52174377 140.08726501 0.9384011626 43.600399017 1.1379143000 1.1380864382
 1459.2607422 5.0000000000 23.625000000 12.250000954 0.0090048071 0.5669572949 1.5238766670 52.000000000 143.44285583 138.99092102 1.1054118872 44.099597931 1.1739711761 1.1738461256
 1459.4132080 5.0000000000 24.281000137 12.250000954 0.0119663728 0.6089462638 1.4468007088 54.250000000 140.90333557 136.35610962 1.3621921539 44.349800110 1.0780768394 1.0780816078
 1459.5655518 5.0000000000 22.922000885 12.250000954 -0.001995192 0.6323747635 1.3640288115 57.530998230 137.81752014 133.39376831 1.4421651363 44.100200653 1.1119726896 1.1119487286
 1459.7178955 5.0000000000 22.250000000 12.250000954 0.0009983975 0.6664914489 1.3821169138 61.437999725 135.94891357 131.55570984 1.5449695587 43.850399017 1.0800513029 1.0799744129
 1459.8703613 5.0000000000 22.000000000 12.250000954 0.0000120096 0.6609810591 1.4552570581 60.780998230 133.89869690 129.50959778 1.5257958174 42.850799561 1.0640128851 1.0642522573
 1460.0227051 5.0000000000 21.516000748 12.250000954 0.0050176280 0.5989916325 1.5621122122 57.780998230 133.14344788 128.60836792 1.4409726858 42.849998474 1.1688319445 1.1690480709
 1460.1751709 5.0000000000 22.766000748 12.250000954 0.0160456374 0.5190411806 1.6321249008 55.062999725 133.67419434 129.30184937 1.4241297245 42.350399017 1.1989759207 1.1990168095
 1460.3275146 5.0000000000 21.858999252 12.250000954 0.0350592956 0.5195745826 1.6841042042 57.312999725 134.01460266 129.63780212 1.4781074524 42.599597931 1.2059887648 1.2060673237
