# LAS format log file from PETREL
# Project units are specified as depth units
#==================================================================
~Version information
VERS.   2.0:
WRAP.   NO:
#==================================================================
~Well
STRT .m      669.21893311 :
STOP .m      2146.7373047 :
STEP .m     0.00000000 :
NULL .        -999.250000 :
COMP.           : COMPANY
WELL.  31/6-8   : WELL
FLD.            : FIELD
LOC.            : LOCATION
SRVC.           : SERVICE COMPANY
DATE.  2018-09-11 14:48:41   : Log Export Date {yyyy-MM-dd HH:mm:ss}
PROV.           : PROVINCE
UWI.   31/6-8   : UNIQUE WELL ID
API.            : API NUMBER
#==================================================================
~Curve
DEPT .m                   : DEPTH
Lithology_geolink ._      : Lithology_geolink
CALI .in                  : CALI
BS .in                    : BS
DRHO .g/cm3               : DRHO
NPHI .m3/m3               : NPHI
RHOB .g/cm3               : RHOB
GR .gAPI                  : GR
DTC .us/ft                : DTC
DTE .us/ft                : DTE
RDEP .ohm.m               : RDEP
SP .mV                    : SP
RSHA .ohm.m               : RSHA
RMED .ohm.m               : RMED
~Parameter
#==================================================================
~Ascii
# ...
 1842.6992188 6.0000000000 8.2500000000 8.3750000000 0.0009879904 0.3345286250 2.3180143833 81.191604614 96.846160889 97.254882813 1.3720672131 67.367843628 1.2399502993 1.2401801348
 1842.8515625 6.0000000000 8.2500000000 8.3750000000 -0.004009616 0.3588767052 2.3240029812 83.438453674 96.310501099 96.771736145 1.4000079632 67.039787292 1.3148199320 1.3151090145
 1843.0040283 6.0000000000 8.2500000000 8.3750000000 -0.009997598 0.3505641818 2.3259952068 84.006004333 96.425842285 96.799011230 1.4050239325 66.844314575 1.3828910589 1.3830769062
 1843.1563721 6.0000000000 8.2500000000 8.3750000000 -0.008982372 0.3398134112 2.3240318298 87.747192383 96.078079224 96.403717041 1.4150464535 66.975784302 1.4149487019 1.4151009321
 1843.3087158 6.0000000000 8.2500000000 8.3750000000 0.0020064104 0.3232368827 2.3440032005 84.246444702 95.641098022 96.026573181 1.4440144300 67.000938416 1.4778487682 1.4781363010
 1843.4611816 5.0000000000 8.2500000000 8.3750000000 0.0059975982 0.3212724030 2.3459951878 79.811347961 95.716712952 96.200935364 1.4530047178 67.304512024 1.5628637075 1.5628991127
 1843.6135254 5.0000000000 8.2500000000 8.3750000000 0.0049919873 0.3139584363 2.3439712524 77.750350952 96.212219238 96.599243164 1.4550448656 67.781852722 1.5211008787 1.5208590031
 1843.7659912 5.0000000000 8.2500000000 8.3750000000 -0.000004804 0.3129876554 2.3260047436 78.188507080 96.739898682 97.065010071 1.4830720425 67.698135376 1.4331409931 1.4328823090
 1843.9183350 5.0000000000 8.2500000000 8.3750000000 -0.001998398 0.3120138943 2.3280065060 78.812454224 96.718139648 97.156425476 1.5130112171 67.601234436 1.3841176033 1.3840047121
 1844.0708008 5.0000000000 8.2500000000 8.3750000000 -0.001007206 0.3144535124 2.3320143223 78.125549316 95.867530823 96.224121094 1.5200624466 67.503158569 1.3869951963 1.3870792389
 1844.2231445 5.0000000000 8.2500000000 8.3750000000 -0.004004808 0.3159403205 2.3380031586 78.818161011 95.739715576 96.072509766 1.5460544825 67.406234741 1.4199206829 1.4200705290
 1844.3756104 6.0000000000 8.2500000000 8.3750000000 -0.007009608 0.3286557496 2.3400239944 85.251098633 95.326988220 95.755722046 1.5801153183 66.922775269 1.4639294147 1.4642233849
 1844.5279541 6.0000000000 8.3050003052 8.3750000000 -0.011006410 0.3476372957 2.3500142097 85.941711426 94.944427490 95.290985107 1.6280962229 66.363342285 1.5567766428 1.5572612286
 1844.6804199 6.0000000000 8.3520002365 8.3750000000 -0.014990392 0.3334788978 2.3590288162 90.556594849 94.881706238 95.282196045 1.6881800890 65.788925171 1.7197388411 1.7204035521
 1844.8327637 6.0000000000 8.3050003052 8.3750000000 -0.010996795 0.3247107863 2.3710031509 86.565605164 94.008575439 94.379928589 1.7631169558 65.189445496 1.8875964880 1.8880624771
 1844.9852295 6.0000000000 8.2500000000 8.3750000000 -0.008983186 0.3252761960 2.3730094433 89.816802979 94.091911316 94.516784668 1.8361873627 64.275466919 1.9269375801 1.9269784689
 1845.1375732 6.0000000000 8.2500000000 8.3750000000 -0.002003205 0.3569433093 2.3769969940 92.189308167 94.660278320 95.030685425 1.9141346216 62.810348511 1.9180144072 1.9179887772
 1845.2899170 6.0000000000 8.2500000000 8.3750000000 -0.003996798 0.3652018607 2.3750000000 93.816658020 94.330154419 94.693237305 1.9981697798 61.927120209 1.9110168219 1.9109247923
 1845.4423828 6.0000000000 8.2500000000 8.3750000000 -0.001996795 0.3476161361 2.3750064373 98.371246338 94.461448669 94.877365112 2.1042339802 61.826160431 1.8640753031 1.8638525009
 1845.5947266 6.0000000000 8.2969999313 8.3750000000 0.0000096154 0.3203092217 2.3790271282 93.687004089 93.870620728 94.320030212 2.2502660751 62.352733612 1.7722209692 1.7720159292
 1845.7471924 6.0000000000 8.3590002060 8.3750000000 0.0060000001 0.3198211789 2.3960430622 92.433044434 93.562950134 93.913719177 2.4164514542 62.608592987 1.7819839716 1.7826460600
 1845.8995361 6.0000000000 8.3590002060 8.3750000000 0.0060000001 0.3203264475 2.4140288830 86.248001099 92.245658875 92.606956482 2.6042709351 62.475318909 2.0503540039 2.0519759655
 1846.0520020 6.0000000000 8.3590002060 8.3750000000 0.0059855883 0.3305430114 2.4320046902 83.747749329 89.798110962 90.201217651 2.7728750706 62.513938904 2.6590242386 2.6617918015
 1846.2043457 6.0000000000 8.3590002060 8.3750000000 0.0000000000 0.3193360567 2.4339969158 80.936553955 88.338424683 88.748176575 2.7205801010 62.753429413 3.4042081833 3.4061281681
 1846.3568115 6.0000000000 8.3360004425 8.3750000000 -0.000012010 0.3168313801 2.4319710732 79.124496460 87.074539185 87.464660645 2.4579913616 63.222244263 3.4858717918 3.4849648476
 1846.5091553 5.0000000000 8.2500000000 8.3750000000 -0.005000000 0.2924478948 2.4199743271 78.498847961 86.047592163 86.414077759 2.0382788181 64.105873108 3.0560352802 3.0543076992
 1846.6616211 5.0000000000 8.2500000000 8.3750000000 -0.005002402 0.2724154592 2.4039015770 77.050994873 87.216911316 87.574234009 1.5882937908 65.302085876 2.6236922741 2.6216547489
 1846.8139648 5.0000000000 8.2500000000 8.3750000000 -0.006001602 0.2539272308 2.3628940582 69.559249878 90.013336182 90.390586853 1.2947307825 67.306175232 2.0643451214 2.0616056919
 1846.9664307 5.0000000000 8.2500000000 8.3750000000 -0.007002402 0.2646922171 2.2968533039 64.867446899 92.303321838 92.677444458 1.1267597675 68.675811768 1.1943942308 1.1919382811
 1847.1187744 5.0000000000 8.2500000000 8.3750000000 -0.007998398 0.2823066711 2.2359969616 60.159378052 91.994819641 92.401817322 1.0268925428 69.408828735 0.7517083287 0.7507964373
 1847.2712402 5.0000000000 8.2500000000 8.3750000000 -0.006992795 0.3301069736 2.2341849804 64.375801086 85.478843689 85.760231018 0.9597933888 69.921180725 0.6242033839 0.6241056919
 1847.4235840 16.000000000 8.2500000000 8.3750000000 -0.003990385 0.3412247002 2.3111844063 64.877105713 76.618804932 76.826477051 0.8738445640 69.716331482 0.6679294705 0.6685128212
 1847.5759277 16.000000000 8.2500000000 8.3750000000 0.0020000001 0.2879311144 2.4260625839 67.498550415 70.748504639 71.045303345 0.7768894434 69.476577759 0.9872313738 0.9886955023
 1847.7283936 16.000000000 8.2500000000 8.3750000000 0.0019879905 0.1888263077 2.4647884369 65.689758301 72.732963562 73.014129639 0.7080191970 69.261344910 1.4213045835 1.4219688177
 1847.8807373 16.000000000 8.2500000000 8.3750000000 -0.003008013 0.1333829612 2.3768429756 67.870750427 80.442260742 80.831779480 0.7161250114 69.076438904 1.4090312719 1.4083237648
 1848.0332031 5.0000000000 8.2500000000 8.3750000000 -0.008012010 0.1852218509 2.2788920403 62.565605164 89.080383301 89.459068298 0.7942281961 68.841377258 0.9876762629 0.9866204858
 1848.1855469 5.0000000000 8.2500000000 8.3750000000 -0.012998397 0.2525472045 2.2340030670 65.811904907 94.108947754 94.469215393 0.8890496492 68.532737732 0.8293794990 0.8290176392
 1848.3380127 5.0000000000 8.2500000000 8.3750000000 -0.012000000 0.3193376362 2.2360479832 64.441505432 93.827453613 94.179695129 0.9199159741 68.411193848 0.8399823308 0.8401032686
 1848.4903564 5.0000000000 8.2500000000 8.3750000000 -0.011996795 0.3183607757 2.2560241222 68.808120728 92.991661072 93.320030212 0.8849294782 68.295280457 0.8828967214 0.8831073642
 1848.6428223 5.0000000000 8.2500000000 8.3750000000 -0.009997598 0.3188101351 2.2710142136 62.712547302 92.477943420 92.928855896 0.8409015536 68.185173035 0.9498926401 0.9501152635
 1848.7951660 5.0000000000 8.2500000000 8.3750000000 -0.009000000 0.3022648394 2.2769792080 58.684894562 91.706642151 92.064743042 0.7999807596 68.327659607 0.9978847504 0.9979615808
 1848.9476318 5.0000000000 8.2500000000 8.3750000000 -0.008995196 0.3115282357 2.2639567852 54.812599182 91.769767761 92.121200562 0.7880552411 68.625518799 0.9740384221 0.9736973643
 1849.0999756 5.0000000000 8.2500000000 8.3750000000 -0.007008013 0.3149572313 2.2459695339 54.568431854 93.570404053 93.871871948 0.8110320568 69.072921753 0.8483026028 0.8478268981
 1849.2524414 6.0000000000 8.2500000000 8.3750000000 -0.011997598 0.3256870508 2.2270047665 61.358364105 94.717933655 95.045349121 0.8310359716 69.521286011 0.7401731014 0.7399567962
