# LAS format log file from PETREL
# Project units are specified as depth units
#==================================================================
~Version information
VERS.   2.0:
WRAP.   NO:
#==================================================================
~Well
STRT .m      669.21893311 :
STOP .m      2146.7373047 :
STEP .m     0.00000000 :
NULL .        -999.250000 :
COMP.           : COMPANY
WELL.  31/6-8   : WELL
FLD.            : FIELD
LOC.            : LOCATION
SRVC.           : SERVICE COMPANY
DATE.  2018-09-11 14:48:41   : Log Export Date {yyyy-MM-dd HH:mm:ss}
PROV.           : PROVINCE
UWI.   31/6-8   : UNIQUE WELL ID
API.            : API NUMBER
#==================================================================
~Curve
DEPT .m                   : DEPTH
Lithology_geolink ._      : Lithology_geolink
CALI .in                  : CALI
BS .in                    : BS
DRHO .g/cm3               : DRHO
NPHI .m3/m3               : NPHI
RHOB .g/cm3               : RHOB
GR .gAPI                  : GR
DTC .us/ft                : DTC
DTE .us/ft                : DTE
RDEP .ohm.m               : RDEP
SP .mV                    : SP
RSHA .ohm.m               : RSHA
RMED .ohm.m               : RMED
~Parameter
#==================================================================
~Ascii
# ...
 1748.8206787 5.0000000000 8.2500000000 8.3750000000 -0.017001603 0.3691572547 2.1799712181 70.250000000 109.89395142 105.47389984 0.5700400472 79.070075989 0.6339735985 0.6339390874
 1748.9731445 5.0000000000 8.2500000000 8.3750000000 -0.017999999 0.3798882067 2.1619904041 64.563003540 107.38301849 102.85144043 0.5950072408 79.455383301 0.5960609317 0.5960072279
 1749.1254883 5.0000000000 8.2500000000 8.3750000000 -0.017999999 0.3832952976 2.1580288410 63.562999725 102.27517700 97.902900696 0.5979823470 79.838073730 0.5989927649 0.5990688801
 1749.2779541 5.0000000000 8.2500000000 8.3750000000 -0.017997596 0.3803395033 2.1760649681 64.125000000 101.30274200 96.867553711 0.5870096087 79.838996887 0.6419311166 0.6421465278
 1749.4302979 5.0000000000 8.2500000000 8.3750000000 -0.017003207 0.3676346242 2.2030096054 66.438003540 101.12667847 96.681060791 0.5910160542 79.311271667 0.7028535008 0.7029022574
 1749.5827637 5.0000000000 8.2500000000 8.3750000000 -0.018990392 0.3393001556 2.2089905739 65.125000000 104.05574799 99.564353943 0.6010288596 78.514274597 0.6420977712 0.6419111490
 1749.7351074 5.0000000000 8.2500000000 8.3750000000 -0.015003204 0.3144789636 2.2049968243 70.813003540 109.53590393 105.09477234 0.6130352616 78.469108582 0.6050888896 0.6050000191
 1749.8875732 5.0000000000 8.2500000000 8.3750000000 -0.017002404 0.3325493038 2.2030432224 72.250000000 109.83964539 105.45227814 0.6349831820 79.052062988 0.6050000191 0.6050288677
 1750.0399170 5.0000000000 8.2500000000 8.3750000000 -0.018004807 0.3447409272 2.2210030556 76.375000000 109.75064850 105.27411652 0.6279776096 79.215614319 0.6169711351 0.6171169877
 1750.1923828 5.0000000000 8.2500000000 8.3750000000 -0.020997597 0.3515517712 2.2229807377 70.063003540 109.91867065 105.37248230 0.6140480638 78.680862427 0.6898829937 0.6899927855
 1750.3447266 5.0000000000 8.2500000000 8.3750000000 -0.020001601 0.3481251597 2.2149567604 71.125000000 109.68298340 105.30241394 0.6340560913 77.936790466 0.6870071888 0.6869839430
 1750.4971924 5.0000000000 8.2500000000 8.3750000000 -0.020995196 0.3388770521 2.1879904270 69.500000000 109.35530090 104.98737335 0.6690600514 77.077369690 0.6770160198 0.6768919230
 1750.6495361 6.0000000000 8.2500000000 8.3750000000 -0.018990384 0.3418250382 2.1840240955 76.500000000 109.07172394 104.62999725 0.6940400600 76.607757568 0.6320721507 0.6321330667
 1750.8018799 6.0000000000 8.2500000000 8.3750000000 -0.012991987 0.3574286103 2.1990382671 76.188003540 107.42122650 102.95279694 0.7190320492 76.474319458 0.7148005962 0.7150913477
 1750.9543457 6.0000000000 8.2500000000 8.3750000000 -0.007997598 0.3627665341 2.2230265141 77.938003540 106.56521606 102.15206909 0.7390288711 76.540893555 0.7719086409 0.7721248865
 1751.1066895 6.0000000000 8.2500000000 8.3750000000 -0.007009616 0.3529947996 2.2339887619 76.563003540 106.12200165 101.73341370 0.7510384321 76.632781982 0.8238751292 0.8239823580
 1751.2591553 6.0000000000 8.2500000000 8.3750000000 -0.013009608 0.3310511708 2.2269952297 73.188003540 106.25302124 101.85668182 0.7750335932 76.850646973 0.8130176663 0.8130576611
 1751.4114990 6.0000000000 8.2500000000 8.3750000000 -0.017004808 0.3315681517 2.2250030041 72.750000000 107.62918854 103.14338684 0.7889583111 77.116355896 0.8369423747 0.8369904160
 1751.5639648 5.0000000000 8.2500000000 8.3750000000 -0.019992793 0.3491528332 2.2270169258 68.750000000 109.40614319 104.98085785 0.7629207373 77.381576538 0.8310095668 0.8308366537
 1751.7163086 5.0000000000 8.2500000000 8.3750000000 -0.016993592 0.3628189564 2.2339935303 68.938003540 110.59165955 106.22936249 0.7299519181 77.731163025 0.7631633282 0.7628830075
 1751.8687744 5.0000000000 8.2500000000 8.3750000000 -0.012980785 0.3808482587 2.2299544811 65.250000000 111.91385651 107.52154541 0.6999230981 78.111389160 0.6901170015 0.6897742152
 1752.0211182 5.0000000000 8.2500000000 8.3750000000 -0.004993590 0.3759612143 2.2109630108 64.313003540 110.70521545 106.30324554 0.6679646969 78.491081238 0.5962257981 0.5959631801
 1752.1735840 5.0000000000 8.2500000000 8.3750000000 -0.001004804 0.3641778827 2.1879422665 63.750000000 109.26654816 104.76303864 0.6459568143 78.877380371 0.5730368495 0.5729568005
 1752.3259277 5.0000000000 8.2500000000 8.3750000000 -0.003003205 0.3300588727 2.1639935970 64.000000000 108.27565765 103.88448334 0.6279519200 79.336891174 0.5550432205 0.5550240278
 1752.4783936 5.0000000000 8.2500000000 8.3750000000 -0.004995196 0.3169122934 2.1600143909 63.875000000 108.61891174 104.18038940 0.5979615450 79.796264648 0.5699759722 0.5700864792
 1752.6307373 5.0000000000 8.2500000000 8.3750000000 -0.003003205 0.3261778057 2.1660158634 65.313003540 107.15611267 102.73475647 0.5820000172 79.297798157 0.6059423089 0.6060448885
 1752.7830811 5.0000000000 8.2500000000 8.3750000000 -0.005011209 0.3310429752 2.1759905815 65.313003540 106.78378296 102.27216339 0.5820128322 78.685470581 0.6339327693 0.6339792013
 1752.9355469 5.0000000000 8.2500000000 8.3750000000 -0.012004808 0.3266357481 2.1699841022 66.750000000 107.31233215 102.94287872 0.5900160074 78.022064209 0.6210208535 0.6209903955
 1753.0878906 5.0000000000 8.2500000000 8.3750000000 -0.014985576 0.3115348816 2.1600096226 66.313003540 107.55924225 103.10366821 0.5999823809 77.418449402 0.6150144339 0.6150128245
 1753.2403564 5.0000000000 8.2500000000 8.3750000000 -0.005987991 0.3208211064 2.1660239697 66.000000000 106.87926483 102.45391846 0.5889087319 77.056579590 0.6229872108 0.6231033206
 1753.3927002 2.0000000000 8.2500000000 8.3750000000 -0.000995192 0.3295829594 2.1760337353 60.937999725 106.88864899 102.32651520 0.5509327054 77.055999756 0.6658967137 0.6660304666
 1753.5451660 2.0000000000 8.2500000000 8.3750000000 0.0019903923 0.3251729906 2.1969735622 56.125000000 107.18401337 102.75298309 0.5089231133 77.412429810 0.6849695444 0.6849495769
 1753.6975098 2.0000000000 8.2810001373 8.3750000000 -0.001991987 0.3139529526 2.1859617233 53.969001770 107.83630371 103.44871521 0.4769855738 77.652420044 0.6640504003 0.6638541222
 1753.8499756 2.0000000000 8.2969999313 8.3750000000 0.0029903923 0.3096005321 2.1619014740 51.500000000 108.77710724 104.42016602 0.4680240154 77.626045227 0.5731458664 0.5728679299
 1754.0023193 2.0000000000 8.2810001373 8.3750000000 -0.001001603 0.3222942650 2.1209695339 48.780998230 109.50102234 105.10060883 0.4780544639 77.517257690 0.5181320906 0.5179262757
 1754.1547852 2.0000000000 8.3590002060 8.3750000000 -0.002012010 0.3373917937 2.1019999981 44.812999725 108.25167084 103.73229980 0.5122137666 77.383216858 0.4720737338 0.4719471633
 1754.3071289 2.0000000000 8.3590002060 8.3750000000 -0.006995193 0.3340003490 2.1020865440 44.812999725 99.627677917 95.187889099 0.6012099385 77.377014160 0.4500528276 0.4500080049
 1754.4595947 2.0000000000 8.3590002060 8.3750000000 -0.004014412 0.3467198610 2.1562209129 44.750000000 85.903198242 81.528709412 0.7322834134 77.946083069 0.4549919963 0.4553338885
 1754.6119385 16.000000000 8.3520002365 8.3750000000 -0.009996795 0.3632127047 2.2482755184 43.062999725 71.389320374 66.955268860 0.8500865698 78.642883301 0.5937772393 0.5954711437
 1754.7644043 16.000000000 8.3590002060 8.3750000000 -0.008002402 0.3210249543 2.4203147888 41.750000000 59.616153717 55.090194702 0.9039711356 79.382820129 1.5105299950 1.5186412334
 1754.9167480 16.000000000 8.3590002060 8.3750000000 -0.008998397 0.2107498646 2.5511186123 42.375000000 56.604793549 52.190650940 0.8919711709 80.043937683 4.2725687027 4.2777948380
 1755.0690918 16.000000000 8.3669996262 8.3750000000 -0.008006411 0.0922250450 2.6249406338 45.719001770 62.761642456 58.393783569 0.8739615679 80.117820740 4.7718086243 4.7681570053
 1755.2215576 2.0000000000 8.4689998627 8.3750000000 -0.012012010 0.0518092662 2.5877189636 49.844001770 74.092094421 69.677680969 0.8498414755 79.764564514 1.7558430433 1.7484636307
 1755.3739014 2.0000000000 8.4689998627 8.3750000000 -0.016998399 0.0723623261 2.4707338810 50.780998230 87.939346313 83.383705139 0.7838429213 79.306106567 0.6975364089 0.6945832968
