# LAS format log file from PETREL
# Project units are specified as depth units
#==================================================================
~Version information
VERS.   2.0:
WRAP.   NO:
#==================================================================
~Well
STRT .m      376.12503052 :
STOP .m      2088.7500000 :
STEP .m     0.00000000 :
NULL .        -999.250000 :
COMP.           : COMPANY
WELL.  31/6-5   : WELL
FLD.            : FIELD
LOC.            : LOCATION
SRVC.           : SERVICE COMPANY
DATE.  2018-09-11 14:48:40   : Log Export Date {yyyy-MM-dd HH:mm:ss}
PROV.           : PROVINCE
UWI.   31/6-5   : UNIQUE WELL ID
API.            : API NUMBER
#==================================================================
~Curve
DEPT .m                   : DEPTH
Lithology_geolink ._      : Lithology_geolink
CALI .in                  : CALI
BS .in                    : BS
DRHO .g/cm3               : DRHO
NPHI .m3/m3               : NPHI
RHOB .g/cm3               : RHOB
GR .gAPI                  : GR
DTC .us/ft                : DTC
DTE .us/ft                : DTE
RDEP .ohm.m               : RDEP
SP .mV                    : SP
RSHA .ohm.m               : RSHA
RMED .ohm.m               : RMED
~Parameter
#==================================================================
~Ascii
# ...
 491.62503052  -999.250000 15.586999893  -999.250000  -999.250000  -999.250000 2.0109999180 65.721740723 173.74209595 169.41302490 1.2829999924 -32.62099838 1.2990000248 1.2029999495
 491.75003052  -999.250000 15.586001396  -999.250000  -999.250000  -999.250000 2.0109212399 65.372589111 173.76951599 169.42532349 1.2940000296 -31.97800064 1.2970000505 1.2130000591
 491.87503052  -999.250000 15.586001396  -999.250000  -999.250000  -999.250000 2.0109000206 64.814598083 173.79197693 169.43762207 1.3059999943 -31.42999840 1.2990000248 1.2269999981
 492.00000000  -999.250000 15.586001396  -999.250000  -999.250000  -999.250000 2.0108571053 63.985565186 173.80169678 169.44992065 1.3159999847 -31.01899910 1.3040000200 1.2419999838
 492.12503052  -999.250000 15.586001396  -999.250000  -999.250000  -999.250000 2.0107998848 63.093711853 173.80418396 169.46218872 1.3240000010 -30.73999977 1.3150000572 1.2569999695
 492.25003052  -999.250000 15.586999893  -999.250000  -999.250000  -999.250000 2.0107929707 62.499824524 173.81510925 169.47444153 1.3279999495 -30.54299927 1.3289999962 1.2669999599
 492.37503052  -999.250000 15.586999893  -999.250000  -999.250000  -999.250000 2.0107111931 62.262359619 173.85578918 169.48674011 1.3289999962 -30.33699989 1.3409999609 1.2690000534
 492.50003052  -999.250000 15.586999893  -999.250000  -999.250000  -999.250000 2.0106999874 62.754619598 173.84371948 169.49903870 1.3259999752 -30.04899979 1.3439999819 1.2640000582
 492.62503052  -999.250000 15.586001396  -999.250000  -999.250000  -999.250000 2.0106999874 63.598552704 173.84962463 169.51135254 1.3220000267 -29.70400047 1.3389999866 1.2560000420
 492.75003052  -999.250000 15.585000038  -999.250000  -999.250000  -999.250000 2.0106651783 64.355163574 173.87347412 169.52365112 1.3150000572 -29.32799911 1.3289999962 1.2439999580
 492.87500000  -999.250000 15.585000038  -999.250000  -999.250000  -999.250000 2.0106000900 64.685890198 173.90031433 169.53593445 1.3049999475 -28.95100021 1.3170000315 1.2309999466
 493.00003052  -999.250000 15.583999634  -999.250000  -999.250000  -999.250000 2.0106000900 64.470825195 173.92065430 169.54824829 1.2920000553 -28.60400009 1.3059999943 1.2189999819
 493.12503052  -999.250000 15.583999634  -999.250000  -999.250000  -999.250000 2.0105190277 64.104591370 173.90081787 169.56056213 1.2779999971 -28.31299973 1.3009999990 1.2070000172
 493.25003052  -999.250000 15.583999634  -999.250000  -999.250000  -999.250000 2.0104999542 63.540199280 173.93368530 169.57286072 1.2640000582 -28.04599953 1.2990000248 1.1979999542
 493.37503052  -999.250000 15.583999634  -999.250000  -999.250000  -999.250000 2.0104548931 62.445816040 173.94001770 169.58515930 1.2519999743 -27.78199959 1.2999999523 1.1909999847
 493.50003052  -999.250000 15.582999229  -999.250000  -999.250000  -999.250000 2.0104000568 60.832675934 173.93704224 169.59744263 1.2430000305 -27.50799942 1.3009999990 1.1879999638
 493.62503052  -999.250000 15.581999779  -999.250000  -999.250000  -999.250000 2.0103909969 59.027305603 173.97822571 169.60966492 1.2359999418 -27.21299934 1.3009999990 1.1870000362
 493.75000000  -999.250000 15.579998970  -999.250000  -999.250000  -999.250000 2.0103087425 57.605880737 173.95790100 169.62197876 1.2339999676 -26.89399910 1.3009999990 1.1900000572
 493.87503052  -999.250000 15.578000069  -999.250000  -999.250000  -999.250000 2.0102999210 57.364494324 173.97383118 169.63427734 1.2330000401 -26.55800056 1.3020000458 1.1929999590
 494.00003052  -999.250000 15.576999664  -999.250000  -999.250000  -999.250000 2.0102448463 58.042602539 173.98048401 169.64657593 1.2350000143 -26.21299934 1.3040000200 1.1970000267
 494.12503052  -999.250000 15.579000473  -999.250000  -999.250000  -999.250000 2.0102000237 58.863201141 173.99343872 169.65888977 1.2359999418 -25.87800026 1.3049999475 1.2020000219
 494.25003052  -999.250000 15.581000328  -999.250000  -999.250000  -999.250000 2.0102000237 59.136802673 174.01530457 169.67118835 1.2380000353 -25.59600067 1.3040000200 1.2059999704
 494.37503052  -999.250000 15.585000038  -999.250000  -999.250000  -999.250000 2.0101988316 58.865604401 174.01560974 169.68348694 1.2389999628 -25.44400024 1.2979999781 1.2109999657
 494.50003052  -999.250000 15.588999748  -999.250000  -999.250000  -999.250000 2.0101165771 58.325931549 174.03594971 169.69570923 1.2389999628 -25.65900040 1.2940000296 1.2139999866
 494.62500000  -999.250000 15.586999893  -999.250000  -999.250000  -999.250000 2.0100998878 58.187324524 174.04010010 169.70806885 1.2350000143 -26.30800056 1.3020000458 1.2120000124
 494.75003052  -999.250000 15.576999664  -999.250000  -999.250000  -999.250000 2.0100526810 58.849914551 174.05656433 169.72035217 1.2289999723 -27.24500084 1.3200000525 1.2070000172
 494.87503052  -999.250000 15.553999901  -999.250000  -999.250000  -999.250000 2.0099999905 60.100070953 174.08216858 169.73258972 1.2200000286 -28.26499939 1.3439999819 1.1979999542
 495.00003052  -999.250000 15.512999535  -999.250000  -999.250000  -999.250000 2.0099887848 61.564659119 174.10365295 169.74490356 1.2109999657 -29.13800049 1.3639999628 1.1859999895
 495.12503052  -999.250000 15.460000038  -999.250000  -999.250000  -999.250000 2.0099067688 62.466110229 174.13227844 169.75720215 1.2029999495 -29.59900093 1.3660000563 1.1749999523
 495.25003052  -999.250000 15.416999817  -999.250000  -999.250000  -999.250000 2.0099000931 62.615352631 174.13459778 169.76950073 1.1950000525 -29.62500000 1.3489999771 1.1649999619
 495.37503052  -999.250000 15.402999878  -999.250000  -999.250000  -999.250000 2.0098426342 61.730461121 174.14877319 169.78179932 1.1870000362 -29.44000053 1.3289999962 1.1560000181
 495.50000000  -999.250000 15.418999672  -999.250000  -999.250000  -999.250000 2.0097999573 60.626701355 174.15930176 169.79411316 1.1790000200 -29.14200020 1.3120000362 1.1469999552
 495.62503052  -999.250000 15.456000328  -999.250000  -999.250000  -999.250000 2.0097999573 60.017169952 174.15930176 169.80641174 1.1710000038 -28.79899979 1.3009999990 1.1390000582
 495.75003052  -999.250000 15.498999596  -999.250000  -999.250000  -999.250000 2.0097963810 60.250656128 174.16050720 169.81861877 1.1629999876 -28.44599915 1.2940000296 1.1310000420
 495.87503052  -999.250000 15.527000427  -999.250000  -999.250000  -999.250000 2.0097146034 61.145660400 174.18914795 169.83100891 1.1560000181 -28.13299942 1.2879999876 1.1260000467
 496.00003052  -999.250000 15.539999962  -999.250000  -999.250000  -999.250000 2.0097000599 62.047248840 174.19421387 169.84326172 1.1499999762 -27.90099907 1.2829999924 1.1219999790
 496.12503052  -999.250000 15.543999672  -999.250000  -999.250000  -999.250000 2.0096504688 62.554870605 174.20643616 169.85552979 1.1460000277 -27.73699951 1.2799999714 1.1189999580
 496.25003052  -999.250000 15.545000076  -999.250000  -999.250000  -999.250000 2.0095999241 62.377677917 174.22990417 169.86782837 1.1419999599 -27.62999916 1.2790000439 1.1180000305
 496.37500000  -999.250000 15.545000076  -999.250000  -999.250000  -999.250000 2.0095863342 61.719436646 174.24906921 169.88014221 1.1399999857 -27.56599998 1.2790000439 1.1180000305
 496.50003052  -999.250000 15.543999672  -999.250000  -999.250000  -999.250000 2.0095045567 60.561870575 174.22044373 169.89245605 1.1380000114 -27.52499962 1.2799999714 1.1169999838
 496.62503052  -999.250000 15.543000221  -999.250000  -999.250000  -999.250000 2.0095000267 59.019626617 174.26515198 169.90473938 1.1369999647 -27.51499939 1.2779999971 1.1160000563
 496.75003052  -999.250000 15.542000771  -999.250000  -999.250000  -999.250000 2.0094404221 57.144470215 174.26377869 169.91703796 1.1369999647 -27.52799988 1.2760000229 1.1139999628
 496.87503052  -999.250000 15.542000771  -999.250000  -999.250000  -999.250000 2.0093998909 55.057971954 174.26408386 169.92930603 1.1360000372 -27.56500053 1.2710000277 1.1119999886
 497.00003052  -999.250000 15.542000771  -999.250000  -999.250000  -999.250000 2.0093998909 52.954746246 174.28675842 169.94155884 1.1369999647 -27.62199974 1.2660000324 1.1089999676
