# LAS format log file from PETREL
# Project units are specified as depth units
#==================================================================
~Version information
VERS.   2.0:
WRAP.   NO:
#==================================================================
~Well
STRT .m      376.12503052 :
STOP .m      2088.7500000 :
STEP .m     0.00000000 :
NULL .        -999.250000 :
COMP.           : COMPANY
WELL.  31/6-5   : WELL
FLD.            : FIELD
LOC.            : LOCATION
SRVC.           : SERVICE COMPANY
DATE.  2018-09-11 14:48:40   : Log Export Date {yyyy-MM-dd HH:mm:ss}
PROV.           : PROVINCE
UWI.   31/6-5   : UNIQUE WELL ID
API.            : API NUMBER
#==================================================================
~Curve
DEPT .m                   : DEPTH
Lithology_geolink ._      : Lithology_geolink
CALI .in                  : CALI
BS .in                    : BS
DRHO .g/cm3               : DRHO
NPHI .m3/m3               : NPHI
RHOB .g/cm3               : RHOB
GR .gAPI                  : GR
DTC .us/ft                : DTC
DTE .us/ft                : DTE
RDEP .ohm.m               : RDEP
SP .mV                    : SP
RSHA .ohm.m               : RSHA
RMED .ohm.m               : RMED
~Parameter
#==================================================================
~Ascii
# ...
 1965.6250000 3.0000000000 8.5939998627 8.5000000000 -0.002000000 0.2251700014 2.2064461708 50.421001434 80.850982666 80.816322327 0.6600000262 85.675003052 1.1109999418 0.7099999785
 1965.7501221 3.0000000000 8.5659999847 8.5000000000 0.0030000000 0.2335801125 2.2123777866 52.901000977 83.615715027 83.607833862 0.6460000277 86.608001709 1.0460000038 0.6999999881
 1965.8748779 3.0000000000 8.5509996414 8.5000000000 0.0099863280 0.2387400120 2.2219696045 54.264999390 86.819824219 86.855384827 0.6349999905 87.216003418 1.0190000534 0.6919999719
 1966.0000000 3.0000000000 8.5450000763 8.5000000000 0.0170000009 0.2415999919 2.2309226990 54.611999512 89.990516663 90.045646667 0.6299999952 87.310997009 1.0230000019 0.6859999895
 1966.1250000 3.0000000000 8.5430002213 8.5000000000 0.0170000009 0.2429800034 2.2362301350 54.290000916 92.663505554 92.702453613 0.6349999905 86.915000916 1.0429999828 0.6830000281
 1966.2500000 3.0000000000 8.5389995575 8.5000000000 0.0130000003 0.2436099946 2.2378711700 53.967998505 94.460510254 94.479507446 0.6539999843 86.271003723 1.0570000410 0.6859999895
 1966.3750000 3.0000000000 8.5349998474 8.5000000000 0.0080000004 0.2444700003 2.2416050434 53.919998169 95.129455566 95.135154724 0.6840000153 85.819999695 1.0499999523 0.7009999752
 1966.5000000 3.0000000000 8.5310001373 8.5000000000 0.0030000000 0.2464199960 2.2512612343 54.888000488 95.086524963 95.123382568 0.7179999948 85.515998840 1.0470000505 0.7279999852
 1966.6250000 3.0000000000 8.5290002823 8.5000000000 0.0020000001 0.2494599968 2.2667570114 56.689998627 94.683654785 94.690879822 0.7530000210 85.257003784 1.0679999590 0.7639999986
 1966.7500000 3.0000000000 8.5310001373 8.5000000000 0.0049999999 0.2528299987 2.2851662636 59.147998810 94.087394714 94.044761658 0.7829999924 85.005996704 1.1349999905 0.8050000072
 1966.8750000 3.0000000000 8.5380001068 8.5000000000 0.0140000004 0.2553703189 2.3015615940 61.595001221 93.353942871 93.345069885 0.8100000024 84.787002563 1.2539999485 0.8450000286
 1967.0001221 3.0000000000 8.5520000458 8.5000000000 0.0260000005 0.2556688190 2.3087892532 62.685234070 92.729820251 92.696891785 0.8370000124 84.638999939 1.3930000067 0.8780000210
 1967.1250000 3.0000000000 8.5670003891 8.5000000000 0.0370000005 0.2550799847 2.3048746586 62.293998718 92.259376526 92.245483398 0.8730000257 84.524002075 1.4359999895 0.9020000100
 1967.2500000 3.0000000000 8.5790004730 8.5000000000 0.0419999994 0.2552399933 2.2945077419 60.603000641 92.084152222 92.102836609 0.9200000167 84.453002930 1.3860000372 0.9240000248
 1967.3750000 5.0000000000 8.5839996338 8.5000000000 0.0390000008 0.2571499944 2.2827696800 58.845001221 92.299240112 92.332160950 0.9750000238 84.519996643 1.2869999409 0.9470000267
 1967.5000000 5.0000000000 8.5830001831 8.5000000000 0.0289999992 0.2610400021 2.2741999626 58.104000092 92.889320374 92.912376404 1.0319999456 84.791999817 1.1950000525 0.9710000157
 1967.6250000 5.0000000000 8.5769996643 8.5000000000 0.0219999999 0.2662299871 2.2716071606 59.549999237 93.695938110 93.721214294 1.0820000172 85.257003784 1.1599999666 0.9940000176
 1967.7500000 5.0000000000 8.5710000992 8.5000000000 0.0170000009 0.2696699798 2.2723450661 62.240001678 94.416595459 94.467285156 1.1119999886 85.668998718 1.2039999962 1.0099999905
 1967.8750000 5.0000000000 8.5659999847 8.5000000000 0.0149999997 0.2697199881 2.2702958584 65.277999878 94.827781677 94.835433960 1.1260000467 85.779998779 1.2719999552 1.0219999552
 1968.0000000 5.0000000000 8.5620002747 8.5000000000 0.0130000003 0.2664600015 2.2638542652 67.209999084 94.725151062 94.720260620 1.1230000257 85.592002869 1.3320000172 1.0290000439
 1968.1251221 5.0000000000 8.5590000153 8.5000000000 0.0109999999 0.2611690164 2.2534162998 67.713996887 94.150970459 94.152580261 1.1030000448 85.259002686 1.3680000305 1.0269999504
 1968.2498779 5.0000000000 8.5550003052 8.5000000000 0.0070000002 0.2555499971 2.2405734062 67.194000244 93.273124695 93.258552551 1.0670000315 85.004997253 1.3700000048 1.0080000162
 1968.3750000 5.0000000000 8.5509996414 8.5000000000 0.0020000001 0.2509199977 2.2267043591 66.466003418 92.160232544 92.184928894 1.0110000372 85.050003052 1.3400000334 0.9620000124
 1968.5000000 3.0000000000 8.5489997864 8.5000000000 -0.007000000 0.2465199977 2.2120895386 65.594001770 91.204864502 91.185531616 0.9369999766 85.289001465 1.2819999456 0.8899999857
 1968.6250000 3.0000000000 8.5500001907 8.5000000000 -0.017000001 0.2419300079 2.1979227066 64.121002197 90.415771484 90.370666504 0.8600000143 85.488998413 1.2039999962 0.8140000105
 1968.7500000 3.0000000000 8.5539999008 8.5000000000 -0.028000001 0.2382799983 2.1853039265 61.557998657 89.822525024 89.804977417 0.7870000005 85.526000977 1.1160000563 0.7419999838
 1968.8750000 3.0000000000 8.5600004196 8.5000000000 -0.034000002 0.2366799861 2.1751315594 58.243000031 89.527603149 89.557403564 0.7239999771 85.355003357 1.0279999971 0.6830000281
 1969.0000000 3.0000000000 8.5649995804 8.5000000000 -0.035999998 0.2379000038 2.1680088043 54.562000275 89.705314636 89.708244324 0.6700000167 85.030998230 0.9489769936 0.6389999986
 1969.1250000 3.0000000000 8.5659999847 8.5000000000 -0.034000002 0.2413599938 2.1655492783 51.307998657 90.427932739 90.423400879 0.6259999871 84.667999268 0.8939549923 0.6119999886
 1969.2501221 3.0000000000 8.5620002747 8.5000000000 -0.029999999 0.2456173450 2.1682560444 48.703998566 91.409378052 91.432632446 0.5879999995 84.329002380 0.8593119979 0.5960000157
 1969.3748779 3.0000000000 8.5539999008 8.5000000000 -0.024011718 0.2493600100 2.1751408577 47.445999146 92.431266785 92.457023621 0.5550000072 84.123001099 0.8510450125 0.5870000124
 1969.5000000 3.0000000000 8.5450000763 8.5000000000 -0.017000001 0.2518099844 2.1830627918 47.459999084 93.307907104 93.305763245 0.5279999971 84.141998291 0.8699740171 0.5809999704
 1969.6250000 3.0000000000 8.5389995575 8.5000000000 -0.011000000 0.2525799870 2.1878535748 48.570999146 93.883621216 93.852050781 0.5059999824 84.457000732 0.9078810215 0.5759999752
 1969.7500000 3.0000000000 8.5410003662 8.5000000000 -0.009000000 0.2518300116 2.1850659847 49.990001678 94.079246521 94.081367493 0.4909999967 85.152000427 0.9557060003 0.5690000057
 1969.8750000 3.0000000000 8.5509996414 8.5000000000 -0.011000000 0.2507099807 2.1757175922 50.923999786 94.308578491 94.275085449 0.4839999974 85.972999573 0.9820740223 0.5590000153
 1970.0000000 3.0000000000 8.5640001297 8.5000000000 -0.015000000 0.2512999773 2.1662549973 50.737998962 94.699958801 94.679939270 0.4819999933 86.485000610 0.9696710110 0.5519999862
 1970.1250000 3.0000000000 8.5749998093 8.5000000000 -0.020000000 0.2542699873 2.1603646278 50.011001587 95.335975647 95.314826965 0.4860000014 86.547996521 0.9307489991 0.5469999909
 1970.2500000 3.0000000000 8.5810003281 8.5000000000 -0.023000000 0.2593300045 2.1602718830 49.556999207 96.161361694 96.119544983 0.4950000048 86.120002747 0.8819519877 0.5500000119
 1970.3750000 3.0000000000 8.5799999237 8.5000000000 -0.025000000 0.2653648853 2.1667010784 49.902000427 96.986106873 96.965827942 0.5080000162 85.250999451 0.8363310099 0.5640000105
 1970.5001221 3.0000000000 8.5699996948 8.5000000000 -0.028000001 0.2703808844 2.1809098721 51.999916077 97.509605408 97.544555664 0.5260000229 84.223999023 0.8171479702 0.5929999948
 1970.6250000 3.0000000000 8.5550003052 8.5000000000 -0.030999999 0.2708399892 2.2042922974 55.027000427 97.479217529 97.457427979 0.5490000248 83.481002808 0.8417990208 0.6380000114
 1970.7500000 3.0000000000 8.5410003662 8.5000000000 -0.033000000 0.2662799954 2.2370846272 59.082000732 96.473342896 96.427742004 0.5759999752 83.194000244 0.9146069884 0.6949999928
 1970.8750000 3.0000000000 8.5329999924 8.5000000000 -0.034000002 0.2563599944 2.2783334255 63.553001404 94.278335571 94.238876343 0.6079999804 83.429000854 1.0499999523 0.7599999905
 1971.0000000 3.0000000000 8.5329999924 8.5000000000 -0.037999999 0.2407999933 2.3263151646 67.579002380 90.851921082 90.816818237 0.6460000277 84.138999939 1.2719999552 0.8259999752
