# LAS format log file from PETREL
# Project units are specified as depth units
#==================================================================
~Version information
VERS.   2.0:
WRAP.   NO:
#==================================================================
~Well
STRT .m      376.12503052 :
STOP .m      2088.7500000 :
STEP .m     0.00000000 :
NULL .        -999.250000 :
COMP.           : COMPANY
WELL.  31/6-5   : WELL
FLD.            : FIELD
LOC.            : LOCATION
SRVC.           : SERVICE COMPANY
DATE.  2018-09-11 14:48:40   : Log Export Date {yyyy-MM-dd HH:mm:ss}
PROV.           : PROVINCE
UWI.   31/6-5   : UNIQUE WELL ID
API.            : API NUMBER
#==================================================================
~Curve
DEPT .m                   : DEPTH
Lithology_geolink ._      : Lithology_geolink
CALI .in                  : CALI
BS .in                    : BS
DRHO .g/cm3               : DRHO
NPHI .m3/m3               : NPHI
RHOB .g/cm3               : RHOB
GR .gAPI                  : GR
DTC .us/ft                : DTC
DTE .us/ft                : DTE
RDEP .ohm.m               : RDEP
SP .mV                    : SP
RSHA .ohm.m               : RSHA
RMED .ohm.m               : RMED
~Parameter
#==================================================================
~Ascii
# ...
 832.62500000 5.0000000000 17.725000381  -999.250000 -0.049000487  -999.250000 1.9100522995 92.923049927 161.97047424 157.61415100 0.9869999886 16.398000717 0.8659060001 0.6600000262
 832.75000000 5.0000000000 17.785999298  -999.250000 -0.044002440  -999.250000 1.9133793116 93.025985718 161.92158508 157.56642151 0.9800000191 16.625000000 0.8573269844 0.6560000181
 832.87506104 5.0000000000 17.851999283  -999.250000 -0.038002927  -999.250000 1.9165828228 92.999732971 161.87341309 157.51821899 0.9729999900 16.673999786 0.8466249704 0.6529999971
 833.00006104 5.0000000000 17.920999527  -999.250000 -0.033002440  -999.250000 1.9182231426 92.725730896 161.82879639 157.46047974 0.9670000076 16.552000046 0.8353989720 0.6520000100
 833.12500000 5.0000000000 17.995000839  -999.250000 -0.031001953  -999.250000 1.9167373180 92.182998657 161.77607727 157.40277100 0.9620000124 16.406999588 0.8261290193 0.6549999714
 833.25000000 5.0000000000 18.070999146  -999.250000 -0.031999514  -999.250000 1.9132924080 91.255302429 161.69020081 157.34503174 0.9589999914 16.347000122 0.8193659782 0.6600000262
 833.37500000 5.0000000000 18.143999100  -999.250000 -0.033998050  -999.250000 1.9092757702 89.837211609 161.61755371 157.28727722 0.9580000043 16.364999771 0.8165959716 0.6669999957
 833.50006104 5.0000000000 18.209999084  -999.250000 -0.034999512  -999.250000 1.9059184790 88.219993591 161.56864929 157.22950745 0.9580000043 16.424999237 0.8185669780 0.6729999781
 833.62506104 5.0000000000 18.264999390  -999.250000 -0.036999024  -999.250000 1.9040249586 87.188949585 161.51977539 157.17176819 0.9589999914 16.472000122 0.8251540065 0.6790000200
 833.75000000 5.0000000000 18.306999207  -999.250000 -0.038999025  -999.250000 1.9030412436 87.081504822 161.47091675 157.11404419 0.9620000124 16.450000763 0.8358579874 0.6809999943
 833.87500000 5.0000000000 18.340999603  -999.250000 -0.041998535  -999.250000 1.9015653133 88.112709045 161.42202759 157.05628967 0.9660000205 16.375999451 0.8443660140 0.6819999814
 834.00000000 5.0000000000 18.368999481  -999.250000 -0.044997074  -999.250000 1.9001637697 89.568733215 161.37315369 156.99855042 0.9710000157 16.292999268 0.8472080231 0.6819999814
 834.12506104 5.0000000000 18.393999100  -999.250000 -0.045000002  -999.250000 1.8996058702 91.073402405 161.30378723 156.94078064 0.9750000238 16.225000381 0.8442459702 0.6809999943
 834.25006104 5.0000000000 18.420999527  -999.250000 -0.041001953  -999.250000 1.9003759623 92.512741089 161.21575928 156.87863159 0.9769999981 16.176000595 0.8368219733 0.6790000200
 834.37500000 6.0000000000 18.451999664  -999.250000 -0.037001956  -999.250000 1.9022622108 94.027450562 161.16687012 156.79895020 0.9750000238 16.113000870 0.8270339966 0.6759999990
 834.50000000 6.0000000000 18.482000351  -999.250000 -0.034001466  -999.250000 1.9037467241 94.951065063 161.02218628 156.65306091 0.9670000076 15.967000008 0.8178139925 0.6679999828
 834.62506104 6.0000000000 18.506000519  -999.250000 -0.033000488  -999.250000 1.9032882452 95.091201782 160.83825684 156.47544861 0.9570000172 15.767998695 0.8102409840 0.6589999795
 834.75006104 6.0000000000 18.523000717  -999.250000 -0.033000000  -999.250000 1.8999993801 94.273422241 160.69570923 156.35127258 0.9470000267 15.574000359 0.8049420118 0.6499999762
 834.87500000 6.0000000000 18.531999588  -999.250000 -0.035997070  -999.250000 1.8940682411 93.088996887 160.66224670 156.33638000 0.9409999847 15.428999901 0.8024240136 0.6430000067
 835.00000000 6.0000000000 18.534000397  -999.250000 -0.039998043  -999.250000 1.8867676258 92.140968323 160.76811218 156.44142151 0.9399999976 15.352999687 0.8030549884 0.6389999986
 835.12500000 6.0000000000 18.527999878  -999.250000 -0.043996096  -999.250000 1.8816004992 92.083290100 160.91090393 156.56329346 0.9490000010 15.328000069 0.8074709773 0.6389999986
 835.25006104 6.0000000000 18.513000488  -999.250000 -0.045999024  -999.250000 1.8821604252 92.670951843 160.97073364 156.61485291 0.9660000205 15.312999725 0.8158220053 0.6409999728
 835.37506104 6.0000000000 18.492000580  -999.250000 -0.045000490  -999.250000 1.8877272606 93.650444031 160.95458984 156.60552979 0.9879999757 15.328000069 0.8278700113 0.6430000067
 835.50000000 6.0000000000 18.464000702  -999.250000 -0.039002933  -999.250000 1.8961637020 94.558212280 160.88397217 156.52993774 1.0110000372 15.395000458 0.8427699804 0.6430000067
 835.62500000 6.0000000000 18.430999756  -999.250000 -0.033002928  -999.250000 1.9050873518 94.989875793 160.74198914 156.37484741 1.0340000391 15.529999733 0.8587769866 0.6409999728
 835.75000000 6.0000000000 18.388999939  -999.250000 -0.029003903  -999.250000 1.9125487804 94.735549927 160.44836426 156.11862183 1.0570000410 15.729001045 0.8732050061 0.6359999776
 835.87506104 6.0000000000 18.336999893  -999.250000 -0.024002442  -999.250000 1.9196878672 93.809028625 160.10592651 155.73953247 1.0800000429 15.939999580 0.8810769916 0.6280000210
 836.00006104 6.0000000000 18.277000427  -999.250000 -0.021001464  -999.250000 1.9268234968 92.817718506 159.72520447 155.35382080 1.1009999514 16.086000443 0.8818100095 0.6209999919
 836.12500000 6.0000000000 18.215999603  -999.250000 -0.018001465  -999.250000 1.9323706627 92.247146606 159.41767883 155.06480408 1.1210000515 16.155000687 0.8783760071 0.6140000224
 836.25000000 6.0000000000 18.160999298  -999.250000 -0.019999024  -999.250000 1.9345697165 92.545455933 159.27568054 154.94561768 1.1349999905 16.155000687 0.8744140267 0.6090000272
 836.37506104 6.0000000000 18.118000031  -999.250000 -0.026996585  -999.250000 1.9321950674 93.489288330 159.35658264 155.02920532 1.1419999599 16.111000061 0.8734059930 0.6060000062
 836.50006104 6.0000000000 18.089000702  -999.250000 -0.035995603  -999.250000 1.9260436296 94.812446594 159.64985657 155.27967834 1.1399999857 16.073999405 0.8775159717 0.6039999723
 836.62500000 6.0000000000 18.066999435  -999.250000 -0.042993166  -999.250000 1.9200447798 95.740997314 159.89848328 155.54118347 1.1299999952 16.087999344 0.8835800290 0.6010000110
 836.75000000 6.0000000000 18.034000397  -999.250000 -0.046998043  -999.250000 1.9161571264 96.020866394 160.07527161 155.72399902 1.1180000305 16.125000000 0.8861010075 0.5970000029
 836.87500000 6.0000000000 17.972000122  -999.250000 -0.046000976  -999.250000 1.9142510891 95.731773376 160.17749023 155.82601929 1.1050000191 16.163999557 0.8825550079 0.5920000076
 837.00006104 6.0000000000 17.871999741  -999.250000 -0.043001465  -999.250000 1.9137833118 95.255935669 160.26550293 155.91567993 1.0920000076 16.190999985 0.8732579947 0.5879999995
 837.12506104 6.0000000000 17.739000320  -999.250000 -0.037002929  -999.250000 1.9141881466 95.193115234 160.47273254 156.13105774 1.0779999495 16.204000473 0.8616489768 0.5860000253
 837.25000000 6.0000000000 17.593000412  -999.250000 -0.029007811  -999.250000 1.9167294502 95.432998657 161.10789490 156.73522949 1.0579999685 16.212999344 0.8535230160 0.5839999914
 837.37500000 6.0000000000 17.475999832  -999.250000 -0.019004885  -999.250000 1.9222798347 95.443679810 162.06207275 157.69155884 1.0319999456 16.201000214 0.8502410054 0.5839999914
 837.50000000 6.0000000000 17.410999298  -999.250000 -0.005013665  -999.250000 1.9284155369 94.787422180 163.20513916 158.84660339 0.9980000257 16.138999939 0.8502119780 0.5849999785
 837.62506104 6.0000000000 17.412000656  -999.250000 0.0109921871  -999.250000 1.9313652515 93.606803894 164.33576965 159.98913574 0.9610000253 16.013999939 0.8507189751 0.5860000253
 837.75006104 6.0000000000 17.482999802  -999.250000 0.0209951177  -999.250000 1.9276630878 92.378555298 165.21327209 160.87373352 0.9250000119 15.828000069 0.8487840295 0.5879999995
 837.87500000 6.0000000000 17.629999161  -999.250000 0.0239985343  -999.250000 1.9160221815 91.477920532 165.55529785 161.21197510 0.8989999890 15.618000031 0.8420040011 0.5920000076
 838.00000000 6.0000000000 17.826999664  -999.250000 0.0230004881  -999.250000 1.9025292397 91.329017639 164.79695129 160.44128418 0.8889999986 15.458999634 0.8319450021 0.5989999771
