# LAS format log file from PETREL
# Project units are specified as depth units
#==================================================================
~Version information
VERS.   2.0:
WRAP.   NO:
#==================================================================
~Well
STRT .m      669.21893311 :
STOP .m      2146.7373047 :
STEP .m     0.00000000 :
NULL .        -999.250000 :
COMP.           : COMPANY
WELL.  31/6-8   : WELL
FLD.            : FIELD
LOC.            : LOCATION
SRVC.           : SERVICE COMPANY
DATE.  2018-09-11 14:48:41   : Log Export Date {yyyy-MM-dd HH:mm:ss}
PROV.           : PROVINCE
UWI.   31/6-8   : UNIQUE WELL ID
API.            : API NUMBER
#==================================================================
~Curve
DEPT .m                   : DEPTH
Lithology_geolink ._      : Lithology_geolink
CALI .in                  : CALI
BS .in                    : BS
DRHO .g/cm3               : DRHO
NPHI .m3/m3               : NPHI
RHOB .g/cm3               : RHOB
GR .gAPI                  : GR
DTC .us/ft                : DTC
DTE .us/ft                : DTE
RDEP .ohm.m               : RDEP
SP .mV                    : SP
RSHA .ohm.m               : RSHA
RMED .ohm.m               : RMED
~Parameter
#==================================================================
~Ascii
# ...
 1943.2832031 2.0000000000 8.3979997635 8.3750000000 0.0239591356 0.3022398353 2.2660081387 54.155899048 93.377098083 93.798469543 0.5320192575 68.477828979 0.5199999809 0.5200432539
 1943.4356689 2.0000000000 8.3669996262 8.3750000000 0.0069615385 0.2958976328 2.2709639072 54.029499054 94.122596741 94.606681824 0.5440168381 68.478996277 0.5469567180 0.5469567776
 1943.5880127 2.0000000000 8.2580003738 8.3750000000 -0.005016013 0.2949199975 2.2559807301 53.090797424 94.902854919 95.267242432 0.5510016084 68.480995178 0.5290431976 0.5290480852
 1943.7404785 2.0000000000 8.2500000000 8.3750000000 -0.010000000 0.2949106395 2.2439663410 49.089748383 96.034454346 96.370025635 0.5519976020 68.380157471 0.5589519143 0.5589711666
 1943.8928223 2.0000000000 8.2500000000 8.3750000000 -0.009987189 0.2910278141 2.2300031185 46.438476563 95.872749329 96.230125427 0.5509823561 68.203285217 0.5470192432 0.5469903946
 1944.0451660 2.0000000000 8.2500000000 8.3750000000 -0.006009615 0.2959007621 2.2319824696 47.031875610 95.219207764 95.640205383 0.5399743915 67.906715393 0.5410144329 0.5409775972
 1944.1976318 2.0000000000 8.2500000000 8.3750000000 -0.010016013 0.2963978052 2.2209904194 48.121845245 95.100387573 95.492042542 0.5239903927 67.392822266 0.5270224214 0.5269711614
 1944.3499756 2.0000000000 8.2500000000 8.3750000000 -0.015004807 0.3012613952 2.2149903774 44.191276550 94.335845947 94.648811340 0.5179967880 67.264305115 0.5090432167 0.5089583397
 1944.5024414 2.0000000000 8.2500000000 8.3750000000 -0.016971178 0.2959234416 2.2090241909 48.283752441 95.547912598 95.950202942 0.5159903765 67.310920715 0.4830416739 0.4829423726
 1944.6547852 2.0000000000 8.2889995575 8.3750000000 -0.007990385 0.3056733012 2.2189905643 51.721477509 96.460273743 96.919532776 0.5120032430 67.788848877 0.4590576291 0.4590176344
 1944.8072510 2.0000000000 8.3590002060 8.3750000000 -0.004019216 0.3139916658 2.2129399776 54.807617188 97.226203918 97.611724854 0.5140048265 67.895835876 0.4699823558 0.4700960815
 1944.9595947 2.0000000000 8.3590002060 8.3750000000 -0.010009615 0.3271546960 2.1879680157 48.088573456 96.857673645 97.220779419 0.5160064101 67.897003174 0.5099039078 0.5100592971
 1945.1120605 2.0000000000 8.3750000000 8.3750000000 -0.013967975 0.3300342560 2.1680335999 41.309242249 94.700721741 95.116416931 0.5200288296 67.898002625 0.5469406843 0.5470288396
 1945.2644043 2.0000000000 8.4060001373 8.3750000000 -0.003987981 0.3110173345 2.1820399761 36.622447968 92.154365540 92.502426147 0.5320368409 67.899002075 0.5589711666 0.5589920282
 1945.4168701 1.0000000000 8.2500000000 8.3750000000 0.0009839744 0.2968319058 2.2070648670 33.436046600 89.148803711 89.557640076 0.5550552607 67.901000977 0.5540080070 0.5540144444
 1945.5692139 1.0000000000 8.2500000000 8.3750000000 -0.004041634 0.2768349648 2.2340159416 32.220252991 87.284149170 87.657073975 0.5780128241 68.064605713 0.5599855781 0.5599887967
 1945.7216797 1.0000000000 8.2500000000 8.3750000000 -0.016990386 0.2612018287 2.2440047264 33.786003113 86.972175598 87.382728577 0.5859951973 68.416435242 0.5530111790 0.5530359745
 1945.8740234 1.0000000000 8.2810001373 8.3750000000 -0.013977583 0.2495061010 2.2459871769 36.907474518 87.805511475 88.200950623 0.5839647055 68.974105835 0.5679759979 0.5679455400
 1946.0264893 1.0000000000 8.4379997253 8.3750000000 -0.006990385 0.2470911294 2.2379493713 38.752452850 89.488800049 89.804267883 0.5619207025 69.453231812 0.5340543985 0.5339567661
 1946.1788330 1.0000000000 8.4139995575 8.3750000000 -0.003977582 0.2558701634 2.2169904709 40.281600952 91.025001526 91.343482971 0.5289663076 69.737541199 0.5160288215 0.5159550905
 1946.3311768 1.0000000000 8.3590002060 8.3750000000 0.0030072115 0.2621935606 2.2109742165 41.031997681 92.535011292 92.861206055 0.5079776049 69.888633728 0.4880672693 0.4879647493
 1946.4836426 2.0000000000 8.3590002060 8.3750000000 0.0060448358 0.2519582212 2.1950287819 42.282276154 93.233444214 93.663803101 0.4939855635 70.329292297 0.4660352468 0.4659303427
 1946.6359863 2.0000000000 8.3590002060 8.3750000000 0.0199735574 0.2553958297 2.2069904804 43.876174927 95.034370422 95.400047302 0.4879887998 70.212280273 0.4370696545 0.4369519353
 1946.7884521 2.0000000000 8.3590002060 8.3750000000 0.0089711761 0.2715362906 2.2009999752 45.343975067 95.219261169 95.526031494 0.4809687734 69.780693054 0.4070480764 0.4069807827
 1946.9407959 2.0000000000 8.3590002060 8.3750000000 -0.000052885 0.2949442565 2.2009663582 45.311946869 95.290199280 95.659942627 0.4679583311 69.181442261 0.3990192115 0.3990304470
 1947.0932617 2.0000000000 8.3590002060 8.3750000000 -0.022019215 0.3100682199 2.1799616814 43.999172211 95.034133911 95.488044739 0.4419495761 68.541023254 0.4179695547 0.4180312455
 1947.2456055 1.0000000000 8.3590002060 8.3750000000 -0.027978366 0.3134635389 2.1640031338 42.966823578 93.577590942 93.970458984 0.4209935963 68.105041504 0.4309687614 0.4310192168
 1947.3980713 1.0000000000 8.3199996948 8.3750000000 -0.018961538 0.3031449318 2.1660287380 40.247699738 93.970474243 94.324569702 0.4170384407 67.780517578 0.4429807663 0.4430024028
 1947.5504150 1.0000000000 8.3439998627 8.3750000000 -0.006955164 0.2719332278 2.1780064106 38.812023163 93.683166504 94.073051453 0.4330336452 67.545562744 0.4439975917 0.4439855814
 1947.7028809 1.0000000000 8.3590002060 8.3750000000 0.0070128208 0.2490423024 2.1819806099 37.596504211 93.317550659 93.745895386 0.4540456235 67.329345703 0.4350144267 0.4350000024
 1947.8552246 1.0000000000 8.3669996262 8.3750000000 0.0109775821 0.2583367825 2.1740000248 39.155345917 92.045822144 92.441680908 0.4730224311 67.660202026 0.4350000024 0.4350208342
 1948.0076904 1.0000000000 8.4689998627 8.3750000000 0.0039679487 0.2812230289 2.1741273403 38.347503662 87.940856934 88.328956604 0.4869663715 67.863670349 0.4479791820 0.4481081069
 1948.1600342 1.0000000000 8.4689998627 8.3750000000 -0.006038431 0.2699472308 2.2270736694 40.528545380 86.640106201 87.031166077 0.4729743600 67.991790771 0.4929278791 0.4931073785
 1948.3123779 1.0000000000 8.4689998627 8.3750000000 -0.017987980 0.2245528251 2.2730128765 37.468177795 86.441856384 86.756538391 0.4569935799 68.096748352 0.5598390698 0.5601121783
 1948.4648438 1.0000000000 8.4300003052 8.3750000000 -0.012974380 0.1889725178 2.2808270454 36.436195374 87.806083679 88.168640137 0.4530024230 68.201835632 0.6298878193 0.6297886372
 1948.6171875 1.0000000000 8.3590002060 8.3750000000 -0.004985577 0.1929474771 2.2268917561 34.189201355 92.681137085 93.052116394 0.4540047944 68.306747437 0.5422113538 0.5419134498
 1948.7696533 1.0000000000 8.3590002060 8.3750000000 0.0010288231 0.2251406312 2.1819550991 35.688201904 95.538795471 95.848968506 0.4570144117 68.441787720 0.4880865514 0.4879159331
 1948.9219971 1.0000000000 8.3590002060 8.3750000000 0.0099975960 0.2378263772 2.1679952145 35.937774658 95.352676392 95.704109192 0.4629823565 68.583656311 0.4530840814 0.4530000091
 1949.0744629 1.0000000000 8.4449996948 8.3750000000 0.0089775817 0.2529862821 2.1660127640 35.656497955 95.157043457 95.574768066 0.4519687593 68.725769043 0.4530000091 0.4529663920
 1949.2268066 1.0000000000 8.4689998627 8.3750000000 0.0019711540 0.2705604732 2.1700000763 36.281024933 95.566482544 95.925933838 0.4389855862 68.618255615 0.4390336275 0.4390000105
 1949.3792725 1.0000000000 8.4689998627 8.3750000000 -0.010041633 0.2915234864 2.1699745655 36.312450409 95.846435547 96.198158264 0.4299735725 68.530136108 0.4390000105 0.4390048087
 1949.5316162 1.0000000000 8.5080003738 8.3750000000 -0.023009615 0.2988276482 2.1619615555 35.968250275 96.089363098 96.501686096 0.4189791679 68.530998230 0.4409952164 0.4410128295
 1949.6840820 1.0000000000 8.5699996948 8.3750000000 -0.026983975 0.2978281081 2.1460063457 35.030498505 96.210708618 96.552917480 0.4059831798 68.266426086 0.4489871860 0.4490120113
 1949.8364258 1.0000000000 8.4840002060 8.3750000000 -0.021967974 0.2909465134 2.1480255127 34.720054626 96.539535522 96.873123169 0.3990128040 67.870956421 0.4539879858 0.4539535344
