# LAS format log file from PETREL
# Project units are specified as depth units
#==================================================================
~Version information
VERS.   2.0:
WRAP.   NO:
#==================================================================
~Well
STRT .m      669.21893311 :
STOP .m      2146.7373047 :
STEP .m     0.00000000 :
NULL .        -999.250000 :
COMP.           : COMPANY
WELL.  31/6-8   : WELL
FLD.            : FIELD
LOC.            : LOCATION
SRVC.           : SERVICE COMPANY
DATE.  2018-09-11 14:48:41   : Log Export Date {yyyy-MM-dd HH:mm:ss}
PROV.           : PROVINCE
UWI.   31/6-8   : UNIQUE WELL ID
API.            : API NUMBER
#==================================================================
~Curve
DEPT .m                   : DEPTH
Lithology_geolink ._      : Lithology_geolink
CALI .in                  : CALI
BS .in                    : BS
DRHO .g/cm3               : DRHO
NPHI .m3/m3               : NPHI
RHOB .g/cm3               : RHOB
GR .gAPI                  : GR
DTC .us/ft                : DTC
DTE .us/ft                : DTE
RDEP .ohm.m               : RDEP
SP .mV                    : SP
RSHA .ohm.m               : RSHA
RMED .ohm.m               : RMED
~Parameter
#==================================================================
~Ascii
# ...
 2037.1616211 6.0000000000 8.4689998627  -999.250000 -0.014980769 0.3529971540 2.4450192451 90.629905701 94.919380188 95.321220398 2.1126105785 63.207275391 2.8130359650 2.8130071163
 2037.3140869 6.0000000000 8.4689998627  -999.250000 -0.007003203 0.3393427730 2.4529616833 93.675094604 94.037834167 94.349441528 1.9506188631 62.870536804 2.8159952164 2.8150551319
 2037.4664307 6.0000000000 8.3830003738  -999.250000 -0.007995193 0.3339494765 2.4409351349 88.298278809 92.728019714 93.037101746 1.8317524195 62.581695557 2.5217084885 2.5199925900
 2037.6188965 6.0000000000 8.3439998627  -999.250000 -0.006012810 0.3212774992 2.4138751030 79.105636597 91.939102173 92.267997742 1.7287502289 63.260910034 2.1026713848 2.1005363464
 2037.7712402 6.0000000000 8.2500000000  -999.250000 -0.009997596 0.3173694611 2.3749518394 71.059494019 92.464607239 92.785324097 1.6508870125 63.860553741 1.6460976601 1.6446417570
 2037.9237061 5.0000000000 8.2500000000  -999.250000 -0.009006410 0.3129727840 2.3549840450 68.884010315 92.222846985 92.603950500 1.6040352583 64.423103333 1.4962388277 1.4958398342
 2038.0760498 5.0000000000 8.3439998627  -999.250000 -0.010983987 0.3075840175 2.3500671387 72.635520935 93.321174622 93.802413940 1.6150064468 64.420005798 1.4461200237 1.4464162588
 2038.2285156 5.0000000000 8.3590002060  -999.250000 -0.005980769 0.2964103222 2.3711123466 79.211273193 94.941024780 95.305252075 1.6170448065 63.908824921 1.5757915974 1.5767660141
 2038.3808594 5.0000000000 8.3590002060  -999.250000 0.0000032026 0.3027175069 2.4061183929 88.884819031 96.576805115 96.904129028 1.6309039593 63.382843018 1.8146170378 1.8163931370
 2038.5333252 5.0000000000 8.4530000687  -999.250000 0.0009903846 0.2989301682 2.4430770874 95.006301880 98.493980408 98.914916992 1.6008236408 63.096458435 2.2493033409 2.2519166470
 2038.6856689 6.0000000000 8.4689998627  -999.250000 -0.002009608 0.3301331699 2.4669871330 97.620491028 100.34371185 100.66960144 1.5457726717 63.097995758 2.8470416069 2.8492555618
 2038.8380127 6.0000000000 8.3909997940  -999.250000 -0.005000000 0.3467210531 2.4629206657 94.805992126 100.34181976 100.76153564 1.4748245478 64.603378296 3.2390584946 3.2385697365
 2038.9904785 6.0000000000 8.3590002060  -999.250000 -0.004983987 0.3638309538 2.4298560619 90.422843933 100.13816071 100.45855713 1.4017982483 66.028717041 2.6459534168 2.6427550316
 2039.1428223 6.0000000000 8.2810001373  -999.250000 0.0000144231 0.3827430904 2.3849253654 84.114486694 100.73001862 101.06275177 1.3389639854 66.927841187 1.9456837177 1.9422812462
 2039.2952881 5.0000000000 8.2500000000  -999.250000 0.0060032024 0.3549659550 2.3539488316 77.556549072 99.347167969 99.832244873 1.3238623142 67.693771362 1.2301458120 1.2281993628
 2039.4476318 5.0000000000 8.2969999313  -999.250000 0.0069975965 0.3505277932 2.3380553722 74.876106262 99.985275269 100.37031555 1.2808101177 67.797752380 0.9796004295 0.9793653488
 2039.6000977 5.0000000000 8.3590002060  -999.250000 0.0059775822 0.3247897625 2.3610768318 75.570808411 100.43192291 100.88443756 1.2017149925 67.809974670 1.1307564974 1.1321625710
 2039.7524414 5.0000000000 8.3590002060  -999.250000 -0.001002404 0.3495677114 2.3850359917 78.816909790 97.893196106 98.204902649 1.1129832268 67.382026672 1.4931280613 1.4947235584
 2039.9049072 5.0000000000 8.3590002060  -999.250000 -0.001996795 0.3319877684 2.3999519348 81.260208130 97.140991211 97.484771729 1.1060992479 66.997619629 1.7945176363 1.7944262028
 2040.0572510 5.0000000000 8.3590002060  -999.250000 -0.000987190 0.3187827468 2.3849935532 85.501602173 96.564659119 97.062057495 1.1374034882 66.704704285 1.6164300442 1.6160289049
 2040.2097168 6.0000000000 8.3590002060  -999.250000 0.0029967949 0.2978875637 2.3830544949 86.500602722 94.932487488 95.268386841 1.2634263039 66.707992554 1.6249855757 1.6255416870
 2040.3620605 6.0000000000 8.3590002060  -999.250000 0.0020000001 0.3095606267 2.4000513554 86.743690491 94.828926086 95.207710266 1.3961633444 66.711990356 1.7935941219 1.7942146063
 2040.5145264 6.0000000000 8.3590002060  -999.250000 0.0020192310 0.3066650331 2.4160511494 82.815704346 94.173873901 94.592140198 1.4469294548 66.716995239 1.8608925343 1.8607563972
 2040.6668701 6.0000000000 8.3590002060  -999.250000 0.0080064051 0.3144578040 2.4320416451 83.942108154 94.509376526 94.860412598 1.4248237610 67.070434570 1.7851217985 1.7850896120
 2040.8192139 6.0000000000 8.3590002060  -999.250000 0.0099927885 0.3169029355 2.4449999332 86.500099182 94.129814148 94.449623108 1.3698630333 67.424156189 1.8129327297 1.8134062290
 2040.9716797 6.0000000000 8.3590002060  -999.250000 0.0069743795 0.3222996891 2.4449133873 86.544090271 95.037918091 95.379112244 1.3132817745 67.832344055 1.9817291498 1.9816604853
 2041.1240234 6.0000000000 8.3590002060  -999.250000 -0.001004808 0.3315646648 2.4179399014 78.663215637 94.426338196 94.869720459 1.4014760256 68.491409302 1.8762546778 1.8745625019
 2041.2764893 1.0000000000 8.3590002060  -999.250000 -0.002993595 0.3418453634 2.3931119442 63.185825348 88.177581787 88.528366089 1.5995732546 69.151939392 1.2789583206 1.2773883343
 2041.4288330 1.0000000000 8.3590002060  -999.250000 -0.001007212 0.3558168113 2.4281730652 49.396183014 81.255653381 81.622383118 1.7785769701 69.811416626 1.0874587297 1.0878125429
 2041.5812988 1.0000000000 8.3590002060  -999.250000 -0.004000000 0.2961272895 2.5002689362 43.273944855 73.830284119 74.121940613 2.0189671516 70.469947815 1.4244582653 1.4311200380
 2041.7336426 1.0000000000 8.4300003052  -999.250000 -0.004014423 0.2141827792 2.5840554237 40.342048645 69.553298950 69.892845154 2.3209950924 71.127418518 3.3314099312 3.3507235050
 2041.8861084 1.0000000000 8.4219999313  -999.250000 -0.010003203 0.1405377239 2.6069936752 39.118545532 66.382804871 66.671806335 2.7360336781 71.785949707 9.4511842728 9.4793891907
 2042.0384521 1.0000000000 8.3590002060  -999.250000 -0.011007211 0.1117777452 2.6050095558 36.432590485 64.785156250 65.030258179 3.3704686165 72.443420410 15.189208031 15.236353874
 2042.1909180 16.000000000 8.3590002060  -999.250000 -0.013996796 0.0941382647 2.6089999676 33.062923431 60.393421173 60.589546204 3.9776475430 73.101943970 29.055763245 29.188024521
 2042.3432617 16.000000000 8.3590002060  -999.250000 -0.013006405 0.0624593273 2.6089456081 33.027393341 58.764431000 59.006332397 3.2421922684 73.681602478 63.323543549 63.883079529
 2042.4957275 1.0000000000 8.3590002060  -999.250000 -0.014993589 0.0497781113 2.5917787552 30.791959763 63.770809174 63.993034363 2.0546023846 74.228118896 212.13626099 211.76887512
 2042.6480713 1.0000000000 8.3590002060  -999.250000 -0.012990393 0.0430544503 2.5226445198 35.349811554 74.896057129 75.228485107 1.3081225157 74.124168396 23.569059372 23.198526382
 2042.8004150 1.0000000000 8.3590002060  -999.250000 -0.009992789 0.0695148781 2.4117426872 38.974807739 86.095825195 86.438491821 1.0346826315 73.906524658 2.2476060390 2.1933629513
 2042.9528809 1.0000000000 8.3590002060  -999.250000 -0.007003203 0.1423370689 2.3047599792 42.594554901 93.518043518 93.856353760 0.9027790427 73.513633728 0.6864246726 0.6833466887
 2043.1052246 1.0000000000 8.3590002060  -999.250000 -0.007997597 0.2193550169 2.2299158573 42.933643341 91.103675842 91.498687744 0.8337211609 73.239654541 0.4804899693 0.4800576866
 2043.2576904 1.0000000000 8.3590002060  -999.250000 -0.006987190 0.2670727968 2.1949391365 40.220802307 80.633369446 80.968391418 0.7176541090 72.920509338 0.5039615631 0.5044163465
 2043.4100342 16.000000000 8.3590002060  -999.250000 -0.002995192 0.2616883218 2.1759858131 40.967750549 70.962020874 71.229476929 0.6098557711 72.337402344 0.6336877346 0.6344639659
 2043.5625000 16.000000000 8.3280000687  -999.250000 -0.001009608 0.2485180944 2.1700000763 40.189502716 64.685012817 65.040153503 0.5500000119 72.209205627 0.8266907334 0.8272754550
 2043.7148438 16.000000000 8.2500000000  -999.250000 -0.004009616 0.2417140752 2.1700336933 40.816856384 69.512596130 69.796859741 0.5500528812 72.463386536 0.9127933979 0.9129951596
