# LAS format log file from PETREL
# Project units are specified as depth units
#==================================================================
~Version information
VERS.   2.0:
WRAP.   NO:
#==================================================================
~Well
STRT .m      376.12503052 :
STOP .m      2088.7500000 :
STEP .m     0.00000000 :
NULL .        -999.250000 :
COMP.           : COMPANY
WELL.  31/6-5   : WELL
FLD.            : FIELD
LOC.            : LOCATION
SRVC.           : SERVICE COMPANY
DATE.  2018-09-11 14:48:40   : Log Export Date {yyyy-MM-dd HH:mm:ss}
PROV.           : PROVINCE
UWI.   31/6-5   : UNIQUE WELL ID
API.            : API NUMBER
#==================================================================
~Curve
DEPT .m                   : DEPTH
Lithology_geolink ._      : Lithology_geolink
CALI .in                  : CALI
BS .in                    : BS
DRHO .g/cm3               : DRHO
NPHI .m3/m3               : NPHI
RHOB .g/cm3               : RHOB
GR .gAPI                  : GR
DTC .us/ft                : DTC
DTE .us/ft                : DTE
RDEP .ohm.m               : RDEP
SP .mV                    : SP
RSHA .ohm.m               : RSHA
RMED .ohm.m               : RMED
~Parameter
#==================================================================
~Ascii
# ...
 1855.6251221 6.0000000000 8.5340003967 8.5000000000 -0.017999999 0.2836538553 2.2356998920 82.629592896 95.883941650 95.931930542 0.9639999866 79.138000488 1.4509999752 1.0349999666
 1855.7498779 6.0000000000 8.5360002518 8.5000000000 -0.019996094 0.2805100083 2.2348818779 83.957000732 95.918540955 95.974113464 0.9869999886 79.248001099 1.4359999895 1.0479999781
 1855.8750000 6.0000000000 8.5380001068 8.5000000000 -0.018999999 0.2787899971 2.2387197018 86.587997437 95.978874207 96.004295349 1.0049999952 79.380996704 1.4340000153 1.0590000153
 1856.0000000 6.0000000000 8.5389995575 8.5000000000 -0.017000001 0.2804799974 2.2452487946 89.697998047 95.955863953 95.990653992 1.0199999809 79.524002075 1.4500000477 1.0690000057
 1856.1250000 6.0000000000 8.5410003662 8.5000000000 -0.015000000 0.2849699855 2.2547693253 92.572998047 95.905937195 95.930511475 1.0349999666 79.657997131 1.4739999771 1.0800000429
 1856.2500000 6.0000000000 8.5439996719 8.5000000000 -0.012000000 0.2906999886 2.2676632404 94.384002686 95.840476990 95.831611633 1.0520000458 79.754997253 1.4960000515 1.0950000286
 1856.3750000 5.0000000000 8.5500001907 8.5000000000 -0.007000000 0.2953700125 2.2839286327 95.067001343 95.680458069 95.707809448 1.0750000477 79.788002014 1.5119999647 1.1180000305
 1856.5000000 5.0000000000 8.5590000153 8.5000000000 -0.003000000 0.2944400012 2.3014876842 93.568000793 95.547698975 95.558097839 1.1069999933 79.774002075 1.5279999971 1.1569999456
 1856.6250000 5.0000000000 8.5710000992 8.5000000000 -0.001000000 0.2904062569 2.3167991638 91.417999268 95.392524719 95.363494873 1.1499999762 79.788002014 1.5570000410 1.2130000591
 1856.7501221 5.0000000000 8.5880002975 8.5000000000 -0.002000000 0.2865652442 2.3278644085 89.258003235 95.133110046 95.109413147 1.2009999752 79.860000610 1.6069999933 1.2819999456
 1856.8748779 5.0000000000 8.6070003510 8.5000000000 -0.004994140 0.2841500044 2.3336508274 87.876998901 94.782264709 94.790977478 1.2599999905 79.999000549 1.6840000153 1.3619999886
 1857.0000000 5.0000000000 8.6289997101 8.5000000000 -0.008000000 0.2832700014 2.3340551853 87.717002869 94.395889282 94.410835266 1.3229999542 80.199996948 1.7949999571 1.4470000267
 1857.1250000 5.0000000000 8.6520004272 8.5000000000 -0.011000000 0.2829599977 2.3297097683 88.593002319 94.040817261 93.990158081 1.3919999599 80.439002991 1.9429999590 1.5260000229
 1857.2500000 5.0000000000 8.6719999313 8.5000000000 -0.014000000 0.2821800113 2.3226943016 89.763999939 93.618560791 93.605384827 1.4659999609 80.661003113 2.0929999352 1.5889999866
 1857.3750000 5.0000000000 8.6859998703 8.5000000000 -0.016000001 0.2806900144 2.3159434795 90.846000671 93.312294006 93.331153870 1.5390000343 80.827003479 2.2000000477 1.6369999647
 1857.5000000 5.0000000000 8.6940002441 8.5000000000 -0.017000001 0.2790800035 2.3121173382 91.363998413 93.163459778 93.203384399 1.6030000448 81.008003235 2.2539999485 1.6729999781
 1857.6250000 5.0000000000 8.6969995499 8.5000000000 -0.012000000 0.2783399820 2.3131136894 90.869003296 93.199768066 93.226432800 1.6560000181 81.291000366 2.2579998970 1.7000000477
 1857.7500000 5.0000000000 8.6969995499 8.5000000000 -0.002000000 0.2794929743 2.3196349144 89.447998047 93.427940369 93.373870850 1.6970000267 81.750000000 2.2330000401 1.7189999819
 1857.8750000 5.0000000000 8.6960000992 8.5000000000 0.0080000004 0.2825316489 2.3299736977 87.824996948 93.587203979 93.596458435 1.7259999514 82.314002991 2.2130000591 1.7330000401
 1858.0001221 5.0000000000 8.6979999542 8.5000000000 0.0170000009 0.2842185199 2.3398365974 87.589401245 93.807029724 93.810432434 1.7500000000 82.678001404 2.2100000381 1.7460000515
 1858.1250000 5.0000000000 8.7030000687 8.5000000000 0.0209960938 0.2834500074 2.3476760387 88.305999756 93.994270325 93.986679077 1.7699999809 82.755996704 2.2190001011 1.7589999437
 1858.2500000 5.0000000000 8.7139997482 8.5000000000 0.0219999999 0.2809799910 2.3540613651 89.676002502 94.105064392 94.112922668 1.7910000086 82.580001831 2.2400000095 1.7749999762
 1858.3750000 6.0000000000 8.7320003510 8.5000000000 0.0240000002 0.2781399786 2.3602335453 90.907997131 94.145507813 94.182975769 1.8150000572 82.266998291 2.2730000019 1.7940000296
 1858.5000000 6.0000000000 8.7569999695 8.5000000000 0.0289999992 0.2763600051 2.3672897816 90.945999146 94.207382202 94.190681458 1.8439999819 82.032997131 2.3159999847 1.8159999847
 1858.6250000 6.0000000000 8.7880001068 8.5000000000 0.0320000015 0.2750300169 2.3725419044 89.765998840 94.150939941 94.129371643 1.8830000162 82.012001038 2.3680000305 1.8450000286
 1858.7500000 6.0000000000 8.8199996948 8.5000000000 0.0320000015 0.2717200220 2.3731141090 87.849998474 94.036109924 94.007629395 1.9299999475 82.091003418 2.4179999828 1.8819999695
 1858.8750000 6.0000000000 8.8479995728 8.5000000000 0.0240000002 0.2668952048 2.3697547913 86.328002930 93.819648743 93.807037354 1.9859999418 82.245002747 2.4579999447 1.9290000200
 1859.0000000 6.0000000000 8.8730001450 8.5000000000 0.0120000001 0.2619767785 2.3653120995 85.977996826 93.478683472 93.498191833 2.0499999523 82.457000732 2.4879999161 1.9830000401
 1859.1251221 6.0000000000 8.8929996490 8.5000000000 0.0049999999 0.2586882710 2.3639075756 87.358238220 93.012344360 93.043434143 2.1219999790 82.711997986 2.5130000114 2.0399999619
 1859.2498779 6.0000000000 8.9090003967 8.5000000000 0.0040019532 0.2578000128 2.3689846992 89.527000427 92.389732361 92.371726990 2.2009999752 83.008003235 2.5439999104 2.0980000496
 1859.3750000 6.0000000000 8.9219999313 8.5000000000 0.0089999996 0.2578000128 2.3768947124 91.361000061 91.493438721 91.497497559 2.2650001049 83.277000427 2.5899999142 2.1559998989
 1859.5000000 6.0000000000 8.9289999008 8.5000000000 0.0170000009 0.2573499978 2.3814244270 91.870002747 90.441879272 90.479507446 2.2869999409 83.481002808 2.6489999294 2.2070000172
 1859.6250000 6.0000000000 8.9259996414 8.5000000000 0.0219999999 0.2560999990 2.3772661686 91.002998352 89.319488525 89.374938965 2.2490000725 83.628997803 2.7170000076 2.2390000820
 1859.7500000 6.0000000000 8.9090003967 8.5000000000 0.0199999996 0.2542900145 2.3607957363 88.486999512 88.209274292 88.254859924 2.1449999809 83.742996216 2.7820000648 2.2290000916
 1859.8750000 3.0000000000 8.8750000000 8.5000000000 0.0130000003 0.2528199852 2.3310930729 84.689002991 87.191108704 87.202911377 1.9739999771 83.833000183 2.8280000687 2.1419999599
 1860.0000000 3.0000000000 8.8229999542 8.5000000000 0.0060000001 0.2528000176 2.2910134792 78.402999878 86.541458130 86.503753662 1.7690000534 83.813003540 2.7730000019 1.9390000105
 1860.1250000 3.0000000000 8.7639999390 8.5000000000 0.0000000000 0.2539015710 2.2496685982 71.415000916 86.358070374 86.354049683 1.5759999752 83.573997498 2.5650000572 1.6809999943
 1860.2501221 3.0000000000 8.7080001831 8.5000000000 -0.005000000 0.2555121183 2.2130661011 64.889999390 86.841743469 86.831535339 1.4029999971 83.091003418 2.2430000305 1.4229999781
 1860.3751221 3.0000000000 8.6639995575 8.5000000000 -0.008000000 0.2565890253 2.1859474182 59.974147797 87.959297180 87.918678284 1.2519999743 82.404998779 1.8660000563 1.2039999962
 1860.5000000 3.0000000000 8.6359996796 8.5000000000 -0.008000000 0.2560899854 2.1711339951 57.492000580 89.518600464 89.504829407 1.1189999580 81.616996765 1.5199999809 1.0420000553
 1860.6250000 3.0000000000 8.6230001450 8.5000000000 -0.004000000 0.2535699904 2.1695749760 56.659999847 91.377723694 91.373222351 1.0069999695 80.919998169 1.2990000248 0.9359999895
 1860.7500000 3.0000000000 8.6169996262 8.5000000000 0.0040000002 0.2507300079 2.1768233776 56.326999664 93.061935425 93.094917297 0.9120000005 80.427001953 1.1849999428 0.8709999919
 1860.8750000 3.0000000000 8.6129999161 8.5000000000 0.0130000003 0.2486499995 2.1874375343 56.097999573 94.463485718 94.476173401 0.8370000124 80.112998962 1.1369999647 0.8299999833
 1861.0000000 3.0000000000 8.6099996567 8.5000000000 0.0199999996 0.2476100028 2.1988351345 55.959999084 95.531028748 95.518218994 0.7829999924 79.928001404 1.1299999952 0.8069999814
