# LAS format log file from PETREL
# Project units are specified as depth units
#==================================================================
~Version information
VERS.   2.0:
WRAP.   NO:
#==================================================================
~Well
STRT .m      376.12503052 :
STOP .m      2088.7500000 :
STEP .m     0.00000000 :
NULL .        -999.250000 :
COMP.           : COMPANY
WELL.  31/6-5   : WELL
FLD.            : FIELD
LOC.            : LOCATION
SRVC.           : SERVICE COMPANY
DATE.  2018-09-11 14:48:40   : Log Export Date {yyyy-MM-dd HH:mm:ss}
PROV.           : PROVINCE
UWI.   31/6-5   : UNIQUE WELL ID
API.            : API NUMBER
#==================================================================
~Curve
DEPT .m                   : DEPTH
Lithology_geolink ._      : Lithology_geolink
CALI .in                  : CALI
BS .in                    : BS
DRHO .g/cm3               : DRHO
NPHI .m3/m3               : NPHI
RHOB .g/cm3               : RHOB
GR .gAPI                  : GR
DTC .us/ft                : DTC
DTE .us/ft                : DTE
RDEP .ohm.m               : RDEP
SP .mV                    : SP
RSHA .ohm.m               : RSHA
RMED .ohm.m               : RMED
~Parameter
#==================================================================
~Ascii
# ...
 1740.1250000 5.0000000000 9.2819995880 8.5000000000 -0.077000000 0.2642199993 2.2035996914 58.474998474 93.590660095 89.243827820 0.9760000110 77.274002075 1.2009999752 0.9990000129
 1740.2500000 5.0000000000 9.3950004578 8.5000000000 -0.071999997 0.2728599906 2.2122159004 59.002998352 97.405540466 93.024742126 1.0030000210 77.499000549 1.1770000458 1.0449999571
 1740.3750000 5.0000000000 9.5340003967 8.5000000000 -0.057999998 0.2845698893 2.2376518250 62.028999329 101.25251007 96.982597351 1.0369999409 77.905998230 1.2619999647 1.1200000048
 1740.5000000 5.0000000000 9.6610002518 8.5000000000 -0.039000001 0.2947074473 2.2713730335 65.500999451 104.44877625 100.11019897 1.0809999704 78.421997070 1.4739999771 1.2200000286
 1740.6250000 5.0000000000 9.7629995346 8.5000000000 -0.021000000 0.3023263216 2.3029282093 68.236999512 106.56395721 102.22429657 1.1410000324 78.994003296 1.7829999924 1.3370000124
 1740.7501221 5.0000000000 9.8339996338 8.5000000000 -0.011000000 0.3088023663 2.3258702755 69.887336731 107.66472626 103.34549713 1.2200000286 79.588996887 2.1289999485 1.4659999609
 1740.8748779 5.0000000000 9.8739995956 8.5000000000 -0.010001953 0.3151299953 2.3375709057 71.079002380 107.96136475 103.60700989 1.3229999542 80.174003601 2.4189999104 1.6009999514
 1741.0000000 5.0000000000 9.8920001984 8.5000000000 -0.010000000 0.3206100166 2.3413488865 72.541999817 107.49880219 103.16697693 1.4479999542 80.709999084 2.5959999561 1.7280000448
 1741.1250000 5.0000000000 9.8929996490 8.5000000000 -0.009000000 0.3205799758 2.3429965973 74.753997803 106.70280457 102.33303070 1.5839999914 81.042999268 2.6400001049 1.8140000105
 1741.2500000 5.0000000000 9.8849992752 8.5000000000 -0.005000000 0.3167999983 2.3433392048 77.746002197 105.93449402 101.57763672 1.6990000010 81.171997070 2.6289999485 1.8619999886
 1741.3750000 6.0000000000 9.8690004349 8.5000000000 0.0010000000 0.3121699989 2.3407328129 81.038002014 105.45693970 101.08178711 1.7680000067 81.100997925 2.5729999542 1.8680000305
 1741.5000000 6.0000000000 9.8450002670 8.5000000000 0.0049999999 0.3092900217 2.3341727257 83.874000549 105.27977753 100.89053345 1.7840000391 80.916000366 2.4779999256 1.8389999866
 1741.6250000 6.0000000000 9.8129997253 8.5000000000 0.0070000002 0.3099843562 2.3236851692 85.111999512 105.23838806 100.93275452 1.7610000372 80.760002136 2.3540000916 1.7910000086
 1741.7500000 5.0000000000 9.7639999390 8.5000000000 0.0070000002 0.3144337833 2.3114595413 84.805999756 105.50325012 101.08577728 1.7109999657 80.807998657 2.2130000591 1.7300000191
 1741.8750000 5.0000000000 9.6949996948 8.5000000000 0.0060000001 0.3183104098 2.3005886078 82.813003540 105.56371307 101.23423004 1.6579999924 80.970001221 2.0889999866 1.6729999781
 1742.0001221 5.0000000000 9.6110000610 8.5000000000 0.0030000000 0.3187355101 2.2915563583 80.189224243 105.68179321 101.32733917 1.6050000191 81.107002258 2.0079998970 1.6200000048
 1742.1250000 5.0000000000 9.5220003128 8.5000000000 -0.002994141 0.3164399862 2.2843866348 77.746002197 105.69444275 101.32351685 1.5549999475 81.146003723 1.9739999771 1.5709999800
 1742.2500000 5.0000000000 9.4409999847 8.5000000000 -0.012000000 0.3131699860 2.2790575027 76.133003235 105.50476074 101.19673920 1.5080000162 81.067001343 1.9739999771 1.5260000229
 1742.3750000 5.0000000000 9.3819999695 8.5000000000 -0.018999999 0.3111499846 2.2759394646 75.191001892 105.33762360 100.94237518 1.4670000076 80.925003052 1.9869999886 1.4850000143
 1742.5000000 5.0000000000 9.3529996872 8.5000000000 -0.021000000 0.3117299974 2.2763047218 75.214996338 105.01771545 100.66426086 1.4349999428 80.908996582 1.9630000591 1.4559999704
 1742.6250000 5.0000000000 9.3409996033 8.5000000000 -0.018999999 0.3131299913 2.2796750069 75.332000732 104.88999939 100.50395203 1.4090000391 81.035003662 1.9069999456 1.4400000572
 1742.7500000 5.0000000000 9.3360004425 8.5000000000 -0.013000000 0.3143606186 2.2853345871 75.178001404 104.84306335 100.49696350 1.3869999647 81.222000122 1.8459999561 1.4309999943
 1742.8750000 5.0000000000 9.3339996338 8.5000000000 -0.008000000 0.3149698377 2.2917633057 74.758003235 104.92974091 100.63979340 1.3660000563 81.399002075 1.8059999943 1.4270000458
 1743.0000000 5.0000000000 9.3299999237 8.5000000000 -0.005000000 0.3148291111 2.2968270779 74.394996643 105.24560547 100.89942932 1.3459999561 81.519996643 1.8059999943 1.4210000038
 1743.1251221 5.0000000000 9.3199996948 8.5000000000 -0.003000000 0.3139009774 2.2970733643 74.630416870 105.51051331 101.23329163 1.3279999495 81.563003540 1.8519999981 1.4079999924
 1743.2498779 5.0000000000 9.3039999008 8.5000000000 -0.003998047 0.3092800081 2.2906031609 75.355003357 105.91243744 101.58137512 1.3159999847 81.526000977 1.8930000067 1.3899999857
 1743.3750000 5.0000000000 9.2860002518 8.5000000000 -0.005998047 0.3009099960 2.2797102928 76.541999817 106.16307831 101.86788177 1.3120000362 81.392997742 1.8899999857 1.3730000257
 1743.5000000 5.0000000000 9.2700004578 8.5000000000 -0.012000000 0.2909699976 2.2681190968 77.595001221 106.31161499 102.01203156 1.3140000105 81.172996521 1.8439999819 1.3589999676
 1743.6250000 5.0000000000 9.2580003738 8.5000000000 -0.017999999 0.2825399935 2.2596638203 77.973999023 106.31003571 101.94902039 1.3220000267 80.901000977 1.7790000439 1.3509999514
 1743.7500000 5.0000000000 9.2500000000 8.5000000000 -0.021000000 0.2789399922 2.2574625015 77.605003357 105.89158630 101.64073181 1.3329999447 80.648002625 1.7339999676 1.3509999514
 1743.8750000 5.0000000000 9.2469997406 8.5000000000 -0.022000000 0.2809125781 2.2617256641 76.707000732 105.52903748 101.12396240 1.3459999561 80.593002319 1.7469999790 1.3580000401
 1744.0000000 5.0000000000 9.2460002899 8.5000000000 -0.021000000 0.2835707664 2.2680137157 75.927001953 104.96531677 100.63973999 1.3609999418 80.901000977 1.7979999781 1.3689999580
 1744.1250000 5.0000000000 9.2489995956 8.5000000000 -0.021000000 0.2843488157 2.2743957043 75.538002014 104.64804077 100.31008148 1.3769999743 81.469001770 1.8609999418 1.3830000162
 1744.2501221 5.0000000000 9.2530002594 8.5000000000 -0.023000000 0.2831163406 2.2802062035 75.616523743 104.56055450 100.19129944 1.3930000067 82.102996826 1.9119999409 1.3969999552
 1744.3751221 5.0000000000 9.2569999695 8.5000000000 -0.026000001 0.2812410891 2.2857322693 75.887145996 104.54759216 100.28330231 1.4060000181 82.569999695 1.9349999428 1.4110000134
 1744.5000000 5.0000000000 9.2550001144 8.5000000000 -0.026000001 0.2817900181 2.2924485207 76.471000671 104.88037109 100.52585602 1.4090000391 82.626998901 1.9259999990 1.4199999571
 1744.6250000 5.0000000000 9.2480001450 8.5000000000 -0.024000000 0.2868500054 2.3007578850 77.857002258 105.05043030 100.74086761 1.3819999695 82.165000916 1.8919999599 1.4129999876
 1744.7500000 5.0000000000 9.2390003204 8.5000000000 -0.018999999 0.2924300134 2.3069689274 80.124000549 105.14546204 100.75990295 1.3270000219 81.565002441 1.8600000143 1.3869999647
 1744.8750000 5.0000000000 9.2270002365 8.5000000000 -0.016000001 0.2948099971 2.3064346313 82.847000122 104.86696625 100.48428345 1.2430000305 81.124000549 1.8389999866 1.3329999447
 1745.0000000 6.0000000000 9.2100000381 8.5000000000 -0.017999999 0.2926400006 2.2956068516 85.445999146 104.19615173 99.897720337 1.1369999647 81.027000427 1.8270000219 1.2500000000
 1745.1250000 6.0000000000 9.1859998703 8.5000000000 -0.025000000 0.2872167528 2.2730145454 86.976997375 103.47703552 99.079483032 1.0240000486 81.293998718 1.8059999943 1.1419999599
 1745.2500000 6.0000000000 9.1540002823 8.5000000000 -0.030999999 0.2838805020 2.2416708469 87.222999573 102.62681580 98.306358337 0.9169999957 81.686996460 1.7029999495 1.0169999599
 1745.3750000 6.0000000000 9.1210002899 8.5000000000 -0.032000002 0.2844018042 2.2093827724 85.306999207 102.45066833 98.067092896 0.8259999752 81.758003235 1.5279999971 0.8970000148
 1745.5001221 6.0000000000 9.0930004120 8.5000000000 -0.029999999 0.2862314582 2.1783611774 81.688163757 102.87036133 98.533508301 0.7480000257 81.386001587 1.3300000429 0.7940000296
