# LAS format log file from PETREL
# Project units are specified as depth units
#==================================================================
~Version information
VERS.   2.0:
WRAP.   NO:
#==================================================================
~Well
STRT .m      376.12503052 :
STOP .m      2088.7500000 :
STEP .m     0.00000000 :
NULL .        -999.250000 :
COMP.           : COMPANY
WELL.  31/6-5   : WELL
FLD.            : FIELD
LOC.            : LOCATION
SRVC.           : SERVICE COMPANY
DATE.  2018-09-11 14:48:40   : Log Export Date {yyyy-MM-dd HH:mm:ss}
PROV.           : PROVINCE
UWI.   31/6-5   : UNIQUE WELL ID
API.            : API NUMBER
#==================================================================
~Curve
DEPT .m                   : DEPTH
Lithology_geolink ._      : Lithology_geolink
CALI .in                  : CALI
BS .in                    : BS
DRHO .g/cm3               : DRHO
NPHI .m3/m3               : NPHI
RHOB .g/cm3               : RHOB
GR .gAPI                  : GR
DTC .us/ft                : DTC
DTE .us/ft                : DTE
RDEP .ohm.m               : RDEP
SP .mV                    : SP
RSHA .ohm.m               : RSHA
RMED .ohm.m               : RMED
~Parameter
#==================================================================
~Ascii
# ...
 1624.6250000 2.0000000000 11.751999855 12.250000954 -0.026000001 0.2377233803 2.2153337002 104.35500336 94.243942261 89.900825500 0.9139999747 74.057998657 0.9809939861 0.7379999757
 1624.7501221 2.0000000000 11.737000465 12.250000954 -0.028999999 0.2514252067 2.1871993542 102.30525208 97.514320374 93.215080261 0.8029999733 74.207000732 0.9065279961 0.6679999828
 1624.8748779 2.0000000000 11.729999542 12.250000954 -0.035986327 0.2540900111 2.1700842381 99.878997803 100.18297577 95.737327576 0.7009999752 73.723999023 0.8879609704 0.6069999933
 1625.0000000 2.0000000000 11.727000237 12.250000954 -0.039996091 0.2493399978 2.1650288105 96.321998596 101.53549957 97.259063721 0.6230000257 73.041000366 0.8807680011 0.5590000153
 1625.1250000 2.0000000000 11.724999428 12.250000954 -0.039999999 0.2446500063 2.1681356430 92.263999939 102.84542847 98.510108948 0.5640000105 72.511001587 0.8598719835 0.5249999762
 1625.2500000 2.0000000000 11.724999428 12.250000954 -0.032000002 0.2417900115 2.1768877506 88.669998169 104.11383057 99.780616760 0.5220000148 72.273002625 0.8262199759 0.5019999743
 1625.3750000 2.0000000000 11.727000237 12.250000954 -0.018999999 0.2413614094 2.1878237724 86.608001709 105.46273804 101.14534760 0.4930000007 72.402999878 0.7873950005 0.4880000055
 1625.5000000 2.0000000000 11.729999542 12.250000954 -0.007000000 0.2428109646 2.1969230175 87.015998840 106.96175385 102.50737762 0.4720000029 72.905998230 0.7548699975 0.4799999893
 1625.6250000 2.0000000000 11.732999802 12.250000954 -0.001000000 0.2437978089 2.1988906860 89.444999695 107.93942261 103.59508514 0.4539999962 73.652000427 0.7426109910 0.4740000069
 1625.7500000 2.0000000000 11.731999397 12.250000954 0.0000000000 0.2415651381 2.1922814846 92.377998352 108.74294281 104.33660889 0.4399999976 74.232002258 0.7498289943 0.4659999907
 1625.8751221 2.0000000000 11.727000237 12.250000954 -0.003000000 0.2365871817 2.1800489426 94.513320923 109.27922821 104.93690491 0.4289999902 74.449996948 0.7629020214 0.4560000002
 1626.0001221 2.0000000000 11.720000267 12.250000954 -0.007000000 0.2300277650 2.1643791199 95.698226929 109.85123444 105.51740265 0.4239999950 74.337997437 0.7705760002 0.4469999969
 1626.1250000 2.0000000000 11.713999748 12.250000954 -0.010996094 0.2237700075 2.1471147537 96.325996399 110.57305908 106.13241577 0.4280000031 74.015998840 0.7633780241 0.4420000017
 1626.2500000 2.0000000000 11.708999634 12.250000954 -0.016994141 0.2201799899 2.1294219494 97.041999817 111.17378998 106.74083710 0.4449999928 73.656997681 0.7353240252 0.4469999969
 1626.3750000 2.0000000000 11.708999634 12.250000954 -0.024000000 0.2233799994 2.1126835346 97.887001038 111.14909363 106.87210083 0.4819999933 73.426002502 0.6940090060 0.4699999988
 1626.5000000 2.0000000000 11.713999748 12.250000954 -0.033000000 0.2317200154 2.0998804569 97.376998901 110.22853088 105.88381195 0.5389999747 73.311996460 0.6674429774 0.5199999809
 1626.6250000 2.0000000000 11.725999832 12.250000954 -0.041999999 0.2402825654 2.0946626663 95.291000366 107.74962616 103.41769409 0.6169999838 73.259002686 0.6729440093 0.6000000238
 1626.7500000 2.0000000000 11.748000145 12.250000954 -0.050999999 0.2429013997 2.1010639668 91.396003723 103.68720245 99.385353088 0.7200000286 73.198997498 0.7406949997 0.7210000157
 1626.8750000 2.0000000000 11.788000107 12.250000954 -0.061000001 0.2340872288 2.1231682301 86.941001892 98.332740784 93.934364319 0.8560000062 73.066001892 0.9117230177 0.8939999938
 1627.0000000 2.0000000000 11.847000122 12.250000954 -0.070000000 0.2107716203 2.1670305729 84.171997070 91.749542236 87.421516418 1.0410000086 72.819999695 1.2489999533 1.1260000467
 1627.1251221 2.0000000000 11.918999672 12.250000954 -0.075000003 0.1816867739 2.2366857529 83.813232422 85.134628296 80.706520081 1.3200000525 72.557998657 2.1500000954 1.4329999685
 1627.2498779 2.0000000000 11.982999802 12.250000954 -0.072005853 0.1544900090 2.3215794563 84.955001831 79.028678894 74.667633057 1.7079999447 72.411003113 4.0359997749 1.7380000353
 1627.3750000 2.0000000000 12.026000023 12.250000954 -0.057014648 0.1325100064 2.4069957733 85.815002441 74.217826843 69.867126465 2.1649999619 72.416999817 7.8930001259 1.9119999409
 1627.5000000 16.000000000 12.043999672 12.250000954 -0.039999999 0.1171599925 2.4756305218 85.574996948 71.345748901 66.928092957 2.5690000057 72.564002991 12.000000000 1.8819999695
 1627.6250000 16.000000000 12.041000366 12.250000954 -0.034000002 0.1082099974 2.5117585659 84.920997620 70.739799500 66.430267334 2.7200000286 72.795997620 11.991000175 1.6549999714
 1627.7500000 16.000000000 12.024999619 12.250000954 -0.033000000 0.1077861413 2.5062611103 85.635002136 73.968849182 69.543869019 2.3320000172 73.084999084 6.2249999046 1.3559999466
 1627.8750000 16.000000000 12.010000229 12.250000954 -0.032000002 0.1140830740 2.4730966091 90.071998596 79.571708679 75.240745544 1.8270000219 73.392997742 3.2269999981 1.1089999676
 1628.0000000 16.000000000 11.997999191 12.250000954 -0.024000000 0.1274790913 2.4208378792 96.510002136 86.693550110 82.366409302 1.3830000162 73.694999695 1.8140000105 0.9179999828
 1628.1250000 16.000000000 11.987998962 12.250000954 -0.010000000 0.1470331997 2.3572480679 102.43299866 94.126396179 89.765213013 1.0449999571 73.960998535 1.2289999723 0.7739999890
 1628.2501221 2.0000000000 11.979000092 12.250000954 -0.002000000 0.1708192527 2.2899775505 104.84587860 100.70344543 96.373405457 0.8059999943 74.172996521 0.9556639791 0.6669999957
 1628.3751221 2.0000000000 11.970998764 12.250000954 -0.002000000 0.1960325837 2.2261416912 103.75286102 105.75944519 101.38634491 0.6600000262 74.367996216 0.8460209966 0.5910000205
 1628.5000000 2.0000000000 11.967000961 12.250000954 -0.010991211 0.2178100049 2.1733005047 99.077003479 108.70475769 104.42566681 0.5720000267 74.571998596 0.8092709780 0.5400000215
 1628.6250000 2.0000000000 11.968000412 12.250000954 -0.026000001 0.2311199903 2.1335759163 94.194000244 110.47251129 106.13431549 0.5170000196 74.669998169 0.7942280173 0.5059999824
 1628.7500000 2.0000000000 11.970000267 12.250000954 -0.041000001 0.2373300046 2.1087455750 90.347999573 111.25640106 106.91238403 0.4880000055 74.559997559 0.7843340039 0.4880000055
 1628.8750000 2.0000000000 11.972999573 12.250000954 -0.046999998 0.2385485321 2.0980761051 88.103996277 111.40543365 107.11213684 0.4760000110 74.214996338 0.7735499740 0.4869999886
 1629.0000000 2.0000000000 11.972000122 12.250000954 -0.048000000 0.2370571792 2.0984680653 88.194999695 111.36344147 107.00916290 0.4779999852 73.691001892 0.7652369738 0.4990000129
 1629.1250000 2.0000000000 11.968999863 12.250000954 -0.046999998 0.2341672480 2.1050319672 90.819000244 111.09472656 106.80936432 0.4909999967 73.254997253 0.7736160159 0.5230000019
 1629.2500000 2.0000000000 11.967000961 12.250000954 -0.045000002 0.2313496172 2.1128497124 95.085998535 111.03392029 106.64344025 0.5099999905 73.138999939 0.8012049794 0.5519999862
 1629.3750000 2.0000000000 11.965999603 12.250000954 -0.044000000 0.2309637368 2.1202135086 99.894683838 110.90096283 106.54195404 0.5339999795 73.283996582 0.8412960172 0.5820000172
 1629.5001221 2.0000000000 11.965999603 12.250000954 -0.045000002 0.2347971648 2.1276686192 103.66388702 110.83720398 106.51321411 0.5630000234 73.580001831 0.8847969770 0.6079999804
 1629.6250000 2.0000000000 11.965999603 12.250000954 -0.044000976 0.2435699999 2.1367354393 105.13899994 110.93106842 106.55532074 0.5960000157 73.888999939 0.9212229848 0.6299999952
 1629.7500000 2.0000000000 11.963000298 12.250000954 -0.039004885 0.2567400038 2.1497814655 104.75900269 110.90621185 106.66394806 0.6299999952 74.079002380 0.9396389723 0.6460000277
 1629.8750000 2.0000000000 11.958999634 12.250000954 -0.028999999 0.2690800130 2.1668167114 103.52500153 111.21578217 106.85072327 0.6620000005 74.032997131 0.9390379786 0.6589999795
 1630.0000000 2.0000000000 11.958999634 12.250000954 -0.018999999 0.2734499872 2.1819155216 103.93099976 111.42265320 107.09091187 0.6899999976 73.753997803 0.9299039841 0.6690000296
