# LAS format log file from PETREL
# Project units are specified as depth units
#==================================================================
~Version information
VERS.   2.0:
WRAP.   NO:
#==================================================================
~Well
STRT .m      376.12503052 :
STOP .m      2088.7500000 :
STEP .m     0.00000000 :
NULL .        -999.250000 :
COMP.           : COMPANY
WELL.  31/6-5   : WELL
FLD.            : FIELD
LOC.            : LOCATION
SRVC.           : SERVICE COMPANY
DATE.  2018-09-11 14:48:40   : Log Export Date {yyyy-MM-dd HH:mm:ss}
PROV.           : PROVINCE
UWI.   31/6-5   : UNIQUE WELL ID
API.            : API NUMBER
#==================================================================
~Curve
DEPT .m                   : DEPTH
Lithology_geolink ._      : Lithology_geolink
CALI .in                  : CALI
BS .in                    : BS
DRHO .g/cm3               : DRHO
NPHI .m3/m3               : NPHI
RHOB .g/cm3               : RHOB
GR .gAPI                  : GR
DTC .us/ft                : DTC
DTE .us/ft                : DTE
RDEP .ohm.m               : RDEP
SP .mV                    : SP
RSHA .ohm.m               : RSHA
RMED .ohm.m               : RMED
~Parameter
#==================================================================
~Ascii
# ...
 1514.6251221 7.0000000000 12.657999992 12.250000954 -0.021000000 0.3091274202 2.3854866028 136.16026306 109.36103058 105.01477051 2.4900000095 24.497999191 2.9939999580 2.0650000572
 1514.7498779 7.0000000000 12.640999794 12.250000954 -0.021998046 0.3078100085 2.3850138187 134.25300598 109.03701019 104.68175507 2.4809999466 24.183000565 3.0239999294 2.0680000782
 1514.8750000 7.0000000000 12.626000404 12.250000954 -0.020001953 0.3064000010 2.3841302395 130.69500732 108.85412598 104.45565033 2.4690001011 23.937000275 3.0559999943 2.0699999332
 1515.0000000 7.0000000000 12.614998817 12.250000954 -0.017002931 0.3037599921 2.3830783367 125.81099701 108.64391327 104.33485413 2.4519999027 23.829000473 3.0859999657 2.0659999847
 1515.1250000 6.0000000000 12.611001015 12.250000954 -0.013000000 0.2990862429 2.3824217319 121.41899872 108.76806641 104.38486481 2.4249999523 23.930999756 3.0969998837 2.0480000973
 1515.2500000 6.0000000000 12.609000206 12.250000954 -0.010000000 0.2952392399 2.3818993568 118.37500000 109.00858307 104.68540955 2.3900001049 24.117000580 3.0869998932 2.0169999599
 1515.3750000 6.0000000000 12.608000755 12.250000954 -0.007000000 0.2944417298 2.3810656071 117.07199860 109.65562439 105.30548096 2.3480000496 24.304000854 3.0520000458 1.9759999514
 1515.5000000 6.0000000000 12.609000206 12.250000954 -0.004000000 0.2962126434 2.3795979023 116.58200073 110.68053436 106.28270721 2.3029999733 24.427999496 2.9909999371 1.9290000200
 1515.6250000 6.0000000000 12.609000206 12.250000954 -0.002000000 0.2989214659 2.3776066303 116.22699738 111.97937775 107.62162018 2.2620000839 24.443000793 2.9030001163 1.8849999905
 1515.7501221 6.0000000000 12.608000755 12.250000954 0.0020000001 0.3004098237 2.3763756752 116.09130096 113.69052887 109.30789948 2.2349998951 24.309999466 2.7829999924 1.8539999723
 1515.8751221 6.0000000000 12.602000237 12.250000954 0.0049999999 0.3003243208 2.3791491985 116.76218414 115.33522034 111.06581116 2.2290000916 24.215999603 2.6510000229 1.8470000029
 1516.0000000 6.0000000000 12.586999893 12.250000954 0.0069980472 0.3025400043 2.3863642216 118.39099884 116.79357910 112.45053101 2.2439999580 24.280000687 2.5399999619 1.8760000467
 1516.1250000 6.0000000000 12.564000130 12.250000954 0.0020048830 0.3076800108 2.3980884552 119.84700012 117.47932434 113.07768250 2.2730000019 24.461000443 2.4670000076 1.9359999895
 1516.2500000 6.0000000000 12.529000282 12.250000954 -0.011000000 0.3135523796 2.4134714603 119.54000092 116.95003510 112.60358429 2.3059999943 24.669000626 2.4560000896 2.0209999084
 1516.3750000 6.0000000000 12.484999657 12.250000954 -0.026000001 0.3159837723 2.4306395054 117.25700378 115.02133179 110.76863861 2.3320000172 24.801000595 2.5329999924 2.1170001030
 1516.5000000 6.0000000000 12.434000969 12.250000954 -0.035999998 0.3096008301 2.4445064068 112.41999817 111.64754486 107.21614838 2.3450000286 24.818000793 2.7290000916 2.1909999847
 1516.6250000 6.0000000000 12.387000084 12.250000954 -0.037999999 0.3001926243 2.4485633373 107.33599854 107.01953888 102.66297913 2.3450000286 24.834999084 3.0499999523 2.2060000896
 1516.7500000 6.0000000000 12.350000381 12.250000954 -0.032000002 0.2926258743 2.4410800934 103.36000061 102.52314758 98.141082764 2.3399999142 24.868000031 3.3659999371 2.1719999313
 1516.8750000 6.0000000000 12.325000763 12.250000954 -0.026000001 0.2883888781 2.4241721630 101.73115540 98.816894531 94.399307251 2.3310000896 24.840999603 3.5199999809 2.1029999256
 1517.0001221 6.0000000000 12.314000130 12.250000954 -0.025000000 0.2872301340 2.4022231102 102.91895294 96.337890625 91.982971191 2.3180000782 24.674999237 3.4140000343 2.0139999390
 1517.1250000 6.0000000000 12.315999985 12.250000954 -0.025999025 0.2873100042 2.3812384605 105.96299744 95.590896606 91.193313599 2.2990000248 24.347000122 3.1080000401 1.9229999781
 1517.2500000 6.0000000000 12.328000069 12.250000954 -0.024001954 0.2865000069 2.3664195538 108.80799866 96.191177368 91.870491028 2.2709999084 24.010000229 2.8580000401 1.8420000076
 1517.3750000 6.0000000000 12.347000122 12.250000954 -0.017999999 0.2875030935 2.3567695618 110.26999664 97.402282715 93.028144836 2.2460000515 23.830999374 2.7170000076 1.7799999714
 1517.5000000 6.0000000000 12.369001389 12.250000954 -0.006000000 0.2906835377 2.3491992950 111.19599915 98.770408630 94.408164978 2.2320001125 23.818000793 2.6380000114 1.7439999580
 1517.6250000 6.0000000000 12.387000084 12.250000954 0.0030000000 0.2942807376 2.3389792442 112.46499634 100.27669525 95.949905396 2.2420001030 23.917999268 2.5669999123 1.7450000048
 1517.7500000 6.0000000000 12.390000343 12.250000954 0.0020000001 0.2950432003 2.3207883835 114.44899750 102.19419098 97.753585815 2.2860000134 24.035999298 2.4600000381 1.7840000391
 1517.8750000 6.0000000000 12.357999802 12.250000954 -0.007000000 0.2880782783 2.2899372578 116.48500061 104.41392517 100.11871338 2.3819999695 24.106000900 2.3540000916 1.8580000401
 1518.0000000 2.0000000000 12.288000107 12.250000954 -0.022000000 0.2760890424 2.2512691021 116.45600128 107.44665527 103.09319305 2.5390000343 24.275999069 2.3459999561 1.9329999685
 1518.1251221 2.0000000000 12.197999954 12.250000954 -0.039000001 0.2648524344 2.2128586769 114.79821014 110.76297760 106.40565491 2.7550001144 24.639999390 2.4489998817 1.9919999838
 1518.2498779 2.0000000000 12.105999947 12.250000954 -0.051974609 0.2558900118 2.1799452305 111.32700348 114.17376709 109.80171204 3.0480000973 25.177999496 2.6600000858 2.0369999409
 1518.3750000 2.0000000000 12.027999878 12.250000954 -0.058993164 0.2499799877 2.1555325985 107.11100006 117.52528381 113.10063171 3.4200000763 25.756999969 2.9539999962 2.0789999962
 1518.5000000 2.0000000000 11.974000931 12.250000954 -0.060998049 0.2477199882 2.1405172348 103.39900208 120.51900482 116.18124390 3.8459999561 26.101999283 3.2890000343 2.1359999180
 1518.6250000 2.0000000000 11.951000214 12.250000954 -0.059999999 0.2489022017 2.1352751255 101.38700104 123.37402344 118.99436951 4.6040000916 25.604000092 3.6180000305 2.2300000191
 1518.7500000 2.0000000000 11.940000534 12.250000954 -0.057999998 0.2511619627 2.1352407932 100.99299622 125.92407990 121.57703400 5.3260002136 24.565999985 3.9449999332 2.3399999142
 1518.8750000 2.0000000000 11.935000420 12.250000954 -0.055000000 0.2531706393 2.1382153034 101.34999847 128.20527649 123.81759644 5.9250001907 23.326999664 4.2610001564 2.4579999447
 1519.0000000 2.0000000000 11.934000015 12.250000954 -0.055000000 0.2538286746 2.1423153877 101.49299622 129.99169922 125.57569885 6.3299999237 22.228000641 4.5440001488 2.5729999542
 1519.1250000 2.0000000000 11.932999611 12.250000954 -0.057000000 0.2524768412 2.1461875439 101.24600220 130.99812317 126.70903778 6.4949998856 21.555999756 4.7579998970 2.6800000668
 1519.2501221 2.0000000000 11.932999611 12.250000954 -0.059000000 0.2492227703 2.1495521069 101.57677460 131.37783813 127.02376556 6.4359998703 21.489999771 4.8540000916 2.7780001163
 1519.3751221 2.0000000000 11.932999611 12.250000954 -0.059999999 0.2455235720 2.1531364918 103.51258087 130.98913574 126.69219208 6.3470001221 21.430999756 4.9130001068 2.8770000935
 1519.5000000 2.0000000000 11.930999756 12.250000954 -0.059999999 0.2422400117 2.1577401161 106.36399841 130.35574341 125.97052002 6.3909997940 20.945999146 5.0079998970 2.9879999161
 1519.6250000 2.0000000000 11.928999901 12.250000954 -0.057002928 0.2392600030 2.1632750034 108.78500366 129.35675049 124.96035004 6.6490001678 19.976999283 5.1729998589 3.1189999580
 1519.7500000 2.0000000000 11.927000046 12.250000954 -0.054000001 0.2354034632 2.1685647964 109.30400085 128.02668762 123.72774506 7.1869997978 18.607999802 5.4299998283 3.2799999714
 1519.8750000 2.0000000000 11.925000191 12.250000954 -0.052999999 0.2286999822 2.1711750031 108.09200287 126.73414612 122.29920959 8.0629997253 17.034000397 5.7940001488 3.4809999466
 1520.0000000 2.0000000000 11.925000191 12.250000954 -0.054000001 0.2184398323 2.1647803783 104.66799927 125.08779144 120.74401093 9.3819999695 15.598999977 6.2449998856 3.7339999676
