# LAS format log file from PETREL
# Project units are specified as depth units
#==================================================================
~Version information
VERS.   2.0:
WRAP.   NO:
#==================================================================
~Well
STRT .m      376.12503052 :
STOP .m      2088.7500000 :
STEP .m     0.00000000 :
NULL .        -999.250000 :
COMP.           : COMPANY
WELL.  31/6-5   : WELL
FLD.            : FIELD
LOC.            : LOCATION
SRVC.           : SERVICE COMPANY
DATE.  2018-09-11 14:48:40   : Log Export Date {yyyy-MM-dd HH:mm:ss}
PROV.           : PROVINCE
UWI.   31/6-5   : UNIQUE WELL ID
API.            : API NUMBER
#==================================================================
~Curve
DEPT .m                   : DEPTH
Lithology_geolink ._      : Lithology_geolink
CALI .in                  : CALI
BS .in                    : BS
DRHO .g/cm3               : DRHO
NPHI .m3/m3               : NPHI
RHOB .g/cm3               : RHOB
GR .gAPI                  : GR
DTC .us/ft                : DTC
DTE .us/ft                : DTE
RDEP .ohm.m               : RDEP
SP .mV                    : SP
RSHA .ohm.m               : RSHA
RMED .ohm.m               : RMED
~Parameter
#==================================================================
~Ascii
# ...
 1058.1250000 6.0000000000 18.204000473  -999.250000 0.0040000002  -999.250000 2.0826349258 95.778999329 149.13375854 144.81477356 0.7770000100 17.076000214 0.7809789777 0.6700000167
 1058.2500000 6.0000000000 18.204000473  -999.250000 0.0030009765  -999.250000 2.0936210155 95.658958435 148.25413513 143.87825012 0.7760000229 16.993999481 0.7768599987 0.6460000277
 1058.3750000 6.0000000000 18.201000214  -999.250000 0.0039990237  -999.250000 2.0981383324 95.617996216 147.85107422 143.53044128 0.7710000277 16.982999802 0.7685920000 0.6200000048
 1058.5000000 6.0000000000 18.197000504  -999.250000 0.0089951167  -999.250000 2.0995719433 95.703002930 148.12467957 143.77377319 0.7659999728 17.007999420 0.7564529777 0.5950000286
 1058.6250000 6.0000000000 18.194000244  -999.250000 0.0189999994  -999.250000 2.0982604027 95.936996460 148.92785645 144.60322571 0.7599999905 17.068000793 0.7414720058 0.5759999752
 1058.7500000 6.0000000000 18.194999695  -999.250000 0.0349843912  -999.250000 2.0939319134 96.263999939 150.25196838 145.95437622 0.7540000081 17.150999069 0.7248809934 0.5659999847
 1058.8750000 6.0000000000 18.205999374  -999.250000 0.0509843752  -999.250000 2.0860621929 96.530006409 152.10035706 147.69862366 0.7509999871 17.232999802 0.7081469893 0.5659999847
 1059.0000000 6.0000000000 18.229999542  -999.250000 0.0649863258  -999.250000 2.0744109154 96.538002014 153.85812378 149.55715942 0.7500000000 17.266000748 0.6941930056 0.5730000138
 1059.1250000 6.0000000000 18.242000580  -999.250000 0.0749902353  -999.250000 2.0597307682 96.489997864 155.36410522 150.96461487 0.7519999743 17.218000412 0.6869680285 0.5799999833
 1059.2500000 6.0000000000 18.225999832  -999.250000 0.0769999996  -999.250000 2.0426928997 96.420997620 155.98999023 151.61257935 0.7580000162 17.128000259 0.6857399940 0.5830000043
 1059.3750000 6.0000000000 18.177000046  -999.250000 0.0670097545  -999.250000 2.0254447460 96.139999390 155.71096802 151.34860229 0.7689999938 17.020999908 0.6904730201 0.5809999704
 1059.5000000 6.0000000000 18.101999283  -999.250000 0.0440224595  -999.250000 2.0116367340 95.416999817 154.57415771 150.16674805 0.7850000262 16.909999847 0.7005890012 0.5770000219
 1059.6250000 6.0000000000 18.021999359  -999.250000 0.0190244131  -999.250000 2.0064208508 93.966003418 152.52040100 148.22741699 0.8080000281 16.792999268 0.7147179842 0.5730000138
 1059.7500000 5.0000000000 17.972999573  -999.250000 -0.002978516  -999.250000 2.0170874596 92.203002930 150.17144775 145.77252197 0.8410000205 16.635000229 0.7328829765 0.5699999928
 1059.8750000 5.0000000000 17.947000504  -999.250000 -0.016986329  -999.250000 2.0377001762 90.475997925 147.74826050 143.37876892 0.8780000210 16.447999954 0.7514870167 0.5680000186
 1060.0000000 5.0000000000 17.934000015  -999.250000 -0.022994140  -999.250000 2.0623250008 88.918685913 145.69065857 141.30630493 0.9150000215 16.250999451 0.7674859762 0.5649999976
 1060.1250000 5.0000000000 17.923999786  -999.250000 -0.024998046  -999.250000 2.0849785805 87.575996399 144.13298035 139.75395203 0.9499999881 16.059000015 0.7786059976 0.5630000234
 1060.2500000 5.0000000000 17.912000656  -999.250000 -0.024000976  -999.250000 2.1010384560 86.639999390 143.10438538 138.85771179 0.9789999723 15.887999535 0.7838249803 0.5609999895
 1060.3750000 5.0000000000 17.892999649  -999.250000 -0.021000000  -999.250000 2.1101462841 86.333000183 143.10823059 138.76161194 0.9990000129 15.743000031 0.7846099734 0.5590000153
 1060.5000000 5.0000000000 17.867000580  -999.250000 -0.014006830  -999.250000 2.1166467667 87.416999817 143.72535706 139.39852905 1.0099999905 15.588000298 0.7865549922 0.5600000024
 1060.6250000 5.0000000000 17.830999374  -999.250000 -0.000013672  -999.250000 2.1227121353 89.118118286 144.94773865 140.60932922 1.0160000324 15.428000450 0.7916349769 0.5609999895
 1060.7500000 5.0000000000 17.785999298  -999.250000 0.0169833992  -999.250000 2.1283543110 91.287002563 146.68945313 142.35112000 1.0199999809 15.282999992 0.8008570075 0.5619999766
 1060.8750000 6.0000000000 17.732000351  -999.250000 0.0309863277  -999.250000 2.1337449551 93.412002563 148.83819580 144.50010681 1.0210000277 15.177000046 0.8146960139 0.5640000105
 1061.0000000 6.0000000000 17.673999786  -999.250000 0.0399999991  -999.250000 2.1397702694 94.814002991 151.25433350 146.81001282 1.0210000277 15.130999565 0.8330590129 0.5649999976
 1061.1250000 6.0000000000 17.625000000  -999.250000 0.0439960957  -999.250000 2.1524059772 95.000999451 152.72363281 148.38623047 1.0199999809 15.159999847 0.8533279896 0.5659999847
 1061.2500000 6.0000000000 17.590999603  -999.250000 0.0449990258  -999.250000 2.1769289970 94.216003418 152.76216125 148.36195374 1.0210000277 15.187999725 0.8682659864 0.5669999719
 1061.3750000 6.0000000000 17.572999954  -999.250000 0.0440009758  -999.250000 2.2121932507 92.801002502 150.96609497 146.59774780 1.0230000019 15.199999809 0.8743669987 0.5690000057
 1061.5000000 6.0000000000 17.566999435  -999.250000 0.0499941409  -999.250000 2.2497272491 91.419998169 147.80352783 143.45787048 1.0240000486 15.218999863 0.8732540011 0.5720000267
 1061.6250000 5.0000000000 17.565999985  -999.250000 0.0579921864  -999.250000 2.2775626183 90.603996277 144.05883789 139.60791016 1.0199999809 15.291000366 0.8697230220 0.5759999752
 1061.7500000 5.0000000000 17.559000015  -999.250000 0.0619960912  -999.250000 2.2819113731 90.275962830 140.15081787 135.84529114 1.0069999695 15.482000351 0.8711479902 0.5799999833
 1061.8750000 5.0000000000 17.541999817  -999.250000 0.0610009767  -999.250000 2.2665855885 90.234001160 137.05621338 132.71339417 0.9829999804 15.760001183 0.8787879944 0.5849999785
 1062.0000000 5.0000000000 17.524999619  -999.250000 0.0540068373  -999.250000 2.2517254353 90.480003357 134.44830322 130.15557861 0.9559999704 16.020000458 0.8855450153 0.5899999738
 1062.1250000 5.0000000000 17.514999390  -999.250000 0.0439999998  -999.250000 2.2486999035 91.009002686 132.68083191 128.38330078 0.9309999943 16.215999603 0.8873199821 0.5939999819
 1062.2500000 5.0000000000 17.520999908  -999.250000 0.0380058512  -999.250000 2.2594902515 91.813003540 132.00486755 127.62225342 0.9139999747 16.339000702 0.8820660114 0.5989999771
 1062.3750000 5.0000000000 17.549999237  -999.250000 0.0409970731  -999.250000 2.2756352425 92.679534912 132.42797852 128.00904846 0.9089999795 16.412000656 0.8702369928 0.6060000062
 1062.5000000 5.0000000000 17.594999313  -999.250000 0.0439970717  -999.250000 2.2709622383 93.223999023 133.19938660 128.92793274 0.9160000086 16.511999130 0.8579679728 0.6169999838
 1062.6250000 5.0000000000 17.649000168  -999.250000 0.0400039069  -999.250000 2.2399165630 93.527999878 133.98834229 129.62908936 0.9330000281 16.645000458 0.8522999883 0.6359999776
 1062.7500000 6.0000000000 17.705999374  -999.250000 0.0289999992  -999.250000 2.1967053413 93.614997864 134.58717346 130.25765991 0.9530000091 16.764999390 0.8555399776 0.6610000134
 1062.8750000 6.0000000000 17.761999130  -999.250000 0.0110175610  -999.250000 2.1580634117 93.558998108 135.15185547 130.86726379 0.9750000238 16.827999115 0.8687549829 0.6909999847
 1063.0000000 6.0000000000 17.812000275  -999.250000 -0.004984375  -999.250000 2.1398031712 93.369003296 135.82473755 131.47683716 0.9950000048 16.806999207 0.8907110095 0.7210000157
 1063.1250000 6.0000000000 17.854999542  -999.250000 -0.011993164  -999.250000 2.1531777382 93.135002136 136.40319824 132.08647156 1.0140000582 16.714000702 0.9161670208 0.7469999790
 1063.2500000 6.0000000000 17.884000778  -999.250000 -0.006005859  -999.250000 2.1947460175 93.080001831 137.09072876 132.69604492 1.0279999971 16.629999161 0.9347910285 0.7570000291
 1063.3750000 6.0000000000 17.903999329  -999.250000 0.0099843750  -999.250000 2.2382156849 93.410003662 137.62680054 133.30566406 1.0369999409 16.607000351 0.9436900020 0.7530000210
 1063.5000000 6.0000000000 17.916000366  -999.250000 0.0309794918  -999.250000 2.2654395103 93.763938904 138.26544189 133.92076111 1.0399999619 16.642999649 0.9447230101 0.7390000224
