# LAS format log file from PETREL
# Project units are specified as depth units
#==================================================================
~Version information
VERS.   2.0:
WRAP.   NO:
#==================================================================
~Well
STRT .m      376.12503052 :
STOP .m      2088.7500000 :
STEP .m     0.00000000 :
NULL .        -999.250000 :
COMP.           : COMPANY
WELL.  31/6-5   : WELL
FLD.            : FIELD
LOC.            : LOCATION
SRVC.           : SERVICE COMPANY
DATE.  2018-09-11 14:48:40   : Log Export Date {yyyy-MM-dd HH:mm:ss}
PROV.           : PROVINCE
UWI.   31/6-5   : UNIQUE WELL ID
API.            : API NUMBER
#==================================================================
~Curve
DEPT .m                   : DEPTH
Lithology_geolink ._      : Lithology_geolink
CALI .in                  : CALI
BS .in                    : BS
DRHO .g/cm3               : DRHO
NPHI .m3/m3               : NPHI
RHOB .g/cm3               : RHOB
GR .gAPI                  : GR
DTC .us/ft                : DTC
DTE .us/ft                : DTE
RDEP .ohm.m               : RDEP
SP .mV                    : SP
RSHA .ohm.m               : RSHA
RMED .ohm.m               : RMED
~Parameter
#==================================================================
~Ascii
# ...
 2081.1250000  -999.250000 8.9420003891 8.5000000000 0.0270000007 0.0831700042  -999.250000 105.46600342 80.369499207  -999.250000 5.1240000725 82.294998169 3.0799999237 2.3350000381
 2081.2500000  -999.250000 8.9420003891 8.5000000000 0.0230000000 0.0837600008  -999.250000 105.46600342 80.372695923  -999.250000 5.1189999580 82.235000610 3.1250000000 2.3359999657
 2081.3750000  -999.250000 8.9420003891 8.5000000000 0.0000000000 0.0845099986  -999.250000 105.46600342 80.376701355  -999.250000 5.1220002174 82.140998840 3.1889998913 2.3369998932
 2081.5000000  -999.250000 8.9420003891 8.5000000000 -0.072999999 0.0852000043  -999.250000 105.46600342 80.376701355  -999.250000 5.1279997826 82.038002014 3.2730000019 2.3369998932
 2081.6250000  -999.250000 8.9420003891 8.5000000000 -0.175999999 0.0857100040  -999.250000 105.46600342 80.376335144  -999.250000 5.1319999695 81.961997986 3.3789999485 2.3380000591
 2081.7500000  -999.250000 8.9420003891 8.5000000000 -0.257999986 0.0863399953  -999.250000 105.46600342 80.368545532  -999.250000 5.1300001144 81.947998047 3.5130000114 2.3389999866
 2081.8750000  -999.250000 8.9420003891 8.5000000000 -0.279000014 0.0874100029  -999.250000 105.46600342 80.373657227  -999.250000 5.1259999275 81.989997864 3.6429998875 2.3399999142
 2082.0000000  -999.250000 8.9420003891 8.5000000000 -0.218999997 0.0887499973  -999.250000 105.46600342 80.376701355  -999.250000 5.1220002174 82.138999939 3.7420001030 2.3410000801
 2082.1250000  -999.250000 8.9420003891 8.5000000000 -0.115999997 0.0900100023  -999.250000 105.46600342 80.376701355  -999.250000 5.1189999580 82.388000488 3.8029999733 2.3399999142
 2082.2500000  -999.250000 8.9420003891 8.5000000000 -0.041000001 0.0908100009  -999.250000 105.46600342 80.376701355  -999.250000 5.1170001030 82.685997009 3.8310000896 2.3380000591
 2082.3750000  -999.250000 8.9420003891 8.5000000000 -0.006000000 0.0907900035  -999.250000 105.46600342 80.376701355  -999.250000 5.1149997711 82.916000366 3.8410000801 2.3340001106
 2082.5000000  -999.250000 8.9420003891 8.5000000000 0.0040000002 0.0898700058  -999.250000 105.46600342 80.369285583  -999.250000 5.1149997711 82.896003723 3.8489999771 2.3299999237
 2082.6250000  -999.250000 8.9420003891 8.5000000000 0.0040000002 0.0885799974  -999.250000 105.46600342 80.372909546  -999.250000 5.1189999580 82.667999268 3.8559999466 2.3269999027
 2082.7500000  -999.250000 8.9420003891 8.5000000000 0.0040000002 0.0874100029  -999.250000 105.46600342 80.376701355  -999.250000 5.1269998550 82.350997925 3.8629999161 2.3239998817
 2082.8750000  -999.250000 8.9420003891 8.5000000000 0.0040000002 0.0866600052  -999.250000 105.46600342 80.376701355  -999.250000 5.1360001564 82.078002930 3.8699998856 2.3229999542
 2083.0000000  -999.250000 8.9420003891 8.5000000000 0.0040000002 0.0864000022  -999.250000 105.46600342 80.376121521  -999.250000 5.1440000534 81.968002319 3.8770000935 2.3220000267
 2083.1250000  -999.250000 8.9420003891 8.5000000000 0.0040000002 0.0862800032  -999.250000 105.46600342 80.368331909  -999.250000 5.1479997635 82.052001953 3.8819999695 2.3220000267
 2083.2500000  -999.250000 8.9420003891 8.5000000000 0.0040000002 0.0858800039  -999.250000 105.46600342 80.373870850  -999.250000 5.1469998360 82.177001953 3.8840000629 2.3229999542
 2083.3750000  -999.250000 8.9420003891 8.5000000000 0.0040000002 0.0852499977  -999.250000 105.46600342 80.376701355  -999.250000 5.1440000534 82.263999939 3.8840000629 2.3229999542
 2083.5000000  -999.250000 8.9420003891 8.5000000000 0.0040000002 0.0844999999  -999.250000 105.46600342 80.376701355  -999.250000 5.1399998665 82.287002563 3.8829998970 2.3229999542
 2083.6250000  -999.250000 8.9420003891 8.5000000000 0.0040000002 0.0837199986  -999.250000 105.46600342 80.375144958  -999.250000 5.1370000839 82.251998901 3.8829998970 2.3239998817
 2083.7500000  -999.250000 8.9420003891 8.5000000000 0.0040000002 0.0829000026  -999.250000 105.46600342 80.367355347  -999.250000 5.1370000839 82.186996460 3.8840000629 2.3239998817
 2083.8750000  -999.250000 8.9420003891 8.5000000000 0.0040000002 0.0784099996  -999.250000 105.46600342 80.279090881  -999.250000 5.1370000839 82.063003540 3.8859999180 2.3239998817
 2084.0000000  -999.250000 8.9420003891 8.5000000000 0.0040000002 0.0677799955  -999.250000 105.46600342 80.257499695  -999.250000 5.1360001564 81.930000305 3.8880000114 2.3250000477
 2084.1250000  -999.250000 8.9420003891 8.5000000000 0.0040000002 0.0545100011  -999.250000 105.46600342 80.257499695  -999.250000 5.1350002289 81.859001160 3.8889999390 2.3250000477
 2084.2500000  -999.250000 8.9420003891 8.5000000000 0.0040000002 0.0439700000  -999.250000 105.46600342 80.257499695  -999.250000 5.1339998245 81.892997742 3.8900001049 2.3259999752
 2084.3750000  -999.250000 8.9420003891 8.5000000000 0.0040000002 0.0414000005  -999.250000 105.46600342 80.256706238  -999.250000 5.1350002289 82.029998779 3.8919999599 2.3250000477
 2084.5000000  -999.250000 8.9420003891 8.5000000000 0.0040000002 0.0491200015  -999.250000 105.46600342 80.249000549  -999.250000 5.1389999390 82.161003113 3.8940000534 2.3250000477
 2084.6250000  -999.250000 8.9420003891 8.5000000000 0.0040000002 0.0618800037  -999.250000 105.46600342 80.254905701  -999.250000 5.1430001259 82.171997070 3.8959999084 2.3250000477
 2084.7500000  -999.250000 8.9420003891 8.5000000000 0.0040000002 0.0718900040  -999.250000 105.46600342 80.257499695  -999.250000 5.1440000534 82.100997925 3.8970000744 2.3259999752
 2084.8750000  -999.250000 8.9420003891 8.5000000000 0.0040000002  -999.250000  -999.250000 105.46600342 80.257499695  -999.250000 5.1409997940 81.976997375 3.8959999084 2.3259999752
 2085.0000000  -999.250000 8.9420003891 8.5000000000  -999.250000  -999.250000  -999.250000 105.46600342 80.255752563  -999.250000 5.1350002289 81.820999146 3.8949999809 2.3269999027
 2085.1250000  -999.250000 8.9420003891 8.5000000000  -999.250000  -999.250000  -999.250000 105.46600342 80.248146057  -999.250000 5.1269998550 81.637001038 3.8949999809 2.3280000687
 2085.2500000  -999.250000 8.9420003891 8.5000000000  -999.250000  -999.250000  -999.250000 105.46600342 80.255859375  -999.250000 5.1240000725 81.459999084 3.8949999809 2.3289999962
 2085.3750000  -999.250000 8.9420003891 8.5000000000  -999.250000  -999.250000  -999.250000 105.46600342 80.257499695  -999.250000 5.1230001450 81.422996521 3.8940000534 2.3289999962
 2085.5000000  -999.250000 8.9420003891 8.5000000000  -999.250000  -999.250000  -999.250000 105.46600342 80.257499695  -999.250000 5.1230001450 81.549003601 3.8940000534 2.3299999237
 2085.6250000  -999.250000 8.9420003891 8.5000000000  -999.250000  -999.250000  -999.250000 105.46600342 80.254806519  -999.250000 5.1240000725 81.790000916 3.8919999599 2.3299999237
 2085.7500000  -999.250000 8.9420003891 8.5000000000  -999.250000  -999.250000  -999.250000 105.46600342 80.249107361  -999.250000 5.1230001450 82.049003601 3.8919999599 2.3310000896
 2085.8750000  -999.250000 8.9420003891 8.5000000000  -999.250000  -999.250000  -999.250000 105.46600342 80.256805420  -999.250000 5.1230001450 82.199996948 3.8929998875 2.3310000896
 2086.0000000  -999.250000 8.9420003891 8.5000000000  -999.250000  -999.250000  -999.250000 105.46600342 80.257499695  -999.250000 5.1240000725 82.216003418 3.8940000534 2.3320000172
 2086.1250000  -999.250000 8.9420003891 8.5000000000  -999.250000  -999.250000  -999.250000 105.46600342 80.257499695  -999.250000 5.1250000000 82.190002441 3.8959999084 2.3329999447
 2086.2500000  -999.250000 8.9420003891 8.5000000000  -999.250000  -999.250000  -999.250000 105.46600342 80.257499695  -999.250000 5.1230001450 82.175003052 3.8959999084 2.3350000381
 2086.3750000  -999.250000 8.9420003891 8.5000000000  -999.250000  -999.250000  -999.250000 105.46600342 80.255546570  -999.250000 5.1180000305 82.197998047 3.8949999809 2.3369998932
 2086.5000000  -999.250000 8.9420003891 8.5000000000  -999.250000  -999.250000  -999.250000 105.46600342 80.245109558  -999.250000 5.1100001335 82.254997253 3.8940000534 2.3389999866
