# LAS format log file from PETREL
# Project units are specified as depth units
#==================================================================
~Version information
VERS.   2.0:
WRAP.   NO:
#==================================================================
~Well
STRT .m      669.21893311 :
STOP .m      2146.7373047 :
STEP .m     0.00000000 :
NULL .        -999.250000 :
COMP.           : COMPANY
WELL.  31/6-8   : WELL
FLD.            : FIELD
LOC.            : LOCATION
SRVC.           : SERVICE COMPANY
DATE.  2018-09-11 14:48:41   : Log Export Date {yyyy-MM-dd HH:mm:ss}
PROV.           : PROVINCE
UWI.   31/6-8   : UNIQUE WELL ID
API.            : API NUMBER
#==================================================================
~Curve
DEPT .m                   : DEPTH
Lithology_geolink ._      : Lithology_geolink
CALI .in                  : CALI
BS .in                    : BS
DRHO .g/cm3               : DRHO
NPHI .m3/m3               : NPHI
RHOB .g/cm3               : RHOB
GR .gAPI                  : GR
DTC .us/ft                : DTC
DTE .us/ft                : DTE
RDEP .ohm.m               : RDEP
SP .mV                    : SP
RSHA .ohm.m               : RSHA
RMED .ohm.m               : RMED
~Parameter
#==================================================================
~Ascii
# ...
 1648.2368164 2.0000000000 11.890999794 12.250000954 -0.018987190 0.3305324316 2.1820030212 38.812347412 103.09233856 98.686050415 0.5420112014 75.349197388 0.6140384674 0.6139695644
 1648.3892822 2.0000000000 11.890999794 12.250000954 -0.014983974 0.3071323335 2.1840217113 37.998600006 104.24170685 99.745910645 0.5490120053 75.100196838 0.5950152278 0.5949279666
 1648.5416260 2.0000000000 11.890999794 12.250000954 -0.010003203 0.3081084192 2.1929936409 37.126453400 105.58602905 101.16510773 0.5539855957 75.849395752 0.5650240183 0.5649487376
 1648.6939697 2.0000000000 11.937999725 12.250000954 -0.011009615 0.3071479499 2.1889982224 38.939949036 106.75436401 102.37643433 0.5450224280 75.849998474 0.5330512524 0.5329855680
 1648.8464355 2.0000000000 11.984001160 12.250000954 -0.015019215 0.3183889687 2.1879904270 41.379707336 107.36600494 102.97340393 0.5590288639 77.098999023 0.5240072012 0.5239807367
 1648.9987793 2.0000000000 11.984001160 12.250000954 -0.020995192 0.3364323676 2.1820142269 47.253677368 107.49611664 103.00482941 0.5770112276 76.850395203 0.5120192170 0.5120432973
 1649.1512451 2.0000000000 11.984001160 12.250000954 -0.018980784 0.3379134834 2.1910719872 51.843250275 106.90857697 102.50225067 0.5840263963 76.100601196 0.5389783382 0.5391368866
 1649.3035889 2.0000000000 11.984001160 12.250000954 -0.013002404 0.3476349413 2.2210431099 50.904022217 105.61301422 101.17881012 0.5950320959 75.850395203 0.5959087610 0.5961362123
 1649.4560547 2.0000000000 11.984001160 12.250000954 -0.014009608 0.3319913149 2.2480142117 48.435321808 104.61434174 100.15807343 0.6150480509 75.350402832 0.6809318662 0.6810624599
 1649.6083984 2.0000000000 11.937999725 12.250000954 -0.017007213 0.3158973157 2.2539741993 45.090698242 103.86978149 99.439712524 0.6350272298 74.850402832 0.7069791555 0.7068862319
 1649.7608643 1.0000000000 11.890999794 12.250000954 -0.019987190 0.3017283380 2.2379856110 40.968200684 102.75765991 98.202087402 0.6520552635 74.100601196 0.6360568404 0.6359639764
 1649.9132080 1.0000000000 11.890999794 12.250000954 -0.015990386 0.2885731459 2.2320065498 39.966747284 98.446731567 94.019950867 0.6749951839 75.099197388 0.6210120320 0.6209711432
 1650.0656738 1.0000000000 11.890999794 12.250000954 -0.012003205 0.2905217707 2.2360000610 37.156147003 94.137855530 89.692634583 0.6719375253 74.850196838 0.6030144095 0.6030384302
 1650.2180176 1.0000000000 11.890999794 12.250000954 -0.013003203 0.2871381640 2.2359936237 37.250877380 92.962394714 88.488349915 0.6459615827 74.849998474 0.6189872026 0.6189743876
 1650.3702393 1.0000000000 11.890999794 12.250000954 -0.013996796 0.3046876490 2.2320001125 38.344001770 93.519470215 89.045814514 0.6219807863 75.099395752 0.6030384302 0.6029903889
 1650.5227051 1.0000000000 11.890999794 12.250000954 -0.011997598 0.3017541468 2.2319960594 39.280998230 95.310974121 90.925567627 0.5979887843 75.099998474 0.5910192728 0.5909855962
 1650.6750488 1.0000000000 11.890999794 12.250000954 -0.011001603 0.2944237590 2.2269904613 42.030998230 99.281341553 94.839981079 0.5839936137 76.346992493 0.5730432272 0.5729895830
 1650.8275146 1.0000000000 11.890999794 12.250000954 -0.012009608 0.2866317332 2.2149519920 45.687999725 103.21221161 98.762313843 0.5759992003 75.850799561 0.5600208640 0.5599631667
 1650.9798584 2.0000000000 11.890999794 12.250000954 -0.016001603 0.2915821671 2.1949791908 57.219001770 105.50062561 100.99304199 0.5749967694 76.099395752 0.5141105056 0.5139951706
 1651.1323242 2.0000000000 11.890999794 12.250000954 -0.016992794 0.3427758813 2.1819951534 60.969001770 105.86363983 101.41726685 0.5709871650 75.850402832 0.5080096126 0.5080272555
 1651.2846680 2.0000000000 11.890999794 12.250000954 -0.013990385 0.3452397287 2.1800143719 56.280998230 105.27092743 100.82721710 0.5629944205 76.348800659 0.5249591470 0.5250272155
 1651.4371338 2.0000000000 11.890999794 12.250000954 -0.008009608 0.3637993038 2.1889998913 47.594001770 103.83005524 99.359130859 0.5559903979 76.849197388 0.5589455366 0.5589888096
 1651.5894775 2.0000000000 11.890999794 12.250000954 -0.012006410 0.3759901524 2.1889886856 43.469001770 102.23785400 97.688003540 0.5500000119 76.849998474 0.5520167947 0.5520032048
 1651.7419434 2.0000000000 11.890999794 12.250000954 -0.016009608 0.3823047578 2.1819856167 44.937999725 98.980796814 94.521621704 0.5500032306 76.849998474 0.5559935570 0.5559583902
 1651.8942871 2.0000000000 11.890999794 12.250000954 -0.019995192 0.3759698272 2.1760065556 43.780998230 97.200004578 92.741210938 0.5519992113 78.347595215 0.5300416350 0.5299871564
 1652.0466309 2.0000000000 11.890999794 12.250000954 -0.016995193 0.3696511388 2.1800143719 42.969001770 95.633163452 91.219322205 0.5509920120 77.352401733 0.5140384436 0.5139904022
 1652.1990967 2.0000000000 11.890999794 12.250000954 -0.014004804 0.3827924132 2.1890046597 44.187999725 95.967826843 91.558311462 0.5409855843 76.850799561 0.5020192266 0.5020167828
 1652.3514404 2.0000000000 11.897999763 12.250000954 -0.016003206 0.3754665256 2.1909999847 42.187999725 95.927970886 91.433326721 0.5229808092 76.600601196 0.5229495764 0.5230360031
 1652.5039063 2.0000000000 11.890999794 12.250000954 -0.018002402 0.3608059883 2.1910095215 40.562999725 96.935478210 92.558204651 0.4989839792 75.851203918 0.5679278970 0.5680176616
 1652.6562500 2.0000000000 11.890999794 12.250000954 -0.019001601 0.3467018902 2.1949999332 40.344001770 99.268783569 94.902168274 0.4789831936 75.351196289 0.5899471045 0.5899823308
 1652.8087158 2.0000000000 11.968999863 12.250000954 -0.019997597 0.3603605926 2.1949951649 44.719001770 102.62904358 98.179176331 0.4579871893 76.847595215 0.5680353045 0.5679671764
 1652.9610596 2.0000000000 11.984001160 12.250000954 -0.018999999 0.3647367060 2.1929857731 48.187999725 105.54466248 101.03482056 0.4419911802 76.351196289 0.5270984769 0.5269823670
 1653.1135254 1.0000000000 11.984001160 12.250000954 -0.018990392 0.3564194739 2.1839952469 47.844001770 105.22801971 100.82682037 0.4310016036 75.102005005 0.5050352812 0.5049183369
 1653.2658691 1.0000000000 11.984001160 12.250000954 -0.015000000 0.3437547088 2.1819806099 44.469001770 102.51431274 98.153282166 0.4320168495 75.848197937 0.4541224837 0.4539831579
 1653.4183350 1.0000000000 11.984001160 12.250000954 -0.015002402 0.3466905355 2.1700506210 39.250000000 95.885795593 91.498626709 0.4530624449 76.099594116 0.4330336452 0.4329407513
 1653.5706787 1.0000000000 11.984001160 12.250000954 -0.016008014 0.3510660827 2.1910946369 34.530998230 83.821098328 79.310852051 0.4920488894 76.099998474 0.3960888684 0.3960368633
 1653.7231445 1.0000000000 11.984001160 12.250000954 -0.020992793 0.3485127091 2.2502906322 35.750000000 73.481109619 69.102088928 0.5531488657 76.599197388 0.4419262707 0.4424211383
 1653.8754883 1.0000000000 11.984001160 12.250000954 -0.017999999 0.2997053266 2.3711843491 33.750000000 67.376655579 62.940967560 0.6460897923 75.851203918 0.7045785189 0.7058973908
 1654.0278320 1.0000000000 11.984001160 12.250000954 -0.017996797 0.2406074107 2.4861633778 35.937999725 61.869098663 57.406784058 0.7581377029 76.598197937 1.8223098516 1.8281241655
 1654.1802979 1.0000000000 11.984001160 12.250000954 -0.016008014 0.1703278422 2.5880882740 39.405998230 55.997100830 51.520446777 0.9303181171 76.100799561 5.7207469940 5.7310004234
 1654.3326416 16.000000000 11.984001160 12.250000954 -0.021003205 0.1190656573 2.6430687904 45.280998230 54.631404877 50.219757080 1.3278111219 76.349395752 10.707009315 10.721682549
 1654.4851074 16.000000000 11.984001160 12.250000954 -0.022995196 0.0727324188 2.6859569550 49.030998230 55.143909454 50.693187714 2.3409357071 78.596389771 14.064629555 14.082150459
 1654.6374512 1.0000000000 11.984001160 12.250000954 -0.020991987 0.0654878989 2.6679215431 46.905998230 55.115348816 50.723510742 3.5086755753 77.353004456 29.197576523 29.233762741
 1654.7899170 1.0000000000 11.984001160 12.250000954 -0.015990393 0.1016702503 2.6188967228 50.500000000 67.793815613 63.357196808 4.3513698578 77.100402832 28.938474655 28.930198669
