# LAS format log file from PETREL
# Project units are specified as depth units
#==================================================================
~Version information
VERS.   2.0:
WRAP.   NO:
#==================================================================
~Well
STRT .m      669.21893311 :
STOP .m      2146.7373047 :
STEP .m     0.00000000 :
NULL .        -999.250000 :
COMP.           : COMPANY
WELL.  31/6-8   : WELL
FLD.            : FIELD
LOC.            : LOCATION
SRVC.           : SERVICE COMPANY
DATE.  2018-09-11 14:48:41   : Log Export Date {yyyy-MM-dd HH:mm:ss}
PROV.           : PROVINCE
UWI.   31/6-8   : UNIQUE WELL ID
API.            : API NUMBER
#==================================================================
~Curve
DEPT .m                   : DEPTH
Lithology_geolink ._      : Lithology_geolink
CALI .in                  : CALI
BS .in                    : BS
DRHO .g/cm3               : DRHO
NPHI .m3/m3               : NPHI
RHOB .g/cm3               : RHOB
GR .gAPI                  : GR
DTC .us/ft                : DTC
DTE .us/ft                : DTE
RDEP .ohm.m               : RDEP
SP .mV                    : SP
RSHA .ohm.m               : RSHA
RMED .ohm.m               : RMED
~Parameter
#==================================================================
~Ascii
# ...
 776.50848389  -999.250000 18.281000137  -999.250000 0.0359951928 0.5527110100 1.8799932003 95.061203003 168.02760315 163.55296326 1.0360000134 19.745000839 1.0620000362 1.0620000362
 776.66088867  -999.250000 18.391000748  -999.250000 0.0240052063 0.5053632855 1.8630003929 95.810302734 169.62994385 165.12751770 1.0590000153 19.992000580 1.1109999418 1.1109999418
 776.81329346  -999.250000 18.718999863  -999.250000 0.0369983986 0.4887676239 1.8639947176 97.992118835 170.98159790 166.49397278 1.1239999533 20.489999771 1.1200000048 1.1200000048
 776.96569824  -999.250000 18.437999725  -999.250000 0.0330044068 0.4829297662 1.8510107994 95.010810852 169.57952881 165.06031799 1.1310000420 20.988000870 1.0410000086 1.0410000086
 777.11810303  -999.250000 18.500000000  -999.250000 0.0439971946 0.5322259068 1.8780064583 97.989189148 167.59994507 163.10339355 1.0920000076 21.236000061 1.0329999924 1.0329999924
 777.27050781  -999.250000 18.843999863  -999.250000 0.0369991995 0.5219793320 1.8940020800 100.99038696 166.92860413 162.45668030 1.0709999800 20.733999252 1.0779999495 1.0779999495
 777.42291260  -999.250000 19.156000137  -999.250000 0.0349955931 0.5454002023 1.8989971876 101.99679565 166.94107056 162.40647888 1.0499999523 21.231000900 1.0629999638 1.0629999638
 777.57531738  -999.250000 19.125000000  -999.250000 0.0239959937 0.5210036635 1.8919943571 100.69220734 167.81613159 163.33976746 1.0149999857 21.229000092 1.0989999771 1.0989999771
 777.72772217  -999.250000 18.968999863  -999.250000 0.0139983986 0.5302625299 1.8780008554 96.700820923 169.30950928 164.79498291 1.0700000525 22.226999283 1.1200000048 1.1200000048
 777.88012695  -999.250000 19.156000137  -999.250000 0.0119991992 0.5209628344 1.8789831400 94.133209229 169.42564392 164.90342712 1.0700000525 22.975000381 1.1069999933 1.1069999933
 778.03253174  -999.250000 19.483999252  -999.250000 0.0110168206 0.4746072292 1.8579936028 97.053588867 168.98320007 164.49833679 1.0349999666 23.722000122 1.1039999723 1.1039999723
 778.18487549  -999.250000 19.656000137  -999.250000 0.0320020057 0.4712048769 1.8499879837 94.572013855 168.99588013 164.46173096 1.0399999619 24.969999313 1.0779999495 1.0779999495
 778.33728027  -999.250000 18.656000137  -999.250000 0.0370076112 0.5083058476 1.8200029135 97.738510132 169.03890991 164.54586792 1.0219999552 24.218000412 1.0750000477 1.0750000477
 778.48968506  -999.250000 18.547000885  -999.250000 0.0560028069 0.5229488015 1.8270059824 96.069084167 170.49626160 165.94784546 0.9919999838 23.465999603 1.1009999514 1.1009999514
 778.64208984  -999.250000 18.718999863  -999.250000 0.0630012006 0.5200086832 1.8420028687 99.052192688 171.40933228 166.88964844 0.9620000124 22.714000702 1.1039999723 1.1039999723
 778.79449463  -999.250000 18.906000137  -999.250000 0.0659959912 0.4917148650 1.8489884138 102.17674255 171.84112549 167.34674072 1.0039999485 21.711000443 1.0920000076 1.0920000076
 778.94689941  -999.250000 18.891000748  -999.250000 0.0559915900 0.5288258791 1.8199852705 96.334182739 171.03179932 166.50347900 1.0089999437 21.958999634 1.0809999704 1.0809999704
 779.09930420  -999.250000 18.750000000  -999.250000 0.0349959955 0.5683517456 1.7829920053 93.572914124 169.82405090 165.35339355 1.0340000391 20.957000732 1.0750000477 1.0750000477
 779.25170898  -999.250000 18.500000000  -999.250000 0.0250000004 0.5478539467 1.7630032301 87.145637512 169.22485352 164.69340515 1.0759999752 21.454999924 1.0640000105 1.0640000105
 779.40411377  -999.250000 18.702999115  -999.250000 0.0250028037 0.5576100349 1.7710080147 92.482780457 168.77630615 164.26011658 1.0759999752 21.702999115 1.0620000362 1.0620000362
 779.55651855  -999.250000 18.672000885  -999.250000 0.0320036076 0.5327231288 1.7910156250 93.995193481 167.77862549 163.30990601 1.0800000429 21.200000763 1.0709999800 1.0709999800
 779.70892334  -999.250000 18.297000885  -999.250000 0.0409992002 0.5654165149 1.8300020695 97.239585876 168.33372498 163.83311462 1.0930000544 21.447999954 1.0700000525 1.0700000525
 779.86132813  -999.250000 18.156000137  -999.250000 0.0390024036 0.5317279100 1.8350056410 98.495994568 169.59503174 165.11500549 1.1089999676 21.195999146 1.0870000124 1.0870000124
 780.01373291  -999.250000 17.766000748  -999.250000 0.0419911891 0.5165851712 1.8419879675 100.11979675 169.32812500 164.79646301 1.1160000563 21.444000244 1.0759999752 1.0759999752
 780.16613770  -999.250000 18.437999725  -999.250000 0.0309951939 0.4980636835 1.8270047903 100.49880219 170.72418213 166.19325256 1.1219999790 20.940999985 1.0700000525 1.0700000525
 780.31848145  -999.250000 17.891000748  -999.250000 0.0250008013 0.5151613355 1.8329939842 101.74549103 171.48658752 166.99835205 1.1280000210 20.688999176 1.0529999733 1.0529999733
 780.47088623  -999.250000 17.983999252  -999.250000 0.0270084105 0.5683611631 1.8179975748 100.37995911 171.48190308 166.94851685 1.1159824133 21.437000275 1.0429999828 1.0429999828
 780.62329102  -999.250000 18.077999115  -999.250000 0.0480028056 0.5712927580 1.8120003939 97.261260986 171.11143494 166.64361572 1.0719876289 21.184999466 1.0470000505 1.0470000505
 780.77569580  -999.250000 17.641000748  -999.250000 0.0549931899 0.5781018734 1.8129999638 90.213455200 170.47659302 165.96348572 1.0409896374 22.183000565 1.0629999638 1.0629999638
 780.92810059  -999.250000 17.922000885  -999.250000 0.0379967950 0.5078144670 1.8130084276 88.630630493 169.33772278 164.84492493 1.0149931908 22.430000305 1.0729999542 1.0729999542
 781.08050537  -999.250000 18.047000885  -999.250000 0.0299939923 0.5190685391 1.8339971304 90.119590759 169.67028809 165.20336914 0.9980068207 22.677999496 1.0850000381 1.0850000381
 781.23291016  -999.250000 17.952999115  -999.250000 0.0149991987 0.5903438926 1.8269859552 96.477020264 169.58869934 165.04498291 1.0150020123 22.926000595 1.0889999866 1.0889999866
 781.38531494  -999.250000 18.108999252  -999.250000 0.0129955951 0.6249898076 1.7919864655 99.926986694 169.62326050 165.15011597 1.0200071335 23.173999786 1.0800000429 1.0800000429
 781.53771973  -999.250000 17.983999252  -999.250000 0.0019979978 0.5995792747 1.7579979897 102.18079376 169.20605469 164.66172791 1.0379971266 23.172000885 1.0920000076 1.0920000076
 781.69012451  -999.250000 18.108999252  -999.250000 -0.002998397 0.5229542851 1.7530188560 97.390419006 169.02389526 164.48323059 1.0310040712 22.419000626 1.0740000010 1.0740000010
 781.84252930  -999.250000 18.202999115  -999.250000 0.0009991991 0.5337079763 1.8000320196 94.260009766 169.74880981 165.25846863 1.0410112143 22.416999817 1.0690000057 1.0690000057
 781.99493408  -999.250000 18.516000748  -999.250000 0.0000016019 0.5561539531 1.8400200605 90.076416016 168.77618408 164.24668884 1.0550119877 21.915000916 1.0789999962 1.0789999962
 782.14733887  -999.250000 18.547000885  -999.250000 0.0019975973 0.5610086918 1.8650064468 93.364387512 168.60997009 164.15176392 1.0699968338 21.913000107 1.0559999943 1.0559999943
 782.29968262  -999.250000 18.422000885  -999.250000 -0.000996396 0.5219701529 1.8729996681 93.188674927 168.23046875 163.70675659 1.0660032034 20.659999847 1.0909999609 1.0909999609
 782.45208740  -999.250000 18.391000748  -999.250000 0.0080012018 0.5224466920 1.8719923496 93.997070313 168.18424988 163.64457703 1.0740000010 20.408000946 1.0520000458 1.0520000458
 782.60449219  -999.250000 18.125000000  -999.250000 0.0110032037 0.4892891347 1.8530015945 91.696334839 168.76091003 164.25828552 1.0739955902 20.156000137 1.0759999752 1.0759999752
 782.75689697  -999.250000 17.922000885  -999.250000 0.0189979970 0.5620025396 1.8570028543 94.428092957 169.02389526 164.48158264 1.0630071163 19.903999329 1.0690000057 1.0690000057
 782.90930176  -999.250000 18.077999115  -999.250000 0.0140004009 0.5434781909 1.8640159369 99.918182373 169.71119690 165.21183777 1.0809875727 19.652000427 1.0629999638 1.0629999638
 783.06170654  -999.250000 18.125000000  -999.250000 0.0149971964 0.5888498425 1.9039920568 97.633338928 168.57540894 164.04164124 1.0499931574 19.399000168 1.0720000267 1.0720000267
