# LAS format log file from PETREL
# Project units are specified as depth units
#==================================================================
~Version information
VERS.   2.0:
WRAP.   NO:
#==================================================================
~Well
STRT .m      376.12503052 :
STOP .m      2088.7500000 :
STEP .m     0.00000000 :
NULL .        -999.250000 :
COMP.           : COMPANY
WELL.  31/6-5   : WELL
FLD.            : FIELD
LOC.            : LOCATION
SRVC.           : SERVICE COMPANY
DATE.  2018-09-11 14:48:40   : Log Export Date {yyyy-MM-dd HH:mm:ss}
PROV.           : PROVINCE
UWI.   31/6-5   : UNIQUE WELL ID
API.            : API NUMBER
#==================================================================
~Curve
DEPT .m                   : DEPTH
Lithology_geolink ._      : Lithology_geolink
CALI .in                  : CALI
BS .in                    : BS
DRHO .g/cm3               : DRHO
NPHI .m3/m3               : NPHI
RHOB .g/cm3               : RHOB
GR .gAPI                  : GR
DTC .us/ft                : DTC
DTE .us/ft                : DTE
RDEP .ohm.m               : RDEP
SP .mV                    : SP
RSHA .ohm.m               : RSHA
RMED .ohm.m               : RMED
~Parameter
#==================================================================
~Ascii
 376.12503052  -999.250000 0.0000000000  -999.250000  -999.250000  -999.250000 2.0000000000 66.844879150 186.31829834 181.97019958 0.0000000000 -82.86000061 0.0001000000 0.0000000000
 376.25006104  -999.250000 0.0000000000  -999.250000  -999.250000  -999.250000 2.0000000000 64.541473389 186.31829834 181.97019958 0.0000000000 -82.86000061 0.0001000000 0.0000000000
 376.37503052  -999.250000 0.0000000000  -999.250000  -999.250000  -999.250000 2.0000000000 64.006690979 186.31829834 181.97019958 0.0000000000 -82.86000061 0.0001000000 0.0000000000
 376.50003052  -999.250000 0.0000000000  -999.250000  -999.250000  -999.250000 2.0000000000 64.950004578 186.32661438 181.97019958 0.0000000000 -82.86000061 0.0001000000 0.0000000000
 376.62503052  -999.250000 0.0000000000  -999.250000  -999.250000  -999.250000 2.0000000000 66.326637268 186.32769775 181.97019958 0.0000000000 -82.86000061 0.0001000000 0.0000000000
 376.75003052  -999.250000 0.0000000000  -999.250000  -999.250000  -999.250000 2.0000000000 67.202926636 186.31829834 181.97019958 0.0000000000 -82.86000061 0.0001000000 0.0000000000
 376.87500000  -999.250000 0.0000000000  -999.250000  -999.250000  -999.250000 2.0000000000 67.097793579 186.31829834 181.97019958 0.0000000000 -82.86000061 0.0001000000 0.0000000000
 377.00003052  -999.250000 0.0000000000  -999.250000  -999.250000  -999.250000 2.0000000000 66.682785034 186.31829834 181.97019958 0.0000000000 -82.86000061 0.0001000000 0.0000000000
 377.12506104  -999.250000 0.0000000000  -999.250000  -999.250000  -999.250000 2.0000000000 66.240615845 186.31829834 181.97019958 0.0000000000 -82.86000061 0.0001000000 0.0000000000
 377.25003052  -999.250000 0.0000000000  -999.250000  -999.250000  -999.250000 2.0000000000 65.851219177 186.31829834 181.97019958 0.0000000000 -82.86000061 0.0001000000 0.0000000000
 377.37503052  -999.250000 0.0000000000  -999.250000  -999.250000  -999.250000 2.0000000000 66.158256531 186.32051086 181.97019958 0.0000000000 -82.86000061 0.0001000000 0.0000000000
 377.50003052  -999.250000 0.0000000000  -999.250000  -999.250000  -999.250000 2.0000000000 66.516716003 186.32493591 181.97019958 0.0000000000 -82.86000061 0.0001000000 0.0000000000
 377.62503052  -999.250000 0.0000000000  -999.250000  -999.250000  -999.250000 2.0000000000 66.128341675 186.31878662 181.97019958 0.0000000000 -82.86000061 0.0001000000 0.0000000000
 377.75000000  -999.250000 0.0000000000  -999.250000  -999.250000  -999.250000 2.0000000000 65.235359192 186.31829834 181.97019958 0.0000000000 -82.86000061 0.0001000000 0.0000000000
 377.87503052  -999.250000 0.0000000000  -999.250000  -999.250000  -999.250000 2.0000000000 63.929492950 186.31829834 181.97019958 0.0000000000 -82.86000061 0.0001000000 0.0000000000
 378.00006104  -999.250000 0.0000000000  -999.250000  -999.250000  -999.250000 2.0000000000 62.893753052 186.31829834 181.97019958 0.0000000000 -82.86000061 0.0001000000 0.0000000000
 378.12503052  -999.250000 0.0000000000  -999.250000  -999.250000  -999.250000 2.0000000000 62.641609192 186.31829834 181.97019958 0.0000000000 -82.86000061 0.0001000000 0.0000000000
 378.25003052  -999.250000 0.0000000000  -999.250000  -999.250000  -999.250000 2.0000000000 63.477409363 186.31857300 181.97019958 0.0000000000 -82.86000061 0.0001000000 0.0000000000
 378.37503052  -999.250000 0.0000000000  -999.250000  -999.250000  -999.250000 2.0000000000 65.402717590 186.32473755 181.97019958 0.0000000000 -82.86000061 0.0001000000 0.0000000000
 378.50003052  -999.250000 0.0000000000  -999.250000  -999.250000  -999.250000 2.0000000000 69.113525391 186.32580566 181.97019958 0.0000000000 -82.86000061 0.0001000000 0.0000000000
 378.62500000  -999.250000 0.0000000000  -999.250000  -999.250000  -999.250000 2.0000000000 72.722648621 186.32206726 181.97019958 0.0000000000 -82.86000061 0.0001000000 0.0000000000
 378.75003052  -999.250000 4.9120001793  -999.250000  -999.250000  -999.250000 2.0000000000 76.091140747 186.31829834 181.97019958 2.1080000401 -98.50900269 0.1229640022 0.2870000005
 378.87503052  -999.250000 15.574000359  -999.250000  -999.250000  -999.250000 2.0000000000 78.436912537 186.31829834 181.97019958 6.6830000877 -132.4810028 0.3896749914 0.9089999795
 379.00003052  -999.250000 15.574000359  -999.250000  -999.250000  -999.250000 2.0000000000 79.689147949 186.31829834 181.97019958 6.6830000877 -132.4810028 0.3896749914 0.9089999795
 379.12503052  -999.250000 15.574000359  -999.250000  -999.250000  -999.250000 2.0000000000 79.889198303 186.34149170 181.97019958 6.6830000877 -132.4810028 0.3896749914 0.9089999795
 379.25003052  -999.250000 15.574000359  -999.250000  -999.250000  -999.250000 2.0000000000 78.798568726 186.33026123 181.97019958 6.6830000877 -132.4810028 0.3896749914 0.9089999795
 379.37503052  -999.250000 15.574000359  -999.250000  -999.250000  -999.250000 2.0000000000 76.838623047 186.32144165 181.97019958 6.6830000877 -132.4810028 0.3896749914 0.9089999795
 379.50000000  -999.250000 15.574000359  -999.250000  -999.250000  -999.250000 2.0000000000 74.403938293 186.32400513 181.97019958 6.6830000877 -132.4810028 0.3896749914 0.9089999795
 379.62503052  -999.250000 15.574000359  -999.250000  -999.250000  -999.250000 2.0000000000 72.239189148 186.31829834 181.97019958 6.6830000877 -132.4810028 0.3896749914 0.9089999795
 379.75003052  -999.250000 15.574000359  -999.250000  -999.250000  -999.250000 2.0000000000 70.580169678 186.31829834 181.97019958 6.6830000877 -132.4810028 0.3896749914 0.9089999795
 379.87503052  -999.250000 15.574000359  -999.250000  -999.250000  -999.250000 2.0000000000 69.439590454 186.31829834 181.97019958 6.6830000877 -132.4810028 0.3896749914 0.9089999795
 380.00003052  -999.250000 15.574000359  -999.250000  -999.250000  -999.250000 2.0000000000 56.580684662 186.31829834 181.97019958 6.6830000877 -132.4810028 0.3896749914 0.9089999795
 380.12503052  -999.250000 15.574000359  -999.250000  -999.250000  -999.250000 2.0000000000 20.681472778 186.31829834 181.97019958 6.6510000229 -132.5299988 0.3896400034 0.9079999924
 380.25003052  -999.250000 15.574999809  -999.250000  -999.250000  -999.250000 2.0000000000 21.326545715 186.31950378 181.97019958 6.5640001297 -132.6940002 0.3895930052 0.9049999714
 380.37500000  -999.250000 15.576001167  -999.250000  -999.250000  -999.250000 2.0000000000 21.884115219 186.32565308 181.97019958 6.4470000267 -133.0460052 0.3897069991 0.9029999971
 380.50003052  -999.250000 15.576999664  -999.250000  -999.250000  -999.250000 2.0000000000 22.117044449 186.31979370 181.97019958 6.2870001793 -133.3670044 0.3899599910 0.9039999843
 380.62503052  -999.250000 15.576999664  -999.250000  -999.250000  -999.250000 2.0000000000 22.205913544 186.31829834 181.97019958 6.1100001335 -133.4839935 0.3902109861 0.9070000052
 380.75003052  -999.250000 15.578000069  -999.250000  -999.250000  -999.250000 2.0000000000 22.087823868 186.31829834 181.97019958 5.9520001411 -133.4190063 0.3903959990 0.9110000134
 380.87503052  -999.250000 15.578000069  -999.250000  -999.250000  -999.250000 2.0000000000 21.848798752 186.31829834 181.97019958 5.8309998512 -133.2579956 0.3904860020 0.9120000005
 381.00003052  -999.250000 15.576999664  -999.250000  -999.250000  -999.250000 2.0000000000 21.573873520 186.31829834 181.97019958 5.7550001144 -133.1219940 0.3904820085 0.9100000262
 381.12503052  -999.250000 15.574999809  -999.250000  -999.250000  -999.250000 2.0000000000 21.401004791 186.31829834 181.97019958 5.7189998627 -133.1360016 0.3904129863 0.9039999843
 381.25000000  -999.250000 15.574000359  -999.250000  -999.250000  -999.250000 2.0000000000 21.413105011 186.31829834 181.97019958 5.7150001526 -133.2339935 0.3903509974 0.9010000229
 381.37503052  -999.250000 15.574000359  -999.250000  -999.250000  -999.250000 2.0000000000 21.629140854 186.32237244 181.97019958 5.7360000610 -133.3529968 0.3903869987 0.9029999971
 381.50003052  -999.250000 15.574999809  -999.250000  -999.250000  -999.250000 2.0000000000 21.821958542 186.32580566 181.97019958 5.7690000534 -133.4680023 0.3905780017 0.9089999795
