# LAS format log file from PETREL
# Project units are specified as depth units
#==================================================================
~Version information
VERS.   2.0:
WRAP.   NO:
#==================================================================
~Well
STRT .m      669.21893311 :
STOP .m      2146.7373047 :
STEP .m     0.00000000 :
NULL .        -999.250000 :
COMP.           : COMPANY
WELL.  31/6-8   : WELL
FLD.            : FIELD
LOC.            : LOCATION
SRVC.           : SERVICE COMPANY
DATE.  2018-09-11 14:48:41   : Log Export Date {yyyy-MM-dd HH:mm:ss}
PROV.           : PROVINCE
UWI.   31/6-8   : UNIQUE WELL ID
API.            : API NUMBER
#==================================================================
~Curve
DEPT .m                   : DEPTH
Lithology_geolink ._      : Lithology_geolink
CALI .in                  : CALI
BS .in                    : BS
DRHO .g/cm3               : DRHO
NPHI .m3/m3               : NPHI
RHOB .g/cm3               : RHOB
GR .gAPI                  : GR
DTC .us/ft                : DTC
DTE .us/ft                : DTE
RDEP .ohm.m               : RDEP
SP .mV                    : SP
RSHA .ohm.m               : RSHA
RMED .ohm.m               : RMED
~Parameter
#==================================================================
~Ascii
# ...
 2137.7456055  -999.250000 8.2500000000  -999.250000 -0.008004808 0.2188133746 2.3279151917 30.725681305  -999.250000  -999.250000 0.4240176380 86.398231506 0.6891040206 0.6902580261
 2137.8981934  -999.250000 8.2500000000  -999.250000 -0.011000000 0.2583000064 2.2748076916 0.3234912157  -999.250000  -999.250000 0.4350705147 86.201309204 0.8507419825 0.8501250148
 2138.0505371  -999.250000 8.2500000000  -999.250000 -0.010996795 0.2583313286 2.2149357796 101.08647919  -999.250000  -999.250000 0.4571410120 86.224960327 0.5784375072 0.5774615407
 2138.2028809  -999.250000 8.2500000000  -999.250000 -0.010006400 0.2680324912 2.1950254440 98.205139160  -999.250000  -999.250000 0.5010511875 86.590415955 0.4102692306 0.4098592103
 2138.3552246  -999.250000 8.2500000000  -999.250000 -0.011988782 0.2563578188 2.2030353546 59.008659363  -999.250000  -999.250000 0.5169519186 86.437492371 0.3661407828 0.3660064042
 2138.5078125  -999.250000 8.2500000000  -999.250000 -0.005003205 0.2612002492 2.2249870300 38.237983704  -999.250000  -999.250000 0.4868525565 86.097541809 0.3699935973 0.3700128198
 2138.6601563  -999.250000 8.2500000000  -999.250000 -0.005990385 0.2519375086 2.2209870815 38.232994080  -999.250000  -999.250000 0.4408782125 85.793487549 0.3739936054 0.3741057813
 2138.8125000  -999.250000 8.3050003052  -999.250000 -0.003019231 0.2480374724 2.2169423103 38.228992462  -999.250000  -999.250000 0.4029134512 85.539405823 0.4069471061 0.4070769250
 2138.9648438  -999.250000 8.2500000000  -999.250000 -0.009006400 0.2441571802 2.1989743710 38.224990845  -999.250000  -999.250000 0.3759839833 85.076484680 0.4309231937 0.4311600029
 2139.1174316  -999.250000 8.2500000000  -999.250000 -0.011006410 0.2495350391 2.1909775734 38.219989777  -999.250000  -999.250000 0.3710032105 84.847366333 0.4809198678 0.4809391201
 2139.2697754  -999.250000 8.2500000000  -999.250000 -0.013003205 0.2573623061 2.1839935780 38.215991974  -999.250000  -999.250000 0.3719967902 85.284301758 0.4620304704 0.4619038701
 2139.4221191  -999.250000 8.2969999313  -999.250000 -0.014000000 0.2705209851 2.1819870472 38.210990906  -999.250000  -999.250000 0.3710032105 85.723297119 0.4320480824 0.4319038689
 2139.5744629  -999.250000 8.3129997253  -999.250000 -0.014003200 0.2739330828 2.1780064106 38.206993103  -999.250000  -999.250000 0.3719744086 86.162300110 0.4020480812 0.4019552171
 2139.7268066  -999.250000 8.1639995575  -999.250000 -0.015006410 0.2748765051 2.1799969673 38.201992035  -999.250000  -999.250000 0.3639903665 86.387283325 0.3880448043 0.3879791796
 2139.8793945  -999.250000 8.1479997635  -999.250000 -0.019006409 0.2601983547 2.1780128479 38.197990417  -999.250000  -999.250000 0.3580064178 86.484848022 0.3750208318 0.3749647439
 2140.0317383  -999.250000 8.1479997635  -999.250000 -0.021016026 0.2441055775 2.1819934845 38.194000244  -999.250000  -999.250000 0.3600000143 86.709640503 0.3640176356 0.3640192151
 2140.1840820  -999.250000 8.1479997635  -999.250000 -0.025993600 0.2334000021 2.1800065041 38.194007874  -999.250000  -999.250000 0.3600096107 87.076416016 0.3699903786 0.3700447977
 2140.3364258  -999.250000 8.1479997635  -999.250000 -0.023995193 0.2334000021 2.1819968224 38.199008942  -999.250000  -999.250000 0.3630672991 87.392982483 0.3839552104 0.3840272427
 2140.4890137  -999.250000 8.1479997635  -999.250000 -0.020987179 0.2334000021 2.1800353527 38.204010010  -999.250000  -999.250000 0.4055064023 87.473869324 0.4009727538 0.4009999931
 2140.6413574  -999.250000 8.1479997635  -999.250000 -0.016987180 0.2334000021 2.1910512447 38.208007813  -999.250000  -999.250000 0.5633686185 87.322242737 0.4009999931 0.4010640979
 2140.7937012  -999.250000 8.1479997635  -999.250000 -0.012987180 0.2334000021 2.2070641518 38.213008881  -999.250000  -999.250000 0.6780288219 87.171241760 0.4209679663 0.4212147593
 2140.9460449  -999.250000 8.1479997635  -999.250000 -0.009009600 0.2334000021 2.2270352840 38.218006134  -999.250000  -999.250000 0.6868495941 87.020477295 0.4877856076 0.4880895913
 2141.0986328  -999.250000 8.1479997635  -999.250000 -0.012000000 0.2334000021 2.2380576134 38.223011017  -999.250000  -999.250000 0.6398845911 86.868240356 0.5159550905 0.5162275434
 2141.2509766  -999.250000 8.1479997635  -999.250000 -0.011996795 0.2334000021 2.2560384274 38.227016449  -999.250000  -999.250000 0.6038877964 86.613410950 0.5868862271 0.5875641108
 2141.4033203  -999.250000 8.1479997635  -999.250000 -0.011000000 0.2334000021 2.2679998875 38.232013702  -999.250000  -999.250000 0.5689006448 86.173698425 0.7627179623 0.7623621821
 2141.5556641  -999.250000 8.1479997635  -999.250000 -0.011003200 0.2334000021 2.2679421902 38.237014771  -999.250000  -999.250000 0.5379008055 85.733703613 0.5643188953 0.5634592175
 2141.7080078  -999.250000 8.1479997635  -999.250000 -0.012001603 0.2334000021 2.2499470711 38.242008209  -999.250000  -999.250000 0.5069519281 85.440940857 0.3955408037 0.3949679732
 2141.8605957  -999.250000 8.1479997635  -999.250000 -0.013000000 0.2334000021 2.2169165611 38.246013641  -999.250000  -999.250000 0.4769134521 85.698585510 0.3750320375 0.3749903738
 2142.0129395  -999.250000 8.1719999313  -999.250000 -0.012990385 0.2333968580 2.1909582615 38.251014709  -999.250000  -999.250000 0.4499551058 85.956588745 0.3720048070 0.3719903827
 2142.1652832  -999.250000 8.2500000000  -999.250000 -0.009993600 0.2324200124 2.1779999733 38.256011963  -999.250000  -999.250000 0.4359839857 86.211585999 0.3690047860 0.3690031767
 2142.3176270  -999.250000 8.2500000000  -999.250000 -0.007991987 0.2324200124 2.1780030727 38.260005951  -999.250000  -999.250000 0.4309919775 86.417343140 0.3699968159 0.3700032234
 2142.4702148  -999.250000 8.2500000000  -999.250000 -0.003006410 0.2324200124 2.1799936295 38.265014648  -999.250000  -999.250000 0.4259775579 86.622673035 0.3719967902 0.3719967902
 2142.6225586  -999.250000 8.2500000000  -999.250000 -0.005003205 0.2324200124 2.1779806614 38.270015717  -999.250000  -999.250000 0.4189871848 86.828674316 0.3710016012 0.3709999919
 2142.7749023  -999.250000 8.2500000000  -999.250000 -0.005996795 0.2324247211 2.1719741821 38.275012970  -999.250000  -999.250000 0.4149935842 87.033668518 0.3709999919 0.3710096180
 2142.9272461  -999.250000 8.1330003738  -999.250000 -0.004984000 0.2339540571 2.1639935970 38.279014587  -999.250000  -999.250000 0.4130031765 87.239341736 0.3739904165 0.3740064204
 2143.0798340  -999.250000 6.0199999809  -999.250000 0.0000256410 0.2539193928 2.1619870663 38.284015656  -999.250000  -999.250000 0.4140032232 87.444671631 0.3759967685 0.3759999871
 2143.2321777  -999.250000 5.7030000687  -999.250000 0.0080288462 0.2568321526 2.1579806805 38.289016724  -999.250000  -999.250000 0.4149967730 87.650672913 0.3759999871 0.3759999871
 2143.3845215  -999.250000 5.9569997787  -999.250000 0.0170544889 0.2543853223 2.1520128250 38.294010162  -999.250000  -999.250000 0.4140032232 87.857673645 0.3759999871 0.3759999871
 2143.5368652  -999.250000 6.1409997940  -999.250000 0.0339936018 0.2529331148 2.1559584141 38.298015594  -999.250000  -999.250000 0.4149456024 88.074645996 0.3759999871 0.3759967983
 2143.6892090  -999.250000 6.0229992867  -999.250000 0.0320000015 0.2539107800 2.1429839134 38.303009033  -999.250000  -999.250000 0.3980032206 88.292304993 0.3750031888 0.3750000000
 2143.8417969  -999.250000 5.9380002022  -999.250000 0.0319647454 0.2543962896 2.1329102516 38.308044434  -999.250000  -999.250000 0.4000096321 88.341926575 0.3750000000 0.3750032187
 2143.9941406  -999.250000 5.7699999809  -999.250000 0.0210128203 0.2563562691 2.1049711704 38.322048187  -999.250000  -999.250000 0.4030064046 88.009536743 0.3759983778 0.3759967685
 2144.1464844  -999.250000 5.5430002213  -999.250000 0.0249840003 0.2583000064 2.0959296227 38.337051392  -999.250000  -999.250000 0.4050064087 87.675537109 0.3750016093 0.3750000000
 2144.2988281  -999.250000 5.5200004578  -999.250000 0.0200144220 0.2583000064 2.0739967823 38.352024078  -999.250000  -999.250000 0.4070032239 87.343070984 0.3750000000 0.3750000000
