# LAS format log file from PETREL
# Project units are specified as depth units
#==================================================================
~Version information
VERS.   2.0:
WRAP.   NO:
#==================================================================
~Well
STRT .m      830.01916504 :
STOP .m      1294.2294922 :
STEP .m     0.00000000 :
NULL .        -999.250000 :
COMP.           : COMPANY
WELL.  32/2-1   : WELL
FLD.            : FIELD
LOC.            : LOCATION
SRVC.           : SERVICE COMPANY
DATE.  2018-09-11 14:48:41   : Log Export Date {yyyy-MM-dd HH:mm:ss}
PROV.           : PROVINCE
UWI.   32/2-1   : UNIQUE WELL ID
API.            : API NUMBER
#==================================================================
~Curve
DEPT .m                   : DEPTH
Lithology_geolink ._      : Lithology_geolink
CALI .in                  : CALI
BS .in                    : BS
ROP .m/h                  : ROP
DRHO .g/cm3               : DRHO
NPHI .m3/m3               : NPHI
RHOB .g/cm3               : RHOB
PEF .b/e                  : PEF
GR .gAPI                  : GR
DTC .us/ft                : DTC
DTS .us/ft                : DTS
RDEP .ohm.m               : RDEP
RSHA .ohm.m               : RSHA
RMED .ohm.m               : RMED
~Parameter
#==================================================================
~Ascii
# ...
 1167.4327393 2.0000000000 8.5719995499 8.5000000000 190593.71875 0.0719999969 0.4190999866 2.5659999847 3.0927000046 63.281898499 92.116645813  -999.250000 4.4977002144 4.5434999466 4.5065999031
 1167.5850830 2.0000000000 8.5759000778 8.5000000000 191708.64063 0.0669040829 0.4409824908 2.5550088882 3.2295904160 65.705757141 93.220512390  -999.250000 4.4469404221 4.5234160423 4.4717283249
 1167.7375488 2.0000000000 8.5444002151 8.5000000000 191156.39063 0.0600999966 0.4514999986 2.5436999798 3.0713999271 68.143203735 92.769760132  -999.250000 4.3063001633 4.3674998283 4.3276000023
 1167.8898926 2.0000000000 8.4650001526 8.5000000000 187828.56250 0.0515068844 0.4186263382 2.5209183693 3.0821914673 70.936965942 92.222045898  -999.250000 4.3187899590 4.3683991432 4.2980237007
 1168.0422363 2.0000000000 8.4607000351 8.5000000000 181976.75000 0.0591938309 0.3745353520 2.5413835049 2.9625959396 72.786918640 91.961418152  -999.250000 4.2925209999 4.4095668793 4.2970008850
 1168.1947021 2.0000000000 8.6145000458 8.5000000000 179270.28125 0.0854789466 0.4664263427 2.5692775249 2.9707932472 75.186279297 91.789733887  -999.250000 4.3318686485 4.4215903282 4.3395657539
 1168.3470459 2.0000000000 8.6700000763 8.5000000000 177068.87500 0.1201721877 0.4613041580 2.5804908276 2.8388059139 72.610366821 91.551681519  -999.250000 4.3450894356 4.3997178078 4.3055272102
 1168.4995117 2.0000000000 8.6677999496 8.5000000000 171427.31250 0.1744000018 0.4347000122 2.6010999680 2.7474000454 70.509002686 90.777420044  -999.250000 4.2473998070 4.3621001244 4.2867999077
 1168.6518555 2.0000000000 8.8239002228 8.5000000000 173262.60938 0.2079731077 0.4612786770 2.6180863380 2.9090704918 66.116516113 90.834312439  -999.250000 4.2126278877 4.3228316307 4.2211523056
 1168.8043213 2.0000000000 8.6632995605 8.5000000000 180497.15625 0.1884000003 0.5121999979 2.6047000885 3.1940000057 66.209297180 89.715003967  -999.250000 4.2621002197 4.3903999329 4.2870998383
 1168.9566650 2.0000000000 8.6777000427 8.5000000000 176090.40625 0.1623208970 0.5163966417 2.5862147808 3.2222774029 66.742568970 90.748474121  -999.250000 4.2977714539 4.4232735634 4.3020882607
 1169.1091309 2.0000000000 8.7496004105 8.5000000000 173666.51563 0.1600999981 0.4564999938 2.5724999905 2.9667000771 70.352996826 96.178649902  -999.250000 4.3383998871 4.4046001434 4.3151001930
 1169.2614746 2.0000000000 8.7606000900 8.5000000000 173262.60938 0.1797842383 0.5035622716 2.5716006756 2.6340665817 72.062728882 94.983650208  -999.250000 4.3647789955 4.3765225410 4.3485732079
 1169.4139404 2.0000000000 8.5696001053 8.5000000000 186744.95313 0.1788000017 0.4808000028 2.5541999340 2.6122999191 72.067100525 94.556846619  -999.250000 4.4010000229 4.4179000854 4.3875999451
 1169.5662842 2.0000000000 8.5640001297 8.5000000000 195176.89063 0.1490238607 0.4839974344 2.5176293850 2.5676357746 72.369659424 93.809104919  -999.250000 4.3532381058 4.3325681686 4.3248500824
 1169.7187500 2.0000000000 8.5163002014 8.5000000000 191142.71875 0.1283999979 0.4533999860 2.5123999119 2.7551000118 70.961502075 91.872947693  -999.250000 4.2621998787 4.2657999992 4.2581000328
 1169.8710938 2.0000000000 8.6155004501 8.5000000000 185142.96875 0.1191074401 0.5023607612 2.5385789871 2.9500439167 68.237083435 91.899681091  -999.250000 4.3155570030 4.4052882195 4.3273448944
 1170.0235596 2.0000000000 8.6800003052 8.5000000000 173262.60938 0.1115000024 0.4860999882 2.5620999336 3.2602999210 67.135696411 92.467742920  -999.250000 4.5262999535 4.6237001419 4.5113000870
 1170.1759033 2.0000000000 8.6499996185 8.5000000000 173262.60938 0.1201930270 0.4744093716 2.5790863037 3.3039648533 70.212532043 93.250175476  -999.250000 4.6563954353 4.7295150757 4.6210122108
 1170.3282471 2.0000000000 8.6617002487 8.5000000000 173262.60938 0.1128059328 0.4476214945 2.5477252007 3.1418299675 74.099388123 94.112319946  -999.250000 4.7098569870 4.7551794052 4.6852483749
 1170.4807129 2.0000000000 8.6645002365 8.5000000000 173262.60938 0.1113011986 0.4596903026 2.5239191055 2.7460169792 74.448928833 92.881683350  -999.250000 4.6942124367 4.6996445656 4.6503281593
 1170.6330566 2.0000000000 8.5921001434 8.5000000000 173262.60938 0.1018076167 0.5844998956 2.5069136620 2.5098891258 72.869163513 92.524574280  -999.250000 4.6687207222 4.5673060417 4.6032376289
 1170.7855225 2.0000000000 8.5773000717 8.5000000000 2959576.2500 0.1013000011 0.4925999939 2.5215001106 2.4890000820 73.737297058 92.927780151  -999.250000 4.6191000938 4.6332001686 4.5957999229
 1170.9378662 2.0000000000 8.5953998566 8.5000000000 2959576.2500 0.0957044885 0.4499341846 2.5411841869 2.8943753242 74.973007202 92.623985291  -999.250000 4.5398635864 4.5422730446 4.5293536186
 1171.0903320 2.0000000000 8.5237998962 8.5000000000 245991.96875 0.0918999985 0.4544999897 2.5527999401 3.0329999924 76.976303101 92.368507385  -999.250000 4.5415000916 4.5830001831 4.5465002060
 1171.2426758 2.0000000000 8.4590997696 8.5000000000 252461.15625 0.0793100893 0.4902713299 2.5347144604 3.0420925617 77.100402832 91.821151733  -999.250000 4.5929589272 4.6675324440 4.6026554108
 1171.3951416 2.0000000000 8.4736995697 8.5000000000 285378.12500 0.0843999982 0.4914999902 2.5257000923 2.6438000202 79.911598206 90.964385986  -999.250000 4.6396999359 4.6992001534 4.6367998123
 1171.5474854 2.0000000000 8.4968004227 8.5000000000 297126.37500 0.0782049596 0.4563281834 2.5133099556 2.6112260818 80.024009705 90.043243408  -999.250000 4.6537885666 4.7477607727 4.6480908394
 1171.6999512 2.0000000000 8.5563001633 8.5000000000 292043.53125 0.0778999999 0.4796000123 2.5123999119 2.6833999157 79.150100708 89.321289063  -999.250000 4.6547999382 4.7266001701 4.6230998039
 1171.8522949 2.0000000000 8.5380001068 8.5000000000 266254.93750 0.0940870270 0.5029813051 2.5303857327 2.6515254974 77.765609741 89.217880249  -999.250000 4.6240248680 4.6396694183 4.5714416504
 1172.0047607 2.0000000000 8.5441999435 8.5000000000 256371.84375 0.1066000015 0.4740000069 2.5294001102 2.6314001083 79.362899780 89.542549133  -999.250000 4.5251998901 4.4685997963 4.4594998360
 1172.1571045 2.0000000000 8.4654998779 8.5000000000 238237.92188 0.1301811039 0.5034763813 2.5522816181 2.6694695950 81.657363892 89.591072083  -999.250000 4.4509596825 4.3869652748 4.3703713417
 1172.3094482 5.0000000000 8.4737997055 8.5000000000 293078.87500 0.1233055294 0.5349748135 2.5503015518 2.8726372719 84.791893005 90.855873108  -999.250000 4.1404490471 4.0488710403 4.0809321404
 1172.4619141 5.0000000000 8.5331001282 8.5000000000 332316.00000 0.1181041673 0.4912350774 2.5625901222 3.2674839497 85.943275452 92.223503113  -999.250000 4.1094245911 4.0629887581 4.0611157417
 1172.6142578 5.0000000000 8.5557003021 8.5000000000 332316.00000 0.0980161056 0.5197771192 2.5515089035 3.1330080032 87.783126831 93.981185913  -999.250000 4.1369781494 4.0776882172 4.1071634293
 1172.7667236 5.0000000000 8.5488996506 8.5000000000 304242.12500 0.0909999982 0.5235999823 2.5288999081 3.0599999428 87.359199524 97.221305847  -999.250000 4.1374998093 4.0792999268 4.1185998917
 1172.9190674 5.0000000000 8.6374998093 8.5000000000 304731.71875 0.0973948762 0.6088317037 2.5194075108 2.7306640148 87.655464172 99.051773071  -999.250000 4.1686754227 4.1330571175 4.1517734528
 1173.0715332 5.0000000000 8.6536998749 8.5000000000 304231.31250 0.1243999973 0.4562000036 2.5269999504 2.7081999779 87.596603394 98.011642456  -999.250000 4.2588000298 4.2891001701 4.2449998856
 1173.2238770 5.0000000000 8.6561002731 8.5000000000 314296.56250 0.1589722931 0.5005644560 2.5403892994 2.5599186420 90.063224792 96.264801025  -999.250000 4.3787040710 4.5027289391 4.3947796822
 1173.3763428 5.0000000000 8.7351999283 8.5000000000 329504.40625 0.1752000004 0.5062000155 2.5376999378 2.4549999237 91.178298950 94.727325439  -999.250000 4.5529999733 4.6689000130 4.5524001122
 1173.5286865 5.0000000000 8.7128000259 8.5000000000 366097.68750 0.1786971986 0.5079985857 2.5345025063 2.5097560883 90.288208008 92.951728821  -999.250000 4.6862931252 4.7586278915 4.6811971664
