# LAS format log file from PETREL
# Project units are specified as depth units
#==================================================================
~Version information
VERS.   2.0:
WRAP.   NO:
#==================================================================
~Well
STRT .m      830.01916504 :
STOP .m      1294.2294922 :
STEP .m     0.00000000 :
NULL .        -999.250000 :
COMP.           : COMPANY
WELL.  32/2-1   : WELL
FLD.            : FIELD
LOC.            : LOCATION
SRVC.           : SERVICE COMPANY
DATE.  2018-09-11 14:48:41   : Log Export Date {yyyy-MM-dd HH:mm:ss}
PROV.           : PROVINCE
UWI.   32/2-1   : UNIQUE WELL ID
API.            : API NUMBER
#==================================================================
~Curve
DEPT .m                   : DEPTH
Lithology_geolink ._      : Lithology_geolink
CALI .in                  : CALI
BS .in                    : BS
ROP .m/h                  : ROP
DRHO .g/cm3               : DRHO
NPHI .m3/m3               : NPHI
RHOB .g/cm3               : RHOB
PEF .b/e                  : PEF
GR .gAPI                  : GR
DTC .us/ft                : DTC
DTS .us/ft                : DTS
RDEP .ohm.m               : RDEP
RSHA .ohm.m               : RSHA
RMED .ohm.m               : RMED
~Parameter
#==================================================================
~Ascii
# ...
 986.22912598 16.000000000 8.2919998169 8.5000000000 332316.00000 0.0531034060 0.3539660871 2.6284916401 4.2078824043 63.444530487 87.521339417  -999.250000 3.0292143822 3.0677940845 3.0253202915
 986.38153076 16.000000000 8.2852001190 8.5000000000 338693.03125 0.0506010018 0.4021807015 2.5641257763 3.8292515278 79.905906677 97.439544678  -999.250000 2.7625067234 2.9700391293 2.8221812248
 986.53393555 6.0000000000 8.2821998596 8.5000000000 337513.68750 0.0531989560 0.3686134815 2.4937281609 3.4115674496 94.504257202 101.00644684  -999.250000 2.5258946419 2.7909717560 2.6171820164
 986.68627930 6.0000000000 8.2950000763 8.5000000000 348419.87500 0.0695868656 0.3168414831 2.4484362602 3.0422959328 94.408081055 107.38982391  -999.250000 2.4239814281 2.6545095444 2.5050899982
 986.83868408 6.0000000000 8.2950000763 8.5000000000 350274.96875 0.0852874219 0.3454770148 2.4230203629 2.9409811497 93.589653015 111.28352356  -999.250000 2.3703429699 2.5462865829 2.4337573051
 986.99108887 6.0000000000 8.3373003006 8.5000000000 355533.84375 0.0827020854 0.4123464227 2.3741390705 2.9363036156 95.941413879 115.35240936  -999.250000 2.3130457401 2.4094097614 2.3533644676
 987.14349365 6.0000000000 8.3224000931 8.5000000000 366097.68750 0.0814005211 0.3797131181 2.3546078205 2.8603305817 97.417510986 114.56924438  -999.250000 2.1390695572 2.1752936840 2.1578783989
 987.29589844 6.0000000000 8.3414001465 8.5000000000 381187.43750 0.0776015297 0.3556096554 2.3411056995 2.8372092247 94.256965637 118.06778717  -999.250000 1.9077925682 1.9617854357 1.9220944643
 987.44830322 6.0000000000 8.3275003433 8.5000000000 499103.62500 0.0842973143 0.3996823132 2.3534948826 2.8854806423 90.843368530 119.17241669  -999.250000 1.9567803144 2.0095808506 1.9525877237
 987.60070801 6.0000000000 8.3284997940 8.5000000000 563124.56250 0.0913971514 0.3756096661 2.3494017124 2.9049921036 91.732742310 117.21366882  -999.250000 1.9252126217 1.9616191387 1.9192132950
 987.75311279 6.0000000000 8.3327999115 8.5000000000 608535.37500 0.0991968811 0.3755000234 2.3387043476 2.8457238674 93.805366516 116.74747467  -999.250000 1.9087065458 1.9341109991 1.9215990305
 987.90551758 6.0000000000 8.3517999649 8.5000000000 617114.12500 0.1004994810 0.3275192082 2.3234062195 2.6837649345 96.069190979 117.00759125  -999.250000 1.7772526741 1.7945559025 1.7714601755
 988.05792236 6.0000000000 8.3795995712 8.5000000000 617114.12500 0.1000002027 0.3299989998 2.3101053238 2.6617088318 94.386268616 117.16157532  -999.250000 1.5559885502 1.5746880770 1.5405925512
 988.21032715 6.0000000000 8.4141998291 8.5000000000 604557.68750 0.1079967991 0.3881767094 2.3155977726 2.6931874752 96.199478149 117.72605133  -999.250000 1.5687948465 1.5920929909 1.5656899214
 988.36273193 6.0000000000 8.4112997055 8.5000000000 605745.00000 0.1091999933 0.3771044314 2.3182988167 2.7041957378 97.196006775 117.26397705  -999.250000 1.5918906927 1.5957986116 1.5977871418
 988.51513672 6.0000000000 8.4544000626 8.5000000000 617185.81250 0.1129999980 0.3521100283 2.3187000751 2.7151956558 98.293258667 117.31705475  -999.250000 1.5912002325 1.5574153662 1.5755089521
 988.66748047 6.0000000000 8.3894996643 8.5000000000 603412.93750 0.0899000019 0.3707849979 2.2869255543 2.6007916927 97.342361450 115.77106476  -999.250000 1.4676989317 1.4605776072 1.4605921507
 988.81988525 6.0000000000 8.4083995819 8.5000000000 594514.12500 0.0800999999 0.3955801129 2.2712125778 2.5361516476 97.283645630 116.73723602  -999.250000 1.3909614086 1.4062435627 1.3913553953
 988.97229004 6.0000000000 8.4469003677 8.5000000000 611286.81250 0.0738999993 0.3810116947 2.2690017223 2.5755681992 97.525909424 117.32199860  -999.250000 1.5573666096 1.6001445055 1.5754524469
 989.12469482 6.0000000000 8.4280996323 8.5000000000 594514.12500 0.0762000009 0.4014917612 2.2780964375 2.6105859280 98.899948120 116.62603760  -999.250000 1.6901468039 1.6999601126 1.6926530600
 989.27709961 6.0000000000 8.4079999924 8.5000000000 590186.12500 0.0740000010 0.3907043338 2.2800993919 2.6553821564 101.22296906 113.99626160  -999.250000 1.6882008314 1.6983007193 1.6809047461
 989.42950439 6.0000000000 8.3954000473 8.5000000000 589104.00000 0.0768999979 0.3945984542 2.2889964581 2.6464035511 101.22219849 114.48520660  -999.250000 1.8269444704 1.8504390717 1.8173452616
 989.58190918 6.0000000000 8.3819999695 8.5000000000 586867.68750 0.0813999996 0.3883025348 2.3031942844 2.6553964615 99.867240906 114.27857208  -999.250000 1.9322577715 1.9331668615 1.9204587936
 989.73431396 6.0000000000 8.3625001907 8.5000000000 573449.00000 0.0826999992 0.4135898650 2.3106968403 2.6780910492 98.957168579 113.99951935  -999.250000 1.9606887102 1.9336997271 1.9401921034
 989.88671875 6.0000000000 8.3789997101 8.5000000000 596328.12500 0.0821999982 0.3658191264 2.3063013554 2.6471123695 97.714599609 113.77667236  -999.250000 1.8901282549 1.8791217804 1.8776249886
 990.03912354 6.0000000000 8.4195003510 8.5000000000 602762.75000 0.0791999996 0.4148803353 2.3009021282 2.6847848892 98.379631042 113.54888916  -999.250000 1.9990563393 2.0132462978 2.0029497147
 990.19152832 6.0000000000 8.4631996155 8.5000000000 605568.62500 0.0810000002 0.3781147599 2.3073973656 2.7278828621 97.036338806 115.45387268  -999.250000 1.8231704235 1.8314728737 1.8257710934
 990.34393311 6.0000000000 8.5108995438 8.5000000000 561796.18750 0.0791999996 0.3915946186 2.3207945824 2.7726821899 98.120567322 116.38685608  -999.250000 2.0915925503 2.1603682041 2.1446721554
 990.49633789 6.0000000000 8.4769001007 8.5000000000 526837.68750 0.0890000015 0.3926995397 2.3414916992 2.8269782066 95.153587341 116.25660706  -999.250000 2.1505763531 2.2766535282 2.2002778053
 990.64874268 6.0000000000 8.4533996582 8.5000000000 520509.25000 0.0910999998 0.3998970985 2.3577935696 2.8217022419 95.085327148 114.91577911  -999.250000 2.1634948254 2.3050885201 2.1988008022
 990.80108643 6.0000000000 8.3868999481 8.5000000000 505095.12500 0.0944000036 0.3546362817 2.3666927814 2.8485784531 94.650352478 113.16470337  -999.250000 2.1548068523 2.2855157852 2.1457424164
 990.95349121 6.0000000000 8.3962001801 8.5000000000 498442.68750 0.0877000019 0.3953672945 2.3755929470 2.9485199451 104.42786407 112.84048462  -999.250000 2.0407912731 1.9867395163 1.9767354727
 991.10589600 6.0000000000 8.4412002563 8.5000000000 490883.75000 0.0894000009 0.3975982368 2.3857917786 3.2220809460 109.14242554 111.77348328  -999.250000 1.8605443239 1.7706729174 1.8023396730
 991.25830078 6.0000000000 8.4807996750 8.5000000000 507588.84375 0.0841000006 0.3549171090 2.3383190632 2.9906928539 114.42698669 110.26271820  -999.250000 1.5951063633 1.5168017149 1.5597971678
 991.41070557 6.0000000000 8.6800003052 8.5000000000 502310.53125 0.0813999996 0.3250119686 2.2586319447 2.5991568565 106.15731049 108.80774689  -999.250000 0.7991188765 0.8285756707 0.8101003766
 991.56311035 6.0000000000 8.3613996506 8.5000000000 512279.62500 0.0697000027 0.3499899805 2.1847295761 2.3618948460 96.137512207 109.94383240  -999.250000 0.8172926307 0.8406950235 0.8277927637
 991.71551514 6.0000000000 8.4589996338 8.5000000000 514281.62500 0.0733999982 0.3388045132 2.1950960159 2.4964461327 83.302040100 112.45568848  -999.250000 0.8266962171 0.8362017870 0.8302989602
 991.86791992 6.0000000000 8.4436998367 8.5000000000 546179.43750 0.1011999995 0.2988160253 2.2434999943 2.4591000080 77.026412964 115.43193054  -999.250000 0.9207623005 0.8811820149 0.8890764713
 992.02032471 5.0000000000 8.4804000854 8.5000000000 558604.06250 0.0917000026 0.2880043089 2.2672998905 2.2816998959 74.608169556 116.45298004  -999.250000 0.9147024155 0.8792007565 0.8887001872
 992.17272949 5.0000000000 8.4637002945 8.5000000000 558604.06250 0.0883999988 0.2981959283 2.2488000393 2.1577000618 73.925277710 115.13905334  -999.250000 0.9626807570 0.9407753348 0.9627703428
 992.32513428 5.0000000000 8.4131002426 8.5000000000 571227.12500 0.0794999972 0.2785078883 2.2328000069 2.2906999588 74.748573303 114.17996979  -999.250000 1.1693172455 1.0532549620 1.1380298138
