# LAS format log file from PETREL
# Project units are specified as depth units
#==================================================================
~Version information
VERS.   2.0:
WRAP.   NO:
#==================================================================
~Well
STRT .m      830.01916504 :
STOP .m      1294.2294922 :
STEP .m     0.00000000 :
NULL .        -999.250000 :
COMP.           : COMPANY
WELL.  32/2-1   : WELL
FLD.            : FIELD
LOC.            : LOCATION
SRVC.           : SERVICE COMPANY
DATE.  2018-09-11 14:48:41   : Log Export Date {yyyy-MM-dd HH:mm:ss}
PROV.           : PROVINCE
UWI.   32/2-1   : UNIQUE WELL ID
API.            : API NUMBER
#==================================================================
~Curve
DEPT .m                   : DEPTH
Lithology_geolink ._      : Lithology_geolink
CALI .in                  : CALI
BS .in                    : BS
ROP .m/h                  : ROP
DRHO .g/cm3               : DRHO
NPHI .m3/m3               : NPHI
RHOB .g/cm3               : RHOB
PEF .b/e                  : PEF
GR .gAPI                  : GR
DTC .us/ft                : DTC
DTS .us/ft                : DTS
RDEP .ohm.m               : RDEP
RSHA .ohm.m               : RSHA
RMED .ohm.m               : RMED
~Parameter
#==================================================================
~Ascii
# ...
 1286.1523438 7.0000000000 8.5221004486 8.5000000000 305643.59375 0.0980999991 0.1643160880 2.5114998817 2.4697999954 179.13000488  -999.250000  -999.250000 5.1774997711 5.4991002083 5.2635002136
 1286.3046875 7.0000000000 8.5307998657 8.5000000000 305643.59375 0.1018000022 0.1456149966 2.5000000000 2.3440999985 214.36779785  -999.250000  -999.250000 5.6943998337 5.9618000984 5.7325000763
 1286.4571533 7.0000000000 8.4996995926 8.5000000000 294519.21875 0.1094999984 0.1251164079 2.4921000004 2.3345999718 225.53819275  -999.250000  -999.250000 6.4074997902 6.6416997910 6.4099001884
 1286.6094971 7.0000000000 8.5052003860 8.5000000000 273681.00000 0.1253000051 0.1258993596 2.4939999580 2.2853999138 192.91329956  -999.250000  -999.250000 6.7987999916 6.8762001991 6.7537999153
 1286.7619629 7.0000000000 8.5275001526 8.5000000000 255114.34375 0.1312000006 0.1279983222 2.4988000393 2.2434999943 153.69900513  -999.250000  -999.250000 6.8222999573 6.8017997742 6.7746000290
 1286.9143066 6.0000000000 8.5621004105 8.5000000000 255114.34375 0.1321000010 0.1194068938 2.5025000572 2.2156999111 132.40530396  -999.250000  -999.250000 6.9450001717 6.9089999199 6.9766001701
 1287.0666504 6.0000000000 8.5254001617 8.5000000000 255114.34375 0.1189000010 0.1194000021 2.4990999699 2.2416999340 123.53880310  -999.250000  -999.250000 7.0995001793 7.1553001404 7.2161002159
 1287.2191162 6.0000000000 8.4917001724 8.5000000000 1298113.2500 0.0954999998 0.1209987178 2.4842000008 2.2678999901 117.96109772  -999.250000  -999.250000 7.2086000443 7.3280000687 7.2758002281
 1287.3714600 6.0000000000 8.4347000122 8.5000000000 671904.37500 0.0852999985 0.1247939095 2.4990999699 2.2553999424 112.40370178  -999.250000  -999.250000 7.3972001076 7.6799998283 7.4709000587
 1287.5239258 6.0000000000 8.4527997971 8.5000000000 631526.06250 0.0737999976 0.1131093726 2.5092999935 2.3385999203 109.82350159  -999.250000  -999.250000 7.6229000092 7.9833002090 7.6725001335
 1287.6762695 6.0000000000 8.4405002594 8.5000000000 408542.75000 0.0781000033 0.1084075272 2.5362999439 2.3487999439 108.43890381  -999.250000  -999.250000 8.2978000641 8.8556003571 8.4800996780
 1287.8287354 6.0000000000 8.4871997833 8.5000000000 359430.46875 0.0645999983 0.0998068899 2.5199000835 2.4354999065 113.83229828  -999.250000  -999.250000 8.5450000763 9.0347003937 8.7502002716
 1287.9810791 6.0000000000 8.4278001785 8.5000000000 321964.21875 0.0738999993 0.1206832528 2.5267000198 2.4460000992 124.95420074  -999.250000  -999.250000 8.2972002029 8.7714004517 8.5228004456
 1288.1335449 6.0000000000 8.3948001862 8.5000000000 323882.28125 0.0825999975 0.1164034456 2.5334999561 2.4233000278 141.45700073  -999.250000  -999.250000 7.3744997978 7.8109998703 7.5184998512
 1288.2858887 7.0000000000 8.4881000519 8.5000000000 327468.59375 0.0898000002 0.1212960705 2.5401000977 2.4110000134 153.58650208  -999.250000  -999.250000 7.1066999435 7.8487000465 7.3021001816
 1288.4383545 7.0000000000 8.5003995895 8.5000000000 316823.40625 0.0900000036 0.1214998439 2.5455999374 2.3961000443 159.33149719  -999.250000  -999.250000 7.1633000374 7.9351000786 7.3660001755
 1288.5906982 7.0000000000 8.4804000854 8.5000000000 303730.90625 0.0856000036 0.1280947030 2.5432999134 2.5243000984 154.27239990  -999.250000  -999.250000 7.1742000580 7.8056001663 7.3877000809
 1288.7431641 7.0000000000 8.5207996368 8.5000000000 300012.12500 0.1055999994 0.1310975999 2.5634999275 2.5901000500 144.49200439  -999.250000  -999.250000 6.8759999275 7.1195998192 6.9460000992
 1288.8955078 7.0000000000 8.5073995590 8.5000000000 281733.12500 0.1137999967 0.1262039244 2.5569999218 2.6449999809 133.09890747  -999.250000  -999.250000 6.6998000145 6.8657999039 6.7267999649
 1289.0479736  -999.250000 8.5081996918 8.5000000000 282964.68750 0.1138999984 0.1396891922 2.5443999767 2.6689000130 123.81600189  -999.250000  -999.250000 6.5756998062 6.6898999214 6.5587000847
 1289.2003174  -999.250000 8.5399999619 8.5000000000 283585.68750 0.1099999994 0.1304074526 2.5288999081 2.7093999386 117.93090057  -999.250000  -999.250000 6.5303997993 6.5808000565 6.4524002075
 1289.3526611  -999.250000 8.5120000839 8.5000000000 284207.06250 0.1102999970 0.1412825435 2.5223000050 2.7376999855 114.06150055  -999.250000  -999.250000 6.4349999428 6.4249000549 6.3722000122
 1289.5051270  -999.250000 8.4883003235 8.5000000000 325629.71875 0.1182999983 0.1372032762 2.5302999020 2.7683999538 111.78810120  -999.250000  -999.250000 6.4249000549 6.2864999771 6.3320999146
 1289.6574707  -999.250000 8.4937000275 8.5000000000 311526.71875 0.1198000014 0.1514770985 2.5338997841 2.7855999470 113.93460083  -999.250000  -999.250000 6.3966999054 6.2602000237 6.3410000801
 1289.8099365  -999.250000 8.4862003326 8.5000000000 319207.31250 0.1187999994 0.1487022489 2.5394001007 2.8243999481 117.63510132  -999.250000  -999.250000 6.3688001633 6.2599000931 6.2635998726
 1289.9622803  -999.250000 8.4858999252 8.5000000000 318983.40625 0.1168000028 0.1304293126 2.5394999981 2.6963000298 118.09249878  -999.250000  -999.250000 6.3386001587 6.2939000130 6.2932000160
 1290.1147461  -999.250000 8.5143003464 8.5000000000 317640.93750 0.1156999990 0.1429899037 2.5255000591 2.5703999996 114.68589783  -999.250000  -999.250000 6.5184001923 6.5092000961 6.4429998398
 1290.2670898  -999.250000 8.5296001434 8.5000000000 316090.09375 0.1204999983 0.1413013488 2.5113000870 2.3705000877 113.64610291  -999.250000  -999.250000 6.6252999306 6.6774001122 6.5819997787
 1290.4195557  -999.250000 8.5093002319 8.5000000000 327276.00000 0.1334999949 0.1368036121 2.5034000874 2.2876000404 114.88449860  -999.250000  -999.250000 6.7235999107 6.7810997963 6.6982002258
 1290.5718994  -999.250000 8.4909000397 8.5000000000 327276.00000 0.1510999948 0.1294059306 2.5081999302 2.2135999203 117.69419861  -999.250000  -999.250000 6.6613998413 6.6767001152 6.5907001495
 1290.7243652  -999.250000 8.4995002747 8.5000000000 357999.46875 0.1620000005 0.1433887929 2.5190000534 2.2360999584 115.54389954  -999.250000  -999.250000 6.4758000374 6.4282999039 6.4521999359
 1290.8767090  -999.250000 8.4779996872 8.5000000000 357999.46875 0.1622000039 0.1467972696 2.5202000141 2.3322999477 116.51149750  -999.250000  -999.250000 6.3407001495 6.2737998962 6.2695999146
 1291.0291748  -999.250000 8.4995002747 8.5000000000 388042.18750 0.1588000059 0.1514962316 2.5278000832 2.4712998867 118.09369659  -999.250000  -999.250000 6.1578998566 6.1424999237 6.0871000290
 1291.1815186  -999.250000 8.4899997711 8.5000000000 372416.03125 0.1513999999 0.1491019279 2.5350000858 2.5852999687 119.36280060  -999.250000  -999.250000 6.0234999657 6.0831999779 6.0026001930
 1291.3338623  -999.250000 8.5158996582 8.5000000000 372416.03125 0.1413999945 0.1541918367 2.5406999588 2.7358000278 121.18460083  -999.250000  -999.250000 5.9446997643 5.9731998444 5.9274001122
 1291.4863281  -999.250000 8.4968996048 8.5000000000 372416.03125 0.1262000054 0.1494999975 2.5416998863 2.8482000828 120.05770111  -999.250000  -999.250000 5.8846998215 5.8656001091 5.8362002373
 1291.6386719  -999.250000 8.5053997040 8.5000000000 357999.46875 0.1176000014 0.1527999938 2.5427999496 2.9159998894 121.02780151  -999.250000  -999.250000 5.8296999931 5.8129000664 5.7702999115
 1291.7911377  -999.250000 8.5060997009 8.5000000000 364802.40625 0.1125999987  -999.250000 2.5439000130 2.8506000042 118.86589813  -999.250000  -999.250000 5.7846999168 5.7302999496 5.7077999115
 1291.9434814  -999.250000 8.4954996109 8.5000000000 357999.46875 0.1108999997  -999.250000 2.5364999771 2.7781999111 118.63700104  -999.250000  -999.250000 5.7809000015 5.7825999260 5.7083997726
 1292.0959473  -999.250000 8.4745998383 8.5000000000 355388.75000 0.1072999984  -999.250000 2.5274000168 2.8008000851 118.04070282  -999.250000  -999.250000 5.7948999405 5.7674999237 5.7635002136
 1292.2482910  -999.250000 8.4701995850 8.5000000000 354083.40625 0.1031000018  -999.250000 2.5241999626 2.8183000088 118.75650024  -999.250000  -999.250000 5.8289999962 5.8320999146 5.8081002235
