# LAS format log file from PETREL
# Project units are specified as depth units
#==================================================================
~Version information
VERS.   2.0:
WRAP.   NO:
#==================================================================
~Well
STRT .m      830.01916504 :
STOP .m      1294.2294922 :
STEP .m     0.00000000 :
NULL .        -999.250000 :
COMP.           : COMPANY
WELL.  32/2-1   : WELL
FLD.            : FIELD
LOC.            : LOCATION
SRVC.           : SERVICE COMPANY
DATE.  2018-09-11 14:48:41   : Log Export Date {yyyy-MM-dd HH:mm:ss}
PROV.           : PROVINCE
UWI.   32/2-1   : UNIQUE WELL ID
API.            : API NUMBER
#==================================================================
~Curve
DEPT .m                   : DEPTH
Lithology_geolink ._      : Lithology_geolink
CALI .in                  : CALI
BS .in                    : BS
ROP .m/h                  : ROP
DRHO .g/cm3               : DRHO
NPHI .m3/m3               : NPHI
RHOB .g/cm3               : RHOB
PEF .b/e                  : PEF
GR .gAPI                  : GR
DTC .us/ft                : DTC
DTS .us/ft                : DTS
RDEP .ohm.m               : RDEP
RSHA .ohm.m               : RSHA
RMED .ohm.m               : RMED
~Parameter
#==================================================================
~Ascii
# ...
 1223.6683350 5.0000000000 8.3221998215 8.5000000000 512998.87500 0.1105000004 0.2168181837 2.3190000057 1.8904999495 76.191902161 92.688781738 191.75610352 1.3979649544 1.3349020481 1.3950511217
 1223.8206787 5.0000000000 8.3737001419 8.5000000000 450018.34375 0.0954999998 0.2329870164 2.3138000965 1.8041000366 81.597602844 93.170913696 190.89419556 1.3083719015 1.2945324183 1.3146644831
 1223.9731445 5.0000000000 8.4182996750 8.5000000000 437816.81250 0.1026000008 0.2300024033 2.3408000469 1.7979999781 87.572402954 93.136932373 190.49908447 1.3761456013 1.4002152681 1.3968341351
 1224.1254883 5.0000000000 8.4510002136 8.5000000000 404458.56250 0.0934000015 0.2105156332 2.3380000591 1.8335000277 93.956901550 93.337341309 190.93829346 1.4400486946 1.4682455063 1.4556529522
 1224.2779541 5.0000000000 8.4224996567 8.5000000000 346479.40625 0.0922000036 0.2138999999 2.3587000370 2.0383000374 96.423896790 93.865997314 191.01330566 1.5339000225 1.5691000223 1.5399999619
 1224.4302979 5.0000000000 8.4455995560 8.5000000000 318076.18750 0.0838999972 0.2225930393 2.3608000278 2.2402999401 95.042701721 94.411163330 190.92449951 1.8629362583 1.8866455555 1.8455551863
 1224.5827637 5.0000000000 8.5321998596 8.5000000000 296767.71875 0.0841000006 0.2384999990 2.3698000908 2.4295001030 94.568397522 94.122200012 190.80259705 1.9536999464 1.8379000425 1.9262000322
 1224.7351074 5.0000000000 8.6072998047 8.5000000000 310589.28125 0.0887999982 0.2500906885 2.3896999359 2.4770998955 92.121299744 93.589424133 190.26608276 1.9464058876 1.9923762083 2.0278184414
 1224.8875732 5.0000000000 8.5001001358 8.5000000000 320788.81250 0.0916000009 0.2876999974 2.4207003117 2.4763998985 97.776496887 91.481002808 188.76010132 2.0088999271 2.1324999332 2.0708000660
 1225.0399170 5.0000000000 8.5302000046 8.5000000000 320788.81250 0.1071999967 0.2744106352 2.4797000885 2.5896999836 100.50659943 89.152870178 186.92930603 2.1811618805 2.3761048317 2.2148845196
 1225.1923828 5.0000000000 8.4951000214 8.5000000000 281733.12500 0.1035000011 0.2592999935 2.5064001083 2.5044000149 101.63200378 88.158500671 184.15649414 2.7123999596 2.8412001133 2.6870999336
 1225.3447266 5.0000000000 8.4753999710 8.5000000000 281725.56250 0.0983000025 0.2555030286 2.4739000797 2.3671000004 92.379898071 88.465858459 182.26840210 2.9896779060 2.9475147724 2.9266080856
 1225.4971924 5.0000000000 8.4869003296 8.5000000000 272284.21875 0.0839999989 0.2811999917 2.4010999203 2.0213000774 82.948097229 89.606399536 184.23089600 2.4626998901 2.2428998947 2.3766999245
 1225.6495361 5.0000000000 8.5066003799 8.5000000000 274578.65625 0.0904000029 0.2687100172 2.3480999470 1.8380000591 75.641998291 91.462013245 188.28289795 1.6698352098 1.5837281942 1.6264011860
 1225.8018799 5.0000000000 8.5378999710 8.5000000000 293235.84375 0.1035000011 0.2226369381 2.3364999294 1.7258000374 77.973503113 92.859680176 191.66059875 1.3976178169 1.3812619448 1.3875910044
 1225.9543457 5.0000000000 8.5443000793 8.5000000000 294579.53125 0.1204999983 0.1953218579 2.3468000889 1.8276000023 81.878799438 94.604606628 192.91529846 1.3860092163 1.3790016174 1.3758093119
 1226.1066895 5.0000000000 8.5579996109 8.5000000000 328938.84375 0.1262000054 0.2111872584 2.3443999290 1.9246000051 87.868598938 95.454223633 191.59260559 1.3653166294 1.3143517971 1.3291374445
 1226.2591553 5.0000000000 8.5288000107 8.5000000000 341035.25000 0.1184000000 0.2205999941 2.3247001171 2.0569999218 88.297401428 96.188598633 192.81350708 1.2848000526 1.2382999659 1.2594000101
 1226.4114990 5.0000000000 8.5086002350 8.5000000000 341070.12500 0.1150000021 0.2201004028 2.2988998890 2.0399999619 88.269500732 95.660522461 194.14500427 1.2229496241 1.1984319687 1.2111386061
 1226.5639648 5.0000000000 8.5122003555 8.5000000000 378257.06250 0.1150000021 0.2490999997 2.2898001671 1.9823000431 86.747703552 95.216003418 194.28810120 1.2216999531 1.2046999931 1.2070000172
 1226.7163086 5.0000000000 8.4958000183 8.5000000000 434902.31250 0.1160999984 0.2461023927 2.2885000706 1.8661999702 85.887496948 94.162345886 194.10560608 1.2542738914 1.2472659349 1.2499655485
 1226.8687744 5.0000000000 8.5216999054 8.5000000000 487207.93750 0.1177999973 0.2114000022 2.2911000252 1.8013000488 81.914497375 93.190101624 192.86650085 1.3114999533 1.2921999693 1.2973999977
 1227.0211182 5.0000000000 8.5314998627 8.5000000000 510291.37500 0.1212000027 0.2149971277 2.2999000549 1.7350000143 81.054702759 92.037322998 191.50869751 1.3866398335 1.3334670067 1.3447620869
 1227.1735840 5.0000000000 8.5249996185 8.5000000000 502295.56250 0.1257999986 0.2012999952 2.3103001118 1.6991000175 81.155899048 90.395698547 191.48179626 1.4839999676 1.4111000299 1.4321999550
 1227.3258057 5.0000000000 8.4722995758 8.5000000000 483638.37500 0.1254003346 0.2073902190 2.3206915855 1.6811144352 83.593750000 90.583206177 188.43383789 1.5325222015 1.4409520626 1.4825192690
 1227.4782715 5.0000000000 8.4765996933 8.5000000000 483638.37500 0.1216030419 0.1975079328 2.3272948265 1.7170711756 84.693321228 92.406532288  -999.250000 1.5663729906 1.4657801390 1.5196703672
 1227.6306152 5.0000000000 8.4626998901 8.5000000000 443847.59375 0.1204009578 0.1909105629 2.3473837376 1.8346058130 87.305610657 93.949630737  -999.250000 1.7201533318 1.6419175863 1.7253701687
 1227.7830811 5.0000000000 8.4633998871 8.5000000000 434902.31250 0.1031000018 0.2039895058 2.3699998856 1.8803000450 94.344802856 92.042137146  -999.250000 1.8333094120 1.8541300297 1.8871705532
 1227.9354248 5.0000000000 8.4407997131 8.5000000000 360038.90625 0.1014013663 0.1740480363 2.4356472492 2.0263829231 103.45121002 86.057106018  -999.250000 2.1171724796 2.3055381775 2.2028470039
 1228.0878906 5.0000000000 8.4444999695 8.5000000000 260241.82813 0.0920000002 0.1359305382 2.4960000515 2.1496000290 106.52999878 79.834281921  -999.250000 3.0861999989 3.5836000443 3.2211999893
 1228.2402344 5.0000000000 8.4350004196 8.5000000000 224229.59375 0.0996938348 0.1371989548 2.5489575863 2.3695237637 104.23893738 77.853675842  -999.250000 4.1971096992 4.7334785461 4.1291723251
 1228.3927002 5.0000000000 8.4771995544 8.5000000000 216966.23438 0.0807999969 0.1353015155 2.5295000076 2.4663999081 99.704200745 83.695617676  -999.250000 5.1008000374 5.0771999359 4.6912999153
 1228.5450439 5.0000000000 8.4619998932 8.5000000000 209702.89063 0.0724067315 0.1397963911 2.4792401791 2.4028511047 101.71469116 86.611465454  -999.250000 4.9311361313 4.4742832184 4.4889621735
 1228.6975098 5.0000000000 8.5080995560 8.5000000000 209702.89063 0.0976999998 0.1750717312 2.4302000999 2.2418999672 105.83350372 87.456817627  -999.250000 4.0577001572 3.6902999878 3.9628999233
 1228.8498535 5.0000000000 8.5524997711 8.5000000000 359888.40625 0.1581515521 0.1995803714 2.4060192108 2.0487546921 106.17242432 91.425918579  -999.250000 3.4253065586 3.1096651554 3.4046473503
 1229.0023193 5.0000000000 8.6637001038 8.5000000000 771701.06250 0.2217999995 0.1961027980 2.4195001125 1.8822000027 106.51190186 95.202880859  -999.250000 2.9149999619 2.7409999371 2.8736999035
 1229.1546631 5.0000000000 8.7433996201 8.5000000000 641691.37500 0.2065122426 0.1877067387 2.4064104557 1.8067604303 101.17726898 92.445701599  -999.250000 2.8404598236 2.7552886009 2.7832725048
 1229.3071289 5.0000000000 8.6492996216 8.5000000000 410106.25000 0.1324999928 0.1647184193 2.3949000835 1.8986999989 96.275100708 83.797828674  -999.250000 3.2451999187 3.1328001022 3.1431999207
 1229.4594727 5.0000000000 8.4963998795 8.5000000000 410106.25000 0.0746463612 0.1367224455 2.4007952213 2.0344913006 93.637611389 78.042610168  -999.250000 4.7844662666 4.5163912773 4.6215157509
 1229.6118164 5.0000000000 8.5018997192 8.5000000000 333563.06250 0.0616104156 0.1538724601 2.4292771816 2.1495079994 98.641990662 77.790199280  -999.250000 5.8663334846 5.1135220528 5.4080700874
 1229.7642822 5.0000000000 8.6142997742 8.5000000000 333563.06250 0.0809844658 0.1550990343 2.4716660976 2.2218420506 108.30506134 78.866439819  -999.250000 4.8050513268 4.3137412071 4.5234093666
