# LAS format log file from PETREL
# Project units are specified as depth units
#==================================================================
~Version information
VERS.   2.0:
WRAP.   NO:
#==================================================================
~Well
STRT .m      830.01916504 :
STOP .m      1294.2294922 :
STEP .m     0.00000000 :
NULL .        -999.250000 :
COMP.           : COMPANY
WELL.  32/2-1   : WELL
FLD.            : FIELD
LOC.            : LOCATION
SRVC.           : SERVICE COMPANY
DATE.  2018-09-11 14:48:41   : Log Export Date {yyyy-MM-dd HH:mm:ss}
PROV.           : PROVINCE
UWI.   32/2-1   : UNIQUE WELL ID
API.            : API NUMBER
#==================================================================
~Curve
DEPT .m                   : DEPTH
Lithology_geolink ._      : Lithology_geolink
CALI .in                  : CALI
BS .in                    : BS
ROP .m/h                  : ROP
DRHO .g/cm3               : DRHO
NPHI .m3/m3               : NPHI
RHOB .g/cm3               : RHOB
PEF .b/e                  : PEF
GR .gAPI                  : GR
DTC .us/ft                : DTC
DTS .us/ft                : DTS
RDEP .ohm.m               : RDEP
RSHA .ohm.m               : RSHA
RMED .ohm.m               : RMED
~Parameter
#==================================================================
~Ascii
# ...
 1073.7067871 5.0000000000 8.4162998199 8.5000000000 302801.78125 0.0811000019 0.3693999946 2.4063999653 2.9616999626 82.960601807 100.86019897  -999.250000 2.8689999580 2.8301000595 2.8313000202
 1073.8591309 5.0000000000 8.4486999512 8.5000000000 311587.21875 0.0716999993 0.2824696600 2.3826000690 2.7931001186 73.043403625 105.72959900  -999.250000 2.4504354000 2.3703682423 2.4107367992
 1074.0114746 5.0000000000 8.4449996948 8.5000000000 318900.62500 0.0533999987 0.2743065059 2.3471999168 2.7014999390 66.959197998 107.62297821  -999.250000 2.1253602505 2.0741372108 2.1388177872
 1074.1639404 5.0000000000 8.4224996567 8.5000000000 370368.00000 0.0408999994 0.2497196943 2.3250000477 2.5543000698 68.980697632 109.51389313  -999.250000 1.9669266939 1.9757786989 1.9641398191
 1074.3162842 5.0000000000 8.4430999756 8.5000000000 463998.62500 0.0476000011 0.2820740342 2.3231000900 2.6470000744 72.586402893 111.49161530  -999.250000 1.6867245436 1.6103929281 1.5853037834
 1074.4687500 5.0000000000 8.4816999435 8.5000000000 517860.34375 0.0570000000 0.2948000133 2.3338000774 2.7825999260 73.185203552 114.52549744  -999.250000 1.6402000189 1.4888999462 1.4660999775
 1074.6210938 5.0000000000 8.4461002350 8.5000000000 526837.68750 0.0557000004 0.2553316057 2.3355000019 2.8710999489 70.761199951 121.27178955  -999.250000 1.8178576231 1.4792077541 1.4862837791
 1074.7735596 5.0000000000 8.4925003052 8.5000000000 544021.93750 0.0579000004 0.3041999936 2.3387000561 2.5253000259 66.218002319 125.87290192  -999.250000 1.4234999418 1.0755000114 1.2149000168
 1074.9259033 5.0000000000 8.4621000290 8.5000000000 563466.25000 0.0781999975 0.2938083112 2.3045001030 2.0051000118 65.886398315 125.16706085  -999.250000 0.9642680287 0.8207041621 0.9250322580
 1075.0783691 5.0000000000 8.4979000092 8.5000000000 605637.68750 0.0931999981 0.3016000092 2.3029000759 1.6045999527 68.280601501 118.87390137  -999.250000 0.9749000072 0.8662999868 0.9605000019
 1075.2307129 2.0000000000 8.4982995987 8.5000000000 611357.43750 0.0979999974 0.2984025776 2.2966001034 1.4876999855 67.603996277 110.26150513  -999.250000 1.0187648535 0.9397411942 1.0244487524
 1075.3831787 2.0000000000 8.6342000961 8.5000000000 472994.28125 0.0825999975 0.2542000115 2.3150999546 1.5420999527 64.880699158 102.30289459  -999.250000 1.7621999979 1.6296999454 1.7252999544
 1075.5355225 2.0000000000 8.5462999344 8.5000000000 407032.18750 0.0636000037 0.1020219326 2.3394999504 1.7159999609 63.108001709 94.588081360  -999.250000 7.4741234779 6.9273552895 6.0612258911
 1075.6879883 2.0000000000 8.6267004013 8.5000000000 301392.00000 0.0917000026 0.0790000036 2.4398999214 1.9544999599 61.752300262 83.248596191  -999.250000 9.8205995560 8.1505002975 8.2343997955
 1075.8403320 2.0000000000 8.6430997849 8.5000000000 217442.15625 0.1173999980 0.0925891176 2.5610001087 2.2622001171 58.069000244 74.294273376  -999.250000 11.274235725 7.2215442657 10.009877205
 1075.9926758 2.0000000000 8.5471000671 8.5000000000 185142.96875 0.1412999928 0.0626240373 2.6547000408 2.4056000710 49.942001343 75.675781250  -999.250000 4.5302090645 3.1545608044 4.1674861908
 1076.1451416 2.0000000000 8.4462003708 8.5000000000 153387.71875 0.1111000031 0.0649980754 2.6126000881 2.6422998905 46.890899658 74.499946594  -999.250000 2.4896306992 1.9900305271 2.3392612934
 1076.2974854 2.0000000000 8.4624996185 8.5000000000 148624.20313 0.1203000024  -999.250000 2.5334999561 2.4051001072 44.997798920 71.726020813  -999.250000 6.2709665298 6.8177275658 6.3343954086
 1076.4499512 2.0000000000 8.4704999924 8.5000000000 138459.96875 0.1044000015  -999.250000 2.4765999317 2.5346000195 45.327899933 69.397796631  -999.250000 9.3936996460 8.7821998596 8.6937999725
 1076.6022949 2.0000000000 8.4328002930 8.5000000000 131172.46875 0.0967999995  -999.250000 2.5004999638 2.7263000011 48.157600403 68.362533569  -999.250000 4.9872307777 3.6608035564 4.7215828896
 1076.7547607 2.0000000000 8.4086999893 8.5000000000 122959.79688 0.0688000023 0.0715999976 2.5485000610 3.2462999821 48.176200867 65.530197144  -999.250000 2.7239000797 2.2262001038 2.6551001072
 1076.9071045 2.0000000000 8.4680004120 8.5000000000 120906.72656 0.0879999995 0.0580108874 2.5666000843 3.1343998909 48.297599792 62.024707794  -999.250000 11.821310043 12.341195107 11.200152397
 1077.0595703 2.0000000000 8.5336999893 8.5000000000 127893.25000 0.0966999978 0.0608999990 2.5220000744 2.8510000706 48.901901245 59.001495361  -999.250000 16.935499191 18.004499435 15.552700043
 1077.2119141 2.0000000000 8.4425001144 8.5000000000 134801.64063 0.1093000025 0.0435139313 2.5388000011 2.6335000992 50.833999634 57.804656982  -999.250000 24.260831833 19.885793686 19.240144730
 1077.3643799 2.0000000000 8.4441995621 8.5000000000 134902.07813 0.1083000004 0.0377999991 2.5648999214 2.5581998825 55.038101196 58.369499207  -999.250000 29.214399338 20.592800140 21.039600372
 1077.5167236 2.0000000000 8.4483003616 8.5000000000 137288.87500 0.1268000007 0.0373004004 2.5984001160 2.5211999416 50.361000061 58.779472351  -999.250000 36.331497192 22.912740707 22.736339569
 1077.6691895 2.0000000000 8.4368000031 8.5000000000 137288.87500 0.1314000040 0.0419000015 2.5748000145 2.4556000233 50.604000092 57.607700348  -999.250000 36.972499847 22.740400314 22.840499878
 1077.8215332 2.0000000000 8.4583997726 8.5000000000 137300.54688 0.1318999976 0.0422996804 2.5597999096 2.4932000637 47.509201050 57.316032410  -999.250000 35.878578186 22.710922241 22.803728104
 1077.9739990 2.0000000000 8.6499996185 8.5000000000 151862.59375 0.1187999994 0.0452999994 2.5490000248 2.4732000828 48.087299347 57.023895264  -999.250000 34.938701630 22.984100342 22.820400238
 1078.1263428 2.0000000000 8.6499996185 8.5000000000 140872.31250 0.1195999980 0.0521944761 2.5652999878 2.3705999851 45.858100891 69.511001587  -999.250000 35.099369049 23.175046921 22.891042709
 1078.2786865 2.0000000000 8.5081996918 8.5000000000 140872.31250 0.0920000002 0.0502016023 2.4818999767 2.3062000275 45.739700317 100.78243256  -999.250000 33.820125580 23.147123337 22.830648422
 1078.4311523 2.0000000000 8.4312000275 8.5000000000 152467.56250 0.1140000001 0.0442048050 2.5018999577 2.0529000759 47.143001556 113.70227051  -999.250000 32.356571198 23.031393051 22.815711975
 1078.5834961 2.0000000000 8.4331998825 8.5000000000 152467.56250 0.0878999978 0.0463982373 2.3361999989 1.8165999651 50.610198975 116.21858978  -999.250000 20.911775589 24.626819611 21.722578049
 1078.7359619 2.0000000000 8.4665002823 8.5000000000 164570.04688 0.0370000005 0.0245999992 2.0973999500 1.4894000292 54.019001007 117.81439972  -999.250000 16.681499481 24.268299103 19.928499222
 1078.8883057 2.0000000000 8.4457998276 8.5000000000 164570.04688 0.0425000004 0.0762586072 2.1015000343 1.5482000113 61.286800385 117.03292847  -999.250000 11.401031494 17.893608093 11.677910805
 1079.0407715 2.0000000000 8.4449996948 8.5000000000 179463.15625 0.0538000017 0.2991000116 2.1070001125 1.5657999516 64.534202576 115.79139709  -999.250000 3.6480998993 2.9042000771 3.2114000320
 1079.1931152 2.0000000000 8.4600000381 8.5000000000 200477.15625 0.0665000007 0.3048953414 2.1105000973 1.5959999561 64.265098572 114.92239380  -999.250000 0.7158495784 0.7220485210 0.7167989016
 1079.3455811 2.0000000000 8.4412002563 8.5000000000 230361.39063 0.0740000010 0.3145999908 2.1175000668 1.5281000137 60.588699341 115.62460327  -999.250000 0.7034999728 0.6912999749 0.6940000057
 1079.4979248 2.0000000000 8.4412002563 8.5000000000 264389.03125 0.0771000013 0.2959149480 2.1208999157 1.5584000349 59.705898285 115.68115234  -999.250000 0.7170891166 0.7148811221 0.7131845951
 1079.6503906 2.0000000000 8.4486999512 8.5000000000 342281.15625 0.0749000013 0.2876999974 2.1296000481 1.5025999546 60.584701538 114.52159119  -999.250000 0.7031999826 0.7088000178 0.7069000006
 1079.8027344 2.0000000000 8.4600000381 8.5000000000 477015.06250 0.0681999996 0.3103818297 2.1347999573 1.5569000244 64.078498840 114.21544647  -999.250000 0.6991032958 0.6935122609 0.6963084936
