# LAS format log file from PETREL
# Project units are specified as depth units
#==================================================================
~Version information
VERS.   2.0:
WRAP.   NO:
#==================================================================
~Well
STRT .m      830.01916504 :
STOP .m      1294.2294922 :
STEP .m     0.00000000 :
NULL .        -999.250000 :
COMP.           : COMPANY
WELL.  32/2-1   : WELL
FLD.            : FIELD
LOC.            : LOCATION
SRVC.           : SERVICE COMPANY
DATE.  2018-09-11 14:48:41   : Log Export Date {yyyy-MM-dd HH:mm:ss}
PROV.           : PROVINCE
UWI.   32/2-1   : UNIQUE WELL ID
API.            : API NUMBER
#==================================================================
~Curve
DEPT .m                   : DEPTH
Lithology_geolink ._      : Lithology_geolink
CALI .in                  : CALI
BS .in                    : BS
ROP .m/h                  : ROP
DRHO .g/cm3               : DRHO
NPHI .m3/m3               : NPHI
RHOB .g/cm3               : RHOB
PEF .b/e                  : PEF
GR .gAPI                  : GR
DTC .us/ft                : DTC
DTS .us/ft                : DTS
RDEP .ohm.m               : RDEP
RSHA .ohm.m               : RSHA
RMED .ohm.m               : RMED
~Parameter
#==================================================================
~Ascii
# ...
 867.50958252 6.0000000000 8.5134000778 8.5000000000 510228.37500 0.0626000017 0.3989000022 2.3273000717 2.7795999050 126.66729736 123.81148529  -999.250000 2.1005001068 2.0861001015 2.0759999752
 867.66198730 6.0000000000 8.5095996857 8.5000000000 506238.46875 0.0597999990 0.3643999994 2.3138000965 2.6266999245 127.07749939 126.10168457  -999.250000 1.9720000029 1.9852999449 1.9680000544
 867.81439209 6.0000000000 8.4917001724 8.5000000000 456323.75000 0.0566000007 0.4424000084 2.3062000275 2.6428999901 129.51879883 128.58070374  -999.250000 1.9805999994 1.9896999598 1.9737999439
 867.96673584 7.0000000000 8.4893999100 8.5000000000 456323.75000 0.0551000014 0.4226999879 2.2997000217 2.5506000519 134.20230103 129.11787415  -999.250000 1.9672000408 1.9917000532 1.9606000185
 868.11914063 7.0000000000 8.5240001678 8.5000000000 453129.84375 0.0562000014 0.4219999909 2.2939000130 2.5432999134 132.69830322 133.00099182  -999.250000 1.9447000027 1.9572000504 1.9292000532
 868.27154541 7.0000000000 8.5418996811 8.5000000000 450018.34375 0.0637999997 0.4426000118 2.2931001186 2.5088999271 130.32569885 134.67425537  -999.250000 1.9261000156 1.9248000383 1.9093999863
 868.42395020 7.0000000000 8.5297002792 8.5000000000 419515.56250 0.0683000013 0.4217999876 2.2916998863 2.5055999756 124.13330078 134.61952209  -999.250000 1.9055000544 1.8985999823 1.8926000595
 868.57635498 7.0000000000 8.5090999603 8.5000000000 412720.90625 0.0747999996 0.4684000015 2.2995998859 2.5129001141 125.23349762 133.81292725  -999.250000 1.8256000280 1.8208999634 1.8180999756
 868.72875977 6.0000000000 8.5069999695 8.5000000000 426344.40625 0.0753000006 0.4693000019 2.2913999557 2.4883999825 123.40000153 135.18284607  -999.250000 1.7850999832 1.7984000444 1.7906999588
 868.88116455 6.0000000000 8.4750003815 8.5000000000 405201.25000 0.0767000020 0.4546999931 2.2936999798 2.4846999645 125.11669922 135.43728638  -999.250000 1.7786999941 1.7913000584 1.7786999941
 869.03356934 6.0000000000 8.4895000458 8.5000000000 400001.03125 0.0693999976 0.4291000068 2.2895998955 2.4890000820 126.81300354 135.69139099  -999.250000 1.7956000566 1.8269000053 1.7955000401
 869.18597412 6.0000000000 8.4622001648 8.5000000000 390353.40625 0.0631999969 0.4602000117 2.2960000038 2.4842998981 130.15609741 135.02946472  -999.250000 1.8253999949 1.8502000570 1.8190000057
 869.33837891 6.0000000000 8.5003004074 8.5000000000 390353.40625 0.0537000000 0.4381000102 2.2929999828 2.4781000614 126.87940216 133.72041321  -999.250000 1.8870999813 1.8988000154 1.8716000319
 869.49078369 6.0000000000 8.5016002655 8.5000000000 383672.87500 0.0494000018 0.4320000112 2.2913999557 2.4793999195 124.23280334 133.07215881  -999.250000 1.9095000029 1.9023000002 1.9007999897
 869.64318848 6.0000000000 8.4783000946 8.5000000000 370311.50000 0.0491999984 0.4828999937 2.2899000645 2.4867999554 123.34159851 134.28811646  -999.250000 1.8552000523 1.8515000343 1.8453999758
 869.79559326 6.0000000000 8.4623003006 8.5000000000 368929.43750 0.0496999994 0.4140999913 2.2925999165 2.5004000664 125.80229950 135.40505981  -999.250000 1.7441999912 1.7731000185 1.7508000135
 869.94799805 6.0000000000 8.4190998077 8.5000000000 384470.28125 0.0562000014 0.4744000137 2.3011999130 2.4979000092 125.92500305 135.75466919  -999.250000 1.7692999840 1.7975000143 1.7707999945
 870.10034180 6.0000000000 8.4144001007 8.5000000000 356030.62500 0.0529000014 0.4108000100 2.3011000156 2.4874000549 125.08580017 135.72363281  -999.250000 1.7905000448 1.7955000401 1.7805999517
 870.25274658 6.0000000000 8.4621000290 8.5000000000 395115.75000 0.0507000014 0.3984000087 2.2943999767 2.4823000431 123.40989685 135.54313660  -999.250000 1.7733999491 1.7740999460 1.7611999512
 870.40515137 6.0000000000 8.4510002136 8.5000000000 416460.40625 0.0408000015 0.4645000100 2.2764999866 2.4783000946 122.39669800 137.12142944  -999.250000 1.7434999943 1.7512999773 1.7459000349
 870.55755615 6.0000000000 8.4233999252 8.5000000000 426741.81250 0.0383000001 0.4490999877 2.2653999329 2.4999001026 121.89369965 138.42358398  -999.250000 1.6976000071 1.7192000151 1.6990000010
 870.70996094 6.0000000000 8.4250001907 8.5000000000 433924.12500 0.0353999995 0.4713000059 2.2537000179 2.5216000080 123.90380096 137.05654907  -999.250000 1.6842999458 1.6972999573 1.6778999567
 870.86236572 6.0000000000 8.3850002289 8.5000000000 400487.06250 0.0394000001 0.4706999958 2.2588999271 2.5415000916 126.92079926 136.07519531  -999.250000 1.6771999598 1.6799000502 1.6655999422
 871.01477051 6.0000000000 8.4028997421 8.5000000000 368175.43750 0.0348000005 0.4686000049 2.2534999847 2.5151000023 125.54360199 136.47434998  -999.250000 1.7128000259 1.6985000372 1.7001999617
 871.16717529 6.0000000000 8.4469003677 8.5000000000 356919.90625 0.0425000004 0.4702999890 2.2581999302 2.4828000069 123.59519958 136.90542603  -999.250000 1.7046999931 1.6812000275 1.6916999817
 871.31958008 6.0000000000 8.4711999893 8.5000000000 353464.06250 0.0436999984 0.4670000076 2.2425999641 2.5018999577 119.50319672 136.56184387  -999.250000 1.6610000134 1.6532000303 1.6536999941
 871.47198486 6.0000000000 8.4594001770 8.5000000000 352181.00000 0.0526000001 0.5184000134 2.2379000187 2.5139999390 122.51069641 138.60377502  -999.250000 1.6605999470 1.6653000116 1.6572999954
 871.62438965 6.0000000000 8.4594001770 8.5000000000 353532.28125 0.0537000000 0.4652000070 2.2411999702 2.5072999001 122.96659851 138.50694275  -999.250000 1.6829999685 1.7020000219 1.6842999458
 871.77679443 6.0000000000 8.4576997757 8.5000000000 342841.37500 0.0571999997 0.4499999881 2.2597999573 2.4867999554 124.39209747 134.59947205  -999.250000 1.8120000362 1.8392000198 1.8173999786
 871.92919922 6.0000000000 8.4688997269 8.5000000000 326296.78125 0.0625000000 0.4111999869 2.2890999317 2.5146999359 123.30310059 131.72964478  -999.250000 1.9084000587 1.9375000000 1.9122999907
 872.08160400 6.0000000000 8.4617004395 8.5000000000 315444.21875 0.0643000007 0.4426999986 2.2990000248 2.5480000973 124.16729736 129.18331909  -999.250000 1.9153000116 1.9322999716 1.9213000536
 872.23394775 6.0000000000 8.4680004120 8.5000000000 314531.71875 0.0685999990 0.3585999906 2.3094999790 2.5332000256 123.32150269 128.62434387  -999.250000 1.9197000265 1.9490000010 1.9163000584
 872.38635254 6.0000000000 8.4632997513 8.5000000000 258178.59375 0.0773999989 0.3664000034 2.3201000690 2.5492000580 119.00150299 128.06604004  -999.250000 1.9428999424 1.9623999596 1.9349000454
 872.53875732 6.0000000000 8.4600000381 8.5000000000 288521.93750 0.0794999972 0.3849000037 2.3229999542 2.5831999779 116.95839691 127.47137451  -999.250000 1.9615999460 1.9776999950 1.9608000517
 872.69116211 6.0000000000 8.4558000565 8.5000000000 289289.40625 0.0820999965 0.3756000102 2.3213999271 2.6278998852 119.19930267 127.59255981  -999.250000 1.9570000172 1.9577000141 1.9499000311
 872.84356689 6.0000000000 8.4659004211 8.5000000000 295259.50000 0.0754000023 0.4194000065 2.3064999580 2.6185998917 124.04290009 125.91267395  -999.250000 1.9296000004 1.9397000074 1.9218000174
 872.99597168 6.0000000000 8.4895000458 8.5000000000 289291.28125 0.0707999989 0.3973999918 2.2962000370 2.5820000172 125.85209656 126.22457886  -999.250000 1.9170000553 1.9359999895 1.9132000208
 873.14837646 6.0000000000 8.4979000092 8.5000000000 299990.34375 0.0644000024 0.3693999946 2.2934000492 2.5736999512 123.76930237 130.13102722  -999.250000 2.0053000450 2.0244998932 2.0023000240
 873.30078125 6.0000000000 8.4736003876 8.5000000000 287864.78125 0.0617000014 0.3411999941 2.3055999279 2.5543000698 120.55519867 129.77214050  -999.250000 2.1319000721 2.1212000847 2.1229999065
 873.45318604 6.0000000000 8.4628000259 8.5000000000 271127.87500 0.0719000027 0.3790999949 2.3392000198 2.5378999710 118.77300262 125.90304565  -999.250000 2.1045999527 2.1372001171 2.1426000595
 873.60559082 6.0000000000 8.4949998856 8.5000000000 271125.21875 0.0768999979 0.2849999964 2.3545000553 2.5201001167 115.24289703 123.14860535  -999.250000 2.1229999065 2.1763000488 2.1793999672
