# LAS format log file from PETREL
# Project units are specified as depth units
#==================================================================
~Version information
VERS.   2.0:
WRAP.   NO:
#==================================================================
~Well
STRT .m      830.01916504 :
STOP .m      1294.2294922 :
STEP .m     0.00000000 :
NULL .        -999.250000 :
COMP.           : COMPANY
WELL.  32/2-1   : WELL
FLD.            : FIELD
LOC.            : LOCATION
SRVC.           : SERVICE COMPANY
DATE.  2018-09-11 14:48:41   : Log Export Date {yyyy-MM-dd HH:mm:ss}
PROV.           : PROVINCE
UWI.   32/2-1   : UNIQUE WELL ID
API.            : API NUMBER
#==================================================================
~Curve
DEPT .m                   : DEPTH
Lithology_geolink ._      : Lithology_geolink
CALI .in                  : CALI
BS .in                    : BS
ROP .m/h                  : ROP
DRHO .g/cm3               : DRHO
NPHI .m3/m3               : NPHI
RHOB .g/cm3               : RHOB
PEF .b/e                  : PEF
GR .gAPI                  : GR
DTC .us/ft                : DTC
DTS .us/ft                : DTS
RDEP .ohm.m               : RDEP
RSHA .ohm.m               : RSHA
RMED .ohm.m               : RMED
~Parameter
#==================================================================
~Ascii
# ...
 1198.6746826 5.0000000000 8.4356002808 8.5000000000 518400.00000 0.0677032024 0.2411092073 2.2523257732 1.6543142796 87.022102356 101.22759247  -999.250000 1.1456236839 1.0925335884 1.0850524902
 1198.8270264 5.0000000000 8.4684000015 8.5000000000 518400.00000 0.0722963139 0.2318074554 2.2395102978 1.6657907963 83.044685364 101.82894135  -999.250000 1.1933617592 1.1165808439 1.1232693195
 1198.9794922 3.0000000000 8.5396995544 8.5000000000 568352.87500 0.0767963976 0.2410925478 2.2454953194 1.8411594629 73.933601379 102.01295471  -999.250000 1.3442791700 1.1165001392 1.1857498884
 1199.1318359 3.0000000000 8.5613002777 8.5000000000 535554.37500 0.0817959905 0.2147211581 2.2510955334 2.0502324104 67.029930115 103.57419586  -999.250000 1.2346879244 1.0566480160 1.1455322504
 1199.2843018 3.0000000000 8.5867996216 8.5000000000 620498.12500 0.0763999969 0.2391999960 2.2467000484 2.1865999699 65.184600830 102.40953827  -999.250000 1.2841999531 1.1461000443 1.2461999655
 1199.4366455 3.0000000000 8.5509004593 8.5000000000 704220.81250 0.0691058412 0.2444957495 2.2438020706 2.0518081188 65.204383850 102.57703400  -999.250000 1.4561622143 1.1896650791 1.3311319351
 1199.5891113 3.0000000000 8.5116996765 8.5000000000 704220.81250 0.0685999990 0.2497999966 2.2583000660 1.9284000397 62.851299286 102.56750488  -999.250000 1.5785000324 1.3791999817 1.5297000408
 1199.7414551 3.0000000000 8.4816999435 8.5000000000 704220.81250 0.0818893537 0.2692843974 2.2966692448 1.9234040976 66.873382568 101.55281830  -999.250000 1.6909098625 1.4167698622 1.5750635862
 1199.8939209 3.0000000000 8.4433002472 8.5000000000 2157892.5000 0.0913000032 0.2439000010 2.3031001091 1.9805999994 75.587303162 98.966575623  -999.250000 1.8622000217 1.5391999483 1.7474999428
 1200.0462646 3.0000000000 8.3699998856 8.5000000000 1224992.5000 0.0876029655 0.2629847229 2.3046987057 1.9828982353 87.679214478 96.682434082  -999.250000 2.0650374889 1.7784082890 1.9503375292
 1200.1987305 16.000000000 8.4369001389 8.5000000000 865483.56250 0.0971999988 0.3185999990 2.3254001141 2.0315999985 98.959098816 93.306411743  -999.250000 2.7363998890 2.5367000103 2.6387000084
 1200.3510742 16.000000000 8.5183000565 8.5000000000 661457.87500 0.1247778982 0.2729365826 2.3859512806 2.0491859913 100.87706757 89.527526855  -999.250000 3.0320630074 2.8409562111 3.0220925808
 1200.5035400 16.000000000 8.5338001251 8.5000000000 569300.75000 0.1528999954 0.3174000084 2.4237999916 2.0494999886 102.53009796 85.722244263  -999.250000 3.1452000141 3.1882998943 3.3059999943
 1200.6558838 5.0000000000 8.4791002274 8.5000000000 595450.06250 0.1599943191 0.2761330903 2.4444832802 2.0312144756 95.732543945 85.998481750  -999.250000 3.3209590912 3.3385796547 3.2787220478
 1200.8082275 5.0000000000 8.5031003952 8.5000000000 575992.81250 0.1602997631 0.3119712472 2.4559907913 2.0652725697 97.401954651 89.352218628  -999.250000 3.6349482536 3.7893385887 3.4903302193
 1200.9606934 5.0000000000 8.5363998413 8.5000000000 554773.00000 0.1623983234 0.2820240259 2.4672908783 2.0987732410 93.545989990 89.985099792  -999.250000 3.8404355049 3.8224737644 3.7338049412
 1201.1130371 5.0000000000 8.5200004578 8.5000000000 514513.09375 0.1547061652 0.2980870903 2.4376237392 2.0773172379 92.923698425 91.529731750  -999.250000 3.8291091919 3.5740990639 3.7319016457
 1201.2655029 5.0000000000 8.5134000778 8.5000000000 456809.40625 0.1497000009 0.3088999987 2.3875000477 1.8566999435 87.325302124 93.571067810 174.31930542 2.9516000748 2.7156999111 2.9144001007
 1201.4178467 5.0000000000 8.5524997711 8.5000000000 456586.18750 0.1624897420 0.3069016039 2.3579235077 1.7702692747 88.220481873 95.852745056 176.17860413 2.4327158928 2.1025912762 2.2375423908
 1201.5703125 5.0000000000 8.5944995880 8.5000000000 465454.81250 0.1754000038 0.2694999874 2.3608000278 1.7180999517 90.253196716 95.676246643 181.76048279 2.2904999256 1.9198999405 2.0446000099
 1201.7226563 5.0000000000 8.5570001602 8.5000000000 544564.43750 0.1653080881 0.2611067295 2.3744890690 1.8693788052 91.267089844 95.997940063 188.55834961 2.6431174278 2.2989962101 2.4121055603
 1201.8751221 5.0000000000 8.5931997299 8.5000000000 544564.43750 0.1562000066 0.2628999949 2.3808999062 1.8660000563 87.683097839 95.580139160 192.21229553 3.0520999432 2.4560000896 2.7276999950
 1202.0274658 5.0000000000 8.5513000488 8.5000000000 544564.43750 0.1406124830 0.2747904658 2.3354365826 1.7626826763 82.093582153 96.199005127 194.19770813 2.4627723694 1.8557808399 2.1548590660
 1202.1799316 5.0000000000 8.5846004486 8.5000000000 549070.93750 0.1483999938 0.2759000063 2.3006999493 1.6284999847 79.448799133 98.265846252 195.71170044 1.9458999634 1.4862999916 1.7094999552
 1202.3322754 3.0000000000 8.5784997940 8.5000000000 648000.00000 0.1391074508 0.2580143213 2.2625305653 1.5762418509 76.908538818 100.50200653 196.60568237 1.6388460398 1.3496094942 1.5007672310
 1202.4847412 3.0000000000 8.5945997238 8.5000000000 648000.00000 0.1453000009 0.2723000050 2.2613999844 1.5666999817 76.965896606 101.40377808 196.98089600 1.3945000172 1.2798000574 1.3236999512
 1202.6370850 3.0000000000 8.6258001328 8.5000000000 835357.62500 0.1446005702 0.2664047480 2.2632985115 1.5635025501 74.679229736 100.04649353 197.60108948 1.3042722940 1.2068583965 1.2509583235
 1202.7895508 3.0000000000 8.6197996140 8.5000000000 925778.87500 0.1446000040 0.2793000042 2.2651000023 1.5523999929 76.376602173 99.135543823 197.70899963 1.2833000422 1.1851999760 1.2254999876
 1202.9418945 3.0000000000 8.6064996719 8.5000000000 941108.43750 0.1360068917 0.2396317869 2.2567067146 1.5510010719 75.734909058 98.487915039 197.81851196 1.2906939983 1.1917947531 1.2204040289
 1203.0942383 3.0000000000 8.6379995346 8.5000000000 971767.43750 0.1310040057 0.2642802000 2.2505049706 1.5530983210 78.795845032 99.090827942 196.83927917 1.2590253353 1.1659207344 1.1983177662
 1203.2467041 3.0000000000 8.6833000183 8.5000000000 939210.12500 0.1340975165 0.2807868123 2.2557957172 1.5676883459 78.605751038 99.623764038 197.24426270 1.2424132824 1.1593052149 1.2207820415
 1203.3990479 3.0000000000 8.6771001816 8.5000000000 1261132.2500 0.1343997568 0.2569191754 2.2690892220 1.6122642756 78.836219788 97.756599426 196.95332336 1.2209173441 1.1771856546 1.2340893745
 1203.5515137 3.0000000000 8.6490001678 8.5000000000 1271053.5000 0.1292999983 0.2502999902 2.2746999264 1.6331000328 77.286499023 95.898788452 196.95790100 1.2295999527 1.2531000376 1.2625999451
 1203.7038574 3.0000000000 8.5721998215 8.5000000000 1117561.2500 0.1314982474 0.2129299492 2.3027775288 1.6382957697 76.827964783 90.208328247 188.65345764 1.3581969738 1.4495426416 1.3937948942
 1203.8563232 3.0000000000 8.4555997849 8.5000000000 841537.06250 0.1250000000 0.1840000004 2.3484001160 1.7116999626 76.751899719 84.932029724 167.65809631 2.1491999626 2.3285000324 2.1717998981
 1204.0086670 16.000000000 8.3649997711 8.5000000000 771347.87500 0.1229016855 0.1735084057 2.4117491245 1.8579828739 75.513191223 80.579689026 164.57717896 3.1042346954 3.1372520924 3.1180417538
 1204.1611328 16.000000000 8.3887996674 8.5000000000 771347.87500 0.1142999977 0.1774999946 2.4070000648 1.8985999823 73.788398743 79.398239136 164.93449402 3.0769000053 2.9667000771 3.0687000751
 1204.3134766 16.000000000 8.4476995468 8.5000000000 659009.18750 0.1129011139 0.1921882331 2.3523440361 1.8615297079 73.387619019 83.300270081 168.47795105 2.6465446949 2.4183394909 2.5625054836
 1204.4659424 16.000000000 8.5195999146 8.5000000000 635455.12500 0.1252000034 0.2360000014 2.3089001179 1.7763999701 73.803596497 89.305892944 173.62449646 1.7681000233 1.6133999825 1.6809999943
 1204.6182861 16.000000000 8.6430997849 8.5000000000 622563.87500 0.1303958446 0.2428944707 2.2874171734 1.7558164597 74.331481934 95.278015137 182.05163574 1.5066095591 1.4464337826 1.4390938282
 1204.7707520 3.0000000000 8.6195001602 8.5000000000 660687.12500 0.1264999956 0.2992999852 2.2741000652 1.7087999582 75.054801941 97.750633240 191.33720398 1.2979999781 1.2424999475 1.2690000534
