# LAS format log file from PETREL
# Project units are specified as depth units
#==================================================================
~Version information
VERS.   2.0:
WRAP.   NO:
#==================================================================
~Well
STRT .m      830.01916504 :
STOP .m      1294.2294922 :
STEP .m     0.00000000 :
NULL .        -999.250000 :
COMP.           : COMPANY
WELL.  32/2-1   : WELL
FLD.            : FIELD
LOC.            : LOCATION
SRVC.           : SERVICE COMPANY
DATE.  2018-09-11 14:48:41   : Log Export Date {yyyy-MM-dd HH:mm:ss}
PROV.           : PROVINCE
UWI.   32/2-1   : UNIQUE WELL ID
API.            : API NUMBER
#==================================================================
~Curve
DEPT .m                   : DEPTH
Lithology_geolink ._      : Lithology_geolink
CALI .in                  : CALI
BS .in                    : BS
ROP .m/h                  : ROP
DRHO .g/cm3               : DRHO
NPHI .m3/m3               : NPHI
RHOB .g/cm3               : RHOB
PEF .b/e                  : PEF
GR .gAPI                  : GR
DTC .us/ft                : DTC
DTS .us/ft                : DTS
RDEP .ohm.m               : RDEP
RSHA .ohm.m               : RSHA
RMED .ohm.m               : RMED
~Parameter
#==================================================================
~Ascii
# ...
 1104.9487305 2.0000000000 8.4245996475 8.5000000000 412365.25000 0.0749000013  -999.250000 2.2060000896 1.9227999449 71.609703064 109.15409088  -999.250000 0.9790961742 0.9679872990 0.9899795055
 1105.1010742 2.0000000000 8.4296998978 8.5000000000 547440.81250 0.0716999993  -999.250000 2.1795001030 1.9031000137 71.710502625 105.91569519  -999.250000 1.1795393229 1.1989148855 1.1870419979
 1105.2535400 2.0000000000 8.3704004288 8.5000000000 638821.81250 0.0728000030 0.3012999892 2.1865000725 2.0113999844 68.854103088 102.73175049  -999.250000 1.0302000046 1.0146000385 1.0059000254
 1105.4058838 2.0000000000 8.4470996857 8.5000000000 690305.75000 0.0863000005 0.3079946339 2.2595999241 2.2344000340 71.291198730 98.602020264  -999.250000 0.8580379486 0.8487328887 0.8488258719
 1105.5583496 2.0000000000 8.4752998352 8.5000000000 636504.12500 0.1088000014 0.2342000008 2.3538000584 2.4964001179 68.096298218 90.758483887  -999.250000 3.0755999088 2.4953999519 2.5023999214
 1105.7106934 2.0000000000 8.5125999451 8.5000000000 609504.12500 0.1253000051 0.1597596556 2.4553000927 2.7460000515 72.480598450 88.148986816  -999.250000 3.9597914219 3.1041121483 3.5156881809
 1105.8631592 2.0000000000 8.4867000580 8.5000000000 437072.78125 0.1277000010 0.1897999942 2.5100998878 2.9031000137 74.011100769 80.776603699  -999.250000 5.7761001587 3.2664999962 4.9647002220
 1106.0155029 16.000000000 8.4829998016 8.5000000000 308575.09375 0.1250000000 0.1847040802 2.4935998917 2.8450000286 75.219497681 65.931404114  -999.250000 6.2631101608 2.7461168766 4.8675775528
 1106.1679688 16.000000000 8.5664997101 8.5000000000 284408.65625 0.1216000021 0.2885999978 2.4010999203 2.5838000774 67.351898193 67.172294617  -999.250000 6.4545001984 2.7797999382 4.9956998825
 1106.3203125 16.000000000 8.7072000504 8.5000000000 260241.82813 0.1404000074 0.2203546911 2.3571999073 2.2272999287 62.355899811 66.869140625  -999.250000 6.0532212257 2.7139527798 4.4083704948
 1106.4727783 2.0000000000 8.4926004410 8.5000000000 251972.28125 0.1018000022 0.1735000014 2.3687996864 2.3146998882 59.837699890 65.917060852  -999.250000 4.5416998863 2.8215999603 3.6979999542
 1106.6251221 2.0000000000 8.5799999237 8.5000000000 249877.79688 0.0635000020 0.1501187235 2.4690001011 2.4744000435 57.124401093 64.584266663  -999.250000 13.745124817 6.1940979958 8.5203361511
 1106.7774658 2.0000000000 8.5799999237 8.5000000000 248277.23438 0.0355000012 0.1367107481 2.4611999989 2.6659998894 52.155101776 70.255805969  -999.250000 15.154775620 8.1044702530 9.9510555267
 1106.9299316 2.0000000000 8.5799999237 8.5000000000 186744.95313 0.0511999987 0.1195137650 2.3979001045 2.5641000271 47.775600433 90.149253845  -999.250000 15.136216164 8.4117546082 10.156935692
 1107.0822754 2.0000000000 8.5211000443 8.5000000000 161595.71875 0.0318999998 0.1746557802 2.2335999012 2.3650000095 46.703098297 100.95414734  -999.250000 14.591436386 8.7923946381 10.316472054
 1107.2347412 2.0000000000 8.5079002380 8.5000000000 161595.71875 0.0364000015 0.1709000021 2.2726998329 2.2151999474 49.015899658 105.16040039  -999.250000 14.684300423 9.0354995728 10.248100281
 1107.3870850 2.0000000000 8.5343999863 8.5000000000 150346.07813 0.0562999994 0.0715795904 2.2743000984 2.0650000572 51.984001160 106.59664917  -999.250000 13.973070145 8.7976903915 10.032372475
 1107.5395508 2.0000000000 8.5076999664 8.5000000000 140639.03125 0.0421999991 0.0631999969 2.1712999344 1.5577000380 54.517700195 105.23490143  -999.250000 9.3542995453 5.8847999573 7.2670001984
 1107.6918945 2.0000000000 8.4955997467 8.5000000000 150220.07813 0.0403000005 0.2111814320 2.1761999130 1.5421999693 55.512298584 105.25398254  -999.250000 2.7932572365 1.8736140728 2.3163669109
 1107.8443604 2.0000000000 8.5162000656 8.5000000000 167176.07813 0.0491999984 0.2930000126 2.1993000507 1.5976999998 55.484699249 105.27300262  -999.250000 1.6100000143 1.2747000456 1.4275000095
 1107.9967041 2.0000000000 8.4884996414 8.5000000000 170439.12500 0.0494999997 0.2816091180 2.2026000023 1.5921000242 55.808399200 106.98382568  -999.250000 1.0935138464 1.0398881435 1.0831758976
 1108.1491699 2.0000000000 8.4884996414 8.5000000000 171237.23438 0.0442999974 0.2829999924 2.2095000744 1.6201000214 54.213298798 107.85569763  -999.250000 1.0634000301 1.0685000420 1.0561000109
 1108.3015137 2.0000000000 8.5053997040 8.5000000000 168312.60938 0.0434999987 0.2645148039 2.2225999832 1.6000000238 57.508998871 106.59720612  -999.250000 1.1295469999 1.1687196493 1.1166515350
 1108.4539795 2.0000000000 8.5037002563 8.5000000000 168746.04688 0.0463000014 0.2610999942 2.2543001175 1.5210000277 59.479499817 102.18070221  -999.250000 1.3085000515 1.3054000139 1.2790000439
 1108.6063232 2.0000000000 8.4899997711 8.5000000000 221914.43750 0.0671999976 0.2900767922 2.3080999851 1.5443999767 63.463199615 101.16061401  -999.250000 1.4099186659 1.3385734558 1.3671294451
 1108.7586670 2.0000000000 8.4750003815 8.5000000000 377057.50000 0.0776999965 0.2618226707 2.3338000774 1.5555000305 59.766899109 105.55427551  -999.250000 0.8622393012 0.8342044950 0.8540115356
 1108.9111328 2.0000000000 8.4650001526 8.5000000000 629752.68750 0.1028999984 0.3110605478 2.3666000366 1.6503000259 57.405998230 109.56558990  -999.250000 0.7226115465 0.7274851799 0.7285002470
 1109.0634766 2.0000000000 8.4947004318 8.5000000000 874710.00000 0.0800999999 0.2616396546 2.3380000591 1.7388000488 54.887298584 111.68699646  -999.250000 0.6806335449 0.6927278042 0.6858341694
 1109.2159424 2.0000000000 8.4786996841 8.5000000000 1024245.6875 0.0760999992 0.2917999923 2.2990999222 1.7653000355 55.605701447 110.55159760  -999.250000 0.6722999811 0.6861000061 0.6794000268
 1109.3682861 2.0000000000 8.4106998444 8.5000000000 962112.62500 0.0472000018 0.3013923168 2.2054998875 1.7646000385 55.104301453 108.70288849  -999.250000 0.7038747072 0.6874988675 0.6841961741
 1109.5207520 2.0000000000 8.4252004623 8.5000000000 928595.18750 0.0430000015 0.3368999958 2.1624999046 1.6169999838 55.930599213 105.74079895  -999.250000 0.7253000140 0.6941000223 0.6938999891
 1109.6730957 2.0000000000 8.4079999924 8.5000000000 869778.37500 0.0286999997 0.3099215925 2.1243000031 1.5491000414 55.044200897 105.69972992  -999.250000 0.7427859902 0.6826092005 0.6957984567
 1109.8255615 2.0000000000 8.4112997055 8.5000000000 875687.43750 0.0269000009 0.3012999892 2.1243000031 1.5277999640 55.177600861 106.88890839  -999.250000 0.7409999967 0.6680999994 0.7016999722
 1109.9779053 2.0000000000 8.4142999649 8.5000000000 830868.12500 0.0217000004 0.2652288973 2.1235001087 1.5397000313 55.502799988 107.16047668  -999.250000 0.7435979247 0.6544109583 0.7126911879
 1110.1303711 2.0000000000 8.4041996002 8.5000000000 790178.00000 0.0283000004 0.3064999878 2.1693000793 1.6605999470 56.529899597 107.34259796  -999.250000 0.7613999844 0.7102000117 0.7608000040
 1110.2827148 2.0000000000 8.4361000061 8.5000000000 751101.12500 0.0129000004 0.2487462759 2.2464001179 1.9603999853 58.443698883 104.22509766  -999.250000 0.7720913887 0.7249881625 0.7729902267
 1110.4351807 2.0000000000 8.4211997986 8.5000000000 744831.75000 0.0017000000 0.2061000019 2.3424999714 2.2862999439 57.546901703 92.540802002  -999.250000 0.9251999855 0.9797000289 0.9682999849
 1110.5875244 2.0000000000 8.4334001541 8.5000000000 494634.25000 -0.007500000 0.1740256995 2.3745000362 2.4547998905 60.142200470 87.841270447  -999.250000 2.7948019505 2.2434873581 3.1960148811
 1110.7399902 2.0000000000 8.4449996948 8.5000000000 319207.31250 0.0074999998 0.1370999962 2.3492000103 2.2149999142 57.583400726 87.414802551  -999.250000 5.5390000343 5.0770001411 7.6354999542
 1110.8923340 2.0000000000 8.4673004150 8.5000000000 254112.82813 0.0265999995 0.1148178503 2.3111000061 2.0223999023 54.159099579 88.894714355  -999.250000 9.6041421890 11.355868340 12.740908623
 1111.0446777 2.0000000000 8.4456996918 8.5000000000 207692.64063 0.0445999987 0.1006113738 2.3120000362 1.9989000559 49.682899475 91.657791138  -999.250000 64.097908020 999.20782471 999.20892334
