# LAS format log file from PETREL
# Project units are specified as depth units
#==================================================================
~Version information
VERS.   2.0:
WRAP.   NO:
#==================================================================
~Well
STRT .m      830.01916504 :
STOP .m      1294.2294922 :
STEP .m     0.00000000 :
NULL .        -999.250000 :
COMP.           : COMPANY
WELL.  32/2-1   : WELL
FLD.            : FIELD
LOC.            : LOCATION
SRVC.           : SERVICE COMPANY
DATE.  2018-09-11 14:48:41   : Log Export Date {yyyy-MM-dd HH:mm:ss}
PROV.           : PROVINCE
UWI.   32/2-1   : UNIQUE WELL ID
API.            : API NUMBER
#==================================================================
~Curve
DEPT .m                   : DEPTH
Lithology_geolink ._      : Lithology_geolink
CALI .in                  : CALI
BS .in                    : BS
ROP .m/h                  : ROP
DRHO .g/cm3               : DRHO
NPHI .m3/m3               : NPHI
RHOB .g/cm3               : RHOB
PEF .b/e                  : PEF
GR .gAPI                  : GR
DTC .us/ft                : DTC
DTS .us/ft                : DTS
RDEP .ohm.m               : RDEP
RSHA .ohm.m               : RSHA
RMED .ohm.m               : RMED
~Parameter
#==================================================================
~Ascii
# ...
 954.98712158 2.0000000000 8.4611997604 8.5000000000 260229.23438 0.0454999991 0.2041279972 2.3369998932 2.4962000847 67.896186829 93.568954468  -999.250000 0.9900175929 1.0398973227 1.0085124969
 955.13952637 2.0000000000 8.4315996170 8.5000000000 245453.03125 0.0399999991 0.1363271475 2.4774000645 3.0813999176 61.212776184 86.936210632  -999.250000 2.4187276363 2.3751649857 2.3560602665
 955.29193115 2.0000000000 8.4176998138 8.5000000000 246692.14063 0.0450000018 0.1244047657 2.6122999191 3.3914000988 58.342449188 80.263648987  -999.250000 4.9936685562 4.5822157860 4.8130159378
 955.44433594 2.0000000000 8.4300003052 8.5000000000 254125.07813 0.0546999983 0.0878146589 2.6730000973 3.4927999973 56.694561005 72.345642090  -999.250000 7.4473171234 6.7124471664 7.2110395432
 955.59674072 16.000000000 8.4329004288 8.5000000000 212871.25000 0.0537000000 0.0509147793 2.6786000729 3.5847001076 56.265872955 54.500602722  -999.250000 11.663810730 10.480690002 11.287667274
 955.74914551 16.000000000 8.4219999313 8.5000000000 183055.32813 0.0575000010 0.0437028818 2.6814000607 3.5731000900 56.954223633 54.016178131  -999.250000 18.521753311 23.604843140 21.075979233
 955.90148926 16.000000000 8.4165000916 8.5000000000 186237.71875 0.0584000014 0.0474969558 2.6761999130 3.5757999420 56.728679657 53.631160736  -999.250000 21.603231430 52.758934021 31.839775085
 956.05389404 16.000000000 8.4336996078 8.5000000000 182019.60938 0.0635000020 0.0507973544 2.6886000633 3.5920999050 55.147266388 55.224979401  -999.250000 21.056541443 64.720031738 31.902256012
 956.20629883 2.0000000000 8.4084997177 8.5000000000 182019.60938 0.0659999996 0.0483020060 2.6872999668 3.7190001011 53.694965363 56.821083069  -999.250000 18.766735077 74.265953064 24.320377350
 956.35870361 2.0000000000 8.3727998734 8.5000000000 183048.84375 0.0706999972 0.0531980358 2.6884000301 3.6661999226 53.400917053 61.412479401  -999.250000 15.720320702 39.241943359 16.228040695
 956.51110840 2.0000000000 8.3912000656 8.5000000000 183048.84375 0.0847000033 0.0610968359 2.6648001671 3.5494999886 55.906097412 70.381523132  -999.250000 11.534176826 15.108163834 11.126342773
 956.66351318 2.0000000000 8.4188003540 8.5000000000 213475.68750 0.0630000010 0.0671975538 2.5274000168 3.1833000183 63.624706268 79.639068604  -999.250000 9.0438966751 8.8367090225 8.2726421356
 956.81591797 2.0000000000 8.4312000275 8.5000000000 241934.40625 0.0691000000 0.1286753714 2.3852999210 2.6451001167 73.115303040 89.166885376  -999.250000 4.3264899254 3.5445191860 3.9512310028
 956.96832275 2.0000000000 8.4093999863 8.5000000000 282924.71875 0.0694999993 0.2535499930 2.2600998878 2.2260000706 81.251243591 103.54154205  -999.250000 1.6720627546 1.5171114206 1.6064387560
 957.12072754 6.0000000000 8.3975000381 8.5000000000 296402.75000 0.0803000033 0.2521005869 2.2142999172 2.0631000996 84.391639709 111.51890564  -999.250000 1.0497488976 1.0958684683 1.0642168522
 957.27313232 6.0000000000 8.4102001190 8.5000000000 403443.00000 0.0582999997 0.2936833501 2.1835000515 2.1361000538 87.199279785 111.73431396  -999.250000 1.1361652613 1.1502782106 1.1489659548
 957.42553711 6.0000000000 8.3858003616 8.5000000000 465858.71875 0.0513999984 0.2925004661 2.1886999607 2.1749000549 89.759674072 110.27009583  -999.250000 1.1241048574 1.1015195847 1.1185121536
 957.57794189 6.0000000000 8.3837003708 8.5000000000 490929.12500 0.0516000018 0.3284855783 2.2019000053 2.1763999462 90.647041321 110.02300262  -999.250000 1.1214010715 1.0771098137 1.0854132175
 957.73034668 6.0000000000 8.3653001785 8.5000000000 637699.68750 0.0586999990 0.3229022324 2.2176001072 2.3064000607 91.050537109 108.86216736  -999.250000 1.1639829874 1.1400747299 1.1256839037
 957.88275146 6.0000000000 8.3912000656 8.5000000000 696825.37500 0.0522999987 0.3135037422 2.2197999954 2.3952000141 91.935745239 109.36748505  -999.250000 1.1756953001 1.1390005350 1.1361957788
 958.03509521 6.0000000000 8.4025001526 8.5000000000 828278.31250 0.0500999987 0.3446750045 2.2032001019 2.4500000477 95.165214539 113.61738586  -999.250000 1.2215633392 1.1525892019 1.1687738895
 958.18750000 6.0000000000 8.3985004425 8.5000000000 934660.43750 0.0520999990 0.3685808778 2.1870000362 2.2783999443 93.996437073 116.83172607  -999.250000 1.1869277954 1.0993427038 1.1514139175
 958.33990479 6.0000000000 8.3962001801 8.5000000000 981767.18750 0.0564999990 0.3372251391 2.1796000004 2.1775999069 93.635391235 116.14614868  -999.250000 1.1114604473 1.0687245131 1.1088341475
 958.49230957 6.0000000000 8.3606004715 8.5000000000 829448.25000 0.0644999966 0.3012144268 2.1993999481 2.1777000427 91.275642395 107.88141632  -999.250000 1.1873695850 1.1820546389 1.2025624514
 958.64471436 6.0000000000 8.3502998352 8.5000000000 522584.62500 0.0671999976 0.2510201037 2.2286999226 2.3004999161 92.514907837 98.759651184  -999.250000 1.8575315475 1.9817795753 1.8655344248
 958.79711914 6.0000000000 8.3261995316 8.5000000000 392750.62500 0.0755999982 0.1904242784 2.2967000008 2.4995999336 95.223320007 89.262405396  -999.250000 2.6681752205 2.5400762558 2.4361715317
 958.94952393 6.0000000000 8.3236999512 8.5000000000 392750.62500 0.0685999990 0.1770053655 2.3812999725 2.7571001053 98.664222717 82.492904663  -999.250000 4.5932288170 3.8652691841 3.9228043556
 959.10192871 6.0000000000 8.3587999344 8.5000000000 328918.68750 0.0632999986 0.1948928386 2.4528999329 2.9818000793 99.527854919 82.426025391  -999.250000 4.3244080544 3.3095228672 3.9499893188
 959.25433350 6.0000000000 8.3603000641 8.5000000000 302801.78125 0.0568000004 0.2427808195 2.4035000801 2.9037001133 98.637062073 86.017456055  -999.250000 2.8250005245 2.3681769371 2.7158944607
 959.40673828 6.0000000000 8.3542003632 8.5000000000 285556.31250 0.0700000003 0.2426000684 2.3354001045 2.6770000458 97.003257751 90.528984070  -999.250000 1.8890746832 1.8496077061 1.8710383177
 959.55914307 6.0000000000 8.3463001251 8.5000000000 282979.81250 0.0838999972 0.2155108452 2.2962000370 2.5864999294 98.701721191 95.982315063  -999.250000 1.8647096157 1.9173728228 1.9160817862
 959.71154785 6.0000000000 8.3706998825 8.5000000000 282979.81250 0.0930999964 0.2371913195 2.3145000935 2.5859999657 97.670410156 97.249496460  -999.250000 1.8657995462 1.9514863491 1.9259960651
 959.86395264 5.0000000000 8.3900003433 8.5000000000 258166.43750 0.0869999975 0.3675477803 2.3696999550 2.7915999889 95.650810242 95.983314514  -999.250000 1.9330730438 2.0186729431 1.9756801128
 960.01629639 5.0000000000 8.3409004211 8.5000000000 246387.25000 0.0918999985 0.0675405264 2.4758999348 2.8740999699 85.523620605 93.117393494  -999.250000 1.9619768858 2.1054303646 2.0411474705
 960.16870117 5.0000000000 8.3565998077 8.5000000000 246387.25000 0.0925000012 0.0704974383 2.5903000832 3.2216999531 74.608100891 89.953231812  -999.250000 2.4093413353 2.4626135826 2.4349844456
 960.32110596 5.0000000000 8.3445997238 8.5000000000 257140.81250 0.0997999981 0.0839891881 2.6549999714 3.4944000244 62.073898315 89.125160217  -999.250000 13.882702827 22.562389374 17.218149185
 960.47351074 5.0000000000 8.3313999176 8.5000000000 257140.81250 0.0935000032 0.0770028010 2.6670999527 3.7012000084 57.563301086 87.983055115  -999.250000 15.115809441 28.999727249 19.966602325
 960.62591553 16.000000000 8.3586997986 8.5000000000 267777.34375 0.0945999995 0.0991911143 2.6668999195 3.6056001186 57.400100708 86.103858948  -999.250000 15.328615189 31.234504700 20.417020798
 960.77832031 16.000000000 8.3484001160 8.5000000000 267777.34375 0.0934000015 0.1237901524 2.6549000740 3.3912000656 62.835800171 86.504142761  -999.250000 15.790514946 32.869243622 17.936693192
 960.93072510 5.0000000000 8.3606004715 8.5000000000 250703.28125 0.0986000001 0.1143038049 2.6429998875 3.2897999287 68.264701843 88.595962524  -999.250000 13.838381767 21.506153107 13.742979050
 961.08312988 5.0000000000 8.3512001038 8.5000000000 242434.81250 0.0863000005 0.1088022068 2.6159000397 3.3436000347 75.124298096 88.896675110  -999.250000 9.7748279572 9.1933317184 9.3319664001
