# LAS format log file from PETREL
# Project units are specified as depth units
#==================================================================
~Version information
VERS.   2.0:
WRAP.   NO:
#==================================================================
~Well
STRT .m      830.01916504 :
STOP .m      1294.2294922 :
STEP .m     0.00000000 :
NULL .        -999.250000 :
COMP.           : COMPANY
WELL.  32/2-1   : WELL
FLD.            : FIELD
LOC.            : LOCATION
SRVC.           : SERVICE COMPANY
DATE.  2018-09-11 14:48:41   : Log Export Date {yyyy-MM-dd HH:mm:ss}
PROV.           : PROVINCE
UWI.   32/2-1   : UNIQUE WELL ID
API.            : API NUMBER
#==================================================================
~Curve
DEPT .m                   : DEPTH
Lithology_geolink ._      : Lithology_geolink
CALI .in                  : CALI
BS .in                    : BS
ROP .m/h                  : ROP
DRHO .g/cm3               : DRHO
NPHI .m3/m3               : NPHI
RHOB .g/cm3               : RHOB
PEF .b/e                  : PEF
GR .gAPI                  : GR
DTC .us/ft                : DTC
DTS .us/ft                : DTS
RDEP .ohm.m               : RDEP
RSHA .ohm.m               : RSHA
RMED .ohm.m               : RMED
~Parameter
#==================================================================
~Ascii
 830.01916504 13.000000000 8.2500000000 9.8750000000 142548.48438  -999.250000  -999.250000  -999.250000  -999.250000 106.79720306  -999.250000  -999.250000 2.1756000519 2.1902999878 2.1733999252
 830.17156982 13.000000000 8.2500000000 9.8750000000 164598.84375  -999.250000  -999.250000  -999.250000  -999.250000 106.35310364  -999.250000  -999.250000 2.1756000519 2.1902999878 2.1733999252
 830.32397461 13.000000000 8.2500000000 9.8750000000 132010.56250  -999.250000  -999.250000  -999.250000  -999.250000 102.28910065  -999.250000  -999.250000 2.2163999081 2.2060000896 2.2044999599
 830.47637939 13.000000000 8.2500000000 9.8750000000 132524.28125  -999.250000  -999.250000  -999.250000  -999.250000 100.95659637  -999.250000  -999.250000 2.2960999012 2.3164999485 2.2969999313
 830.62878418 13.000000000 8.2500000000 9.8750000000 141088.67188  -999.250000  -999.250000  -999.250000  -999.250000 100.29039764  -999.250000  -999.250000 2.3958001137 2.4251999855 2.4012999535
 830.78118896 13.000000000 8.2500000000 9.8750000000 141088.67188  -999.250000  -999.250000  -999.250000  -999.250000 103.68810272  -999.250000  -999.250000 2.4342999458 2.4811999798 2.4540998936
 830.93359375 13.000000000 8.2500000000 9.8750000000 144937.07813  -999.250000  -999.250000  -999.250000  -999.250000 103.31060028  -999.250000  -999.250000 2.4823999405 2.5344998837 2.5027999878
 831.08593750 13.000000000 8.2500000000 9.8750000000 121725.00000  -999.250000  -999.250000  -999.250000  -999.250000 104.70970154  -999.250000  -999.250000 2.5106000900 2.5585999489 2.5230000019
 831.23834229 13.000000000 8.2500000000 9.8750000000 109400.39844  -999.250000  -999.250000  -999.250000  -999.250000 103.37719727  -999.250000  -999.250000 2.5171999931 2.5794999599 2.5202999115
 831.39074707 13.000000000 8.2500000000 9.8750000000 109125.71875  -999.250000  -999.250000  -999.250000  -999.250000 106.35310364  -999.250000  -999.250000 2.5062999725 2.5736999512 2.5225000381
 831.54315186 13.000000000 8.2500000000 9.8750000000 113132.88281  -999.250000  -999.250000  -999.250000  -999.250000 113.17089844  -999.250000  -999.250000 2.4723999500 2.5295999050 2.4827001095
 831.69555664 13.000000000 8.2500000000 9.8750000000 103413.24219  -999.250000  -999.250000  -999.250000  -999.250000 119.61109924  -999.250000  -999.250000 2.4451000690 2.4797999859 2.4674999714
 831.84796143 13.000000000 8.2500000000 9.8750000000 105597.71875  -999.250000  -999.250000  -999.250000  -999.250000 120.56600189  -999.250000  -999.250000 2.4003000259 2.4124000072 2.4128000736
 832.00036621 13.000000000 8.2500000000 9.8750000000 104096.88281  -999.250000  -999.250000  -999.250000  -999.250000 113.45960236  -999.250000  -999.250000 2.3587999344 2.3642001152 2.3629000187
 832.15277100 13.000000000 8.2500000000 9.8750000000 100772.64063  -999.250000  -999.250000  -999.250000  -999.250000 112.57119751  -999.250000  -999.250000 2.2997000217 2.3110001087 2.3050999641
 832.30517578 13.000000000 8.2500000000 9.8750000000 115497.35938  -999.250000  -999.250000  -999.250000  -999.250000 113.37069702  -999.250000  -999.250000 2.1603000164 2.1324000359 2.1642999649
 832.45758057 13.000000000 8.2500000000 9.8750000000 115497.35938  -999.250000  -999.250000  -999.250000  -999.250000 116.70189667  -999.250000  -999.250000 2.1426999569 2.0980999470 2.1331000328
 832.60998535 13.000000000 8.2500000000 9.8750000000 105328.79688  -999.250000  -999.250000  -999.250000  -999.250000 117.21269989  -999.250000  -999.250000 2.1486999989 2.1031000614 2.1282999516
 832.76239014 13.000000000 8.2500000000 9.8750000000 105195.60156  -999.250000  -999.250000  -999.250000  -999.250000 116.47979736  -999.250000  -999.250000 2.1212000847 2.0848000050 2.1078000069
 832.91479492 13.000000000 8.2500000000 9.8750000000 105195.60156  -999.250000  -999.250000  -999.250000  -999.250000 113.74829865  -999.250000  -999.250000 2.0722999573 2.0529000759 2.0552000999
 833.06719971 13.000000000 8.2500000000 9.8750000000 116039.52344  -999.250000  -999.250000  -999.250000  -999.250000 111.46089935  -999.250000  -999.250000 2.0132000446 1.9845999479 2.0002999306
 833.21954346 13.000000000 8.2500000000 9.8750000000 121798.44531  -999.250000  -999.250000  -999.250000  -999.250000 110.72799683  -999.250000  -999.250000 2.0132000446 1.9845999479 2.0002999306
 833.37194824 13.000000000 8.2500000000 9.8750000000 122996.15625  -999.250000  -999.250000  -999.250000  -999.250000 111.01670074  -999.250000  -999.250000 2.2111999989 2.1298000813 2.1647000313
 833.52435303 13.000000000 8.2500000000 9.8750000000 143123.04688  -999.250000  -999.250000  -999.250000  -999.250000 109.97290039  -999.250000  -999.250000 2.1547000408 2.1393001080 2.1294000149
 833.67675781 13.000000000 8.2500000000 9.8750000000 128315.87500  -999.250000  -999.250000  -999.250000  -999.250000 110.63919830  -999.250000  -999.250000 2.1568999290 2.1040999889 2.1356000900
 833.82916260 13.000000000 8.2500000000 9.8750000000 128315.87500  -999.250000  -999.250000  -999.250000  -999.250000 115.72540283  -999.250000  -999.250000 2.1540999413 2.1340999603 2.1205999851
 833.98156738 13.000000000 8.2500000000 9.8750000000 125466.83594  -999.250000  -999.250000  -999.250000  -999.250000 119.39939880  -999.250000  -999.250000 2.0104999542 2.0125000477 2.0018000603
 834.13397217 13.000000000 8.2500000000 9.8750000000 125134.19531  -999.250000  -999.250000  -999.250000  -999.250000 115.41919708  -999.250000  -999.250000  -999.250000  -999.250000  -999.250000
 834.28637695 13.000000000 8.2500000000 9.8750000000 127468.44531  -999.250000  -999.250000  -999.250000  -999.250000 111.43900299  -999.250000  -999.250000  -999.250000  -999.250000  -999.250000
 834.43878174 13.000000000 8.2500000000 9.8750000000 125258.39844  -999.250000  -999.250000  -999.250000  -999.250000 107.45880127  -999.250000  -999.250000  -999.250000  -999.250000  -999.250000
 834.59118652 13.000000000 8.2500000000 9.8750000000 133454.87500  -999.250000  -999.250000  -999.250000  -999.250000 107.45880127  -999.250000  -999.250000  -999.250000  -999.250000  -999.250000
 834.74359131 13.000000000 8.2500000000 9.8750000000 125600.03906  -999.250000  -999.250000  -999.250000  -999.250000 107.76490021  -999.250000  -999.250000  -999.250000  -999.250000  -999.250000
 834.89599609 13.000000000 8.2500000000 9.8750000000 135451.79688  -999.250000  -999.250000  -999.250000  -999.250000 108.07109833  -999.250000  -999.250000  -999.250000  -999.250000  -999.250000
 835.04840088 13.000000000 8.2500000000 9.8750000000 136218.60938 0.1600999981  -999.250000  -999.250000  -999.250000 108.37729645  -999.250000  -999.250000  -999.250000  -999.250000  -999.250000
 835.20074463 13.000000000 8.2500000000 9.8750000000 136218.60938 0.1806000024  -999.250000  -999.250000  -999.250000 108.68340302  -999.250000  -999.250000  -999.250000  -999.250000  -999.250000
 835.35314941 13.000000000 8.2500000000 9.8750000000 125603.28125 0.1909999996  -999.250000  -999.250000  -999.250000 108.98960114  -999.250000  -999.250000  -999.250000  -999.250000  -999.250000
 835.50555420 13.000000000 8.2500000000 9.8750000000 118020.96094 0.1669999957  -999.250000  -999.250000  -999.250000 109.29579926  -999.250000  -999.250000  -999.250000  -999.250000  -999.250000
 835.65795898 13.000000000 8.2500000000 9.8750000000 112863.24219 0.1544000059  -999.250000  -999.250000  -999.250000 109.29579926  -999.250000  -999.250000  -999.250000  -999.250000  -999.250000
 835.81036377 13.000000000 8.2500000000 9.8750000000 112853.67188 0.1571999937  -999.250000  -999.250000  -999.250000 107.76490021  -999.250000  -999.250000  -999.250000  -999.250000  -999.250000
 835.96276855 13.000000000 8.2500000000 9.8750000000 88963.671875 0.1571999937  -999.250000  -999.250000  -999.250000 106.23410034  -999.250000  -999.250000  -999.250000  -999.250000  -999.250000
 836.11517334 13.000000000 8.2500000000 9.8750000000 85640.304688 0.1462000012  -999.250000  -999.250000  -999.250000 108.83650208  -999.250000  -999.250000  -999.250000  -999.250000  -999.250000
