# LAS format log file from PETREL
# Project units are specified as depth units
#==================================================================
~Version information
VERS.   2.0:
WRAP.   NO:
#==================================================================
~Well
STRT .m      830.01916504 :
STOP .m      1294.2294922 :
STEP .m     0.00000000 :
NULL .        -999.250000 :
COMP.           : COMPANY
WELL.  32/2-1   : WELL
FLD.            : FIELD
LOC.            : LOCATION
SRVC.           : SERVICE COMPANY
DATE.  2018-09-11 14:48:41   : Log Export Date {yyyy-MM-dd HH:mm:ss}
PROV.           : PROVINCE
UWI.   32/2-1   : UNIQUE WELL ID
API.            : API NUMBER
#==================================================================
~Curve
DEPT .m                   : DEPTH
Lithology_geolink ._      : Lithology_geolink
CALI .in                  : CALI
BS .in                    : BS
ROP .m/h                  : ROP
DRHO .g/cm3               : DRHO
NPHI .m3/m3               : NPHI
RHOB .g/cm3               : RHOB
PEF .b/e                  : PEF
GR .gAPI                  : GR
DTC .us/ft                : DTC
DTS .us/ft                : DTS
RDEP .ohm.m               : RDEP
RSHA .ohm.m               : RSHA
RMED .ohm.m               : RMED
~Parameter
#==================================================================
~Ascii
# ...
 1048.7131348 2.0000000000 8.9481000900 8.5000000000 283905.37500 0.0847000033 0.3037131429 2.2423000336 2.4442000389 72.136100769 113.19746399  -999.250000 1.3998999596 1.3918000460 1.3909000158
 1048.8656006 2.0000000000 8.4486999512 8.5000000000 285452.43750 0.0454999991 0.3264000118 2.2620000839 2.8836998940 73.905296326 112.70159912  -999.250000 1.6207000017 1.5361000299 1.6211999655
 1049.0179443 2.0000000000 8.3957996368 8.5000000000 275746.75000 0.0480000004 0.3260003328 2.2797999382 2.7277998924 77.310203552 113.25215912  -999.250000 1.3207000494 1.2431999445 1.3028000593
 1049.1704102 2.0000000000 8.3489999771 8.5000000000 274960.25000 0.0305000003 0.3330999911 2.2151000500 2.4530000687 75.439498901 113.96829987  -999.250000 0.9894000292 0.9793000221 0.9610999823
 1049.3227539 2.0000000000 9.4700002670 8.5000000000 273437.31250 0.0425999984 0.3203999996 2.2026000023 2.0106000900 74.110198975 113.25867462  -999.250000 0.9625999928 0.9645000100 0.9311000109
 1049.4750977 2.0000000000 9.4700002670 8.5000000000 297257.06250 0.0178999994 0.3623000085 2.1396999359 2.2409000397 66.788497925 112.23532104  -999.250000 0.9491000175 0.9528999925 0.9128999710
 1049.6275635 2.0000000000 9.4700002670 8.5000000000 246662.37500 0.0403000005 0.3443000019 2.1842000484 2.2112998962 69.426300049 110.26197052  -999.250000 0.8971999884 0.8985999823 0.8514999747
 1049.7799072 2.0000000000 8.4449996948 8.5000000000 238237.92188 0.3262000084 0.3316000104 2.2920000553 1.7057000399 69.526802063 109.99260712  -999.250000 1.1827000380 0.9976999760 1.1335999966
 1049.9323730 2.0000000000 8.4375000000 8.5000000000 302969.87500 0.1811999977 0.3222999871 2.2715001106 1.8063999414 65.483001709 109.87180328  -999.250000 0.9128999710 0.8145999908 0.9222999811
 1050.0847168 2.0000000000 8.4117002487 8.5000000000 276927.12500 0.0850000009 0.3007999957 2.2079000473 2.0067999363 61.450599670 109.63998413  -999.250000 0.7861999869 0.8133999705 0.8353999853
 1050.2371826 2.0000000000 8.3159999847 8.5000000000 188912.35938 -0.000900000 0.1099999994 2.1112999916 2.2128999233 59.678501129 110.24089813  -999.250000 0.8030999899 0.9196000099 0.8608999848
 1050.3895264 2.0000000000 8.3432998657 8.5000000000 181515.23438 -0.024400000 0.0835999995 2.1612000465 2.5130000114 62.277900696 111.00299072  -999.250000 2.4948000908 2.8498001099 2.3190999031
 1050.5419922 2.0000000000 8.4359998703 8.5000000000 179494.76563 -0.011500000 0.0964000002 2.2251000404 2.4962999821 67.431503296 110.00430298  -999.250000 3.7823998928 2.6126000881 2.9932000637
 1050.6943359 2.0000000000 8.4716997147 8.5000000000 166731.12500 0.0197000001 0.2096000016 2.2585000992 2.1572999954 73.353302002 115.51608276  -999.250000 2.1858999729 1.5822000504 1.8108999729
 1050.8468018 2.0000000000 8.4399995804 8.5000000000 167978.06250 0.0463000014 0.1494999975 2.1919999123 1.8572000265 72.452598572 116.29319763  -999.250000 1.3937000036 1.1517000198 1.2501000166
 1050.9991455 2.0000000000 8.4280996323 8.5000000000 175958.64063 0.0584999993 0.2205000073 2.1600000858 1.8150000572 72.048698425 115.65061188  -999.250000 0.9902999997 0.9398000240 0.9538999796
 1051.1516113 2.0000000000 8.4642000198 8.5000000000 196478.09375 0.0590999983 0.3064999878 2.1542999744 1.8937000036 68.327003479 112.50149536  -999.250000 0.9711999893 0.9725000262 0.9585999846
 1051.3039551 2.0000000000 8.4631004333 8.5000000000 216448.48438 0.0612999983 0.2976000011 2.1624999046 1.9579000473 68.253601074 111.35122681  -999.250000 1.1576000452 1.0849000216 1.1224999428
 1051.4564209 2.0000000000 8.4375000000 8.5000000000 225804.76563 0.0582999997 0.3185000122 2.1738998890 1.9675999880 68.330497742 110.73729706  -999.250000 1.3470000029 1.2640000582 1.3200999498
 1051.6087646 6.0000000000 8.4544000626 8.5000000000 251306.92188 0.0570000000 0.3129999936 2.2011001110 2.0085000992 79.031898499 110.50218964  -999.250000 1.4598000050 1.4363000393 1.4538999796
 1051.7611084 6.0000000000 8.4196996689 8.5000000000 440825.03125 0.0604999997 0.2930000126 2.2411999702 2.1219999790 93.383903503 109.47382355  -999.250000 1.5461000204 1.5765000582 1.5442999601
 1051.9135742 6.0000000000 8.4296998978 8.5000000000 469751.37500 0.0545999967 0.3305000067 2.2699999809 2.2637999058 101.03800201 107.15356445  -999.250000 1.7258000374 1.8593000174 1.7527999878
 1052.0659180 6.0000000000 8.4776000977 8.5000000000 616165.87500 0.0522000007 0.3458999991 2.3132998943 2.4802999496 99.698997498 107.61372375  -999.250000 1.9882999659 2.0652000904 2.0000000000
 1052.2183838 6.0000000000 8.4032001495 8.5000000000 675095.18750 0.0571999997 0.3255999982 2.3294000626 2.3554999828 96.243400574 108.04410553  -999.250000 2.1380999088 2.1847999096 2.1300001144
 1052.3707275 6.0000000000 8.3669996262 8.5000000000 759742.93750 0.0696000010 0.3000000119 2.3250999451 2.2026998997 95.311302185 107.64971161  -999.250000 1.8933000565 1.8592000008 1.8710999489
 1052.5231934 6.0000000000 8.3563003540 8.5000000000 759688.06250 0.0741000026 0.2820999920 2.2976999283 2.0459001064 90.604202271 107.05349731  -999.250000 1.3466000557 1.3294999599 1.3398000002
 1052.6755371 6.0000000000 8.4107999802 8.5000000000 691188.12500 0.0640999973 0.2684000134 2.2618999481 1.9622999430 79.938003540 105.75174713  -999.250000 1.2379000187 1.2575000525 1.2384999990
 1052.8280029 6.0000000000 8.4146995544 8.5000000000 712082.12500 0.0631000027 0.2709999979 2.2311000824 1.8278000355 68.069396973 105.82800293  -999.250000 1.1187000275 1.1009000540 1.1144000292
 1052.9803467 2.0000000000 8.3569002151 8.5000000000 738113.75000 0.0648000017 0.2700000107 2.1960999966 1.7386000156 60.836601257 109.04792023  -999.250000 0.9872999787 0.9587000012 0.9717000127
 1053.1328125 2.0000000000 8.3404998779 8.5000000000 744807.12500 0.0716999993 0.2691999972 2.1782000065 1.6523000002 58.268699646 112.13020325  -999.250000 0.8783000112 0.8259000182 0.8582999706
 1053.2851563 2.0000000000 8.3856000900 8.5000000000 714117.25000 0.0703999996 0.2987000048 2.1638998985 1.6649999619 58.903999329 115.14168549  -999.250000 0.7214000225 0.6987000108 0.7164999843
 1053.4376221 2.0000000000 8.4131002426 8.5000000000 720044.62500 0.0666000098 0.2696999907 2.1570000648 1.6179000139 59.332401276 113.50080109  -999.250000 0.6884999871 0.6883999705 0.6929000020
 1053.5899658 2.0000000000 8.4263000488 8.5000000000 799949.37500 0.0634000003 0.2633000016 2.1540000439 1.6138000488 59.116100311 112.79116821  -999.250000 0.6632000208 0.6621999741 0.6683999896
 1053.7423096 2.0000000000 8.4449996948 8.5000000000 809265.62500 0.0606000014 0.2567999959 2.1498000622 1.6122000217 59.621799469 112.09445953  -999.250000 0.6737999916 0.6664000154 0.6638000011
 1053.8947754 2.0000000000 8.4257001877 8.5000000000 803729.43750 0.0669000000 0.3059999943 2.1510000229 1.6160999537 60.162799835 112.85169220  -999.250000 0.6879000068 0.6777999997 0.6726999879
 1054.0471191 2.0000000000 8.3826999664 8.5000000000 725445.37500 0.0746000037 0.3068999946 2.1577999592 1.6454000473 60.423599243 113.90955353  -999.250000 0.6935999990 0.6805999875 0.6772000194
 1054.1995850 2.0000000000 8.3930997849 8.5000000000 728146.68750 0.0769999996 0.2617999911 2.1651999950 1.6313999891 59.131599426 113.60630035  -999.250000 0.6893000007 0.6800000072 0.6736000180
 1054.3519287 2.0000000000 8.3977003098 8.5000000000 689315.00000 0.0639000013 0.2903999984 2.1552000046 1.5152000189 58.640300751 114.20331573  -999.250000 0.7017999887 0.6837000251 0.6827999949
 1054.5043945 2.0000000000 8.3362998962 8.5000000000 575966.62500 0.0520000011 0.2640999854 2.1424999237 1.5176000595 61.523601532 113.96769714  -999.250000 0.7027999759 0.6794000268 0.6844000220
 1054.6567383 2.0000000000 8.3712997437 8.5000000000 532532.56250 0.0487999991 0.3163000047 2.1324999332 1.5546000004 63.683998108 113.08810425  -999.250000 0.6779999733 0.6632999778 0.6682000160
 1054.8090820 2.0000000000 8.4075002670 8.5000000000 510228.37500 0.0566936731 0.2757325172 2.1405935287 1.5809788704 63.705482483 111.88825989  -999.250000 0.6517210603 0.6423168182 0.6456181407
