# LAS format log file from PETREL
# Project units are specified as depth units
#==================================================================
~Version information
VERS.   2.0:
WRAP.   NO:
#==================================================================
~Well
STRT .m      830.01916504 :
STOP .m      1294.2294922 :
STEP .m     0.00000000 :
NULL .        -999.250000 :
COMP.           : COMPANY
WELL.  32/2-1   : WELL
FLD.            : FIELD
LOC.            : LOCATION
SRVC.           : SERVICE COMPANY
DATE.  2018-09-11 14:48:41   : Log Export Date {yyyy-MM-dd HH:mm:ss}
PROV.           : PROVINCE
UWI.   32/2-1   : UNIQUE WELL ID
API.            : API NUMBER
#==================================================================
~Curve
DEPT .m                   : DEPTH
Lithology_geolink ._      : Lithology_geolink
CALI .in                  : CALI
BS .in                    : BS
ROP .m/h                  : ROP
DRHO .g/cm3               : DRHO
NPHI .m3/m3               : NPHI
RHOB .g/cm3               : RHOB
PEF .b/e                  : PEF
GR .gAPI                  : GR
DTC .us/ft                : DTC
DTS .us/ft                : DTS
RDEP .ohm.m               : RDEP
RSHA .ohm.m               : RSHA
RMED .ohm.m               : RMED
~Parameter
#==================================================================
~Ascii
# ...
 898.75152588 6.0000000000 8.3036003113 8.5000000000 451082.87500 0.0441999994 0.4104052186 2.3603000641 3.2009000778 116.62110138 114.27275085  -999.250000 2.0205316544 1.9795428514 1.9975225925
 898.90393066 6.0000000000 8.2616996765 8.5000000000 462849.12500 0.0513999984 0.3617390096 2.3580999374 3.2211999893 115.46530151 113.26071167  -999.250000 1.9135855436 1.9470260143 1.9666246176
 899.05633545 6.0000000000 8.3731002808 8.5000000000 462849.12500 0.0705000013 0.3829829395 2.3793001175 3.1951000690 113.52539825 112.24760437  -999.250000 1.9384000301 1.9931999445 2.0195000172
 899.20874023 6.0000000000 8.4392004013 8.5000000000 462849.12500 0.0652000010 0.3370184302 2.3710000515 3.3036000729 107.23650360 108.74090576  -999.250000 1.9747999907 2.1784999371 2.0813999176
 899.36114502 6.0000000000 8.5003995895 8.5000000000 462849.12500 0.0925000012 0.3576917052 2.4181001186 3.2539000511 101.02790070 107.52958679  -999.250000 2.1270000935 2.4700999260 2.2625000477
 899.51354980 6.0000000000 8.4968004227 8.5000000000 456323.75000 0.0890000015 0.2945252955 2.4588999748 3.5269000530 96.868698120 104.19183350  -999.250000 2.3914000988 2.7629001141 2.4739999771
 899.66595459 6.0000000000 8.4541997910 8.5000000000 445402.81250 0.0817999989 0.2691101730 2.5332000256 4.1002001762 94.252899170 103.71839142  -999.250000 3.1073000431 3.4521000385 3.1215000153
 899.81835938 6.0000000000 8.4376001358 8.5000000000 411971.75000 0.0627000034 0.3201795220 2.5552999973 4.4166002274 99.944099426 106.09224701  -999.250000 3.5910000801 3.7012999058 3.4942998886
 899.97076416 6.0000000000 8.3878002167 8.5000000000 397544.75000 0.0527000017 0.3437905610 2.4860999584 4.1792001724 107.28179932 108.67536163  -999.250000 2.6779999733 2.4965999126 2.5662999153
 900.12316895 6.0000000000 8.3821001053 8.5000000000 395118.34375 0.0764999986 0.3707999885 2.4488000870 3.8415000439 111.99199677 110.16100311  -999.250000 2.3471999168 2.3245000839 2.3689000607
 900.27557373 6.0000000000 8.4214000702 8.5000000000 415369.09375 0.0759999976 0.3569999933 2.4036002159 3.9493000507 108.32430267 109.63521576  -999.250000 2.2058000565 2.2302000523 2.2671999931
 900.42797852 6.0000000000 8.4371004105 8.5000000000 415369.09375 0.0759999976 0.3571999967 2.4191000462 4.3225998878 107.58660126 109.26444244  -999.250000 2.2657001019 2.2881999016 2.2699999809
 900.58038330 6.0000000000 8.4684000015 8.5000000000 415369.09375 0.0764999986 0.3438999951 2.4400999546 4.4527001381 102.62349701 110.52409363  -999.250000 2.4983999729 2.5072999001 2.4414000511
 900.73272705 6.0000000000 8.3964996338 8.5000000000 415369.09375 0.0913999975 0.4058000147 2.4832003117 4.5711002350 104.22869873 115.51450348  -999.250000 3.3682000637 2.8898000717 2.9867999554
 900.88513184 6.0000000000 8.3857002258 8.5000000000 494110.43750 0.0856999978 0.3441999853 2.4892001152 4.6473999023 111.21690369 114.72994232  -999.250000 3.4040999413 2.8794000149 3.0165998936
 901.03753662 7.0000000000 8.5075998306 8.5000000000 525412.43750 0.0869999975 0.4341999888 2.4576001167 4.5241999626 132.16909790 114.76776886  -999.250000 3.4054999352 2.7604000568 3.1656000614
 901.18994141 7.0000000000 8.4975996017 8.5000000000 547104.56250 0.0829999968 0.3680999875 2.3994998932 4.4495000839 154.13870239 114.82357788  -999.250000 2.4323999882 2.1767001152 2.3931999207
 901.34234619 7.0000000000 8.5178003311 8.5000000000 568352.87500 0.0974999964 0.3355000019 2.3701000214 4.0918002129 162.00050354 113.87978363  -999.250000 2.2377998829 2.1530001163 2.2411999702
 901.49475098 7.0000000000 8.5281000137 8.5000000000 589060.43750 0.1033999994 0.2171999961 2.4001998901 3.5076999664 147.54550171 113.64720154  -999.250000 3.9244000912 3.9591999054 3.7929000854
 901.64715576 2.0000000000 8.6057996750 8.5000000000 621635.06250 0.0939999968 0.2687999904 2.4642000198 2.9835000038 114.27549744 116.59742737  -999.250000 4.8348999023 5.0904002190 4.8199000359
 901.79956055 2.0000000000 8.5039997101 8.5000000000 555402.62500 0.0832000002 0.1247999966 2.5504000187 2.7053000927 80.269798279 117.94555664  -999.250000 7.1395998001 8.2722997665 7.6670999527
 901.95196533 2.0000000000 8.4907999039 8.5000000000 459563.40625 0.0644000024 0.0458999984 2.5862998962 2.7874999046 59.584499359 119.26107025  -999.250000 8.0984001160 9.9533004761 8.2672004700
 902.10437012 2.0000000000 8.5276002884 8.5000000000 459563.40625 0.0626000017 0.0397000015 2.5973999500 2.8645000458 52.269001007 121.52339935  -999.250000 7.5455999374 8.9912004471 7.2610998154
 902.25677490 2.0000000000 8.5315999985 8.5000000000 308575.09375 0.0346999988 0.0496000014 2.4326999187 2.8094000816 52.182598114 122.10456848  -999.250000 3.7644000053 2.9584999084 3.3631000519
 902.40917969 2.0000000000 8.5162000656 8.5000000000 308575.09375 0.0570000000 0.1052000001 2.2446000576 2.4932999611 53.524101257 121.15328217  -999.250000 2.7815001011 2.1526999474 2.5304999352
 902.56158447 2.0000000000 8.5651998520 8.5000000000 271127.87500 0.0838999972 0.1884000003 2.1108000278 2.0931999683 54.735599518 119.07122803  -999.250000 1.3582999706 1.0921000242 1.2470999956
 902.71398926 2.0000000000 8.5881004333 8.5000000000 284250.21875 0.1032999977 0.2998000085 2.0906999111 1.8171999454 55.793098450 115.87187195  -999.250000 0.7118999958 0.7240999937 0.7218999863
 902.86633301 2.0000000000 8.5378999710 8.5000000000 288654.84375 0.0791999996 0.2991999984 2.0957000256 1.6797000170 55.809101105 116.10740662  -999.250000 0.7006000280 0.6790000200 0.6927000284
 903.01873779 2.0000000000 8.6154003143 8.5000000000 290585.53125 0.0724000037 0.3122999966 2.1268000603 1.6236000061 57.145198822 118.19712067  -999.250000 0.6818000078 0.6480000019 0.6719999909
 903.17114258 2.0000000000 8.6981000900 8.5000000000 290585.53125 0.0826999992 0.2953000069 2.1321001053 1.6096999645 58.356399536 119.15243530  -999.250000 0.6644999981 0.6233999729 0.6441000104
 903.32354736 2.0000000000 8.7125997543 8.5000000000 288000.00000 0.0936999992 0.3228999972 2.1293001175 1.6130000353 60.881099701 119.10432434  -999.250000 0.6399999857 0.6265000105 0.6338999867
 903.47595215 2.0000000000 8.6891002655 8.5000000000 339261.09375 0.1000000015 0.3287000060 2.1259999275 1.6101000309 63.045898438 118.95285797  -999.250000 0.6395000219 0.6261000037 0.6341000199
 903.62835693 2.0000000000 8.7159996033 8.5000000000 339261.09375 0.0907000005 0.2870000005 2.1178998947 1.6349999905 62.573799133 119.35943604  -999.250000 0.6410999894 0.6291999817 0.6351000071
 903.78076172 2.0000000000 8.7898998260 8.5000000000 334030.68750 0.0790999979 0.3248000145 2.1147000790 1.6375999451 60.692001343 118.69116974  -999.250000 0.6741999984 0.6578999758 0.6657999754
 903.93316650 2.0000000000 8.8740997314 8.5000000000 381160.09375 0.0678000003 0.3422999978 2.1150999069 1.6340999603 58.627300262 116.38042450  -999.250000 0.6427999735 0.6284999847 0.6391000152
 904.08557129 2.0000000000 8.7230997086 8.5000000000 427582.43750 0.0623000003 0.3231000006 2.1150999069 1.6095000505 59.153701782 116.87110138  -999.250000 0.6733999848 0.6622999907 0.6661000252
 904.23797607 2.0000000000 8.5776996613 8.5000000000 341572.68750 0.0560999997 0.3122999966 2.1112000942 1.5986000299 58.002899170 116.81412506  -999.250000 0.6596000195 0.6442999840 0.6524000168
 904.39038086 2.0000000000 8.8395996094 8.5000000000 308575.09375 0.0658000037 0.2800000012 2.1112000942 1.6272000074 57.655300140 114.55040741  -999.250000 0.6653000116 0.6438999772 0.6582999825
 904.54278564 2.0000000000 8.9540996552 8.5000000000 294058.09375 0.0975999981 0.2615000010 2.1273000240 1.6832000017 54.915100098 113.17624664  -999.250000 0.6789000034 0.6610000134 0.6711999774
 904.69519043 2.0000000000 8.9633998871 8.5000000000 283626.00000 0.1336999983 0.2406000048 2.1357998848 1.6830999851 51.318099976 113.16970062  -999.250000 0.6777999997 0.6525999904 0.6679000258
 904.84759521 2.0000000000 9.0797004700 8.5000000000 278643.00000 0.1500000060 0.3345000148 2.1301000118 1.6605000496 49.618499756 113.04575348  -999.250000 0.6707000136 0.6488000154 0.6669999957
