# LAS format log file from PETREL
# Project units are specified as depth units
#==================================================================
~Version information
VERS.   2.0:
WRAP.   NO:
#==================================================================
~Well
STRT .m      830.01916504 :
STOP .m      1294.2294922 :
STEP .m     0.00000000 :
NULL .        -999.250000 :
COMP.           : COMPANY
WELL.  32/2-1   : WELL
FLD.            : FIELD
LOC.            : LOCATION
SRVC.           : SERVICE COMPANY
DATE.  2018-09-11 14:48:41   : Log Export Date {yyyy-MM-dd HH:mm:ss}
PROV.           : PROVINCE
UWI.   32/2-1   : UNIQUE WELL ID
API.            : API NUMBER
#==================================================================
~Curve
DEPT .m                   : DEPTH
Lithology_geolink ._      : Lithology_geolink
CALI .in                  : CALI
BS .in                    : BS
ROP .m/h                  : ROP
DRHO .g/cm3               : DRHO
NPHI .m3/m3               : NPHI
RHOB .g/cm3               : RHOB
PEF .b/e                  : PEF
GR .gAPI                  : GR
DTC .us/ft                : DTC
DTS .us/ft                : DTS
RDEP .ohm.m               : RDEP
RSHA .ohm.m               : RSHA
RMED .ohm.m               : RMED
~Parameter
#==================================================================
~Ascii
# ...
 1254.9102783 6.0000000000 8.5643997192 8.5000000000 196035.48438 0.0849120915 0.2051032782 2.5085084438 3.1400976181 121.63323975 92.434371948 179.00111389 4.4743180275 4.2281279564 4.3536915779
 1255.0626221 6.0000000000 8.6030998230 8.5000000000 199384.56250 0.0756074488 0.1961072087 2.4969093800 3.0163991451 120.55635834 92.497055054 178.70040894 4.6041960716 4.3830761909 4.5134716034
 1255.2150879 6.0000000000 8.5727996826 8.5000000000 198925.56250 0.0724025667 0.2054924816 2.4893062115 2.6956570148 118.68090057 90.933052063 176.69400024 4.7547793388 4.5522646904 4.6814656258
 1255.3674316 5.0000000000 8.5668001175 8.5000000000 196196.40625 0.0775958449 0.1949084997 2.4780089855 2.4909639359 118.76173401 88.756744385 172.13909912 5.0817375183 5.0336141586 5.0810794830
 1255.5198975 5.0000000000 8.5836000443 8.5000000000 195766.92188 0.0746024027 0.2022940665 2.4742031097 2.2707762718 115.11003113 85.755706787 167.29400635 5.6005845070 5.6152338982 5.5954880714
 1255.6722412 5.0000000000 8.5658998489 8.5000000000 205068.95313 0.0843921453 0.1554375738 2.4809944630 2.2093491554 108.27478027 82.699150085 162.02920532 5.8256196976 5.9097638130 5.8808717728
 1255.8247070 5.0000000000 8.5736999512 8.5000000000 214568.28125 0.1012864709 0.1407117695 2.4835977554 2.1109786034 104.41239166 80.376358032 157.96099854 6.1516385078 6.2128572464 6.1666712761
 1255.9770508 5.0000000000 8.5506000519 8.5000000000 214568.28125 0.1309762001 0.1427983195 2.4946911335 2.1327824593 104.32077026 78.830932617 155.97569275 6.7097525597 6.8422956467 6.6505122185
 1256.1293945 5.0000000000 8.5410003662 8.5000000000 206642.87500 0.1452770978 0.1505875140 2.4971959591 2.1767294407 108.18759918 77.725273132 154.07351685 6.4431281090 6.5495700836 6.4387402534
 1256.2818604 6.0000000000 8.5733995438 8.5000000000 214292.15625 0.1471984833 0.1433058530 2.4994981289 2.2182669640 110.19079590 77.840309143 156.71119690 6.3767528534 6.4626693726 6.3656582832
 1256.4342041 6.0000000000 8.5888996124 8.5000000000 218903.75000 0.1430067271 0.1444980800 2.4980022907 2.1593945026 115.27804565 78.444328308 157.14811707 6.2149596214 6.2989621162 6.1944746971
 1256.5866699 6.0000000000 8.5720996857 8.5000000000 229781.53125 0.1344068795 0.1596878320 2.5002980232 2.2067618370 120.78089142 79.160224915 158.78219604 6.0903997421 6.1355304718 6.0358266830
 1256.7390137 6.0000000000 8.5903997421 8.5000000000 231987.96875 0.1174272224 0.1707822233 2.5015978813 2.3060407639 123.28389740 81.596397400 164.57119751 5.8004651070 5.8463635445 5.7459650040
 1256.8914795 6.0000000000 8.5796003342 8.5000000000 234794.14063 0.1225958318 0.1665034443 2.5274791718 2.5740852356 122.51911926 84.240875244 167.33000183 5.9546761513 5.8931622505 5.8222384453
 1257.0438232 6.0000000000 8.5041999817 8.5000000000 236497.32813 0.1356895119 0.1675991267 2.5356934071 2.7793354988 120.41558838 84.270080566 168.32789612 6.0229449272 5.9415612221 5.8940424919
 1257.1962891 6.0000000000 8.5637998581 8.5000000000 242703.71875 0.1576823890 0.1763929576 2.5404961109 2.8826172352 121.05998230 85.131713867 169.74101257 6.0068130493 5.8365840912 5.8985962868
 1257.3486328 6.0000000000 8.5270996094 8.5000000000 242703.71875 0.1629957557 0.1793975979 2.5219149590 2.8508255482 123.79579926 83.556663513 170.81791687 5.8052616119 5.5585227013 5.7617096901
 1257.5010986 6.0000000000 8.5072002411 8.5000000000 236497.32813 0.1733916700 0.1858948022 2.5141062737 2.5883102417 121.14732361 82.161216736 169.60229492 5.7567386627 5.4904541969 5.6914563179
 1257.6534424 6.0000000000 8.5438995361 8.5000000000 209025.71875 0.1656062454 0.1500287652 2.4990122318 2.5877001286 119.72194672 80.577667236  -999.250000 5.6199097633 5.5402598381 5.6369438171
 1257.8059082 6.0000000000 8.5762996674 8.5000000000 209025.71875 0.1405200958 0.1269184947 2.4833126068 2.5983915329 113.09910583 78.357475281  -999.250000 5.5661430359 5.6513109207 5.5650577545
 1257.9582520 5.0000000000 8.5097999573 8.5000000000 865264.31250 0.1208157912 0.1282988787 2.4919931889 2.6961214542 109.08091736 76.022666931  -999.250000 5.6048688889 5.8210639954 5.6451354027
 1258.1105957 5.0000000000 8.4590997696 8.5000000000 1849622.0000 0.1011315435 0.1153208166 2.4791207314 2.6882128716 101.59889221 75.814224243  -999.250000 6.0570745468 6.3421645164 6.1122508049
 1258.2630615 5.0000000000 8.4732999802 8.5000000000 1849622.0000 0.1192854196 0.1102040857 2.4823973179 2.5892794132 105.03144073 79.076980591  -999.250000 6.8670511246 6.9174394608 6.8961720467
 1258.4154053 5.0000000000 8.4631996155 8.5000000000 580657.62500 0.1347751766 0.1394530833 2.4632308483 2.5982854366 112.30174255 82.264884949  -999.250000 6.4208168983 6.2345957756 6.3757357597
 1258.5678711 5.0000000000 8.4989995956 8.5000000000 510651.71875 0.1704713851 0.1490923166 2.4975724220 2.4285361767 120.02690887 84.326652527  -999.250000 5.6114482880 5.4914951324 5.5298776627
 1258.7202148 5.0000000000 8.5413999557 8.5000000000 475707.25000 0.1620136052 0.1459051222 2.5053875446 2.3896622658 119.50794220 82.988250732  -999.250000 5.5737595558 5.7882232666 5.5480699539
 1258.8726807 6.0000000000 8.4811000824 8.5000000000 443399.03125 0.1408169866 0.1446010470 2.5202879906 2.3758108616 118.54936981 80.982910156  -999.250000 5.9054341316 6.2341427803 5.9318923950
 1259.0250244 6.0000000000 8.4774999619 8.5000000000 442219.68750 0.1235138625 0.1421020031 2.5354878902 2.4094729424 118.95258331 80.781257629  -999.250000 5.9403724670 6.0697321892 5.9051218033
 1259.1774902 6.0000000000 8.4930000305 8.5000000000 442023.12500 0.1107102409 0.1423997581 2.5487892628 2.5554828644 118.50036621 82.783096313  -999.250000 5.8282895088 5.7766346931 5.7178502083
 1259.3298340 6.0000000000 8.4379997253 8.5000000000 400031.28125 0.1122987196 0.1427996755 2.5650868416 2.6971864700 118.36770630 84.369026184  -999.250000 5.6120729446 5.4897298813 5.4964776039
 1259.4822998 6.0000000000 8.4694004059 8.5000000000 369970.56250 0.1041065603 0.1510933489 2.5580058098 2.9990582466 117.18684387 84.779968262  -999.250000 5.3995704651 5.3180375099 5.2989583015
 1259.6346436 6.0000000000 8.4846000671 8.5000000000 362475.34375 0.1097954363 0.1721830815 2.5591990948 3.1041157246 116.96987915 84.039093018  -999.250000 5.2235412598 5.2154822350 5.1827931404
 1259.7871094 6.0000000000 8.4895000458 8.5000000000 370285.56250 0.1120981574 0.1742983162 2.5528049469 3.0553390980 117.99857330 84.321571350  -999.250000 5.2216014862 5.2263913155 5.2507457733
 1259.9394531 6.0000000000 8.4692001343 8.5000000000 370285.56250 0.1070040837 0.1691041738 2.5421085358 2.9456880093 118.26178741 83.695205688  -999.250000 5.3556923866 5.4253401756 5.3894886971
 1260.0917969 6.0000000000 8.4983997345 8.5000000000 366097.68750 0.1006102413 0.1627102494 2.5396039486 2.8766105175 120.40396881 83.371017456  -999.250000 5.4096136093 5.5280356407 5.4625830650
 1260.2442627 6.0000000000 8.4986000061 8.5000000000 370285.56250 0.0996008068 0.1571044922 2.5372018814 2.9372513294 117.37103271 82.330429077  -999.250000 5.5259070396 5.7240428925 5.5553255081
 1260.3966064 6.0000000000 8.4942998886 8.5000000000 378901.81250 0.1037932709 0.1539051235 2.5390968323 2.8653154373 114.39427185 80.980468750  -999.250000 5.7539343834 6.0058484077 5.7841334343
 1260.5490723 6.0000000000 8.4949998856 8.5000000000 378901.81250 0.1108943075 0.1392117739 2.5406987667 2.6092052460 113.69455719 81.874084473  -999.250000 5.8709063530 6.1506843567 5.9095997810
 1260.7014160 6.0000000000 8.4820003510 8.5000000000 357999.46875 0.1024136096 0.1408972740 2.5331120491 2.5822429657 117.32418060 82.750297546  -999.250000 6.0980358124 6.2333674431 6.0884132385
 1260.8538818 6.0000000000 8.5020999908 8.5000000000 356030.62500 0.0860131457 0.1590854079 2.5364973545 2.7682507038 120.79861450 83.860710144  -999.250000 5.7766580582 5.6702513695 5.6870222092
 1261.0062256 6.0000000000 8.5118999481 8.5000000000 354083.40625 0.0644173101 0.1652950346 2.5350012779 3.2033512592 118.77502441 85.276260376  -999.250000 5.5348935127 5.4236974716 5.3822441101
