# LAS format log file from PETREL
# Project units are specified as depth units
#==================================================================
~Version information
VERS.   2.0:
WRAP.   NO:
#==================================================================
~Well
STRT .m      830.01916504 :
STOP .m      1294.2294922 :
STEP .m     0.00000000 :
NULL .        -999.250000 :
COMP.           : COMPANY
WELL.  32/2-1   : WELL
FLD.            : FIELD
LOC.            : LOCATION
SRVC.           : SERVICE COMPANY
DATE.  2018-09-11 14:48:41   : Log Export Date {yyyy-MM-dd HH:mm:ss}
PROV.           : PROVINCE
UWI.   32/2-1   : UNIQUE WELL ID
API.            : API NUMBER
#==================================================================
~Curve
DEPT .m                   : DEPTH
Lithology_geolink ._      : Lithology_geolink
CALI .in                  : CALI
BS .in                    : BS
ROP .m/h                  : ROP
DRHO .g/cm3               : DRHO
NPHI .m3/m3               : NPHI
RHOB .g/cm3               : RHOB
PEF .b/e                  : PEF
GR .gAPI                  : GR
DTC .us/ft                : DTC
DTS .us/ft                : DTS
RDEP .ohm.m               : RDEP
RSHA .ohm.m               : RSHA
RMED .ohm.m               : RMED
~Parameter
#==================================================================
~Ascii
# ...
 1017.4711914 5.0000000000 9.6858997345 8.5000000000 368232.96875 0.0947000012 0.3276000023 2.1800999641 2.0137999058 72.709602356 109.85236359  -999.250000 0.6800000072 0.6536999941 0.6723999977
 1017.6235962 5.0000000000 9.6969003677 8.5000000000 343689.21875 0.0816999972 0.3287999928 2.1648001671 1.9014999866 70.049697876 110.47764587  -999.250000 0.6536999941 0.6434999704 0.6542999744
 1017.7759399 5.0000000000 9.7313003540 8.5000000000 337524.06250 0.0903000012 0.3079000115 2.1673998833 1.9838000536 70.224700928 112.84181213  -999.250000 0.6520000100 0.6442000270 0.6535999775
 1017.9283447 5.0000000000 9.6562004089 8.5000000000 363424.93750 0.0760999992 0.3203000128 2.1645998955 2.0185999870 67.819198608 114.39075470  -999.250000 0.6575999856 0.6506000161 0.6549999714
 1018.0807495 5.0000000000 9.5896997452 8.5000000000 364029.65625 0.0644000024 0.3287000060 2.1466000080 1.9714000225 71.184303284 115.54917145  -999.250000 0.7164000273 0.7085999846 0.7156999707
 1018.2331543 5.0000000000 9.6928997040 8.5000000000 341119.81250 0.0586000010 0.3068000078 2.1212999821 1.9306999445 72.292098999 116.24601746  -999.250000 0.7339000106 0.7210999727 0.7272999883
 1018.3855591 5.0000000000 9.7882995605 8.5000000000 335740.37500 0.0785000026 0.3400999904 2.1212999821 1.8422000408 77.862396240 115.64044189  -999.250000 0.7257999778 0.7153999805 0.7225999832
 1018.5379639 5.0000000000 9.5680999756 8.5000000000 331349.75000 0.0851000026 0.3199999928 2.1250998974 1.8092999458 78.234199524 115.66349030  -999.250000 0.7384999990 0.7358000278 0.7400000095
 1018.6903687 5.0000000000 8.9897003174 8.5000000000 334021.84375 0.0819000006 0.3231999874 2.1391999722 1.7384999990 77.715202332 114.64540100  -999.250000 0.7486000061 0.7516999841 0.7533000112
 1018.8427734 5.0000000000 9.0644998550 8.5000000000 364033.71875 0.0783000067  -999.250000 2.1364998817 1.8568999767 78.158897400 112.85271454  -999.250000 0.7548999786 0.6981999874 0.7057999969
 1018.9951782 5.0000000000 9.2658996582 8.5000000000 351216.37500 0.1062999964  -999.250000 2.1561999321 1.9671000242 76.921501160 111.62438202  -999.250000 0.7908999920 0.7128000259 0.7451999784
 1019.1475830 5.0000000000 9.4271001816 8.5000000000 352175.50000 0.1248999983  -999.250000 2.1707999706 2.1180999279 74.866600037 112.57472229  -999.250000 0.6768000126 0.6499000192 0.6697999835
 1019.2999878 5.0000000000 9.3782997131 8.5000000000 339776.93750 0.1155000031 0.3792000115 2.1640000343 2.1926000118 69.586303711 114.44245911  -999.250000 0.6941999793 0.6646999717 0.6832000017
 1019.4523926 5.0000000000 9.2316999435 8.5000000000 342869.50000 0.0909999982 0.4049000144 2.1470000744 2.2179000378 72.697402954 114.55635071  -999.250000 0.7415000200 0.7544999719 0.7552999854
 1019.6047974 5.0000000000 9.3022003174 8.5000000000 361441.87500 0.0803999975 0.3680999875 2.1421000957 2.0945000648 74.686897278 113.81240082  -999.250000 0.7139999866 0.6538000107 0.6807000041
 1019.7571411 5.0000000000 9.3962001801 8.5000000000 370510.90625 0.0922999978 0.3089999855 2.1693000793 1.9897999763 76.796897888 114.86515045  -999.250000 0.7416999936 0.7240999937 0.7709000111
 1019.9095459 5.0000000000 9.2777996063 8.5000000000 376759.75000 0.0932999998 0.1823000014 2.2407999039 2.2286999226 73.677200317 116.17834473  -999.250000 0.8410000205 0.8784000278 0.8686000109
 1020.0619507 5.0000000000 8.6069002151 8.5000000000 400001.03125 0.0820000023 0.2263000011 2.3443999290 2.5773000717 73.412300110 113.02482605  -999.250000 1.4392999411 1.4569000006 1.3959000111
 1020.2142944 5.0000000000 8.3718996048 8.5000000000 400001.03125 0.0811003596 0.1648246348 2.4207694530 2.6816582680 71.594627380 105.48264313  -999.250000 2.9649887085 2.9365072250 2.8653113842
 1020.3666992 5.0000000000 9.5299997330 8.5000000000 315702.71875 0.0837989226 0.2904496491 2.3545265198 2.3544311523 74.300918579 103.36349487  -999.250000 2.4985871315 2.2741656303 2.3654005527
 1020.5191040 2.0000000000 9.5299997330 8.5000000000 258786.35938 0.1064909101 0.3208878040 2.2792301178 2.0638163090 77.027206421 105.82302094  -999.250000 1.6265492439 1.4685226679 1.5398306847
 1020.6715088 2.0000000000 9.5299997330 8.5000000000 313551.00000 0.1146967113 0.2416317612 2.2152256966 1.9981262684 80.145347595 111.02613068  -999.250000 0.9235815406 0.9484082460 0.9445383549
 1020.8239136 2.0000000000 9.2522001266 8.5000000000 443847.59375 0.5316329598 0.2551945448 2.4077227116 1.6797275543 77.221275330 113.49362183  -999.250000 0.9289977551 0.9502991438 0.9458993673
 1020.9763184 2.0000000000 8.5345001221 8.5000000000 445026.59375 0.3140872419 0.3008817136 2.0952250957 1.9479924440 73.625343323 113.68934631  -999.250000 0.8411352038 0.8599361777 0.8558360338
 1021.1287231 2.0000000000 8.3362998962 8.5000000000 456406.93750 0.0397098921 0.3416836560 1.9277670383 2.2382836342 70.828918457 114.41432190  -999.250000 0.7588329911 0.7615393996 0.7552403212
 1021.2811279 2.0000000000 8.3887996674 8.5000000000 462866.40625 0.0554936342 0.2846228480 2.0977318287 2.1274442673 71.824005127 115.19427490  -999.250000 0.7993836999 0.7485051751 0.7596982121
 1021.4334717 2.0000000000 8.4528999329 8.5000000000 472942.09375 0.0352162607 0.3313625157 2.0987992287 2.1758611202 70.722488403 115.98564911  -999.250000 0.7779172063 0.7330123782 0.7500077486
 1021.5858765 2.0000000000 8.4012002945 8.5000000000 469999.46875 0.0529857427 0.3258045018 2.1436638832 2.1913876534 70.968200684 116.99618530  -999.250000 0.7535195351 0.7162134647 0.7596922517
 1021.7382813 2.0000000000 8.3517999649 8.5000000000 469563.46875 0.0470048040 0.3206041753 2.1598870754 2.3489737511 64.925247192 114.99680328  -999.250000 0.7062379122 0.6942176223 0.7206313014
 1021.8906860 2.0000000000 8.4200000763 8.5000000000 592710.87500 0.0500987582 0.2956100106 2.1943862438 2.3594958782 66.156600952 111.50419617  -999.250000 0.6963040233 0.7012971640 0.7107039690
 1022.0430908 2.0000000000 8.4038000107 8.5000000000 573854.06250 0.0646941513 0.3299862444 2.2522768974 2.3306117058 66.067535400 109.51668549  -999.250000 0.7643727064 0.8192527294 0.7710757852
 1022.1954956 2.0000000000 8.3374996185 8.5000000000 558604.06250 0.0813933089 0.1999521106 2.3214724064 2.2895164490 70.621475220 107.28827667  -999.250000 1.1718368530 1.1868528128 1.1468493938
 1022.3479004 2.0000000000 8.3114995956 8.5000000000 438198.84375 0.0882972330 0.2504797280 2.3218996525 2.2884004116 70.040733337 107.41939545  -999.250000 1.6169217825 1.5905383825 1.5714299679
 1022.5003052 2.0000000000 8.3199996948 8.5000000000 439558.21875 0.0764047652 0.2114156634 2.2755186558 2.2724063396 65.628372192 107.48634338  -999.250000 1.7488472462 1.6257859468 1.6622636318
 1022.6527100 2.0000000000 8.2882995605 8.5000000000 449980.18750 0.0733012408 0.2745746970 2.2286188602 2.2017283440 58.580722809 109.05764008  -999.250000 0.7615955472 0.7564482689 0.7599614859
 1022.8051147 2.0000000000 8.2847003937 8.5000000000 466181.96875 0.0683020055 0.2703017294 2.2112069130 2.1105365753 53.149375916 108.07049561  -999.250000 0.7276134491 0.7371076345 0.7322109938
 1022.9575195 2.0000000000 8.2971000671 8.5000000000 483594.50000 0.0703991577 0.2594043612 2.2067019939 2.0686166286 53.082828522 107.77413940  -999.250000 0.7006108165 0.6894190907 0.6948149800
 1023.1099243 2.0000000000 8.4200000763 8.5000000000 510228.37500 0.0663016364 0.2709953487 2.1939053535 2.0187199116 56.842292786 107.80437469  -999.250000 0.7001001835 0.6886003017 0.6958996058
 1023.2623291 2.0000000000 8.4322004318 8.5000000000 544508.62500 0.0582032464 0.2880931497 2.1824045181 2.0468888283 63.158870697 110.27262115  -999.250000 0.6944022775 0.6889998317 0.6924014091
 1023.4147339 2.0000000000 8.4443998337 8.5000000000 562453.18750 0.0470044836 0.2848013043 2.1696052551 2.0558965206 65.901100159 111.86911774  -999.250000 0.7341840863 0.7233862281 0.7272860408
 1023.5670776 2.0000000000 8.4813995361 8.5000000000 596498.37500 0.0459008813 0.2833012044 2.1608071327 1.9636739492 66.389808655 113.80387115  -999.250000 0.7462902665 0.7390874028 0.7331953049
