# LAS format log file from PETREL
# Project units are specified as depth units
#==================================================================
~Version information
VERS.   2.0:
WRAP.   NO:
#==================================================================
~Well
STRT .m      830.01916504 :
STOP .m      1294.2294922 :
STEP .m     0.00000000 :
NULL .        -999.250000 :
COMP.           : COMPANY
WELL.  32/2-1   : WELL
FLD.            : FIELD
LOC.            : LOCATION
SRVC.           : SERVICE COMPANY
DATE.  2018-09-11 14:48:41   : Log Export Date {yyyy-MM-dd HH:mm:ss}
PROV.           : PROVINCE
UWI.   32/2-1   : UNIQUE WELL ID
API.            : API NUMBER
#==================================================================
~Curve
DEPT .m                   : DEPTH
Lithology_geolink ._      : Lithology_geolink
CALI .in                  : CALI
BS .in                    : BS
ROP .m/h                  : ROP
DRHO .g/cm3               : DRHO
NPHI .m3/m3               : NPHI
RHOB .g/cm3               : RHOB
PEF .b/e                  : PEF
GR .gAPI                  : GR
DTC .us/ft                : DTC
DTS .us/ft                : DTS
RDEP .ohm.m               : RDEP
RSHA .ohm.m               : RSHA
RMED .ohm.m               : RMED
~Parameter
#==================================================================
~Ascii
# ...
 923.74511719 6.0000000000 8.9330997467 8.5000000000 309354.12500 0.0954999998 0.3379939795 2.2039999962 1.7256000042 80.667228699 114.12702942  -999.250000 1.1088883877 1.0927913189 1.1072903872
 923.89752197 6.0000000000 9.0220003128 8.5000000000 316090.09375 0.0926999971 0.3248052895 2.2040998936 1.8033000231 84.152305603 113.32611847  -999.250000 1.0868088007 1.1085937023 1.1006027460
 924.04992676 6.0000000000 9.0570001602 8.5000000000 366097.68750 0.0854000002 0.3581866324 2.2019999027 1.8671000004 86.137603760 112.02561951  -999.250000 1.2030533552 1.2457450628 1.2126550674
 924.20233154 6.0000000000 8.8416004181 8.5000000000 362405.50000 0.0731000006 0.3312108219 2.2014999390 1.9914000034 86.010696411 112.68933105  -999.250000 1.3358467817 1.3521574736 1.3281537294
 924.35473633 6.0000000000 8.4933004379 8.5000000000 358503.12500 0.0706999972 0.3548905253 2.2063000202 2.1071999073 81.527000427 114.15241241  -999.250000 1.3427972794 1.3102167845 1.3171044588
 924.50714111 5.0000000000 8.5123996735 8.5000000000 357999.46875 0.0749000013 0.3292102814 2.1998999119 1.9963999987 76.541496277 115.08702850  -999.250000 1.1174902916 1.0753940344 1.1040853262
 924.65954590 5.0000000000 8.5059003830 8.5000000000 357999.46875 0.0974000022 0.2634263337 2.1914000511 1.8758000135 73.675102234 115.40117645  -999.250000 0.9811546206 0.9565475583 0.9682543874
 924.81195068 5.0000000000 8.6008996964 8.5000000000 352560.96875 0.1049000025 0.3551632166 2.1807000637 1.8515000343 73.177299500 114.48976898  -999.250000 0.8010721207 0.7841690183 0.7785760164
 924.96435547 5.0000000000 8.6044998169 8.5000000000 332579.87500 0.1125999987 0.3080188930 2.1909000874 1.8952000141 71.802001953 113.69792175  -999.250000 0.7646145821 0.7325206995 0.7392157316
 925.11676025 5.0000000000 8.8722000122 8.5000000000 323193.25000 0.1077999994 0.3300911486 2.1925001144 1.9168000221 68.304901123 112.50926971  -999.250000 0.7884904146 0.7326999307 0.7670888305
 925.26910400 5.0000000000 8.9039001465 8.5000000000 322386.50000 0.1020999998 0.3341967165 2.1988999844 1.8741999865 68.707199097 111.23352051  -999.250000 0.8182761669 0.7486872077 0.7938785553
 925.42150879 5.0000000000 9.0137996674 8.5000000000 310050.34375 0.0856999978 0.2959306538 2.2095000744 1.9580999613 70.393402100 109.76397705  -999.250000 0.8607659936 0.7919653058 0.8132844567
 925.57391357 5.0000000000 8.8698997498 8.5000000000 319207.31250 0.0588999987 0.2716194689 2.2304999828 2.2170000076 78.236099243 107.38060760  -999.250000 1.0537453890 0.9195977449 0.9656778574
 925.72631836 5.0000000000 8.5894002914 8.5000000000 319207.31250 0.0483000018 0.2342149913 2.2614998817 2.3206000328 80.829399109 105.51494598  -999.250000 1.6564584970 1.2193797827 1.4068231583
 925.87872314 5.0000000000 8.2799997330 8.5000000000 298611.37500 0.0315000005 0.2308013588 2.2497000694 2.3661000729 81.517501831 104.98871613  -999.250000 3.0439443588 1.4345138073 2.0832290649
 926.03112793 5.0000000000 8.2912998199 8.5000000000 302128.90625 0.0416000001 0.2654861212 2.2307999134 2.1742000580 79.067596436 107.58756256  -999.250000 4.3272857666 1.4991741180 2.7185456753
 926.18353271 5.0000000000 8.2500000000 8.5000000000 305182.43750 0.0361000001 0.3096823096 2.1875000000 2.1335000992 77.537696838 109.20774841  -999.250000 3.0388164520 1.3079766035 2.0685606003
 926.33593750 2.0000000000 8.2918996811 8.5000000000 304224.84375 0.0544000007 0.2755137086 2.1756999493 2.0141000748 76.691902161 110.75537872  -999.250000 2.7454173565 1.4044612646 1.9692397118
 926.48834229 2.0000000000 8.4491996765 8.5000000000 322066.06250 0.0736000016 0.2832968831 2.1631000042 1.9038000107 75.005096436 113.64363861  -999.250000 2.9579148293 1.4884663820 2.0425705910
 926.64074707 2.0000000000 8.6450004578 8.5000000000 279302.03125 0.0922000036 0.2941956520 2.1521000862 1.7891999483 71.637298584 114.33442688  -999.250000 2.8068604469 1.3597515821 1.8647712469
 926.79315186 2.0000000000 8.7232999802 8.5000000000 276605.28125 0.1063999981 0.2817049921 2.1422998905 1.7673000097 68.702499390 114.11678314  -999.250000 1.9890276194 1.1220952272 1.4940484762
 926.94555664 2.0000000000 8.8162002563 8.5000000000 281748.21875 0.1244999990 0.4477334917 2.1466000080 1.7244000435 66.549499512 114.60000610  -999.250000 1.5225868225 1.0145430565 1.2314051390
 927.09796143 2.0000000000 8.9791002274 8.5000000000 275092.56250 0.1455000043 0.3711307347 2.1587998867 1.7553999424 70.222099304 115.08341980  -999.250000 0.9923123717 0.8346720338 0.8766421080
 927.25030518 2.0000000000 9.0666999817 8.5000000000 255126.59375 0.1300999969 0.2320114970 2.1436998844 1.7667000294 71.770599365 114.02055359  -999.250000 0.9218563437 0.8094202280 0.8516199589
 927.40270996 2.0000000000 9.0143995285 8.5000000000 267763.68750 0.1035000011 0.2703691423 2.1373999119 1.7821999788 75.526000977 114.02939606  -999.250000 1.0015361309 0.8417740464 0.9359323978
 927.55511475 2.0000000000 8.9133996964 8.5000000000 273622.68750 0.0876000002 0.2966789305 2.1489000320 1.8156000376 76.020698547 115.92687988  -999.250000 1.7510992289 1.0983943939 1.3941327333
 927.70751953 2.0000000000 8.8551998138 8.5000000000 272268.34375 0.1062999964 0.3436811566 2.2172999382 1.7775000334 77.167800903 117.14250946  -999.250000 1.0048993826 0.8404034972 0.9383828044
 927.85992432 2.0000000000 8.5652999878 8.5000000000 248277.23438 0.1199000031 0.2750275135 2.3108999729 1.9670000076 72.858802795 113.63680267  -999.250000 1.0272909403 1.0168292522 1.0607508421
 928.01232910 2.0000000000 8.3920001984 8.5000000000 234781.92188 0.1254999936 0.1525490582 2.4428000450 2.2451000214 66.381103516 102.73856354  -999.250000 1.0593870878 1.1262561083 1.1210757494
 928.16473389 16.000000000 8.4075002670 8.5000000000 234781.92188 0.1360999942 0.1012205407 2.5703999996 2.6147999763 59.298301697 88.556976318  -999.250000 3.3158960342 4.3585047722 3.5131416321
 928.31713867 16.000000000 8.4154996872 8.5000000000 210384.35938 0.1342999935 0.0863059685 2.6092998981 2.7999000549 58.741100311 82.632072449  -999.250000 5.5254149437 7.2848277092 5.4423274994
 928.46954346 16.000000000 8.4107999802 8.5000000000 200620.43750 0.1309999973 0.0876994431 2.5527999401 2.7109999657 60.970500946 83.062423706  -999.250000 6.4296379089 6.1203670502 5.7200889587
 928.62194824 2.0000000000 8.3913002014 8.5000000000 190027.43750 0.1181999967 0.1033937111 2.4133000374 2.3624999523 65.715599060 93.375167847  -999.250000 4.9029116631 3.9521684647 4.2704806328
 928.77435303 2.0000000000 8.4460000992 8.5000000000 199384.56250 0.1089999974 0.1409849375 2.2627999783 1.9602999687 66.207901001 111.65257263  -999.250000 2.5264518261 2.0238721371 2.2669024467
 928.92675781 2.0000000000 8.4449996948 8.5000000000 216008.64063 0.1076000035 0.2235669196 2.1684000492 1.6931999922 66.585899353 117.12130737  -999.250000 0.9681239128 0.9338364005 0.9563247561
 929.07916260 2.0000000000 8.4509000778 8.5000000000 228348.00000 0.0935999975 0.2828762531 2.1238000393 1.7419999838 69.778602600 116.63629913  -999.250000 0.7548851967 0.7957551479 0.7716737986
 929.23156738 2.0000000000 8.4702997208 8.5000000000 238029.84375 0.0886999965 0.3005928993 2.1398999691 1.9104000330 74.834800720 115.32662964  -999.250000 0.7891862392 0.8015975952 0.7891929746
 929.38391113 2.0000000000 8.2500000000 8.5000000000 258412.31250 0.0820000023 0.3376702964 2.1215999126 2.0237998962 78.707496643 115.81860352  -999.250000 0.8900191784 0.8373713493 0.8584445119
 929.53631592 2.0000000000 8.2500000000 8.5000000000 337129.93750 0.0719000027 0.3035273850 2.0961999893 2.0162000656 77.308601379 116.61966705  -999.250000 0.8740128875 0.8181154132 0.8492074609
 929.68872070 2.0000000000 8.3453998566 8.5000000000 352180.46875 0.0636999980 0.3675486445 2.0655999184 2.0178000927 75.852302551 118.25538635  -999.250000 0.8246395588 0.8191990852 0.8253191113
 929.84112549 2.0000000000 8.3524999619 8.5000000000 473392.09375 0.0544000007 0.3433097601 2.0681002140 1.9888999462 76.637199402 119.94962311  -999.250000 0.8000098467 0.8187001944 0.8056078553
