# LAS format log file from PETREL
# Project units are specified as depth units
#==================================================================
~Version information
VERS.   2.0:
WRAP.   NO:
#==================================================================
~Well
STRT .m      830.01916504 :
STOP .m      1294.2294922 :
STEP .m     0.00000000 :
NULL .        -999.250000 :
COMP.           : COMPANY
WELL.  32/2-1   : WELL
FLD.            : FIELD
LOC.            : LOCATION
SRVC.           : SERVICE COMPANY
DATE.  2018-09-11 14:48:41   : Log Export Date {yyyy-MM-dd HH:mm:ss}
PROV.           : PROVINCE
UWI.   32/2-1   : UNIQUE WELL ID
API.            : API NUMBER
#==================================================================
~Curve
DEPT .m                   : DEPTH
Lithology_geolink ._      : Lithology_geolink
CALI .in                  : CALI
BS .in                    : BS
ROP .m/h                  : ROP
DRHO .g/cm3               : DRHO
NPHI .m3/m3               : NPHI
RHOB .g/cm3               : RHOB
PEF .b/e                  : PEF
GR .gAPI                  : GR
DTC .us/ft                : DTC
DTS .us/ft                : DTS
RDEP .ohm.m               : RDEP
RSHA .ohm.m               : RSHA
RMED .ohm.m               : RMED
~Parameter
#==================================================================
~Ascii
# ...
 1136.1906738 2.0000000000 8.4160003662 8.5000000000 540022.00000 0.0741076916 0.3596618176 2.1701264381 1.9392223358 67.216842651 112.76094055  -999.250000 0.7649105787 0.7207535505 0.7311340570
 1136.3431396 2.0000000000 8.4386997223 8.5000000000 685442.50000 0.1208999902 0.2822000086 2.3290998936 1.8149000406 68.998802185 107.18756104  -999.250000 0.8558999896 0.8094999790 0.8425999880
 1136.4954834 2.0000000000 8.4899997711 8.5000000000 728807.43750 0.0586498827 0.2575197816 2.2717459202 1.9975535870 67.067047119 101.39075470  -999.250000 1.0496448278 1.0125372410 1.0625238419
 1136.6479492 2.0000000000 8.5024995804 8.5000000000 753394.31250 0.0335999988 0.2969999909 2.2686998844 2.1503999233 65.414001465 98.237525940  -999.250000 1.9860999584 1.8070000410 1.9961999655
 1136.8002930 16.000000000 8.4774999619 8.5000000000 641577.93750 0.0672730282 0.1930832714 2.3555305004 2.0054161549 62.736843109 94.075927734  -999.250000 2.1152966022 1.9549814463 2.1195013523
 1136.9527588 16.000000000 8.4019002914 8.5000000000 412885.78125 0.1377000064 0.1372999996 2.4830999374 1.9536999464 63.140300751 86.914039612  -999.250000 3.7957000732 4.3461999893 4.0406999588
 1137.1051025 16.000000000 8.3638000488 8.5000000000 304242.12500 0.1501899809 0.1086229756 2.5604379177 2.1744229794 63.005207062 84.515617371  -999.250000 7.4391803741 10.288238525 8.0584802628
 1137.2575684 2.0000000000 8.3999996185 8.5000000000 304242.12500 0.1133000031 0.0907000005 2.6026999950 2.5778000355 63.479301453 90.666168213  -999.250000 10.744500160 14.921299934 10.524399757
 1137.4099121 2.0000000000 8.5115995407 8.5000000000 234781.92188 0.0711337849 0.1141811907 2.6393706799 2.9967644215 66.391563416 93.480644226  -999.250000 9.6775541306 8.2347574234 8.0846548080
 1137.5622559 2.0000000000 8.5364999771 8.5000000000 229249.09375 0.0576108173 0.1121016815 2.6857628822 3.0696418285 71.363418579 97.657691956  -999.250000 6.6266455650 5.0300660133 5.5903983116
 1137.7147217 2.0000000000 8.5854997635 8.5000000000 218184.12500 0.0929716602 0.2989502847 2.7020869255 2.7790329456 77.708915710 105.78598785  -999.250000 4.6766605377 3.6091365814 4.1211757660
 1137.8670654 2.0000000000 8.4075002670 8.5000000000 218184.12500 0.0805100128 0.2787163258 2.5182473660 2.5105149746 80.228782654 104.23938751  -999.250000 2.0658924580 1.8247300386 1.9886091948
 1138.0195313 2.0000000000 8.4953002930 8.5000000000 218794.67188 0.0967999995 0.2879999876 2.3993000984 2.3324000835 81.152496338 105.52546692  -999.250000 1.5246000290 1.5400999784 1.5535999537
 1138.1718750 5.0000000000 8.4765996933 8.5000000000 225009.00000 0.0960006416 0.3230718970 2.3095719814 2.3620760441 79.331558228 105.45381165  -999.250000 1.5770579576 1.6442165375 1.6075567007
 1138.3243408 5.0000000000 8.5261001587 8.5000000000 220485.96875 0.1292999983 0.3228000104 2.3557000160 2.3915998936 79.458702087 103.61007690  -999.250000 1.6567000151 1.7105000019 1.6699999571
 1138.4766846 5.0000000000 8.7481002808 8.5000000000 230600.17188 0.1301992834 0.3332915902 2.3711876869 2.4514520168 85.151741028 101.30264282  -999.250000 2.2441294193 2.1832211018 2.1592080593
 1138.6291504 5.0000000000 8.7771997452 8.5000000000 275733.34375 0.1212999970 0.3210999966 2.3863999844 2.6203000546 90.486396790 99.664611816  -999.250000 2.5473999977 2.4886999130 2.5255999565
 1138.7814941 5.0000000000 8.7032003403 8.5000000000 329145.12500 0.1007164940 0.3460799754 2.3881986141 2.9340486526 92.140975952 102.11853027  -999.250000 2.4777557850 2.4504308701 2.5009198189
 1138.9339600 5.0000000000 8.6654996872 8.5000000000 354083.40625 0.0909999982 0.3759000003 2.3987998962 3.2767999172 91.542800903 104.94563293  -999.250000 2.4035000801 2.4126999378 2.4461998940
 1139.0863037 5.0000000000 8.6781997681 8.5000000000 378901.81250 0.0949967951 0.3287377954 2.4011981487 3.1739823818 86.710868835 105.13954163  -999.250000 2.0994436741 2.1983716488 2.1001772881
 1139.2387695 5.0000000000 8.6752996445 8.5000000000 400001.40625 0.0886999965 0.4135999978 2.3661999702 2.8454000950 82.095596313 106.22033691  -999.250000 1.7167999744 1.7289999723 1.6721999645
 1139.3911133 5.0000000000 8.7497997284 8.5000000000 400987.78125 0.0930964723 0.3285681307 2.3325269222 2.2953407764 72.703025818 108.06192017  -999.250000 1.7377831936 1.7324970961 1.6955813169
 1139.5434570 5.0000000000 8.6420001984 8.5000000000 438505.18750 0.0939992741 0.2680484951 2.2800419331 1.9678622484 65.911437988 109.04013824  -999.250000 1.7684754133 1.6527638435 1.7509557009
 1139.6959229 5.0000000000 8.6545000076 8.5000000000 440648.28125 0.1018936709 0.2955779135 2.2426300049 1.7274924517 61.717155457 108.42159271  -999.250000 0.9910230041 0.9717456102 1.0131911039
 1139.8482666 5.0000000000 8.7560997009 8.5000000000 437843.53125 0.0967041627 0.2391452640 2.2102258205 1.6068965197 59.284400940 107.61209869  -999.250000 1.1029098034 1.1904242039 1.1423959732
 1140.0007324 5.0000000000 8.5767002106 8.5000000000 448895.87500 0.0942000002 0.2487999946 2.2223000526 1.7279000282 64.441001892 106.94403076  -999.250000 1.2353999615 1.3186000586 1.2539999485
 1140.1530762 5.0000000000 8.4958000183 8.5000000000 443909.15625 0.1031927988 0.3388278484 2.2721600533 2.1788384914 77.261596680 109.55940247  -999.250000 2.3303225040 2.3103053570 2.3145501614
 1140.3055420 6.0000000000 8.5550003052 8.5000000000 429136.18750 0.1261000037 0.3731999993 2.3343000412 2.6970999241 92.292602539 109.54891205  -999.250000 2.4519999027 2.4493999481 2.4461998940
 1140.4578857 6.0000000000 8.6472997665 8.5000000000 429136.18750 0.1378999949 0.3871887922 2.3612782955 3.0285344124 104.32060242 109.94197845  -999.250000 2.4928672314 2.5092520714 2.4809720516
 1140.6103516 6.0000000000 8.7877998352 8.5000000000 350894.53125 0.1425999999 0.3276999891 2.3582999706 2.9972999096 106.65840149 111.13614655  -999.250000 2.5208001137 2.5497000217 2.5292999744
 1140.7626953 6.0000000000 8.8374996185 8.5000000000 274592.15625 0.1278000027 0.4412090480 2.3464093208 2.9650256634 105.54859924 113.73521423  -999.250000 2.5540733337 2.5889685154 2.5600755215
 1140.9151611 6.0000000000 8.8404998779 8.5000000000 274592.15625 0.1368999928 0.4726999998 2.3731999397 2.8719000816 100.10389709 112.45513153  -999.250000 2.6275000572 2.7272999287 2.6596000195
 1141.0675049 6.0000000000 8.7529001236 8.5000000000 274592.15625 0.1254000068 0.5091707706 2.3697028160 2.8114483356 100.26039886 111.27864838  -999.250000 2.8622119427 2.9786984921 2.8960103989
 1141.2199707 6.0000000000 8.6787996292 8.5000000000 1170477.0000 0.1441999972 0.5048000216 2.3959999084 2.7114000320 100.56559753 110.62232971  -999.250000 3.1145000458 3.1696000099 3.1226999760
 1141.3723145 5.0000000000 8.5312004089 8.5000000000 1618419.6250 0.1330000013 0.3441287577 2.3813116550 2.6721315384 101.77239990 108.44044495  -999.250000 3.1235926151 3.1657030582 3.1499781609
 1141.5246582 5.0000000000 8.4921998978 8.5000000000 115216.56250 0.1759999990 0.3820694685 2.4106764793 2.5778756142 98.603698730 105.98883057  -999.250000 3.0496592522 3.1831858158 3.1137290001
 1141.6771240 5.0000000000 8.4905004501 8.5000000000 101347.92188 0.2105000019 0.3444301784 2.4056041241 2.4149303436 94.499298096 102.19583893  -999.250000 2.6330337524 2.6336402893 2.5436568260
 1141.8294678 5.0000000000 8.6437997818 8.5000000000 113025.24219 0.2560999990 0.3499954939 2.3731260300 2.2943966389 93.486000061 101.22763824  -999.250000 2.2603983879 2.1484885216 2.1305308342
 1141.9819336 5.0000000000 8.6633996964 8.5000000000 113025.24219 0.2635999918 0.3348000050 2.3176000118 2.2079999447 89.224800110 101.65605927  -999.250000 1.7884000540 1.6562000513 1.7053999901
 1142.1342773 5.0000000000 8.6731004715 8.5000000000 133999.56250 0.2626999915 0.3100198507 2.2787001133 2.1386001110 85.883598328 101.13912964  -999.250000 1.3986123800 1.2944897413 1.3659720421
 1142.2867432 5.0000000000 8.6841001511 8.5000000000 146687.03125 0.2651999891 0.3061000109 2.2637000084 2.0638999939 78.618202209 102.18266296  -999.250000 1.1412999630 1.1197999716 1.1502000093
