# LAS format log file from PETREL
# Project units are specified as depth units
#==================================================================
~Version information
VERS.   2.0:
WRAP.   NO:
#==================================================================
~Well
STRT .m      913.63586426 :
STOP .m      4531.7631836 :
STEP .m     0.00000000 :
NULL .        -999.250000 :
COMP.           : COMPANY
WELL.  33/5-2   : WELL
FLD.            : FIELD
LOC.            : LOCATION
SRVC.           : SERVICE COMPANY
DATE.  2018-09-11 14:48:41   : Log Export Date {yyyy-MM-dd HH:mm:ss}
PROV.           : PROVINCE
UWI.   33/5-2   : UNIQUE WELL ID
API.            : API NUMBER
#==================================================================
~Curve
DEPT .m                   : DEPTH
Lithology_geolink ._      : Lithology_geolink
CALI .in                  : CALI
BS .in                    : BS
DRHO .g/cm3               : DRHO
NPHI .m3/m3               : NPHI
RHOB .g/cm3               : RHOB
GR .gAPI                  : GR
DTC .us/ft                : DTC
RDEP .ohm.m               : RDEP
SP .mV                    : SP
RSHA .ohm.m               : RSHA
RMED .ohm.m               : RMED
~Parameter
#==================================================================
~Ascii
# ...
 2120.6435547  -999.250000 13.687999725  -999.250000 0.0020000001  -999.250000 2.1960000992 60.591598511 121.19251251 1.0629999638 30.069177628  -999.250000 1.1169759035
 2120.7958984  -999.250000 13.366999626  -999.250000 0.0020000001  -999.250000 2.2190001011 59.849399567 124.00120544 1.0950000286 30.437000275  -999.250000 1.1020385027
 2120.9482422  -999.250000 13.765999794  -999.250000 0.0020000001  -999.250000 2.2490000725 61.521732330 124.74810028 1.1100000143 31.059110641  -999.250000 1.1260000467
 2121.1008301  -999.250000 13.156000137  -999.250000 0.0020000001  -999.250000 2.2609999180 55.754608154 123.56820679 1.1150000095 30.505023956  -999.250000 1.1260480881
 2121.2531738  -999.250000 13.194999695  -999.250000 0.0020000001  -999.250000 2.2439999580 57.206928253 125.18479156 1.1269999743 30.511423111  -999.250000 1.1410304308
 2121.4055176  -999.250000 13.296999931  -999.250000 0.0020000001  -999.250000 2.2219998837 63.112300873 123.18930817 1.1169999838 30.021825790  -999.250000 1.1599887609
 2121.5578613  -999.250000 13.328000069  -999.250000 0.0020000001  -999.250000 2.2090001106 68.813102722 123.99799347 1.1139999628 30.278160095  -999.250000 1.1530288458
 2121.7104492  -999.250000 13.538999557  -999.250000 0.0020000001  -999.250000 2.2079999447 68.863784790 122.74040222 1.1269999743 29.755826950  -999.250000 1.1708368063
 2121.8627930  -999.250000 13.437999725  -999.250000 0.0010000000  -999.250000 2.2119998932 65.375198364 119.75160217 1.1519999504 30.014102936  -999.250000 1.1200897694
 2122.0151367  -999.250000 13.640999794  -999.250000 0.0010000000  -999.250000 2.2149999142 65.442008972 120.74359131 1.1599999666 30.362609863  -999.250000 1.1759791374
 2122.1674805  -999.250000 13.538999557  -999.250000 0.0010000000  -999.250000 2.2160000801 66.685005188 116.74588776 1.1480000019 32.102622986  -999.250000 1.1630897522
 2122.3200684  -999.250000 13.421999931  -999.250000 0.0010000000  -999.250000 2.2139999866 65.733573914 114.19300079 1.1299999952 30.737216949  -999.250000 1.2188464403
 2122.4724121  -999.250000 13.569999695  -999.250000 0.0010000000  -999.250000 2.2079999447 60.597957611 115.75771332 1.1260000467 29.877609253  -999.250000 1.1709903479
 2122.6247559  -999.250000 14.234000206  -999.250000 0.0010000000  -999.250000 2.2030000687 52.186096191 120.57071686 1.1139999628 31.621500015  -999.250000 1.1649551392
 2122.7770996  -999.250000 13.819999695  -999.250000 0.0010000000  -999.250000 2.2119998932 51.603103638 125.38421631 1.1000000238 31.462850571  -999.250000 1.1369855404
 2122.9294434  -999.250000 14.727000237  -999.250000 0.0010000000  -999.250000 2.2320001125 54.446262360 131.13401794 1.1039999723 30.480798721  -999.250000 1.1279407740
 2123.0820313  -999.250000 14.461000443  -999.250000 0.0010000000  -999.250000 2.2360000610 59.596004486 136.74240112 1.1109999418 29.734029770  -999.250000 1.0908848047
 2123.2343750  -999.250000 14.413999557  -999.250000 0.0010000000  -999.250000 2.2219998837 60.222003937 134.37399292 1.0930000544 30.364999771  -999.250000 1.0549519062
 2123.3867188  -999.250000 14.093998909  -999.250000 0.0010000000  -999.250000 2.2130000591 61.147899628 133.74258423 1.1019999981 30.365821838  -999.250000 1.0250144005
 2123.5390625  -999.250000 13.819999695  -999.250000 0.0000000000  -999.250000 2.2149999142 58.630760193 129.11898804 1.1059999466 30.622013092  -999.250000 1.0340353251
 2123.6916504  -999.250000 13.671999931  -999.250000 0.0000000000  -999.250000 2.2249999046 62.221405029 125.37239838 1.1100000143 30.628021240  -999.250000 1.0561567545
 2123.8439941  -999.250000 13.991998672  -999.250000 0.0000000000  -999.250000 2.2390000820 62.987129211 124.56210327 1.1289999485 30.015029907  -999.250000 1.1050064564
 2123.9963379  -999.250000 14.241999626  -999.250000 0.0000000000  -999.250000 2.2630000114 68.630813599 123.99839783 1.1619999409 30.644021988  -999.250000 1.1090832949
 2124.1486816  -999.250000 13.984000206  -999.250000 0.0000000000  -999.250000 2.2820000648 70.437400818 123.00409698 1.1829999685 30.029420853  -999.250000 1.1610512733
 2124.3012695  -999.250000 13.640999794  -999.250000 0.0000000000  -999.250000 2.2890000343 70.242591858 125.54959869 1.1920000315 30.159849167  -999.250000 1.1930447817
 2124.4536133  -999.250000 13.663999557  -999.250000 0.0000000000  -999.250000 2.2920000553 67.916366577 121.37980652 1.2150000334 29.801624298  -999.250000 1.2070080042
 2124.6059570  -999.250000 13.843999863  -999.250000 0.0000000000  -999.250000 2.2690000534 61.196914673 124.37500763 1.2319999933 29.683345795  -999.250000 1.2118430138
 2124.7583008  -999.250000 14.406000137  -999.250000 0.0000000000  -999.250000 2.2290000916 63.966102600 124.37561035 1.2319999933 29.168626785  -999.250000 1.1140432358
 2124.9106445  -999.250000 14.413999557  -999.250000 0.0000000000  -999.250000 2.1909999847 63.062900543 124.75290680 1.2309999466 29.052225113  -999.250000 1.1410417557
 2125.0632324  -999.250000 14.461000443  -999.250000 0.0000000000  -999.250000 2.1889998913 62.978767395 126.55480957 1.2209999561 29.192148209  -999.250000 1.1671376228
 2125.2155762  -999.250000 14.156000137  -999.250000 0.0000000000  -999.250000 2.2179999352 56.380908966 124.00720978 1.1879999638 28.930231094  -999.250000 1.2099487782
 2125.3679199  -999.250000 14.194999695  -999.250000 0.0000000000  -999.250000 2.2479999065 58.231403351 128.50401306 1.1619999409 29.934547424  -999.250000 1.1778316498
 2125.5202637  -999.250000 13.344000816  -999.250000 0.0000000000  -999.250000 2.2850000858 62.103267670 131.00480652 1.1679999828 29.791959763  -999.250000 1.0729486942
 2125.6728516  -999.250000 13.319999695  -999.250000 0.0000000000  -999.250000 2.2960000038 67.873397827 133.98880005 1.1699999571 28.520223618  -999.250000 1.0411407948
 2125.8251953  -999.250000 13.319999695  -999.250000 0.0000000000  -999.250000 2.3029999733 67.361480713 130.49018860 1.1480000019 28.294120789  -999.250000 1.0851186514
 2125.9775391  -999.250000 13.413999557  -999.250000 0.0000000000  -999.250000 2.3050000668 63.135868073 124.37180328 1.1299999952 32.998104095  -999.250000 1.1590545177
 2126.1298828  -999.250000 13.437999725  -999.250000 0.0000000000  -999.250000 2.3029999733 56.884799957 122.37529755 1.1269999743 33.329025269  -999.250000 1.1929919720
 2126.2824707  -999.250000 13.453001022  -999.250000 0.0000000000  -999.250000 2.2899999619 59.953823090 122.55160522 1.1339999437 29.600629807  -999.250000 1.1879775524
 2126.4348145  -999.250000 13.421999931  -999.250000 0.0000000000  -999.250000 2.2769999504 64.872993469 119.00380707 1.1360000372 30.107400894  -999.250000 1.1809711456
 2126.5871582  -999.250000 13.883000374  -999.250000 0.0000000000  -999.250000 2.2720000744 64.238281250 121.37209320 1.1380000114 30.232025146  -999.250000 1.1630015373
 2126.7395020  -999.250000 14.194999695  -999.250000 0.0000000000  -999.250000 2.2780001163 60.587501526 119.55599213 1.1430000067 30.238697052  -999.250000 1.1639776230
 2126.8918457  -999.250000 13.413999557  -999.250000 0.0000000000  -999.250000 2.2820000648 58.566856384 115.19180298 1.1410000324 29.833801270  -999.250000 1.1500384808
 2127.0444336  -999.250000 13.288999557  -999.250000 0.0000000000  -999.250000 2.2809998989 60.979118347 117.57520294 1.1360000372 30.333400726  -999.250000 1.1739968061
 2127.1967773  -999.250000 13.444999695  -999.250000 0.0000000000  -999.250000 2.2599999905 64.112884521 121.38171387 1.1369999647 30.456798553  -999.250000 1.1730240583
 2127.3491211  -999.250000 14.008000374  -999.250000 0.0000000000  -999.250000 2.2550001144 60.357700348 125.56911469 1.1339999437 30.081800461  -999.250000 1.1879663467
 2127.5014648  -999.250000 13.663999557  -999.250000 0.0000000000  -999.250000 2.2609999180 64.623947144 129.38081360 1.1310000420 29.707012177  -999.250000 1.1669664383
 2127.6540527  -999.250000 13.328000069  -999.250000 0.0000000000  -999.250000 2.2669999599 63.985527039 132.98559570 1.1330000162 29.090198517  -999.250000 1.1458944082
 2127.8063965  -999.250000 13.413999557  -999.250000 0.0000000000  -999.250000 2.2639999390 69.115386963 128.49530029 1.1410000324 28.839797974  -999.250000 1.1130080223
