# LAS format log file from PETREL
# Project units are specified as depth units
#==================================================================
~Version information
VERS.   2.0:
WRAP.   NO:
#==================================================================
~Well
STRT .m      913.63586426 :
STOP .m      4531.7631836 :
STEP .m     0.00000000 :
NULL .        -999.250000 :
COMP.           : COMPANY
WELL.  33/5-2   : WELL
FLD.            : FIELD
LOC.            : LOCATION
SRVC.           : SERVICE COMPANY
DATE.  2018-09-11 14:48:41   : Log Export Date {yyyy-MM-dd HH:mm:ss}
PROV.           : PROVINCE
UWI.   33/5-2   : UNIQUE WELL ID
API.            : API NUMBER
#==================================================================
~Curve
DEPT .m                   : DEPTH
Lithology_geolink ._      : Lithology_geolink
CALI .in                  : CALI
BS .in                    : BS
DRHO .g/cm3               : DRHO
NPHI .m3/m3               : NPHI
RHOB .g/cm3               : RHOB
GR .gAPI                  : GR
DTC .us/ft                : DTC
RDEP .ohm.m               : RDEP
SP .mV                    : SP
RSHA .ohm.m               : RSHA
RMED .ohm.m               : RMED
~Parameter
#==================================================================
~Ascii
# ...
 3078.9343262  -999.250000 13.101999283  -999.250000 -0.008000000  -999.250000 2.4470000267 59.744792938 99.188003540 1.8989552259 41.093990326  -999.250000 2.0899999142
 3079.0869141  -999.250000 13.055000305  -999.250000 -0.012000000  -999.250000 2.4509999752 56.504100800 98.750000000 1.9239599705 41.085975647  -999.250000 2.0759999752
 3079.2392578  -999.250000 12.883000374  -999.250000 -0.011000000  -999.250000 2.4530000687 57.779544830 99.375007629 1.9569470882 41.078834534  -999.250000 2.0659999847
 3079.3916016  -999.250000 12.828000069  -999.250000 -0.012000000  -999.250000 2.4389998913 56.883865356 98.563003540 1.9819599390 40.976787567  -999.250000 2.1329998970
 3079.5439453  -999.250000 12.805000305  -999.250000 -0.008000000  -999.250000 2.4409999847 62.400588989 97.375000000 2.0059232712 40.844451904  -999.250000 2.2660000324
 3079.6965332  -999.250000 12.772999763  -999.250000 -0.007000000  -999.250000 2.4549999237 59.036300659 96.188003540 2.0369503498 41.125999451  -999.250000 2.3889999390
 3079.8488770  -999.250000 12.781000137  -999.250000 -0.001000000  -999.250000 2.4800000191 60.677532196 95.750000000 2.0659534931 41.125785828  -999.250000 2.4340000153
 3080.0012207  -999.250000 12.875000000  -999.250000 0.0000000000  -999.250000 2.4820001125 54.166515350 96.000000000 2.0899615288 40.993000031  -999.250000 2.3980000019
 3080.1535645  -999.250000 12.953000069  -999.250000 0.0080000004  -999.250000 2.4839999676 60.720252991 96.188003540 2.1039776802 40.993789673  -999.250000 2.3440001011
 3080.3061523  -999.250000 13.022999763  -999.250000 0.0030000000  -999.250000 2.4730000496 61.507999420 96.563011169 2.0980095863 41.485801697  -999.250000 2.2909998894
 3080.4584961  -999.250000 13.069999695  -999.250000 0.0080000004  -999.250000 2.4670000076 63.998596191 96.563011169 2.0800287724 41.735252380  -999.250000 2.2579998970
 3080.6108398  -999.250000 13.069999695  -999.250000 0.0170000009  -999.250000 2.4790000916 63.132209778 97.375000000 2.0640256405 41.890396118  -999.250000 2.2379999161
 3080.7631836  -999.250000 13.022999763  -999.250000 0.0219999999  -999.250000 2.4900000095 67.624496460 97.375000000 2.0350465775 41.516799927  -999.250000 2.2249999046
 3080.9155273  -999.250000 12.921999931  -999.250000 0.0120000001  -999.250000 2.4670000076 67.311897278 97.563003540 2.0120737553 42.015987396  -999.250000 2.2230000496
 3081.0681152  -999.250000 12.883000374  -999.250000 0.0109999999  -999.250000 2.4570000172 66.609298706 97.375000000 1.9760576487 42.007999420  -999.250000 2.2339999676
 3081.2204590  -999.250000 12.875000000  -999.250000 0.0189999994  -999.250000 2.4409999847 61.714443207 97.188003540 1.9310721159 42.006996155  -999.250000 2.2500000000
 3081.3728027  -999.250000 12.867000580  -999.250000 0.0209999997  -999.250000 2.4389998913 58.882312775 97.999992371 1.8920624256 41.382999420  -999.250000 2.2479999065
 3081.5251465  -999.250000 12.867000580  -999.250000 0.0289999992  -999.250000 2.4530000687 63.443908691 97.999992371 1.8421599865 41.382198334  -999.250000 2.2230000496
 3081.6777344  -999.250000 12.897998810  -999.250000 0.0350000001  -999.250000 2.4649999142 67.130004883 97.999992371 1.7830945253 40.883399963  -999.250000 2.1640000343
 3081.8300781  -999.250000 12.999999046  -999.250000 0.0529999994  -999.250000 2.4979999065 68.688301086 99.000000000 1.7300848961 41.007987976  -999.250000 2.0880000591
 3081.9824219  -999.250000 13.055000305  -999.250000 0.0399999991  -999.250000 2.4609999657 68.866386414 99.188003540 1.7130273581 41.001201630  -999.250000 1.9910000563
 3082.1347656  -999.250000 13.093999863  -999.250000 0.0309999995  -999.250000 2.4590001106 63.504608154 100.56300354 1.7478879690 41.125797272  -999.250000 1.8910000324
 3082.2873535  -999.250000 13.093999863  -999.250000 0.0160000008  -999.250000 2.4319999218 66.347602844 101.00000000 1.8418493271 41.001373291  -999.250000 1.8099999428
 3082.4396973  -999.250000 13.093999863  -999.250000 0.0260000005  -999.250000 2.4630000591 57.801879883 100.75000000 1.9757852554 41.118202209  -999.250000 1.7599999905
 3082.5920410  -999.250000 13.093999863  -999.250000 0.0140000004  -999.250000 2.4470000267 50.852165222 95.187995911 2.0628604889 41.242385864  -999.250000 1.9079999924
 3082.7443848  -999.250000 13.055000305  -999.250000 0.0000000000  -999.250000 2.4590001106 36.617137909 87.563003540 2.0979440212 40.859447479  -999.250000 2.5569999218
 3082.8967285  -999.250000 13.093999863  -999.250000 -0.016000001  -999.250000 2.4979999065 31.721603394 79.188003540 2.1069712639 40.515998840  -999.250000 3.9019999504
 3083.0493164  -999.250000 13.055000305  -999.250000 -0.010000000  -999.250000 2.5629999638 33.365001678 78.563003540 2.1459374428 40.516799927  -999.250000 4.5549998283
 3083.2016602  -999.250000 13.022999763  -999.250000 -0.003000000  -999.250000 2.5550000668 39.923576355 86.375000000 2.2378525734 40.765937805  -999.250000 3.4079999924
 3083.3540039  -999.250000 12.921999931  -999.250000 0.0329999998  -999.250000 2.5329999924 50.872295380 92.999992371 2.3198685646 40.727203369  -999.250000 2.2439999580
 3083.5063477  -999.250000 13.116999626  -999.250000 0.0070000002  -999.250000 2.4800000191 49.178333282 95.375000000 2.2791311741 40.851989746  -999.250000 1.9349999428
 3083.6589355  -999.250000 13.319999695  -999.250000 0.0089999996  -999.250000 2.4960000515 43.133098602 94.375007629 2.1561970711 40.845577240  -999.250000 2.0799999237
 3083.8112793  -999.250000 13.203000069  -999.250000 -0.003000000  -999.250000 2.4920001030 36.002704620 92.000000000 2.0391874313 41.335987091  -999.250000 2.3589999676
 3083.9636230  -999.250000 13.171999931  -999.250000 0.0030000000  -999.250000 2.4800000191 37.706378937 90.000000000 1.9800945520 41.328834534  -999.250000 2.3340001106
 3084.1159668  -999.250000 13.203000069  -999.250000 0.0040000002  -999.250000 2.4649999142 49.166316986 93.188003540 1.9670416117 41.226249695  -999.250000 2.1740000248
 3084.2685547  -999.250000 13.171999931  -999.250000 0.0040000002  -999.250000 2.4549999237 55.623302460 96.000000000 1.9839726686 40.757976532  -999.250000 2.1329998970
 3084.4208984  -999.250000 13.203000069  -999.250000 0.0089999996  -999.250000 2.4649999142 64.751701355 96.188003540 1.9889919758 40.750598907  -999.250000 2.2300000191
 3084.5732422  -999.250000 13.171999931  -999.250000 0.0109999999  -999.250000 2.4649999142 65.810600281 96.375000000 1.9800144434 40.502201080  -999.250000 2.3280000687
 3084.7255859  -999.250000 13.171999931  -999.250000 0.0060000001  -999.250000 2.4630000591 64.313102722 97.375000000 1.9580352306 41.250587463  -999.250000 2.2909998894
 3084.8779297  -999.250000 13.156000137  -999.250000 -0.005000000  -999.250000 2.4430000782 64.368942261 97.000000000 1.9241088629 40.993602753  -999.250000 2.2190001011
 3085.0305176  -999.250000 13.171999931  -999.250000 -0.008000000  -999.250000 2.4509999752 60.595401764 97.188003540 1.8760769367 41.366775513  -999.250000 2.1740000248
 3085.1828613  -999.250000 13.272999763  -999.250000 -0.011000000  -999.250000 2.4409999847 61.032501221 98.375000000 1.8310720921 40.985202789  -999.250000 2.1519999504
 3085.3352051  -999.250000 13.328000069  -999.250000 0.0010000000  -999.250000 2.4690001011 61.969852448 98.563003540 1.8010480404 41.109786987  -999.250000 2.1129999161
 3085.4875488  -999.250000 13.374999046  -999.250000 0.0000000000  -999.250000 2.4590001106 62.494941711 100.18799591 1.7810640335 40.976589203  -999.250000 1.9880000353
 3085.6401367  -999.250000 13.374999046  -999.250000 0.0170000009  -999.250000 2.4730000496 59.333904266 100.56300354 1.7660241127 40.718177795  -999.250000 1.8730000257
 3085.7924805  -999.250000 13.366999626  -999.250000 0.0179999992  -999.250000 2.4590001106 56.193908691 101.18800354 1.7450336218 40.461849213  -999.250000 1.8719999790
 3085.9448242  -999.250000 13.374999046  -999.250000 0.0080000004  -999.250000 2.4470000267 59.878356934 101.37500000 1.7220368385 40.993202209  -999.250000 1.9490000010
 3086.0971680  -999.250000 13.344000816  -999.250000 -0.002000000  -999.250000 2.4409999847 61.971755981 100.56300354 1.6950864792 41.118389130  -999.250000 2.0139999390
