# LAS format log file from PETREL
# Project units are specified as depth units
#==================================================================
~Version information
VERS.   2.0:
WRAP.   NO:
#==================================================================
~Well
STRT .m      913.63586426 :
STOP .m      4531.7631836 :
STEP .m     0.00000000 :
NULL .        -999.250000 :
COMP.           : COMPANY
WELL.  33/5-2   : WELL
FLD.            : FIELD
LOC.            : LOCATION
SRVC.           : SERVICE COMPANY
DATE.  2018-09-11 14:48:41   : Log Export Date {yyyy-MM-dd HH:mm:ss}
PROV.           : PROVINCE
UWI.   33/5-2   : UNIQUE WELL ID
API.            : API NUMBER
#==================================================================
~Curve
DEPT .m                   : DEPTH
Lithology_geolink ._      : Lithology_geolink
CALI .in                  : CALI
BS .in                    : BS
DRHO .g/cm3               : DRHO
NPHI .m3/m3               : NPHI
RHOB .g/cm3               : RHOB
GR .gAPI                  : GR
DTC .us/ft                : DTC
RDEP .ohm.m               : RDEP
SP .mV                    : SP
RSHA .ohm.m               : RSHA
RMED .ohm.m               : RMED
~Parameter
#==================================================================
~Ascii
 913.63586426  -999.250000 17.983999252  -999.250000  -999.250000  -999.250000 2.5409998894 69.692405701 120.37139130 3.0719752312 28.595100403  -999.250000 2.3732342720
 913.78826904  -999.250000 17.983999252  -999.250000  -999.250000  -999.250000 2.5139999390 70.673957825 119.38552094 3.0409903526 28.847303391  -999.250000 2.4378118515
 913.94067383  -999.250000 17.952999115  -999.250000  -999.250000  -999.250000 2.5099999905 67.523681641 122.01276398 3.0290257931 29.587392807  -999.250000 2.3909358978
 914.09307861  -999.250000 17.952999115  -999.250000  -999.250000  -999.250000 2.5209999084 72.868392944 125.20126343 3.0610232353 28.097581863  -999.250000 2.3746955395
 914.24548340  -999.250000 17.952999115  -999.250000  -999.250000  -999.250000 2.5350000858 71.368667603 128.49699402 3.0899918079 28.910026550  -999.250000 2.2989280224
 914.39788818  -999.250000 17.952999115  -999.250000  -999.250000  -999.250000 2.5409998894 69.937171936 127.73973846 3.0799887180 29.597030640  -999.250000 2.2810480595
 914.55029297  -999.250000 17.937999725  -999.250000  -999.250000  -999.250000 2.5490000248 69.750549316 125.16621399 3.0659327507 30.285303116  -999.250000 2.2931802273
 914.70269775  -999.250000 17.937999725  -999.250000  -999.250000  -999.250000 2.5699999332 69.885459900 119.74925232 3.0099604130 31.030899048  -999.250000 2.3379280567
 914.85510254  -999.250000 17.937999725  -999.250000  -999.250000  -999.250000 2.5859999657 72.235412598 119.58778381 2.9770035744 30.775392532  -999.250000 2.3197355270
 915.00750732  -999.250000 17.937999725  -999.250000  -999.250000  -999.250000 2.5840001106 68.926437378 125.77552795 2.9800169468 29.279796600  -999.250000 2.2538757324
 915.15991211  -999.250000 17.937999725  -999.250000  -999.250000  -999.250000 2.5980000496 66.317405701 132.13551331 2.9939999580 28.780899048  -999.250000 2.2231321335
 915.31231689  -999.250000 17.922000885  -999.250000  -999.250000  -999.250000 2.6019999981 67.315208435 134.74299622 2.9940094948 28.533374786  -999.250000 2.2561242580
 915.46466064  -999.250000 17.891000748  -999.250000  -999.250000  -999.250000 2.6050000191 67.827041626 132.98333740 3.0019936562 28.842899323  -999.250000 2.2870647907
 915.61706543  -999.250000 17.875000000  -999.250000  -999.250000  -999.250000 2.6189999580 70.993118286 128.37072754 2.9940030575 28.593727112  -999.250000 2.3049495220
 915.76947021  -999.250000 17.858999252  -999.250000  -999.250000  -999.250000 2.6289999485 69.424240112 127.18575287 2.9980030060 28.530899048  -999.250000 2.2908737659
 915.92187500  -999.250000 17.858999252  -999.250000  -999.250000  -999.250000 2.6310000420 66.311073303 126.55825043 3.0019969940 28.283100128  -999.250000 2.2558679581
 916.07427979  -999.250000 17.858999252  -999.250000  -999.250000  -999.250000 2.6189999580 65.868667603 125.37575531 2.9980094433 28.535303116  -999.250000 2.2229199409
 916.22668457  -999.250000 17.858999252  -999.250000  -999.250000  -999.250000 2.6189999580 64.449020386 125.57276154 3.0100016594 29.277593613  -999.250000 2.2030801773
 916.37908936  -999.250000 17.858999252  -999.250000  -999.250000  -999.250000 2.6210000515 66.924507141 128.00149536 3.0119953156 28.285303116  -999.250000 2.2229681015
 916.53149414  -999.250000 17.858999252  -999.250000  -999.250000  -999.250000 2.6270000935 63.868118286 128.37995911 3.0060143471 29.029796600  -999.250000 2.2149999142
 916.68389893  -999.250000 17.843999863  -999.250000  -999.250000  -999.250000 2.6970000267 62.299919128 129.50000000 3.0180034637 28.528696060  -999.250000 2.2149646282
 916.83630371  -999.250000 17.812999725  -999.250000  -999.250000  -999.250000 2.7660000324 59.345241547 129.49229431 3.0209841728 27.798519135  -999.250000 2.2070705891
 916.98870850  -999.250000 17.843999863  -999.250000  -999.250000  -999.250000 2.8929998875 59.667400360 127.73155212 3.0079855919 31.534204483  -999.250000 2.2231101990
 917.14111328  -999.250000 17.891000748  -999.250000  -999.250000  -999.250000 2.8029999733 69.295707703 123.56217194 2.9959905148 32.037509918  -999.250000 2.2480087280
 917.29351807  -999.250000 17.906000137  -999.250000  -999.250000  -999.250000 2.7149999142 79.618392944 123.37857819 2.9879951477 33.272090912  -999.250000 2.2499911785
 917.44586182  -999.250000 17.906000137  -999.250000  -999.250000  -999.250000 2.5999999046 78.087440491 124.20327759 2.9839982986 31.022985458  -999.250000 2.2478997707
 917.59826660  -999.250000 17.875000000  -999.250000  -999.250000  -999.250000 2.5610001087 68.725631714 128.01651001 2.9820065498 28.780899048  -999.250000 2.2229647636
 917.75067139  -999.250000 17.906000137  -999.250000  -999.250000  -999.250000 2.5780000687 63.228500366 131.75000000 2.9900064468 28.541082382  -999.250000 2.2149293423
 917.90307617  -999.250000 17.875000000  -999.250000  -999.250000  -999.250000 2.6089999676 65.382705688 131.75109863 2.9979951382 30.586290359  -999.250000 2.1990087032
 918.05548096  -999.250000 17.937999725  -999.250000  -999.250000  -999.250000 2.6429998875 67.112884521 131.98678589 2.9919936657 28.839593887  -999.250000 2.2010617256
 918.20788574  -999.250000 17.983999252  -999.250000  -999.250000  -999.250000 2.6449999809 64.393997192 128.99008179 2.9839999676 27.841796875  -999.250000 2.2150528431
 918.36029053  -999.250000 17.983999252  -999.250000  -999.250000  -999.250000 2.6659998894 68.690208435 126.75357056 2.9840047359 27.343999863  -999.250000 2.2270307541
 918.51269531  -999.250000 17.983999252  -999.250000  -999.250000  -999.250000 2.7149999142 69.197914124 127.56300354 2.9899983406 27.346479416  -999.250000 2.2340176105
 918.66510010  -999.250000 17.983999252  -999.250000  -999.250000  -999.250000 2.7829999924 71.425888062 127.56134796 2.9880168438 27.910026550  -999.250000 2.2379734516
 918.81750488  -999.250000 17.983999252  -999.250000  -999.250000  -999.250000 2.8689999580 68.708381653 127.18882751 3.0020170212 28.591796875  -999.250000 2.2320265770
 918.96990967  -999.250000 17.983999252  -999.250000  -999.250000  -999.250000 2.8829998970 73.314102173 127.37224579 3.0160048008 28.093999863  -999.250000 2.2379515171
 919.12231445  -999.250000 17.983999252  -999.250000  -999.250000  -999.250000 2.8380000591 73.575668335 126.74035645 3.0199928284 28.099506378  -999.250000 2.2270836830
 919.27471924  -999.250000 17.983999252  -999.250000  -999.250000  -999.250000 2.7520000935 76.416252136 124.56382751 3.0140047073 29.338493347  -999.250000 2.2460794449
 919.42712402  -999.250000 17.983999252  -999.250000  -999.250000  -999.250000 2.7479999065 71.485404968 124.75798798 3.0179855824 28.093999863  -999.250000 2.2641983032
 919.57946777  -999.250000 17.983999252  -999.250000  -999.250000  -999.250000 2.7639999390 68.178367615 126.55943298 3.0059823990 28.102809906  -999.250000 2.3090307713
 919.73187256  -999.250000 17.983999252  -999.250000  -999.250000  -999.250000 2.8320000172 65.997520447 125.75633240 2.9839928150 30.100334167  -999.250000 2.3159515858
 919.88427734  -999.250000 17.983999252  -999.250000  -999.250000  -999.250000 2.8710000515 65.455345154 127.18276978 2.9750039577 31.532274246  -999.250000 2.3048944473
 920.03668213  -999.250000 17.983999252  -999.250000  -999.250000  -999.250000 2.9630000591 69.393447876 125.94796753 2.9800064564 31.591796875  -999.250000 2.2809734344
 920.18908691  -999.250000 17.983999252  -999.250000  -999.250000  -999.250000 2.9820001125 73.560798645 114.14477539 2.9879846573 31.089593887  -999.250000 2.2750353813
 920.34149170  -999.250000 17.983999252  -999.250000  -999.250000  -999.250000 2.9939999580 73.067405701 104.36894989 2.9689824581 30.090696335  -999.250000 2.2830264568
 920.49389648  -999.250000 17.983999252  -999.250000  -999.250000  -999.250000 2.9820001125 74.044281006 103.00769806 2.9470000267 29.345100403  -999.250000 2.2889382839
 920.64630127  -999.250000 17.983999252  -999.250000  -999.250000  -999.250000 2.9920001030 69.838607788 104.82764435 2.9469819069 29.589321136  -999.250000 2.2749605179
 920.79870605  -999.250000 17.983999252  -999.250000  -999.250000  -999.250000 2.9979999065 75.625000000 122.39344788 2.9320023060 28.534202576  -999.250000 2.2659294605
