# LAS format log file from PETREL
# Project units are specified as depth units
#==================================================================
~Version information
VERS.   2.0:
WRAP.   NO:
#==================================================================
~Well
STRT .m      913.63586426 :
STOP .m      4531.7631836 :
STEP .m     0.00000000 :
NULL .        -999.250000 :
COMP.           : COMPANY
WELL.  33/5-2   : WELL
FLD.            : FIELD
LOC.            : LOCATION
SRVC.           : SERVICE COMPANY
DATE.  2018-09-11 14:48:41   : Log Export Date {yyyy-MM-dd HH:mm:ss}
PROV.           : PROVINCE
UWI.   33/5-2   : UNIQUE WELL ID
API.            : API NUMBER
#==================================================================
~Curve
DEPT .m                   : DEPTH
Lithology_geolink ._      : Lithology_geolink
CALI .in                  : CALI
BS .in                    : BS
DRHO .g/cm3               : DRHO
NPHI .m3/m3               : NPHI
RHOB .g/cm3               : RHOB
GR .gAPI                  : GR
DTC .us/ft                : DTC
RDEP .ohm.m               : RDEP
SP .mV                    : SP
RSHA .ohm.m               : RSHA
RMED .ohm.m               : RMED
~Parameter
#==================================================================
~Ascii
# ...
 1637.8404541  -999.250000 16.733999252  -999.250000  -999.250000  -999.250000 2.0250000954 68.392379761 157.49839783 0.7279999852 33.123207092  -999.250000 0.6709199548
 1637.9927979  -999.250000 16.702999115  -999.250000  -999.250000  -999.250000 2.0039999485 66.639839172 157.00570679 0.7099999785 32.875408173  -999.250000 0.6459615827
 1638.1452637  -999.250000 16.577999115  -999.250000  -999.250000  -999.250000 1.9969999790 65.749092102 159.37059021 0.6999999881 32.628013611  -999.250000 0.6299743652
 1638.2976074  -999.250000 16.827999115  -999.250000  -999.250000  -999.250000 2.0269999504 67.030067444 158.00160217 0.6850000024 32.012413025  -999.250000 0.6219967604
 1638.4500732  -999.250000 18.156000137  -999.250000  -999.250000  -999.250000 2.0469999313 69.857666016 158.50799561 0.6740000248 32.764926910  -999.250000 0.6210032105
 1638.6024170  -999.250000 17.172000885  -999.250000  -999.250000  -999.250000 2.0529999733 71.928825378 161.00358582 0.6629999876 33.053730011  -999.250000 0.6220095754
 1638.7548828  -999.250000 18.218999863  -999.250000  -999.250000  -999.250000 2.0569999218 71.243492126 162.12901306 0.6620000005 33.281112671  -999.250000 0.6250224113
 1638.9072266  -999.250000 16.983999252  -999.250000  -999.250000  -999.250000 2.0629999638 68.279647827 163.37620544 0.6729999781 33.631099701  -999.250000 0.6320256591
 1639.0595703  -999.250000 16.827999115  -999.250000  -999.250000  -999.250000 2.0659999847 66.302871704 163.75151062 0.6859999895 34.596603394  -999.250000 0.6400023699
 1639.2120361  -999.250000 17.000000000  -999.250000  -999.250000  -999.250000 2.0739998817 66.669296265 164.37940979 0.6899999976 34.846000671  -999.250000 0.6410063505
 1639.3643799  -999.250000 16.608999252  -999.250000  -999.250000  -999.250000 2.0680000782 68.008193970 165.75180054 0.6970000267 34.846603394  -999.250000 0.6430096030
 1639.5168457  -999.250000 16.468999863  -999.250000  -999.250000  -999.250000 2.0659999847 68.923194885 166.50399780 0.7070000172 35.093711853  -999.250000 0.6470352411
 1639.6691895  -999.250000 16.500000000  -999.250000  -999.250000  -999.250000 2.0590000153 69.607688904 167.75000000 0.7139999866 34.380409241  -999.250000 0.6580192447
 1639.8216553  -999.250000 16.608999252  -999.250000  -999.250000  -999.250000 2.0269999504 70.310310364 167.74760437 0.7089999914 34.134510040  -999.250000 0.6659615636
 1639.9739990  -999.250000 16.202999115  -999.250000  -999.250000  -999.250000 2.0060000420 71.031303406 167.00180054 0.7099999785 33.982398987  -999.250000 0.6539639235
 1640.1264648  -999.250000 16.562999725  -999.250000  -999.250000  -999.250000 1.9939999580 71.575630188 167.75241089 0.7129999995 33.734203339  -999.250000 0.6389647126
 1640.2788086  -999.250000 16.125000000  -999.250000  -999.250000  -999.250000 2.0120000839 72.086196899 168.50839233 0.7120000124 34.106815338  -999.250000 0.6280000210
 1640.4312744  -999.250000 15.913998604  -999.250000  -999.250000  -999.250000 2.0309998989 73.082603455 171.12300110 0.7049999833 33.737800598  -999.250000 0.6280256510
 1640.5836182  -999.250000 16.047000885  -999.250000  -999.250000  -999.250000 2.0369999409 73.576316833 170.49359131 0.6980000138 33.986324310  -999.250000 0.6359775662
 1640.7360840  -999.250000 16.202999115  -999.250000  -999.250000  -999.250000 2.0429999828 71.796310425 168.49517822 0.6880000234 33.775100708  -999.250000 0.6289262772
 1640.8884277  -999.250000 16.233999252  -999.250000  -999.250000  -999.250000 2.0550000668 68.151985168 166.99920654 0.6890000105 33.494098663  -999.250000 0.6059295535
 1641.0407715  -999.250000 16.233999252  -999.250000  -999.250000  -999.250000 2.0590000153 65.034080505 166.74819946 0.6959999800 33.213184357  -999.250000 0.5839879513
 1641.1932373  -999.250000 16.406000137  -999.250000  -999.250000  -999.250000 2.0629999638 64.661102295 165.99798584 0.6949999928 32.874813080  -999.250000 0.5790864825
 1641.3455811  -999.250000 16.593999863  -999.250000  -999.250000  -999.250000 2.0610001087 66.931961060 165.37438965 0.6859999895 33.125904083  -999.250000 0.6060817242
 1641.4980469  -999.250000 16.641000748  -999.250000  -999.250000  -999.250000 2.0590000153 68.786285400 165.12199402 0.6650000215 32.257221222  -999.250000 0.6400672197
 1641.6503906  -999.250000 16.672000885  -999.250000  -999.250000  -999.250000 2.0429999828 69.362602234 164.49578857 0.6549999714 32.636199951  -999.250000 0.6609639525
 1641.8028564  -999.250000 16.718999863  -999.250000  -999.250000  -999.250000 2.0369999409 71.268547058 162.75239563 0.6610000134 32.304924011  -999.250000 0.6459039450
 1641.9552002  -999.250000 16.500000000  -999.250000  -999.250000  -999.250000 2.0390000343 74.897445679 163.50057983 0.6679999828 32.902118683  -999.250000 0.6159471273
 1642.1076660  -999.250000 16.531000137  -999.250000  -999.250000  -999.250000 2.0610001087 77.742042542 163.75201416 0.6729999781 32.538318634  -999.250000 0.5940223932
 1642.2600098  -999.250000 16.516000748  -999.250000  -999.250000  -999.250000 2.0699999332 77.242622375 164.37409973 0.6899999976 33.259708405  -999.250000 0.6010865569
 1642.4124756  -999.250000 16.327999115  -999.250000  -999.250000  -999.250000 2.0820000172 74.151641846 163.99800110 0.6990000010 33.136905670  -999.250000 0.6370865703
 1642.5648193  -999.250000 16.297000885  -999.250000  -999.250000  -999.250000 2.0940001011 71.320854187 163.37100220 0.6959999800 32.486087799  -999.250000 0.6640384197
 1642.7172852  -999.250000 16.516000748  -999.250000  -999.250000  -999.250000 2.0999999046 69.540138245 162.11859131 0.7039999962 32.823272705  -999.250000 0.6759935617
 1642.8696289  -999.250000 16.562999725  -999.250000  -999.250000  -999.250000 2.0940001011 68.832092285 160.11979675 0.7220000029 32.285285950  -999.250000 0.6740320325
 1643.0219727  -999.250000 17.047000885  -999.250000  -999.250000  -999.250000 2.0820000172 69.605468750 158.50148010 0.7220000029 32.062984467  -999.250000 0.6839976311
 1643.1744385  -999.250000 17.297000885  -999.250000  -999.250000  -999.250000 2.0699999332 71.309539795 159.12579346 0.7379999757 32.056980133  -999.250000 0.6829808354
 1643.3267822  -999.250000 17.843999863  -999.250000  -999.250000  -999.250000 2.0659999847 72.190330505 159.37649536 0.7440000176 32.051494598  -999.250000 0.6769831777
 1643.4792480  -999.250000 16.656000137  -999.250000  -999.250000  -999.250000 2.0529999733 71.980644226 159.99920654 0.7329999804 32.256988525  -999.250000 0.6700576544
 1643.6315918  -999.250000 16.452999115  -999.250000  -999.250000  -999.250000 2.0529999733 71.894912720 159.74909973 0.7179999948 31.942892075  -999.250000 0.6880024076
 1643.7840576  -999.250000 17.047000885  -999.250000  -999.250000  -999.250000 2.0550000668 72.622543335 159.37500000 0.6930000186 32.311897278  -999.250000 0.6889839768
 1643.9364014  -999.250000 16.750000000  -999.250000  -999.250000  -999.250000 2.0739998817 73.251922607 159.37590027 0.6679999828 31.968694687  -999.250000 0.6839374900
 1644.0888672  -999.250000 16.562999725  -999.250000  -999.250000  -999.250000 2.0739998817 72.479888916 159.75199890 0.6539999843 31.841600418  -999.250000 0.6580288410
 1644.2412109  -999.250000 17.000000000  -999.250000  -999.250000  -999.250000 2.0450000763 70.708488464 160.37168884 0.6380000114 31.717895508  -999.250000 0.6670072079
 1644.3936768  -999.250000 17.516000748  -999.250000  -999.250000  -999.250000 2.0179998875 69.589385986 159.00761414 0.6430000067 32.089481354  -999.250000 0.6700288653
 1644.5460205  -999.250000 17.516000748  -999.250000  -999.250000  -999.250000 2.0139999390 70.190452576 161.36898804 0.6639999747 31.925981522  -999.250000 0.6790544391
 1644.6984863  -999.250000 17.875000000  -999.250000  -999.250000  -999.250000 2.0510001183 72.053497314 159.50000000 0.6800000072 31.300378799  -999.250000 0.6959487200
 1644.8508301  -999.250000 17.077999115  -999.250000  -999.250000  -999.250000 2.0720000267 74.176612854 159.50160217 0.6890000105 32.041976929  -999.250000 0.6800032258
 1645.0031738  -999.250000 17.141000748  -999.250000  -999.250000  -999.250000 2.0859999657 76.576995850 159.99548340 0.6919999719 32.659381866  -999.250000 0.6809374690
