# LAS format log file from PETREL
# Project units are specified as depth units
#==================================================================
~Version information
VERS.   2.0:
WRAP.   NO:
#==================================================================
~Well
STRT .m      913.63586426 :
STOP .m      4531.7631836 :
STEP .m     0.00000000 :
NULL .        -999.250000 :
COMP.           : COMPANY
WELL.  33/5-2   : WELL
FLD.            : FIELD
LOC.            : LOCATION
SRVC.           : SERVICE COMPANY
DATE.  2018-09-11 14:48:41   : Log Export Date {yyyy-MM-dd HH:mm:ss}
PROV.           : PROVINCE
UWI.   33/5-2   : UNIQUE WELL ID
API.            : API NUMBER
#==================================================================
~Curve
DEPT .m                   : DEPTH
Lithology_geolink ._      : Lithology_geolink
CALI .in                  : CALI
BS .in                    : BS
DRHO .g/cm3               : DRHO
NPHI .m3/m3               : NPHI
RHOB .g/cm3               : RHOB
GR .gAPI                  : GR
DTC .us/ft                : DTC
RDEP .ohm.m               : RDEP
SP .mV                    : SP
RSHA .ohm.m               : RSHA
RMED .ohm.m               : RMED
~Parameter
#==================================================================
~Ascii
# ...
 1879.2419434  -999.250000 17.202999115  -999.250000  -999.250000  -999.250000 2.2789969444 74.491943359 132.74580383 1.0290040970 34.418975830  -999.250000 0.9840168357
 1879.3942871  -999.250000 17.297000885  -999.250000  -999.250000  -999.250000 2.2600152493 76.968353271 130.99679565 1.0240041018 35.032779694  -999.250000 0.9910336733
 1879.5467529  -999.250000 17.141000748  -999.250000  -999.250000  -999.250000 2.2460112572 78.777641296 128.99850464 1.0080127716 34.526363373  -999.250000 1.0120695829
 1879.6990967  -999.250000 17.358999252  -999.250000  -999.250000  -999.250000 2.2519953251 79.595901489 128.37149048 0.9910136461 34.638275146  -999.250000 1.0410512686
 1879.8515625  -999.250000 17.108999252  -999.250000  -999.250000  -999.250000 2.2639904022 78.937141418 126.19745636 0.9989936352 34.413887024  -999.250000 1.0730527639
 1880.0039063  -999.250000 17.108999252  -999.250000  -999.250000  -999.250000 2.2849831581 77.104003906 130.12319946 1.0019975901 34.690788269  -999.250000 1.0949840546
 1880.1562500  -999.250000 17.266000748  -999.250000  -999.250000  -999.250000 2.2730193138 73.673980713 129.00160217 1.0019999743 34.935775757  -999.250000 1.0849647522
 1880.3087158  -999.250000 17.202999115  -999.250000  -999.250000  -999.250000 2.2809934616 70.343872070 130.00379944 0.9790183902 34.843589783  -999.250000 1.0629487038
 1880.4610596  -999.250000 17.093999863  -999.250000  -999.250000  -999.250000 2.2750096321 69.687347412 132.37399292 0.9700144529 35.338397980  -999.250000 1.0309920311
 1880.6135254  -999.250000 17.358999252  -999.250000  -999.250000  -999.250000 2.2710030079 72.339149475 131.74940491 0.9460192323 35.089401245  -999.250000 1.0259855986
 1880.7658691  -999.250000 17.281000137  -999.250000  -999.250000  -999.250000 2.2560241222 77.690551758 131.50039673 0.9140512347 35.214591980  -999.250000 1.0200111866
 1880.9183350  -999.250000 17.375000000  -999.250000  -999.250000  -999.250000 2.2599968910 82.905525208 131.74699402 0.9090039730 35.459999084  -999.250000 1.0269422531
 1881.0706787  -999.250000 17.468999863  -999.250000  -999.250000  -999.250000 2.2679934502 85.243530273 130.50241089 0.8960104585 35.459388733  -999.250000 1.0030353069
 1881.2231445  -999.250000 17.312999725  -999.250000  -999.250000  -999.250000 2.2769927979 84.210617065 131.99879456 0.9189816117 35.203197479  -999.250000 1.0249903202
 1881.3754883  -999.250000 17.187999725  -999.250000  -999.250000  -999.250000 2.2710046768 81.906242371 131.49780273 0.8930208683 34.331592560  -999.250000 1.0210304260
 1881.5279541  -999.250000 18.202999115  -999.250000  -999.250000  -999.250000 2.2680022717 79.926216125 130.12019348 0.8989951611 34.575386047  -999.250000 1.0400143862
 1881.6802979  -999.250000 17.202999115  -999.250000  -999.250000  -999.250000 2.2600064278 78.123924255 128.12640381 0.8970016241 34.073390961  -999.250000 1.0459759235
 1881.8327637  -999.250000 17.297000885  -999.250000  -999.250000  -999.250000 2.2440128326 77.170684814 128.99760437 0.8970000148 34.194389343  -999.250000 1.0310913324
 1881.9851074  -999.250000 17.108999252  -999.250000  -999.250000  -999.250000 2.2340080738 78.014328003 127.99999237 0.8910048008 34.314186096  -999.250000 1.0689151287
 1882.1375732  -999.250000 17.422000885  -999.250000  -999.250000  -999.250000 2.2459905148 80.302078247 128.00900269 0.9299687743 34.061389923  -999.250000 1.0161321163
 1882.2899170  -999.250000 17.297000885  -999.250000  -999.250000  -999.250000 2.2849688530 82.507789612 131.74559021 0.9669703841 34.180770874  -999.250000 1.0708878040
 1882.4422607  -999.250000 17.062999725  -999.250000  -999.250000  -999.250000 2.3109583855 83.374435425 129.00180054 1.0099310875 33.799884796  -999.250000 1.0010865927
 1882.5947266  -999.250000 17.062999725  -999.250000  -999.250000  -999.250000 2.3479704857 82.716110229 130.12219238 1.0459711552 34.165885925  -999.250000 1.0549902916
 1882.7470703  -999.250000 17.062999725  -999.250000  -999.250000  -999.250000 2.4039103985 80.250595093 129.36598206 1.0819423199 33.819892883  -999.250000 1.0511474609
 1882.8995361  -999.250000 17.077999115  -999.250000  -999.250000  -999.250000 2.4649510384 76.334854126 123.73754120 1.0899935961 34.189296722  -999.250000 1.1433602571
 1883.0518799  -999.250000 17.016000748  -999.250000  -999.250000  -999.250000 2.4220688343 72.550697327 118.54927826 1.1459103823 33.971000671  -999.250000 1.2934807539
 1883.2043457  -999.250000 17.281000137  -999.250000  -999.250000  -999.250000 2.3340706825 70.768417358 109.99849701 1.1489976645 33.973403931  -999.250000 1.5931538343
 1883.3566895  -999.250000 17.187999725  -999.250000  -999.250000  -999.250000 2.2730488777 71.523345947 109.38301849 1.1599911451 34.720397949  -999.250000 1.6565144062
 1883.5091553  -999.250000 17.827999115  -999.250000  -999.250000  -999.250000 2.2600104809 72.910957336 114.40052795 1.1679935455 34.474205017  -999.250000 1.3534475565
 1883.6614990  -999.250000 17.187999725  -999.250000  -999.250000  -999.250000 2.2639968395 72.268264771 125.00701141 1.1130441427 35.468997955  -999.250000 1.1239262819
 1883.8139648  -999.250000 17.297000885  -999.250000  -999.250000  -999.250000 2.2440159321 69.856353760 129.37500000 1.0560456514 34.848003387  -999.250000 1.0780143738
 1883.9663086  -999.250000 17.172000885  -999.250000  -999.250000  -999.250000 2.2290120125 68.416450500 129.36889648 0.9780625105 35.470600128  -999.250000 1.0840176344
 1884.1187744  -999.250000 17.250000000  -999.250000  -999.250000  -999.250000 2.2010223866 70.122917175 125.57125854 0.8950664401 35.346401215  -999.250000 1.0949039459
 1884.2711182  -999.250000 17.797000885  -999.250000  -999.250000  -999.250000 2.2339735031 73.836448669 129.00180054 0.9009951949 35.470600128  -999.250000 1.0550591946
 1884.4234619  -999.250000 17.077999115  -999.250000  -999.250000  -999.250000 2.2639520168 76.468658447 130.12339783 0.9409359097 35.343898773  -999.250000 1.0920144320
 1884.5759277  -999.250000 17.156000137  -999.250000  -999.250000  -999.250000 2.2969734669 77.575538635 129.12469482 0.9230144024 34.471801758  -999.250000 1.1011008024
 1884.7282715  -999.250000 17.202999115  -999.250000  -999.250000  -999.250000 2.2910094261 78.681915283 129.00019836 0.9170095921 34.719799042  -999.250000 1.1428781748
 1884.8807373  -999.250000 17.187999725  -999.250000  -999.250000  -999.250000 2.2660200596 80.729873657 129.12124634 0.9569679499 34.221000671  -999.250000 1.0670360327
 1885.0330811  -999.250000 17.968999863  -999.250000  -999.250000  -999.250000 2.2709918022 83.185325623 127.56330109 0.9440208077 34.221000671  -999.250000 1.0819903612
 1885.1855469  -999.250000 17.202999115  -999.250000  -999.250000  -999.250000 2.2620072365 84.984680176 127.75150299 0.9170216322 34.221401215  -999.250000 1.0759999752
 1885.3378906  -999.250000 17.187999725  -999.250000  -999.250000  -999.250000 2.2749896049 86.130493164 128.37519836 0.9699575901 34.346984863  -999.250000 1.0759663582
 1885.4903564  -999.250000 17.343999863  -999.250000  -999.250000  -999.250000 2.2640087605 86.748985291 128.50450134 0.9809911847 34.756011963  -999.250000 1.0548750162
 1885.6427002  -999.250000 17.422000885  -999.250000  -999.250000  -999.250000 2.2679967880 86.431831360 130.37500000 0.9660120606 34.760009766  -999.250000 1.0030465126
 1885.7951660  -999.250000 17.562999725  -999.250000  -999.250000  -999.250000 2.2580080032 85.533638000 130.37260437 0.9969751835 34.763225555  -999.250000 1.0320264101
 1885.9475098  -999.250000 17.343999863  -999.250000  -999.250000  -999.250000 2.2540030479 85.426940918 129.37359619 0.9830111861 34.524024963  -999.250000 1.0429775715
 1886.0999756  -999.250000 17.672000885  -999.250000  -999.250000  -999.250000 2.2380127907 86.969207764 128.50120544 0.9460296035 35.153697968  -999.250000 1.0291129351
 1886.2523193  -999.250000 17.452999115  -999.250000  -999.250000  -999.250000 2.2399983406 88.274307251 129.00059509 0.9819711447 34.750614166  -999.250000 1.0759454966
 1886.4046631  -999.250000 17.500000000  -999.250000  -999.250000  -999.250000 2.2400000095 86.804054260 129.37359619 1.0029664040 35.253314972  -999.250000 1.0420240164
