# LAS format log file from PETREL
# Project units are specified as depth units
#==================================================================
~Version information
VERS.   2.0:
WRAP.   NO:
#==================================================================
~Well
STRT .m      913.63586426 :
STOP .m      4531.7631836 :
STEP .m     0.00000000 :
NULL .        -999.250000 :
COMP.           : COMPANY
WELL.  33/5-2   : WELL
FLD.            : FIELD
LOC.            : LOCATION
SRVC.           : SERVICE COMPANY
DATE.  2018-09-11 14:48:41   : Log Export Date {yyyy-MM-dd HH:mm:ss}
PROV.           : PROVINCE
UWI.   33/5-2   : UNIQUE WELL ID
API.            : API NUMBER
#==================================================================
~Curve
DEPT .m                   : DEPTH
Lithology_geolink ._      : Lithology_geolink
CALI .in                  : CALI
BS .in                    : BS
DRHO .g/cm3               : DRHO
NPHI .m3/m3               : NPHI
RHOB .g/cm3               : RHOB
GR .gAPI                  : GR
DTC .us/ft                : DTC
RDEP .ohm.m               : RDEP
SP .mV                    : SP
RSHA .ohm.m               : RSHA
RMED .ohm.m               : RMED
~Parameter
#==================================================================
~Ascii
# ...
 3320.3359375  -999.250000 13.015999794  -999.250000 0.0020000001  -999.250000 2.5290000439 62.248096466 93.750000000 1.8900032043 51.015796661  -999.250000 2.2379999161
 3320.4882813  -999.250000 13.022999763  -999.250000 0.0070000002  -999.250000 2.5309998989 61.059741974 93.750000000 1.8949919939 50.891799927  -999.250000 2.2750000954
 3320.6406250  -999.250000 13.022999763  -999.250000 -0.002000000  -999.250000 2.5269999504 59.033302307 93.563003540 1.9009808302 51.390598297  -999.250000 2.3050000668
 3320.7932129  -999.250000 13.015999794  -999.250000 -0.024000000  -999.250000 2.5309998989 60.475101471 93.750000000 1.9119822979 51.141799927  -999.250000 2.2769999504
 3320.9455566  -999.250000 12.953000069  -999.250000 -0.028000001  -999.250000 2.5550000668 62.382411957 95.187995911 1.9279743433 51.389995575  -999.250000 2.2500000000
 3321.0979004  -999.250000 13.015999794  -999.250000 -0.012000000  -999.250000 2.5959999561 66.995491028 95.187995911 1.9339903593 50.763996124  -999.250000 2.2420001030
 3321.2502441  -999.250000 13.015999794  -999.250000 0.0289999992  -999.250000 2.6170001030 64.193710327 92.375000000 1.9290159941 49.515598297  -999.250000 2.3090000153
 3321.4028320  -999.250000 13.022999763  -999.250000 0.0160000008  -999.250000 2.5590000153 67.750396729 91.375000000 1.9299983978 49.279151917  -999.250000 2.4119999409
 3321.5551758  -999.250000 13.031000137  -999.250000 -0.003000000  -999.250000 2.5079998970 67.880607605 91.749992371 1.9309984446 53.376201630  -999.250000 2.4730000496
 3321.7075195  -999.250000 13.055000305  -999.250000 -0.005000000  -999.250000 2.5139999390 71.366889954 91.749992371 1.9290032387 53.504203796  -999.250000 2.3750000000
 3321.8598633  -999.250000 13.055000305  -999.250000 0.0049999999  -999.250000 2.5309998989 66.309494019 92.188003540 1.9299983978 55.499195099  -999.250000 2.3050000668
 3322.0122070  -999.250000 13.055000305  -999.250000 0.0109999999  -999.250000 2.5490000248 64.120796204 95.000000000 1.9379743338 54.372192383  -999.250000 2.2579998970
 3322.1647949  -999.250000 13.046999931  -999.250000 -0.001000000  -999.250000 2.5209999084 61.511001587 94.375007629 1.9350047112 51.999000549  -999.250000 2.2539999485
 3322.3171387  -999.250000 13.078001022  -999.250000 -0.002000000  -999.250000 2.5290000439 64.944412231 94.375007629 1.9280111790 51.375797272  -999.250000 2.2420001030
 3322.4694824  -999.250000 13.046999931  -999.250000 -0.004000000  -999.250000 2.5179998875 68.948318481 93.750000000 1.9190144539 51.250999451  -999.250000 2.2479999065
 3322.6218262  -999.250000 13.046999931  -999.250000 -0.004000000  -999.250000 2.5329999924 75.380706787 93.563003540 1.9080351591 51.251201630  -999.250000 2.2599999905
 3322.7744141  -999.250000 13.069999695  -999.250000 -0.003000000  -999.250000 2.5290000439 78.936004639 93.750000000 1.8900288343 51.374748230  -999.250000 2.2660000324
 3322.9267578  -999.250000 13.046999931  -999.250000 -0.001000000  -999.250000 2.5469999313 78.307197571 92.750000000 1.8690335751 50.985000610  -999.250000 2.2660000324
 3323.0791016  -999.250000 13.055000305  -999.250000 0.0280000009  -999.250000 2.5799999237 74.681091309 92.750000000 1.8470352888 50.985202789  -999.250000 2.2829999924
 3323.2314453  -999.250000 13.055000305  -999.250000 0.0320000015  -999.250000 2.5980000496 70.381813049 92.999992371 1.8280607462 51.110576630  -999.250000 2.2579998970
 3323.3840332  -999.250000 13.015999794  -999.250000 0.0480000004  -999.250000 2.6050000191 74.624801636 93.188003540 1.8090304136 51.468601227  -999.250000 2.1719999313
 3323.5363770  -999.250000 13.031000137  -999.250000 0.0250000004  -999.250000 2.5659999847 74.561302185 93.750000000 1.8000143766 51.343250275  -999.250000 2.0999999046
 3323.6887207  -999.250000 13.055000305  -999.250000 0.0209999997  -999.250000 2.5469999313 73.491088867 95.187995911 1.7910144329 50.876602173  -999.250000 2.0739998817
 3323.8410645  -999.250000 13.031000137  -999.250000 0.0060000001  -999.250000 2.5309998989 67.933998108 96.749992371 1.7780208588 51.250797272  -999.250000 2.0880000591
 3323.9934082  -999.250000 13.055000305  -999.250000 -0.014000000  -999.250000 2.5510001183 65.442207336 97.000000000 1.7740128040 51.126174927  -999.250000 2.1110000610
 3324.1459961  -999.250000 13.015999794  -999.250000 -0.006000000  -999.250000 2.6089999676 68.053604126 96.749992371 1.7740000486 51.233798981  -999.250000 2.1229999065
 3324.2983398  -999.250000 13.015999794  -999.250000 -0.003000000  -999.250000 2.6170001030 65.133110046 92.750000000 1.7749984264 50.860202789  -999.250000 2.1389999390
 3324.4506836  -999.250000 13.015999794  -999.250000 0.0230000000  -999.250000 2.6089999676 70.186302185 91.000000000 1.7789936066 50.984600067  -999.250000 2.1540000439
 3324.6030273  -999.250000 13.046999931  -999.250000 0.0000000000  -999.250000 2.5120000839 69.137817383 90.375000000 1.7819902897 50.735576630  -999.250000 2.1679999828
 3324.7556152  -999.250000 13.015999794  -999.250000 -0.001000000  -999.250000 2.5060000420 77.107398987 92.000000000 1.7829984426 51.093200684  -999.250000 2.1289999485
 3324.9079590  -999.250000 13.022999763  -999.250000 -0.005000000  -999.250000 2.4979999065 71.631210327 94.750000000 1.7839984894 50.844402313  -999.250000 2.0880000591
 3325.0603027  -999.250000 13.022999763  -999.250000 -0.002000000  -999.250000 2.5209999084 75.484779358 97.563003540 1.7889920473 51.093978882  -999.250000 2.0450000763
 3325.2126465  -999.250000 13.022999763  -999.250000 -0.004000000  -999.250000 2.5139999390 66.002304077 97.188003540 1.7840160131 51.079650879  -999.250000 2.0529999733
 3325.3652344  -999.250000 13.015999794  -999.250000 -0.004000000  -999.250000 2.5060000420 67.432403564 96.749992371 1.7810047865 51.483402252  -999.250000 2.0799999237
 3325.5175781  -999.250000 13.015999794  -999.250000 -0.007000000  -999.250000 2.4939999580 65.696319580 95.563003540 1.7770063877 50.985576630  -999.250000 2.1050000191
 3325.6699219  -999.250000 13.015999794  -999.250000 -0.001000000  -999.250000 2.4960000515 70.876304626 95.000000000 1.7710096836 51.342998505  -999.250000 2.1410000324
 3325.8222656  -999.250000 13.015999794  -999.250000 0.0080000004  -999.250000 2.5000000000 71.688201904 94.375007629 1.7680047750 50.719779968  -999.250000 2.1640000343
 3325.9746094  -999.250000 12.977000237  -999.250000 0.0089999996  -999.250000 2.5160000324 71.819709778 94.750000000 1.7709903717 51.204048157  -999.250000 2.1480000019
 3326.1271973  -999.250000 12.977000237  -999.250000 -0.001000000  -999.250000 2.5079998970 76.000999451 95.000000000 1.7700015306 51.236598969  -999.250000 2.1150000095
 3326.2795410  -999.250000 12.977000237  -999.250000 -0.008000000  -999.250000 2.5039999485 76.309196472 95.187995911 1.7630112171 51.733974457  -999.250000 2.0880000591
 3326.4318848  -999.250000 12.999999046  -999.250000 0.0000000000  -999.250000 2.5120000839 73.936599731 95.563003540 1.7540143728 51.094802856  -999.250000 2.0799999237
 3326.5842285  -999.250000 12.999999046  -999.250000 0.0149999997  -999.250000 2.5329999924 73.066406250 95.750000000 1.7410416603 51.593852997  -999.250000 2.0659999847
 3326.7368164  -999.250000 13.022999763  -999.250000 0.0209999997  -999.250000 2.5490000248 75.205200195 96.000000000 1.7310159206 51.502201080  -999.250000 2.0469999313
 3326.8891602  -999.250000 13.022999763  -999.250000 -0.007000000  -999.250000 2.5230000019 80.562202454 96.188003540 1.7260079384 51.875396729  -999.250000 2.0429999828
 3327.0415039  -999.250000 13.022999763  -999.250000 -0.006000000  -999.250000 2.5409998894 80.050781250 96.375000000 1.7250015736 51.501373291  -999.250000 2.0369999409
 3327.1938477  -999.250000 13.055000305  -999.250000 -0.005000000  -999.250000 2.5469999313 72.432998657 96.188003540 1.7269935608 51.734600067  -999.250000 2.0369999409
 3327.3464355  -999.250000 13.055000305  -999.250000 0.0199999996  -999.250000 2.5759999752 69.302398682 95.375000000 1.7260015011 51.485000610  -999.250000 2.0409998894
 3327.4987793  -999.250000 13.046999931  -999.250000 0.0020000001  -999.250000 2.5290000439 66.008415222 94.563003540 1.7190111876 51.485000610  -999.250000 2.0569999218
