# LAS format log file from PETREL
# Project units are specified as depth units
#==================================================================
~Version information
VERS.   2.0:
WRAP.   NO:
#==================================================================
~Well
STRT .m      913.63586426 :
STOP .m      4531.7631836 :
STEP .m     0.00000000 :
NULL .        -999.250000 :
COMP.           : COMPANY
WELL.  33/5-2   : WELL
FLD.            : FIELD
LOC.            : LOCATION
SRVC.           : SERVICE COMPANY
DATE.  2018-09-11 14:48:41   : Log Export Date {yyyy-MM-dd HH:mm:ss}
PROV.           : PROVINCE
UWI.   33/5-2   : UNIQUE WELL ID
API.            : API NUMBER
#==================================================================
~Curve
DEPT .m                   : DEPTH
Lithology_geolink ._      : Lithology_geolink
CALI .in                  : CALI
BS .in                    : BS
DRHO .g/cm3               : DRHO
NPHI .m3/m3               : NPHI
RHOB .g/cm3               : RHOB
GR .gAPI                  : GR
DTC .us/ft                : DTC
RDEP .ohm.m               : RDEP
SP .mV                    : SP
RSHA .ohm.m               : RSHA
RMED .ohm.m               : RMED
~Parameter
#==================================================================
~Ascii
# ...
 2603.4467773  -999.250000 13.819999695  -999.250000 0.0030000000  -999.250000 2.4430000782 66.981872559 106.37380219 1.3700000048 38.012321472  -999.250000 1.6000608206
 2603.5991211  -999.250000 13.812999725  -999.250000 -0.007000000  -999.250000 2.4279999733 76.049804688 106.00000000 1.3949999809 37.870800018  -999.250000 1.6190128326
 2603.7514648  -999.250000 13.772999763  -999.250000 -0.014000000  -999.250000 2.4079999924 73.309196472 106.00000000 1.4190000296 37.623603821  -999.250000 1.6269952059
 2603.9038086  -999.250000 13.741999626  -999.250000 -0.017999999  -999.250000 2.4000000954 72.104164124 106.00190735 1.4409999847 38.122852325  -999.250000 1.6239870787
 2604.0561523  -999.250000 13.711000443  -999.250000 -0.011000000  -999.250000 2.4100000858 65.645835876 107.18800354 1.4750000238 38.388801575  -999.250000 1.6159583330
 2604.2087402  -999.250000 13.695000648  -999.250000 -0.013000000  -999.250000 2.4219999313 72.102203369 107.18540192 1.4989999533 38.637325287  -999.250000 1.5899776220
 2604.3610840  -999.250000 13.671999931  -999.250000 -0.008000000  -999.250000 2.4240000248 67.354866028 106.37400055 1.5130000114 38.497402191  -999.250000 1.5830656290
 2604.5134277  -999.250000 13.671999931  -999.250000 -0.007000000  -999.250000 2.4300000668 61.068759918 105.74810028 1.5249999762 38.623256683  -999.250000 1.6241409779
 2604.6657715  -999.250000 13.671999931  -999.250000 -0.007000000  -999.250000 2.4389998913 53.212093353 104.56109619 1.5199999809 39.013000488  -999.250000 1.7121890783
 2604.8183594  -999.250000 13.687999725  -999.250000 -0.001000000  -999.250000 2.4730000496 51.078174591 103.36920166 1.4859999418 39.011276245  -999.250000 1.8299680948
 2604.9707031  -999.250000 13.711000443  -999.250000 0.0250000004  -999.250000 2.4939999580 54.231601715 101.56721497 1.4859999418 38.653999329  -999.250000 1.8199311495
 2605.1230469  -999.250000 13.921999931  -999.250000 0.0610000007  -999.250000 2.4709999561 56.864933014 104.19181061 1.5019999743 38.654750824  -999.250000 1.7766345739
 2605.2753906  -999.250000 13.711000443  -999.250000 0.0340000018  -999.250000 2.3770000935 63.373397827 106.56461334 1.4880000353 38.888401031  -999.250000 1.5489679575
 2605.4279785  -999.250000 13.711000443  -999.250000 0.0109999999  -999.250000 2.3499999046 62.889423370 107.56680298 1.4830000401 39.014724731  -999.250000 1.5288624763
 2605.5803223  -999.250000 13.695000648  -999.250000 -0.003000000  -999.250000 2.3689999580 65.855796814 108.74679565 1.4550000429 39.367801666  -999.250000 1.4862002134
 2605.7326660  -999.250000 13.671999931  -999.250000 0.0049999999  -999.250000 2.4159998894 61.881507874 106.74909210 1.3990000486 38.499404907  -999.250000 1.6110384464
 2605.8850098  -999.250000 13.671999931  -999.250000 0.0000000000  -999.250000 2.4200000763 63.901695251 106.18800354 1.3960000277 39.246650696  -999.250000 1.6350224018
 2606.0373535  -999.250000 13.671999931  -999.250000 -0.002000000  -999.250000 2.4260001183 62.570411682 106.18830109 1.4019999504 39.135898590  -999.250000 1.6489872932
 2606.1899414  -999.250000 13.671999931  -999.250000 0.0030000000  -999.250000 2.4409999847 64.870201111 106.37630463 1.3999999762 38.480197906  -999.250000 1.6409647465
 2606.3422852  -999.250000 13.671999931  -999.250000 0.0040000002  -999.250000 2.4379999638 63.874298096 107.18860626 1.4099999666 38.106647491  -999.250000 1.6189470291
 2606.4946289  -999.250000 13.671999931  -999.250000 -0.002000000  -999.250000 2.4219999313 63.650791168 107.56240082 1.4349999428 37.998104095  -999.250000 1.5859181881
 2606.6469727  -999.250000 13.671999931  -999.250000 -0.004000000  -999.250000 2.4240000248 62.041316986 107.18830109 1.4420000315 38.340599060  -999.250000 1.5349614620
 2606.7995605  -999.250000 13.711000443  -999.250000 -0.001000000  -999.250000 2.4409999847 65.224906921 107.37440491 1.4589999914 38.218402863  -999.250000 1.5110127926
 2606.9519043  -999.250000 13.741999626  -999.250000 0.0170000009  -999.250000 2.4709999561 60.028751373 107.18540192 1.4789999723 38.715400696  -999.250000 1.5151041746
 2607.1042480  -999.250000 13.772999763  -999.250000 0.0209999997  -999.250000 2.4790000916 59.547172546 105.55949402 1.4869999886 38.592201233  -999.250000 1.5802756548
 2607.2565918  -999.250000 13.772999763  -999.250000 0.0099999998  -999.250000 2.4800000191 54.628505707 103.37339783 1.4850000143 38.965248108  -999.250000 1.7522516251
 2607.4091797  -999.250000 13.750000000  -999.250000 0.0099999998  -999.250000 2.5120000839 55.714195251 102.36800385 1.4830000401 38.733200073  -999.250000 1.9088816643
 2607.5615234  -999.250000 13.711000443  -999.250000 0.0080000004  -999.250000 2.5199999809 54.717350006 100.18930054 1.4730000496 38.981998444  -999.250000 1.8717803955
 2607.7138672  -999.250000 13.711000443  -999.250000 0.0130000003  -999.250000 2.5079998970 54.386821747 101.00570679 1.4689999819 38.980396271  -999.250000 1.7347997427
 2607.8662109  -999.250000 13.663999557  -999.250000 0.0160000008  -999.250000 2.5000000000 58.067703247 104.56490326 1.4579999447 38.481246948  -999.250000 1.6098381281
 2608.0187988  -999.250000 13.671999931  -999.250000 0.0080000004  -999.250000 2.4649999142 59.537761688 105.75900269 1.4279999733 38.247451782  -999.250000 1.5088015795
 2608.1711426  -999.250000 13.687999725  -999.250000 -0.003000000  -999.250000 2.4300000668 60.953598022 108.56370544 1.3890000582 38.342201233  -999.250000 1.4470129013
 2608.3234863  -999.250000 13.711000443  -999.250000 -0.007000000  -999.250000 2.3959999084 64.188003540 108.99869537 1.3519999981 38.591400146  -999.250000 1.4550657272
 2608.4758301  -999.250000 13.711000443  -999.250000 -0.012000000  -999.250000 2.3959999084 64.188003540 108.18730164 1.3190000057 38.715599060  -999.250000 1.4960192442
 2608.6281738  -999.250000 13.741999626  -999.250000 -0.001000000  -999.250000 2.4100000858 64.170776367 107.75040436 1.3140000105 38.590248108  -999.250000 1.5079888105
 2608.7807617  -999.250000 13.734000206  -999.250000 -0.008000000  -999.250000 2.4079999924 58.810291290 107.99859619 1.3439999819 38.360603333  -999.250000 1.5009424686
 2608.9331055  -999.250000 13.812999725  -999.250000 0.0020000001  -999.250000 2.4240000248 58.247749329 107.56300354 1.3860000372 39.104000092  -999.250000 1.4830336571
 2609.0854492  -999.250000 13.741999626  -999.250000 -0.001000000  -999.250000 2.4279999733 57.769180298 107.56050110 1.4259999990 38.482398987  -999.250000 1.5041185617
 2609.2377930  -999.250000 13.741999626  -999.250000 0.0080000004  -999.250000 2.4489998817 54.089393616 105.99900055 1.4639999866 38.605041504  -999.250000 1.5781778097
 2609.3903809  -999.250000 13.718998909  -999.250000 -0.002000000  -999.250000 2.4509999752 52.653446198 105.36419678 1.4950000048 37.997604370  -999.250000 1.6893936396
 2609.5427246  -999.250000 13.687999725  -999.250000 0.0000000000  -999.250000 2.4670000076 52.132503510 101.99769592 1.5030000210 38.120201111  -999.250000 1.8121539354
 2609.6950684  -999.250000 13.671999931  -999.250000 -0.003000000  -999.250000 2.4730000496 53.684291840 100.56530762 1.5049999952 37.746952057  -999.250000 1.9079807997
 2609.8474121  -999.250000 13.711000443  -999.250000 0.0250000004  -999.250000 2.5020000935 52.542819977 102.00090027 1.5140000582 37.732799530  -999.250000 1.8957164288
 2610.0000000  -999.250000 13.671999931  -999.250000 0.0179999992  -999.250000 2.4749999046 56.229217529 102.57140350 1.5130000114 37.981395721  -999.250000 1.7185199261
 2610.1523438  -999.250000 13.711000443  -999.250000 0.0299999993  -999.250000 2.4730000496 58.355251312 105.19210052 1.4980000257 37.858798981  -999.250000 1.5689166784
 2610.3046875  -999.250000 13.741999626  -999.250000 -0.005000000  -999.250000 2.4219999313 60.696414948 107.74909973 1.4789999723 38.232048035  -999.250000 1.5170335770
 2610.4570313  -999.250000 13.741999626  -999.250000 -0.007000000  -999.250000 2.4100000858 63.322216034 107.18730164 1.4459999800 38.248203278  -999.250000 1.5380223989
 2610.6093750  -999.250000 13.741999626  -999.250000 -0.005000000  -999.250000 2.4100000858 66.195411682 106.75069427 1.4090000391 38.623256683  -999.250000 1.5520080328
