# LAS format log file from PETREL
# Project units are specified as depth units
#==================================================================
~Version information
VERS.   2.0:
WRAP.   NO:
#==================================================================
~Well
STRT .m      913.63586426 :
STOP .m      4531.7631836 :
STEP .m     0.00000000 :
NULL .        -999.250000 :
COMP.           : COMPANY
WELL.  33/5-2   : WELL
FLD.            : FIELD
LOC.            : LOCATION
SRVC.           : SERVICE COMPANY
DATE.  2018-09-11 14:48:41   : Log Export Date {yyyy-MM-dd HH:mm:ss}
PROV.           : PROVINCE
UWI.   33/5-2   : UNIQUE WELL ID
API.            : API NUMBER
#==================================================================
~Curve
DEPT .m                   : DEPTH
Lithology_geolink ._      : Lithology_geolink
CALI .in                  : CALI
BS .in                    : BS
DRHO .g/cm3               : DRHO
NPHI .m3/m3               : NPHI
RHOB .g/cm3               : RHOB
GR .gAPI                  : GR
DTC .us/ft                : DTC
RDEP .ohm.m               : RDEP
SP .mV                    : SP
RSHA .ohm.m               : RSHA
RMED .ohm.m               : RMED
~Parameter
#==================================================================
~Ascii
# ...
 3561.7373047  -999.250000 12.086001396 12.250000954 0.0230992008  -999.250000 2.4820833206 67.313003540 94.189201355 1.5619903803 68.198997498  -999.250000 1.9019807577
 3561.8898926  -999.250000 12.086001396 12.250000954 0.0110192308  -999.250000 2.4800031185 71.875000000 93.564002991 1.5590047836 68.213996887  -999.250000 1.9329502583
 3562.0422363  -999.250000 12.086001396 12.250000954 0.0489391014  -999.250000 2.5269246101 70.875000000 93.563003540 1.5609967709 67.941001892  -999.250000 1.9489743710
 3562.1945801  -999.250000 12.086001396 12.250000954 0.0669711530  -999.250000 2.5409774780 66.250000000 93.563003540 1.5619984865 68.698997498  -999.250000 1.9400144815
 3562.3469238  -999.250000 12.125000000 12.250000954 0.0759712011  -999.250000 2.5310318470 66.563003540 93.749404907 1.5659872293 68.707000732  -999.250000 1.9180704355
 3562.4995117  -999.250000 12.102000237 12.250000954 0.0570304506  -999.250000 2.5180206299 66.625000000 93.999595642 1.5669984818 67.722000122  -999.250000 1.9070175886
 3562.6518555  -999.250000 12.102000237 12.250000954 0.0390288457  -999.250000 2.4900448322 71.313003540 93.750404358 1.5670000315 67.698997498  -999.250000 1.9079984426
 3562.8041992  -999.250000 12.086001396 12.250000954 0.0399983972  -999.250000 2.5019807816 72.438003540 94.374008179 1.5650032759 67.957000732  -999.250000 1.9229758978
 3562.9565430  -999.250000 12.102000237 12.250000954 0.0380032025  -999.250000 2.4940128326 70.188003540 94.375007629 1.5659984350 67.722000122  -999.250000 1.9220016003
 3563.1088867  -999.250000 12.086001396 12.250000954 0.0539488010  -999.250000 2.4999806881 69.750000000 94.001197815 1.5659999847 67.480003357  -999.250000 1.9170160294
 3563.2614746  -999.250000 12.086001396 12.250000954 0.0540000014  -999.250000 2.4900159836 71.563003540 93.750404358 1.5689952374 66.746002197  -999.250000 1.9259855747
 3563.4138184  -999.250000 12.086001396 12.250000954 0.0490080118  -999.250000 2.4800000191 76.375000000 93.750000000 1.5719952583 67.480003357  -999.250000 1.9349855185
 3563.5661621  -999.250000 12.086001396 12.250000954 0.0519951917  -999.250000 2.4860000610 78.500000000 93.999595642 1.5749952793 68.213996887  -999.250000 1.9389935732
 3563.7185059  -999.250000 12.086001396 12.250000954 0.0430288017  -999.250000 2.4730000496 76.688003540 94.187400818 1.5779902935 69.191001892  -999.250000 1.9350126982
 3563.8710938  -999.250000 12.078000069 12.250000954 0.0659631416  -999.250000 2.5160000324 68.813003540 94.374710083 1.5760031939 67.948997498  -999.250000 1.9320048094
 3564.0234375  -999.250000 12.062998772 12.250000954 0.0480288453  -999.250000 2.5020000935 63.530998230 94.375007629 1.5779967308 68.457000732  -999.250000 1.9359935522
 3564.1757813  -999.250000 12.062998772 12.250000954 0.0749567375  -999.250000 2.5490000248 63.937999725 94.562705994 1.5799968243 68.432998657  -999.250000 1.9379967451
 3564.3281250  -999.250000 12.039000511 12.250000954 0.0600479990  -999.250000 2.5309998989 69.750000000 94.001800537 1.5809967518 67.441001892  -999.250000 1.9320192337
 3564.4807129  -999.250000 12.062998772 12.250000954 0.0709823743  -999.250000 2.5409998894 74.188003540 93.001594543 1.5809999704 68.166999817  -999.250000 1.9230144024
 3564.6330566  -999.250000 12.015999794 12.250000954 0.0230769236  -999.250000 2.4800000191 74.688003540 93.374397278 1.5839952230 69.636001587  -999.250000 1.9279919863
 3564.7854004  -999.250000 12.015999794 12.250000954 0.0279919878  -999.250000 2.4790000916 70.313003540 93.375000000 1.5859967470 69.886001587  -999.250000 1.9339903593
 3564.9377441  -999.250000 12.015999794 12.250000954 0.0150208334  -999.250000 2.4649999142 64.188003540 93.749397278 1.5830047131 69.355003357  -999.250000 1.9419871569
 3565.0900879  -999.250000 12.015999794 12.250000954 0.0419135988  -999.250000 2.4939999580 58.312999725 94.996002197 1.5810064077 68.347000122  -999.250000 1.9459872246
 3565.2426758  -999.250000 12.055000305 12.250000954 0.0449951924  -999.250000 2.5020000935 55.780998230 94.376007080 1.5780047178 68.416999817  -999.250000 1.9549856186
 3565.3950195  -999.250000 12.086001396 12.250000954 0.0689615384  -999.250000 2.5350000858 60.250000000 94.000602722 1.5720096827 68.925003052  -999.250000 1.9550000429
 3565.5473633  -999.250000 12.086001396 12.250000954 0.0600144230  -999.250000 2.5250000954 70.875000000 94.374404907 1.5710015297 69.682998657  -999.250000 1.9360303879
 3565.6997070  -999.250000 12.102000237 12.250000954 0.0510287993  -999.250000 2.5060000420 76.125000000 94.188598633 1.5709999800 69.441001892  -999.250000 1.9140704870
 3565.8522949  -999.250000 12.062998772 12.250000954 0.0460080132  -999.250000 2.4839999676 75.063003540 94.000297546 1.5709999800 69.410003662  -999.250000 1.8940321207
 3566.0046387  -999.250000 12.055000305 12.250000954 0.0549855754  -999.250000 2.4900000095 70.875000000 95.186088562 1.5670064688 67.916999817  -999.250000 1.8880096674
 3566.1569824  -999.250000 11.937999725 12.250000954 0.0589935891  -999.250000 2.5269999504 69.250000000 94.564002991 1.5630064011 69.175003052  -999.250000 1.9049726725
 3566.3093262  -999.250000 12.421999931 12.250000954 0.0400607996  -999.250000 2.5590000153 70.438003540 94.749404907 1.5560224056 68.925003052  -999.250000 1.9319136143
 3566.4619141  -999.250000 12.421999931 12.250000954 0.0260224361  -999.250000 2.5840001106 67.563003540 94.563301086 1.5520064831 68.432998657  -999.250000 1.9349951744
 3566.6142578  -999.250000 12.453000069 12.250000954 -0.000956731  -999.250000 2.5529999733 63.530998230 93.751304626 1.5500031710 68.448997498  -999.250000 1.9280111790
 3566.7666016  -999.250000 12.437999725 12.250000954 -0.001998398  -999.250000 2.5469999313 65.375000000 93.563301086 1.5509984493 68.457000732  -999.250000 1.9050368071
 3566.9189453  -999.250000 12.453000069 12.250000954 -0.018972756  -999.250000 2.5230000019 65.188003540 94.373703003 1.5529967546 68.213996887  -999.250000 1.8930191994
 3567.0715332  -999.250000 12.453000069 12.250000954 -0.011012800  -999.250000 2.5450000763 75.438003540 94.375007629 1.5510032177 68.730003357  -999.250000 1.8780239820
 3567.2238770  -999.250000 12.453000069 12.250000954 -0.009003204  -999.250000 2.5590000153 70.063003540 94.375007629 1.5500015020 68.957000732  -999.250000 1.8819935322
 3567.3762207  -999.250000 12.453000069 12.250000954 -0.008001603  -999.250000 2.5940001011 71.500000000 94.000602722 1.5440096855 69.472000122  -999.250000 1.9049631357
 3567.5285645  -999.250000 12.453000069 12.250000954 -0.010995192  -999.250000 2.5959999561 72.313003540 94.000000000 1.5410047770 68.698997498  -999.250000 1.9229711294
 3567.6809082  -999.250000 12.484000206 12.250000954 -0.009006400  -999.250000 2.5840001106 77.813003540 93.190605164 1.5400031805 68.963996887  -999.250000 1.9220032692
 3567.8334961  -999.250000 12.484000206 12.250000954 -0.000014423  -999.250000 2.5659999847 76.250000000 93.188003540 1.5429952145 68.191001892  -999.250000 1.9020320177
 3567.9858398  -999.250000 12.484000206 12.250000954 -0.006988782  -999.250000 2.5450000763 72.563003540 93.998695374 1.5439984798 69.448997498  -999.250000 1.8840287924
 3568.1381836  -999.250000 12.477000237 12.250000954 -0.016983975  -999.250000 2.5469999313 71.500000000 94.748794556 1.5489920378 69.457000732  -999.250000 1.8690240383
 3568.2905273  -999.250000 12.477000237 12.250000954 -0.015006400  -999.250000 2.5550000668 75.806892395 94.376205444 1.5490000248 68.932998657  -999.250000 1.8689999580
 3568.4431152  -999.250000 12.477000237 12.250000954 -0.002020833  -999.250000 2.5659999847 71.994796753 94.375007629 1.5490000248 69.691001892  -999.250000 1.8909647465
 3568.5954590  -999.250000 12.522998810 12.250000954 0.0019935898  -999.250000 2.5510001183 70.371192932 94.000602722 1.5480015278 69.448997498  -999.250000 1.9379246235
 3568.7478027  -999.250000 12.522998810 12.250000954 -0.005987179  -999.250000 2.5290000439 68.000801086 94.374404907 1.5470016003 68.963996887  -999.250000 1.9509791136
 3568.9001465  -999.250000 12.522998810 12.250000954 -0.013974400  -999.250000 2.5250000954 68.497398376 94.001197815 1.5489935875 69.722000122  -999.250000 1.9400352240
