# LAS format log file from PETREL
# Project units are specified as depth units
#==================================================================
~Version information
VERS.   2.0:
WRAP.   NO:
#==================================================================
~Well
STRT .m      913.63586426 :
STOP .m      4531.7631836 :
STEP .m     0.00000000 :
NULL .        -999.250000 :
COMP.           : COMPANY
WELL.  33/5-2   : WELL
FLD.            : FIELD
LOC.            : LOCATION
SRVC.           : SERVICE COMPANY
DATE.  2018-09-11 14:48:41   : Log Export Date {yyyy-MM-dd HH:mm:ss}
PROV.           : PROVINCE
UWI.   33/5-2   : UNIQUE WELL ID
API.            : API NUMBER
#==================================================================
~Curve
DEPT .m                   : DEPTH
Lithology_geolink ._      : Lithology_geolink
CALI .in                  : CALI
BS .in                    : BS
DRHO .g/cm3               : DRHO
NPHI .m3/m3               : NPHI
RHOB .g/cm3               : RHOB
GR .gAPI                  : GR
DTC .us/ft                : DTC
RDEP .ohm.m               : RDEP
SP .mV                    : SP
RSHA .ohm.m               : RSHA
RMED .ohm.m               : RMED
~Parameter
#==================================================================
~Ascii
# ...
 4044.5407715 16.000000000 9.0520000458 8.5000000000 0.0120000001 0.3328809440 2.8489999771 79.422996521 71.750000000 6.4299116135 64.666397095 8.3540000916 11.069999695
 4044.6931152 6.0000000000 9.1020002365 8.5000000000 0.0350000001 0.3269128799 2.7960000038 94.393630981 73.375000000 6.3671011925 62.922401428 7.4739999771 8.7810001373
 4044.8454590 6.0000000000 9.1540002823 8.5000000000 0.0140000004 0.3099932671 2.6710000038 105.99909973 79.375007629 6.3440365791 63.171794891 534.94799805 7.6090002060
 4044.9978027 6.0000000000 9.2089996338 8.5000000000 -0.003000000 0.2933196723 2.6170001030 105.43910217 82.999992371 6.3091120720 63.046398163 1395.4899902 7.0040001869
 4045.1503906 6.0000000000 9.2229995728 8.5000000000 -0.002000000 0.2868845165 2.6189999580 106.13359833 83.375000000 6.1522517204 62.672004700 54.034999847 6.6409997940
 4045.3027344 6.0000000000 9.2229995728 8.5000000000 0.0030000000 0.2883079350 2.6219999790 108.80809784 82.188003540 5.8634629250 62.672206879 10.956000328 6.9689998627
 4045.4550781 6.0000000000 9.1929998398 8.5000000000 0.0089999996 0.2932462096 2.6240000725 105.74739838 82.188003540 5.7851247787 62.798202515 8.1070003510 7.7230000496
 4045.6071777 6.0000000000 9.1689996719 8.5000000000 0.0139919873 0.2971200049 2.6339840889 104.12500000 82.562400818 5.9375100136 63.547000885 10.221606255 8.5297050476
 4045.7595215 6.0000000000 9.1560001373 8.5000000000 0.0249823723 0.2982200086 2.6599583626 95.438003540 82.375297546 6.0504579544 63.922004700 11.082623482 8.9373474121
 4045.9118652 6.0000000000 9.1689996719 8.5000000000 0.0259968005 0.2949799895 2.6759488583 100.81300354 82.001197815 6.2221732140 65.046997070 10.284565926 8.9529523849
 4046.0644531 6.0000000000 9.1859998703 8.5000000000 0.0299935900 0.2797600031 2.6859841347 96.813003540 81.750396729 6.4094004631 63.922004700 9.9505319595 8.6564760208
 4046.2167969 6.0000000000 9.2159996033 8.5000000000 0.0220128205 0.2598399818 2.6730208397 100.56300354 81.563308716 6.3711247444 63.797004700 10.375317574 8.5471744537
 4046.3691406 6.0000000000 9.2569999695 8.5000000000 0.0200032052 0.2516900003 2.6710031033 104.68800354 81.563011169 6.3053164482 64.171997070 9.3446559906 8.7806253433
 4046.5214844 6.0000000000 9.2959995270 8.5000000000 0.0140192006 0.2591799796 2.6630256176 106.75000000 81.563011169 6.2542452812 64.296997070 9.9032011032 8.8906478882
 4046.6740723 6.0000000000 9.3050003052 8.5000000000 0.0120032048 0.2645199895 2.6610031128 103.37500000 81.375297546 6.1991763115 62.922000885 9.2520484924 8.5635251999
 4046.8264160 6.0000000000 9.3140001297 8.5000000000 0.0120000001 0.2582799792 2.6540112495 96.188003540 82.186698914 6.1641120911 62.922000885 10.537934303 8.1886005402
 4046.9787598 6.0000000000 9.3269996643 8.5000000000 0.0100032045 0.2582100034 2.6460127831 95.500000000 82.188003540 6.1291680336 63.422000885 10.526022911 7.9024581909
 4047.1311035 6.0000000000 9.3409996033 8.5000000000 0.0040192003 0.2714399993 2.6260638237 98.188003540 82.997390747 6.0862069130 63.297004700 6.9883570671 7.8481726646
 4047.2836914 6.0000000000 9.3549995422 8.5000000000 0.0040000002 0.2848899961 2.6259999275 106.06300354 82.999992371 6.0431380272 63.547000885 6.8292369843 7.9408507347
 4047.4360352 6.0000000000 9.3610000610 8.5000000000 0.0030016026 0.2914899886 2.6299936771 101.75000000 82.750404358 5.9303622246 64.671997070 7.9971251488 8.1406793594
 4047.5883789 6.0000000000 9.3640003204 8.5000000000 0.0000048077 0.2908999920 2.6369888783 100.43800354 82.375602722 5.7974262238 64.796997070 9.6743106842 8.0391626358
 4047.7407227 6.0000000000 9.3669996262 8.5000000000 -0.003993590 0.2737700045 2.6340048313 97.063003540 82.188301086 5.6954898834 64.296997070 9.0010852814 7.6336503029
 4047.8930664 6.0000000000 9.3710002899 8.5000000000 -0.003003200 0.2484499961 2.6349968910 104.06300354 81.565010071 5.5516924858 65.421997070 7.4609408379 7.1385874748
 4048.0456543 6.0000000000 9.3739995956 8.5000000000 -0.001003205 0.2416699976 2.6300082207 112.18800354 81.999298096 5.3835382462 65.671997070 9.1882190704 6.8874006271
 4048.1979980 6.0000000000 9.3769998550 8.5000000000 0.0009967949 0.2534300089 2.6359903812 111.93800354 82.000000000 5.2504262924 65.046997070 9.8339681625 6.6094455719
 4048.3503418 6.0000000000 9.3800001144 8.5000000000 0.0039951927 0.2692399919 2.6429886818 111.50000000 82.998390198 5.1056962013 65.421997070 8.6389198303 6.4103188515
 4048.5026855 6.0000000000 9.3879995346 8.5000000000 0.0159616005 0.2765499949 2.6719071865 106.87500000 83.373802185 4.8920288086 67.296997070 7.8455405235 6.3751120567
 4048.6552734 6.0000000000 9.4010000229 8.5000000000 0.0239871796 0.2755999863 2.6829824448 107.56300354 83.188301086 4.6527657509 67.796997070 7.8240303993 6.2541942596
 4048.8076172 6.0000000000 9.4130001068 8.5000000000 0.0130176283 0.2736999989 2.6570417881 113.62500000 83.188003540 4.5004873276 64.921997070 7.2089872360 5.8526444435
 4048.9599609 7.0000000000 9.4250001907 8.5000000000 0.0010192308 0.2760300040 2.6250512600 116.62500000 83.562400818 4.4492444992 61.172000885 6.7297677994 5.3797583580
 4049.1123047 7.0000000000 9.4320001602 8.5000000000 -0.006974400 0.2807099819 2.6130383015 117.93800354 83.563003540 4.3246006966 62.672004700 5.6733889580 5.0640115738
 4049.2648926 7.0000000000 9.4379997253 8.5000000000 -0.012990385 0.2857799828 2.6050128937 109.75000000 84.373703003 4.1455736160 64.296997070 5.0360174179 4.9491825104
 4049.4172363 7.0000000000 9.4449996948 8.5000000000 -0.009006410 0.2850099802 2.6089935303 116.68800354 86.185096741 4.1170897484 65.421997070 3.6152787209 4.8012371063
 4049.5695801 7.0000000000 9.4519996643 8.5000000000 -0.002011218 0.2760500014 2.6080017090 119.56300354 86.749092102 4.0043625832 64.296997070 4.5315256119 4.6801939011
 4049.7219238 7.0000000000 9.4580001831 8.5000000000 0.0079839751 0.2665300071 2.6070017815 122.00000000 87.997985840 3.8815903664 65.046997070 5.6302385330 4.6021251678
 4049.8742676 6.0000000000 9.4650001526 8.5000000000 0.0010224001 0.2696599960 2.5870637894 110.93800354 88.747596741 3.9954471588 65.171997070 5.8931617737 4.5551500320
 4050.0268555 6.0000000000 9.4709997177 8.5000000000 -0.003991988 0.2966299951 2.5810096264 104.62500000 89.374008179 4.1126251221 64.921997070 6.0487513542 4.7616682053
 4050.1791992 6.0000000000 9.4770002365 8.5000000000 0.0009919872 0.3231100142 2.6059598923 98.125000000 89.749397278 4.0860862732 65.296997070 6.0839438438 4.8748188019
 4050.3315430 6.0000000000 9.4820003510 8.5000000000 0.0239631403 0.3311000168 2.6519262791 101.06300354 90.187294006 4.0233020782 65.546997070 5.9681859016 5.0387372971
 4050.4838867 6.0000000000 9.4879999161 8.5000000000 0.0269904006 0.3249999881 2.6559870243 105.62500000 89.191200256 3.9085528851 65.546997070 5.7287683487 4.8406367302
 4050.6364746 6.0000000000 9.4930000305 8.5000000000 0.0210096147 0.3132199943 2.6430206299 119.56300354 88.750701904 3.7564871311 66.796997070 5.6631040573 4.5275015831
 4050.7888184 6.0000000000 9.4989995956 8.5000000000 0.0170064103 0.2987200022 2.6390063763 125.50000000 88.750000000 3.6742627621 66.421997070 5.6420340538 4.3552756310
 4050.9411621 7.0000000000 9.5039997101 8.5000000000 0.0179983974 0.2799099982 2.6409969330 123.87500000 88.563301086 3.7575967312 66.796997070 4.8672437668 4.0824375153
 4051.0935059 7.0000000000 9.5100002289 8.5000000000 0.0150095997 0.2727199793 2.6449871063 115.25000000 88.001792908 3.7361059189 66.421997070 4.3975038528 3.8676881790
 4051.2460938 7.0000000000 9.5190000534 8.5000000000 0.0080112182 0.2761999965 2.6400082111 111.06300354 87.001602173 3.6432979107 63.922004700 5.0469551086 3.5005881786
 4051.3984375 7.0000000000 9.5279998779 8.5000000000 0.0080000004 0.2795200050 2.6429951191 118.31300354 87.562103271 3.6758942604 63.047000885 5.5222387314 3.2933316231
 4051.5507813 7.0000000000 9.5369997025 8.5000000000 0.0149887819 0.2806699872 2.6459951401 126.50000000 85.191802979 3.7288303375 63.171997070 3.8177373409 3.5425994396
 4051.7031250 7.0000000000 9.5469999313 8.5000000000 0.0169967953 0.2866300046 2.6400096416 120.93800354 86.373100281 3.5110511780 63.422000885 4.5637979507 4.0731487274
