# LAS format log file from PETREL
# Project units are specified as depth units
#==================================================================
~Version information
VERS.   2.0:
WRAP.   NO:
#==================================================================
~Well
STRT .m      913.63586426 :
STOP .m      4531.7631836 :
STEP .m     0.00000000 :
NULL .        -999.250000 :
COMP.           : COMPANY
WELL.  33/5-2   : WELL
FLD.            : FIELD
LOC.            : LOCATION
SRVC.           : SERVICE COMPANY
DATE.  2018-09-11 14:48:41   : Log Export Date {yyyy-MM-dd HH:mm:ss}
PROV.           : PROVINCE
UWI.   33/5-2   : UNIQUE WELL ID
API.            : API NUMBER
#==================================================================
~Curve
DEPT .m                   : DEPTH
Lithology_geolink ._      : Lithology_geolink
CALI .in                  : CALI
BS .in                    : BS
DRHO .g/cm3               : DRHO
NPHI .m3/m3               : NPHI
RHOB .g/cm3               : RHOB
GR .gAPI                  : GR
DTC .us/ft                : DTC
RDEP .ohm.m               : RDEP
SP .mV                    : SP
RSHA .ohm.m               : RSHA
RMED .ohm.m               : RMED
~Parameter
#==================================================================
~Ascii
# ...
 1155.0373535  -999.250000 18.718999863  -999.250000  -999.250000  -999.250000 2.0720000267 67.825996399 162.37057495 1.0279999971 34.045608521  -999.250000 0.9199230671
 1155.1898193  -999.250000 18.687999725  -999.250000  -999.250000  -999.250000 2.0720000267 70.815650940 160.99798584 0.9899935722 33.200988770  -999.250000 0.8959199786
 1155.3421631  -999.250000 18.656000137  -999.250000  -999.250000  -999.250000 2.0780000687 72.218521118 160.49839783 0.9819911718 32.946483612  -999.250000 0.8761025667
 1155.4946289  -999.250000 18.608999252  -999.250000  -999.250000  -999.250000 2.0820000172 71.591934204 160.00601196 0.9709911942 32.072486877  -999.250000 0.9079159498
 1155.6469727  -999.250000 17.937999725  -999.250000  -999.250000  -999.250000 2.0899999142 69.322769165 161.50401306 0.9600071907 32.442478180  -999.250000 0.8870384693
 1155.7993164  -999.250000 17.733999252  -999.250000  -999.250000  -999.250000 2.0820000172 65.523132324 162.74879456 0.9689999819 32.559387207  -999.250000 0.8988943100
 1155.9517822  -999.250000 17.827999115  -999.250000  -999.250000  -999.250000 2.0820000172 62.143589020 162.37939453 0.9920032024 32.060123444  -999.250000 0.8660288453
 1156.1041260  -999.250000 17.437999725  -999.250000  -999.250000  -999.250000 2.0799999237 62.047988892 163.74281311 0.9959999919 32.835391998  -999.250000 0.8750384450
 1156.2565918  -999.250000 17.562999725  -999.250000  -999.250000  -999.250000 2.0859999657 64.227401733 161.49319458 0.9809992313 32.336494446  -999.250000 0.8870897889
 1156.4089355  -999.250000 17.843999863  -999.250000  -999.250000  -999.250000 2.0820000172 65.822685242 159.37059021 0.9800000191 32.707485199  -999.250000 0.9150576591
 1156.5614014  -999.250000 17.702999115  -999.250000  -999.250000  -999.250000 2.0739998817 66.743698120 157.98838806 0.9639943838 32.580493927  -999.250000 0.9329807758
 1156.7137451  -999.250000 18.343999863  -999.250000  -999.250000  -999.250000 2.0699999332 67.665473938 154.38140869 0.9570000172 32.952484131  -999.250000 0.9269967675
 1156.8662109  -999.250000 17.827999115  -999.250000  -999.250000  -999.250000 2.0569999218 68.279037476 156.37800598 0.9740023613 33.069480896  -999.250000 0.9259199500
 1157.0185547  -999.250000 17.406000137  -999.250000  -999.250000  -999.250000 2.0369999409 67.783668518 157.12300110 0.9769999981 32.198486328  -999.250000 0.9059487581
 1157.1710205  -999.250000 17.733999252  -999.250000  -999.250000  -999.250000 2.0079998970 65.950477600 156.49299622 0.9640208483 33.315483093  -999.250000 0.8898758888
 1157.3233643  -999.250000 18.077999115  -999.250000  -999.250000  -999.250000 2.0099999905 63.827838898 154.72756958 0.9900200367 33.436969757  -999.250000 0.8590320945
 1157.4758301  -999.250000 18.437999725  -999.250000  -999.250000  -999.250000 2.0250000954 62.797584534 147.71147156 1.0149903297 33.675983429  -999.250000 0.8690240383
 1157.6281738  -999.250000 18.031000137  -999.250000  -999.250000  -999.250000 2.0629999638 64.202186584 138.10856628 1.0029864311 33.172969818  -999.250000 0.8751410246
 1157.7805176  -999.250000 17.358999252  -999.250000  -999.250000  -999.250000 2.0780000687 68.244117737 133.04843140 0.9860000014 32.918575287  -999.250000 0.9189839959
 1157.9329834  -999.250000 17.937999725  -999.250000  -999.250000  -999.250000 2.0639998913 72.642662048 148.11018372 0.9959871769 33.408451080  -999.250000 0.9139615297
 1158.0853271  -999.250000 18.093999863  -999.250000  -999.250000  -999.250000 2.0490000248 75.039710999 143.50280762 0.9800000191 33.272773743  -999.250000 0.9020063877
 1158.2377930  -999.250000 19.031000137  -999.250000  -999.250000  -999.250000 2.0490000248 73.376586914 144.38340759 0.9870144129 33.512592316  -999.250000 0.9040384293
 1158.3901367  -999.250000 17.983999252  -999.250000  -999.250000  -999.250000 2.0529999733 68.536621094 147.01440430 1.0049999952 33.163452148  -999.250000 0.9160160422
 1158.5426025  -999.250000 18.187999725  -999.250000  -999.250000  -999.250000 2.0269999504 65.212898254 151.50921631 1.0349831581 33.274608612  -999.250000 0.9209839702
 1158.6949463  -999.250000 18.358999252  -999.250000  -999.250000  -999.250000 2.0120000839 66.447982788 154.39784241 1.0140000582 32.925979614  -999.250000 0.9159134626
 1158.8474121  -999.250000 18.608999252  -999.250000  -999.250000  -999.250000 2.0120000839 70.686264038 161.50750732 1.0349727869 32.425621033  -999.250000 0.8890240192
 1158.9997559  -999.250000 18.577999115  -999.250000  -999.250000  -999.250000 2.0209999084 73.986625671 163.37860107 1.0010000467 33.076484680  -999.250000 0.8949230313
 1159.1522217  -999.250000 18.656000137  -999.250000  -999.250000  -999.250000 2.0230000019 74.630706787 164.50350952 0.9439839721 32.946483612  -999.250000 0.8711320758
 1159.3045654  -999.250000 18.733999252  -999.250000  -999.250000  -999.250000 2.0230000019 72.554382324 165.37820435 0.9240000248 32.570484161  -999.250000 0.9038429260
 1159.4570313  -999.250000 18.858999252  -999.250000  -999.250000  -999.250000 2.0230000019 68.903442383 166.37100220 0.9679823518 32.937973022  -999.250000 0.8551721573
 1159.6093750  -999.250000 19.202999115  -999.250000  -999.250000  -999.250000 2.0209999084 65.523010254 165.36418152 0.9460176229 32.435474396  -999.250000 0.8978846073
 1159.7618408  -999.250000 19.141000748  -999.250000  -999.250000  -999.250000 2.0309998989 63.032169342 161.99099731 0.9680088162 32.800476074  -999.250000 0.8622561693
 1159.9141846  -999.250000 20.327999115  -999.250000  -999.250000  -999.250000 2.0469999313 61.586956024 159.74879456 0.9789727330 32.172969818  -999.250000 0.9258493781
 1160.0665283  -999.250000 19.358999252  -999.250000  -999.250000  -999.250000 2.0659999847 62.583908081 159.36779785 0.9449999928 32.165775299  -999.250000 0.8791441321
 1160.2189941  -999.250000 20.000000000  -999.250000  -999.250000  -999.250000 2.0610001087 66.615226746 157.13101196 0.9170280099 32.405960083  -999.250000 0.9238205552
 1160.3713379  -999.250000 20.233997345  -999.250000  -999.250000  -999.250000 2.0739998817 70.903839111 159.00360107 0.9520000219 32.149105072  -999.250000 0.8680415750
 1160.5238037  -999.250000 20.906000137  -999.250000  -999.250000  -999.250000 2.0699999332 72.598983765 160.13221741 0.9570240378 32.674964905  -999.250000 0.8809422851
 1160.6761475  -999.250000 20.969001770  -999.250000  -999.250000  -999.250000 2.0859999657 71.094200134 162.36978149 0.9869999886 33.164966583  -999.250000 0.8631057739
 1160.8286133  -999.250000 20.266000748  -999.250000  -999.250000  -999.250000 2.0780000687 69.156532288 160.73649597 1.0150215626 33.649959564  -999.250000 0.8959760070
 1160.9809570  -999.250000 20.406000137  -999.250000  -999.250000  -999.250000 2.0940001011 69.543312073 157.36978149 1.0420000553 32.397094727  -999.250000 0.8901281953
 1161.1334229  -999.250000 20.750000000  -999.250000  -999.250000  -999.250000 2.1019999981 71.113327026 155.75149536 1.0210080147 32.421115875  -999.250000 0.9300000072
 1161.2857666  -999.250000 20.843999863  -999.250000  -999.250000  -999.250000 2.1210000515 71.184020996 156.10375977 1.0310000181 32.447982788  -999.250000 0.9299551249
 1161.4382324  -999.250000 19.922000885  -999.250000  -999.250000  -999.250000 2.1129999161 68.693420410 149.45996094 1.0630328655 31.948486328  -999.250000 0.9159960151
 1161.5905762  -999.250000 20.687999725  -999.250000  -999.250000  -999.250000 2.1070001125 66.563194275 139.48797607 1.1040167809 32.565975189  -999.250000 0.9151442647
 1161.7430420  -999.250000 20.733999252  -999.250000  -999.250000  -999.250000 2.0840001106 67.615699768 135.75300598 1.1250344515 32.311126709  -999.250000 0.9601560831
 1161.8953857  -999.250000 20.108999252  -999.250000  -999.250000  -999.250000 2.0799999237 69.780960083 136.50199890 1.1680239439 32.340488434  -999.250000 0.9992948771
 1162.0477295  -999.250000 20.547000885  -999.250000  -999.250000  -999.250000 2.0739998817 70.511672974 137.12379456 1.1979999542 31.964998245  -999.250000 1.0912369490
 1162.2001953  -999.250000 20.093999863  -999.250000  -999.250000  -999.250000 2.0699999332 68.845260620 136.80688477 1.1719728708 31.966995239  -999.250000 1.1653717756
