# LAS format log file from PETREL
# Project units are specified as depth units
#==================================================================
~Version information
VERS.   2.0:
WRAP.   NO:
#==================================================================
~Well
STRT .m      913.63586426 :
STOP .m      4531.7631836 :
STEP .m     0.00000000 :
NULL .        -999.250000 :
COMP.           : COMPANY
WELL.  33/5-2   : WELL
FLD.            : FIELD
LOC.            : LOCATION
SRVC.           : SERVICE COMPANY
DATE.  2018-09-11 14:48:41   : Log Export Date {yyyy-MM-dd HH:mm:ss}
PROV.           : PROVINCE
UWI.   33/5-2   : UNIQUE WELL ID
API.            : API NUMBER
#==================================================================
~Curve
DEPT .m                   : DEPTH
Lithology_geolink ._      : Lithology_geolink
CALI .in                  : CALI
BS .in                    : BS
DRHO .g/cm3               : DRHO
NPHI .m3/m3               : NPHI
RHOB .g/cm3               : RHOB
GR .gAPI                  : GR
DTC .us/ft                : DTC
RDEP .ohm.m               : RDEP
SP .mV                    : SP
RSHA .ohm.m               : RSHA
RMED .ohm.m               : RMED
~Parameter
#==================================================================
~Ascii
# ...
 3803.1389160  -999.250000 15.347000122 8.5000000000  -999.250000  -999.250000  -999.250000 61.812999725 92.375999451 2.0118765831 61.422000885  -999.250000 1.9872339964
 3803.2912598  -999.250000 15.484999657 8.5000000000  -999.250000  -999.250000  -999.250000 62.094001770 91.189903259 2.1447868347 62.922000885  -999.250000 2.0628781319
 3803.4436035  -999.250000 15.569001198 8.5000000000  -999.250000  -999.250000  -999.250000 64.313003540 91.000602722 2.0353519917 57.422000885  -999.250000 1.9932240248
 3803.5961914  -999.250000 15.691999435 8.5000000000  -999.250000  -999.250000  -999.250000 66.688003540 93.745590210 1.9950641394 55.422000885  -999.250000 2.0838541985
 3803.7485352  -999.250000 15.882999420 8.5000000000  -999.250000  -999.250000  -999.250000 59.594001770 94.561698914 1.9201201200 55.172000885  -999.250000 2.0939841270
 3803.9008789  -999.250000 16.101999283 8.5000000000  -999.250000  -999.250000  -999.250000 57.219001770 89.571014404 1.8730753660 57.797000885  -999.250000 2.0660448074
 3804.0532227  -999.250000 16.218999863 8.5000000000  -999.250000  -999.250000  -999.250000 50.125000000 91.556610107 1.8042207956 60.672000885  -999.250000 2.0550353527
 3804.2058105  -999.250000 16.357999802 8.5000000000  -999.250000  -999.250000  -999.250000 54.469001770 90.564605713 1.8269631863 60.172000885  -999.250000 1.8054006100
 3804.3581543  -999.250000 16.572000504 8.5000000000  -999.250000  -999.250000  -999.250000 52.937999725 92.996086121 1.8220080137 60.422000885  -999.250000 1.9008461237
 3804.5104980  -999.250000 15.770999908 8.5000000000  -999.250000  -999.250000  -999.250000 53.625000000 91.751998901 1.8010336161 60.422000885  -999.250000 1.8990032673
 3804.6628418  -999.250000 14.576999664 8.5000000000  -999.250000  -999.250000  -999.250000 48.562999725 94.745193481 1.8159759045 59.672000885  -999.250000 1.6593846083
 3804.8151855  -999.250000 14.043999672 8.5000000000  -999.250000  -999.250000  -999.250000 43.500000000 93.005592346 1.7910799980 60.047000885  -999.250000 1.9779759645
 3804.9677734  -999.250000 14.373999596 8.5000000000  -999.250000  -999.250000  -999.250000 51.280998230 97.742385864 1.7740273476 59.297000885  -999.250000 1.6694967747
 3805.1201172  -999.250000 14.883000374 8.5000000000  -999.250000  -999.250000  -999.250000 56.750000000 91.759605408 1.7879775763 58.672000885  -999.250000 1.6670032740
 3805.2724609  -999.250000 15.567000389 8.5000000000  -999.250000  -999.250000  -999.250000 63.562999725 89.753204346 1.7939903736 57.922000885  -999.250000 1.8087724447
 3805.4248047  -999.250000 16.010999680 8.5000000000  -999.250000  -999.250000  -999.250000 63.062999725 92.366600037 1.8069584370 58.922000885  -999.250000 1.7302528620
 3805.5773926  -999.250000 16.250000000 8.5000000000  -999.250000  -999.250000  -999.250000 57.125000000 93.373397827 1.8309614658 60.422000885  -999.250000 1.9376666546
 3805.7297363  -999.250000 16.396999359 8.5000000000  -999.250000  -999.250000  -999.250000 57.937999725 92.189903259 1.8300015926 60.797000885  -999.250000 2.0697884560
 3805.8820801  -999.250000 16.544000626 8.5000000000  -999.250000  -999.250000  -999.250000 52.750000000 89.567207336 1.8439775705 58.047000885  -999.250000 1.9302242994
 3806.0344238  -999.250000 16.600999832 8.5000000000  -999.250000  -999.250000  -999.250000 56.312999725 94.982604980 1.8798848391 59.297000885  -999.250000 1.8672015667
 3806.1870117  -999.250000 16.652999878 8.5000000000  -999.250000  -999.250000  -999.250000 52.844001770 88.011207581 1.8151042461 62.172000885  -999.250000 1.7861298323
 3806.3393555  -999.250000 16.677000046 8.5000000000  -999.250000  -999.250000  -999.250000 53.000000000 91.557304382 1.7720688581 58.547000885  -999.250000 1.7869983912
 3806.4916992  -999.250000 16.527000427 8.5000000000  -999.250000  -999.250000  -999.250000 54.125000000 92.561401367 1.7939647436 55.922000885  -999.250000 1.7919920683
 3806.6440430  -999.250000 16.188999176 8.5000000000  -999.250000  -999.250000  -999.250000 55.500000000 93.373695374 1.6512291431 56.797000885  -999.250000 1.9148027897
 3806.7963867  -999.250000 15.822999954 8.5000000000  -999.250000  -999.250000  -999.250000 56.844001770 94.994796753 1.6948592663 59.172000885  -999.250000 1.9040352106
 3806.9489746  -999.250000 15.843999863 8.5000000000  -999.250000  -999.250000  -999.250000 58.780998230 88.198921204 1.8138092756 59.297000885  -999.250000 1.9918589592
 3807.1013184  -999.250000 16.179000854 8.5000000000  -999.250000  -999.250000  -999.250000 58.280998230 93.554389954 1.7341281176 56.672000885  -999.250000 1.8052996397
 3807.2536621  -999.250000 16.583000183 8.5000000000  -999.250000  -999.250000  -999.250000 57.625000000 93.375297546 1.6381539106 56.422000885  -999.250000 1.8549199104
 3807.4060059  -999.250000 16.966999054 8.5000000000  -999.250000  -999.250000  -999.250000 55.905998230 95.368598938 1.6689008474 58.172000885  -999.250000 1.7214287519
 3807.5585938  -999.250000 16.893999100 8.5000000000  -999.250000  -999.250000  -999.250000 56.250000000 91.569122314 1.5901266336 58.672000885  -999.250000 1.7639311552
 3807.7109375  -999.250000 16.569000244 8.5000000000  -999.250000  -999.250000  -999.250000 57.375000000 105.54056549 1.5999840498 57.797000885  -999.250000 1.7140800953
 3807.8632813  -999.250000 16.365999222 8.5000000000  -999.250000  -999.250000  -999.250000 57.250000000 92.583839417 1.7078268528 57.297000885  -999.250000 1.6171554327
 3808.0156250  -999.250000 16.315000534 8.5000000000  -999.250000  -999.250000  -999.250000 57.375000000 95.366004944 1.6960383654 56.922000885  -999.250000 1.5671600103
 3808.1682129  -999.250000 16.236999512 8.5000000000  -999.250000  -999.250000  -999.250000 53.469001770 96.997398376 1.6540673971 58.422000885  -999.250000 1.5809775591
 3808.3205566  -999.250000 15.616000175 8.5000000000  -999.250000  -999.250000  -999.250000 54.094001770 93.380805969 1.6999263763 58.672000885  -999.250000 1.7657035589
 3808.4729004  -999.250000 14.258000374 8.5000000000  -999.250000  -999.250000  -999.250000 54.687999725 93.749397278 1.6700479984 57.797000885  -999.250000 1.8838108778
 3808.6252441  -999.250000 12.897000313 8.5000000000  -999.250000  -999.250000  -999.250000 55.000000000 91.004409790 1.6350561380 57.922000885  -999.250000 1.9818429947
 3808.7775879  -999.250000 13.595000267 8.5000000000  -999.250000  -999.250000  -999.250000 55.655998230 93.367401123 1.6868336201 60.422000885  -999.250000 2.0019361973
 3808.9301758  -999.250000 14.329000473 8.5000000000  -999.250000  -999.250000  -999.250000 56.875000000 94.997398376 1.7758574486 59.172000885  -999.250000 2.0039968491
 3809.0825195  -999.250000 14.980999947 8.5000000000  -999.250000  -999.250000  -999.250000 57.437999725 90.756813049 1.7021186352 56.547000885  -999.250000 1.9640641212
 3809.2348633  -999.250000 15.303998947 8.5000000000  -999.250000  -999.250000  -999.250000 54.250000000 99.985176086 1.7219679356 55.297000885  -999.250000 1.9070912600
 3809.3872070  -999.250000 15.171000481 8.5000000000  -999.250000  -999.250000  -999.250000 49.500000000 97.757202148 1.7329648733 54.672000885  -999.250000 1.8501824141
 3809.5397949  -999.250000 15.128000259 8.5000000000  -999.250000  -999.250000  -999.250000 48.312999725 96.751594543 1.7629519701 55.672000885  -999.250000 1.7731233835
 3809.6921387  -999.250000 15.114999771 8.5000000000  -999.250000  -999.250000  -999.250000 45.562999725 96.563308716 1.7649967670 56.922000885  -999.250000 1.7011153698
 3809.8444824  -999.250000 15.114999771 8.5000000000  -999.250000  -999.250000  -999.250000 48.594001770 98.746498108 1.7789776325 56.547000885  -999.250000 1.7359437943
 3809.9968262  -999.250000 15.114999771 8.5000000000  -999.250000  -999.250000  -999.250000 55.094001770 88.781997681 1.7879711390 56.797000885  -999.250000 2.1357169151
 3810.1494141  -999.250000 15.168000221 8.5000000000  -999.250000  -999.250000  -999.250000 59.219001770 89.748397827 1.8139582872 54.922000885  -999.250000 1.9073685408
 3810.3017578  -999.250000 15.300001144 8.5000000000  -999.250000  -999.250000  -999.250000 55.344001770 90.374000549 1.8289759159 53.047000885  -999.250000 1.9858733416
