# LAS format log file from PETREL
# Project units are specified as depth units
#==================================================================
~Version information
VERS.   2.0:
WRAP.   NO:
#==================================================================
~Well
STRT .m      913.63586426 :
STOP .m      4531.7631836 :
STEP .m     0.00000000 :
NULL .        -999.250000 :
COMP.           : COMPANY
WELL.  33/5-2   : WELL
FLD.            : FIELD
LOC.            : LOCATION
SRVC.           : SERVICE COMPANY
DATE.  2018-09-11 14:48:41   : Log Export Date {yyyy-MM-dd HH:mm:ss}
PROV.           : PROVINCE
UWI.   33/5-2   : UNIQUE WELL ID
API.            : API NUMBER
#==================================================================
~Curve
DEPT .m                   : DEPTH
Lithology_geolink ._      : Lithology_geolink
CALI .in                  : CALI
BS .in                    : BS
DRHO .g/cm3               : DRHO
NPHI .m3/m3               : NPHI
RHOB .g/cm3               : RHOB
GR .gAPI                  : GR
DTC .us/ft                : DTC
RDEP .ohm.m               : RDEP
SP .mV                    : SP
RSHA .ohm.m               : RSHA
RMED .ohm.m               : RMED
~Parameter
#==================================================================
~Ascii
# ...
 1396.4389648  -999.250000 16.141000748  -999.250000  -999.250000  -999.250000 1.9539999962 68.143569946 186.36898804 0.7429999709 35.507083893  -999.250000 0.6399967670
 1396.5913086  -999.250000 16.516000748  -999.250000  -999.250000  -999.250000 1.9559999704 69.782798767 184.49969482 0.7570000291 35.772968292  -999.250000 0.6389976144
 1396.7437744  -999.250000 16.516000748  -999.250000  -999.250000  -999.250000 1.9650000334 71.230613708 184.37379456 0.7509999871 35.020458221  -999.250000 0.6380096078
 1396.8961182  -999.250000 16.000000000  -999.250000  -999.250000  -999.250000 1.9830000401 72.634368896 183.99600220 0.7409999967 35.627937317  -999.250000 0.6410256028
 1397.0485840  -999.250000 17.093999863  -999.250000  -999.250000  -999.250000 2.0000000000 74.477668762 182.74919128 0.7390000224 34.867095947  -999.250000 0.6490160227
 1397.2009277  -999.250000 18.031000137  -999.250000  -999.250000  -999.250000 2.0000000000 76.888458252 182.49760437 0.7459999919 35.136436462  -999.250000 0.6539487243
 1397.3533936  -999.250000 16.797000885  -999.250000  -999.250000  -999.250000 1.9910000563 78.746620178 181.74479675 0.7490000129 34.500957489  -999.250000 0.6379839778
 1397.5057373  -999.250000 16.687999725  -999.250000  -999.250000  -999.250000 1.9789999723 79.136482239 180.12300110 0.7580000162 34.987861633  -999.250000 0.6329904199
 1397.6580811  -999.250000 16.968999863  -999.250000  -999.250000  -999.250000 1.9880000353 76.255599976 179.50149536 0.7689999938 35.200798035  -999.250000 0.6300048232
 1397.8105469  -999.250000 16.656000137  -999.250000  -999.250000  -999.250000 1.9950000048 71.453552246 180.12059021 0.7710000277 34.827690125  -999.250000 0.6320704818
 1397.9628906  -999.250000 16.562999725  -999.250000  -999.250000  -999.250000 1.9989999533 68.610511780 178.75181580 0.7670000196 35.000312805  -999.250000 0.6540192366
 1398.1153564  -999.250000 16.593999863  -999.250000  -999.250000  -999.250000 1.9880000353 68.996841431 179.49760437 0.7599999905 35.325401306  -999.250000 0.6619615555
 1398.2677002  -999.250000 16.922000885  -999.250000  -999.250000  -999.250000 1.9880000353 71.452529907 178.75061035 0.7549999952 34.930549622  -999.250000 0.6499927640
 1398.4201660  -999.250000 16.391000748  -999.250000  -999.250000  -999.250000 1.9859999418 73.830108643 179.00120544 0.7440000176 35.562198639  -999.250000 0.6469776034
 1398.5725098  -999.250000 16.452999115  -999.250000  -999.250000  -999.250000 1.9789999723 75.599983215 179.37530518 0.7300000191 34.869865417  -999.250000 0.6399879456
 1398.7249756  -999.250000 16.452999115  -999.250000  -999.250000  -999.250000 1.9700000286 76.085617065 179.49960327 0.7269999981 35.828498840  -999.250000 0.6350224018
 1398.8773193  -999.250000 16.452999115  -999.250000  -999.250000  -999.250000 1.9759999514 74.234596252 179.37500000 0.7289999723 35.203983307  -999.250000 0.6420063972
 1399.0297852  -999.250000 16.608999252  -999.250000  -999.250000  -999.250000 1.9859999418 70.638572693 179.37620544 0.7210000157 34.701484680  -999.250000 0.6439903975
 1399.1821289  -999.250000 16.500000000  -999.250000  -999.250000  -999.250000 1.9889999628 67.545372009 179.75320435 0.7160000205 34.571483612  -999.250000 0.6409935951
 1399.3345947  -999.250000 16.547000885  -999.250000  -999.250000  -999.250000 1.9800000191 66.646957397 180.74879456 0.7220000029 34.194484711  -999.250000 0.6390288472
 1399.4869385  -999.250000 16.577999115  -999.250000  -999.250000  -999.250000 1.9700000286 68.136131287 180.37420654 0.7200000286 34.315624237  -999.250000 0.6480128169
 1399.6392822  -999.250000 16.562999725  -999.250000  -999.250000  -999.250000 1.9620000124 69.908905029 180.12258911 0.7160000205 34.469398499  -999.250000 0.6519663334
 1399.7917480  -999.250000 16.718999863  -999.250000  -999.250000  -999.250000 1.9570000172 69.559432983 179.12139893 0.7179999948 33.973503113  -999.250000 0.6380096078
 1399.9440918  -999.250000 17.000000000  -999.250000  -999.250000  -999.250000 1.9579999447 67.667510986 177.99850464 0.7189999819 34.596401215  -999.250000 0.6410048008
 1400.0965576  -999.250000 16.687999725  -999.250000  -999.250000  -999.250000 1.9670000076 65.019515991 177.37498474 0.7239999771 34.718498230  -999.250000 0.6430352330
 1400.2489014  -999.250000 16.875000000  -999.250000  -999.250000  -999.250000 1.9689999819 63.158409119 177.37678528 0.7409999967 34.097503662  -999.250000 0.6540071964
 1400.4013672  -999.250000 16.656000137  -999.250000  -999.250000  -999.250000 1.9600000381 63.013103485 178.12379456 0.7620000243 34.469497681  -999.250000 0.6570672393
 1400.5537109  -999.250000 16.547000885  -999.250000  -999.250000  -999.250000 1.9559999704 63.538654327 177.75059509 0.7760000229 34.093982697  -999.250000 0.6780384183
 1400.7061768  -999.250000 16.452999115  -999.250000  -999.250000  -999.250000 1.9650000334 64.200462341 177.99600220 0.7910000086 33.593143463  -999.250000 0.6940128207
 1400.8585205  -999.250000 16.266000748  -999.250000  -999.250000  -999.250000 1.9750000238 64.568771362 176.74758911 0.7940000296 33.878025055  -999.250000 0.6979423165
 1401.0109863  -999.250000 16.656000137  -999.250000  -999.250000  -999.250000 1.9780000448 65.514617920 175.75401306 0.7900000215 33.884578705  -999.250000 0.6739551425
 1401.1633301  -999.250000 17.031000137  -999.250000  -999.250000  -999.250000 1.9700000286 67.412429810 176.99920654 0.7789999843 33.779106140  -999.250000 0.6599584222
 1401.3157959  -999.250000 18.062999725  -999.250000  -999.250000  -999.250000 1.9680000544 68.515220642 176.74879456 0.7730000019 33.559486389  -999.250000 0.6470160484
 1401.4681396  -999.250000 16.391000748  -999.250000  -999.250000  -999.250000 1.9650000334 68.323127747 176.37620544 0.7749999762 34.179973602  -999.250000 0.6519871950
 1401.6204834  -999.250000 16.391000748  -999.250000  -999.250000  -999.250000 1.9550000429 68.858192444 176.75059509 0.7820000052 34.671375275  -999.250000 0.6480000019
 1401.7729492  -999.250000 16.687999725  -999.250000  -999.250000  -999.250000 1.9659999609 70.791488647 177.00120544 0.7919999957 34.789608002  -999.250000 0.6480000019
 1401.9252930  -999.250000 16.608999252  -999.250000  -999.250000  -999.250000 1.9720000029 72.405097961 177.37648010 0.8100000024 35.187179565  -999.250000 0.6479951739
 1402.0777588  -999.250000 16.312999725  -999.250000  -999.250000  -999.250000 1.9819999933 72.432594299 177.99800110 0.8180000186 34.313972473  -999.250000 0.6460000277
 1402.2301025  -999.250000 16.358999252  -999.250000  -999.250000  -999.250000 1.9750000238 71.332183838 177.37498474 0.8109999895 35.052986145  -999.250000 0.6460096240
 1402.3825684  -999.250000 16.343999863  -999.250000  -999.250000  -999.250000 1.9709999561 69.879562378 177.37377930 0.8040000200 35.046466827  -999.250000 0.6500095725
 1402.5349121  -999.250000 16.391000748  -999.250000  -999.250000  -999.250000 1.9609999657 68.529022217 177.00000000 0.8029999733 34.416465759  -999.250000 0.6529999971
 1402.6873779  -999.250000 16.391000748  -999.250000  -999.250000  -999.250000 1.9650000334 68.788406372 176.99839783 0.8029999733 34.278457642  -999.250000 0.6529871821
 1402.8397217  -999.250000 16.500000000  -999.250000  -999.250000  -999.250000 1.9750000238 70.131530762 176.50210571 0.7969999909 32.902091980  -999.250000 0.6490023732
 1402.9921875  -999.250000 16.641000748  -999.250000  -999.250000  -999.250000 1.9819999933 69.505180359 177.37698364 0.7839999795 33.172477722  -999.250000 0.6499711275
 1403.1445313  -999.250000 16.968999863  -999.250000  -999.250000  -999.250000 1.9750000238 66.808883667 178.00360107 0.7799999714 32.794960022  -999.250000 0.6409519315
 1403.2969971  -999.250000 17.156000137  -999.250000  -999.250000  -999.250000 1.9529999495 65.039970398 179.12460327 0.7739999890 33.034969330  -999.250000 0.6259359121
 1403.4493408  -999.250000 18.031000137  -999.250000  -999.250000  -999.250000 1.9379999638 65.783546448 179.00480652 0.7730000019 33.277954102  -999.250000 0.6059551835
 1403.6018066  -999.250000 16.952999115  -999.250000  -999.250000  -999.250000 1.9229999781 67.163452148 180.50480652 0.7720000148 33.764095306  -999.250000 0.5919935703
