# LAS format log file from PETREL
# Project units are specified as depth units
#==================================================================
~Version information
VERS.   2.0:
WRAP.   NO:
#==================================================================
~Well
STRT .m      913.63586426 :
STOP .m      4531.7631836 :
STEP .m     0.00000000 :
NULL .        -999.250000 :
COMP.           : COMPANY
WELL.  33/5-2   : WELL
FLD.            : FIELD
LOC.            : LOCATION
SRVC.           : SERVICE COMPANY
DATE.  2018-09-11 14:48:41   : Log Export Date {yyyy-MM-dd HH:mm:ss}
PROV.           : PROVINCE
UWI.   33/5-2   : UNIQUE WELL ID
API.            : API NUMBER
#==================================================================
~Curve
DEPT .m                   : DEPTH
Lithology_geolink ._      : Lithology_geolink
CALI .in                  : CALI
BS .in                    : BS
DRHO .g/cm3               : DRHO
NPHI .m3/m3               : NPHI
RHOB .g/cm3               : RHOB
GR .gAPI                  : GR
DTC .us/ft                : DTC
RDEP .ohm.m               : RDEP
SP .mV                    : SP
RSHA .ohm.m               : RSHA
RMED .ohm.m               : RMED
~Parameter
#==================================================================
~Ascii
# ...
 4527.3437500  -999.250000 6.1230001450  -999.250000 -0.017999999 0.1212799996 2.6819999218 80.942001343 61.773994446 20.413000107 89.929000854  -999.250000 30.909000397
 4527.4960938  -999.250000 6.1230001450  -999.250000 -0.021000000 0.1217899993 2.6700000763 80.963996887 61.780975342 20.400041580 89.753997803  -999.250000 30.925947189
 4527.6484375  -999.250000 6.0949997902  -999.250000 -0.022000000 0.1222999990 2.6500000954 80.986000061 61.787975311 20.387041092 90.069000244  -999.250000 30.941947937
 4527.8007813  -999.250000 6.0650000572  -999.250000 -0.018999999 0.1228199974 2.6300001144 81.008003235 61.794975281 20.373044968 90.358001709  -999.250000 30.958944321
 4527.9531250  -999.250000 6.0349998474  -999.250000 -0.017000001 0.1233300045 2.6280000210 81.028999329 61.801975250 20.360042572 90.644996643  -999.250000 30.974948883
 4528.1054688  -999.250000 6.0039997101  -999.250000 -0.017000001 0.1238399968 2.6329998970 81.051002502 61.809974670 20.347042084 90.957000732  -999.250000 30.991945267
 4528.2578125  -999.250000 5.9800000191  -999.250000 -0.017000001 0.1237300038 2.6370000839 81.072998047 61.817974091 20.334041595 91.138000488  -999.250000 31.007947922
 4528.4106445  -999.250000 5.9670000076  -999.250000 -0.016000001 0.1235599965 2.6400001049 81.095001221 61.826000214 20.320999146 91.135002136  -999.250000 31.024999619
 4528.5629883  -999.250000 5.9539999962  -999.250000 -0.015000000 0.1233800054 2.6489999294 81.116996765 61.833999634 20.308000565 90.730003357  -999.250000 31.041999817
 4528.7153320  -999.250000 5.9410004616  -999.250000 -0.013000000 0.1231999993 2.6659998894 81.138999939 61.841999054 20.294000626 89.440002441  -999.250000 31.058000565
 4528.8676758  -999.250000 5.9290003777  -999.250000 -0.010000000 0.1230300069 2.6659998894 81.161003113 61.849971771 20.281042099 89.071998596  -999.250000 31.074947357
 4529.0200195  -999.250000 5.9290003777  -999.250000 -0.007000000 0.1228500009 2.6649999619 81.182998657 61.856971741 20.268041611 89.824996948  -999.250000 31.090948105
 4529.1723633  -999.250000 5.9359993935  -999.250000 -0.005000000 0.1226799935 2.6710000038 81.195999146 61.864974976 20.255041122 90.404998779  -999.250000 31.107944489
 4529.3247070  -999.250000 5.9429998398  -999.250000 -0.006000000 0.1226700023 2.6670000553 81.196998596 61.872974396 20.242042542 90.353996277  -999.250000 31.124944687
 4529.4770508  -999.250000 5.9499998093  -999.250000 -0.013000000 0.1226599962 2.6489999294 81.197998047 61.880973816 20.232032776 89.702003479  -999.250000 31.140949249
 4529.6298828  -999.250000 5.9569997787  -999.250000 -0.020000000 0.1226599962 2.6300001144 81.198997498 61.888996124 20.225000381 88.816001892  -999.250000 31.158000946
 4529.7822266  -999.250000 5.9640002251  -999.250000 -0.020000000 0.1226599962 2.6289999485 81.199996948 61.896999359 20.218000412 89.158996582  -999.250000 31.174999237
 4529.9345703  -999.250000 5.9590001106  -999.250000 -0.017000001 0.1226500049 2.6440000534 81.200996399 61.905002594 20.211000443 90.149002075  -999.250000 31.190999985
 4530.0869141  -999.250000 5.9520001411  -999.250000 -0.015000000 0.1226500049 2.6359999180 81.202003479 61.912998199 20.204000473 91.019996643  -999.250000 31.208000183
 4530.2392578  -999.250000 5.9460005760  -999.250000 0.0099999998 0.1226500049 2.5989999771 81.203002930 61.920974731 20.197023392 91.355003357  -999.250000 31.224946976
 4530.3916016  -999.250000 5.9390001297  -999.250000 0.0790000036 0.1226399988 2.5550000668 81.204002380 61.928974152 20.189023972 91.365997314  -999.250000 31.241945267
 4530.5439453  -999.250000 5.9320001602  -999.250000 0.1420000046 0.1226399988 2.5230000019 81.204002380 61.936969757 20.182022095 90.876998901  -999.250000 31.257947922
 4530.6962891  -999.250000 5.9260001183  -999.250000 0.2000000030 0.1226299927 2.5230000019 81.205001831 61.943977356 20.175022125 90.362998962  -999.250000 31.274944305
 4530.8486328  -999.250000 5.9320001602  -999.250000 0.2119999975 0.1226299927 2.5260000229 81.206001282 61.951972961 20.168022156 90.007003784  -999.250000 31.220174789
 4531.0014648  -999.250000 5.9380002022  -999.250000 0.2140000015 0.1226299927 2.5260000229 81.207000732 61.959999084 20.160999298 90.168998718  -999.250000 31.141000748
 4531.1538086  -999.250000 5.9429998398  -999.250000 0.2140000015 0.1226200014 2.5260000229 81.208000183 61.967998505 20.153999329 90.750000000  -999.250000 31.062999725
 4531.3061523  -999.250000 5.9390001297  -999.250000 0.2129999995 0.1226200014 2.5260000229 81.208999634 61.976001740 20.146999359 91.693000793  -999.250000 30.985000610
 4531.4584961  -999.250000 5.4920001030  -999.250000  -999.250000 0.1226200014 2.5260000229 81.209999084 61.983974457 20.140022278 91.263999939  -999.250000 30.907249451
 4531.6108398  -999.250000 3.9639997482  -999.250000  -999.250000  -999.250000  -999.250000 81.210998535 61.989982605 20.133022308 90.560997009  -999.250000 30.828252792
 4531.7631836  -999.250000 3.9459998608  -999.250000  -999.250000  -999.250000  -999.250000 81.211997986 61.992988586 20.126022339 90.171997070  -999.250000 30.951602936
