# LAS format log file from PETREL
# Project units are specified as depth units
#==================================================================
~Version information
VERS.   2.0:
WRAP.   NO:
#==================================================================
~Well
STRT .m      913.63586426 :
STOP .m      4531.7631836 :
STEP .m     0.00000000 :
NULL .        -999.250000 :
COMP.           : COMPANY
WELL.  33/5-2   : WELL
FLD.            : FIELD
LOC.            : LOCATION
SRVC.           : SERVICE COMPANY
DATE.  2018-09-11 14:48:41   : Log Export Date {yyyy-MM-dd HH:mm:ss}
PROV.           : PROVINCE
UWI.   33/5-2   : UNIQUE WELL ID
API.            : API NUMBER
#==================================================================
~Curve
DEPT .m                   : DEPTH
Lithology_geolink ._      : Lithology_geolink
CALI .in                  : CALI
BS .in                    : BS
DRHO .g/cm3               : DRHO
NPHI .m3/m3               : NPHI
RHOB .g/cm3               : RHOB
GR .gAPI                  : GR
DTC .us/ft                : DTC
RDEP .ohm.m               : RDEP
SP .mV                    : SP
RSHA .ohm.m               : RSHA
RMED .ohm.m               : RMED
~Parameter
#==================================================================
~Ascii
# ...
 2837.5329590  -999.250000 13.093999863  -999.250000 0.0130000003  -999.250000 2.5120000839 60.097957611 93.563003540 2.3770000935 30.604789734  -999.250000 2.5529999733
 2837.6853027  -999.250000 13.093999863  -999.250000 -0.005000000  -999.250000 2.4670000076 62.565502167 94.563003540 2.3589999676 29.851188660  -999.250000 2.4449999332
 2837.8376465  -999.250000 13.093999863  -999.250000 -0.001000000  -999.250000 2.4590001106 64.130210876 94.750000000 2.3299999237 30.591987610  -999.250000 2.3540000916
 2837.9902344  -999.250000 13.093999863  -999.250000 0.0030000000  -999.250000 2.4790000916 67.377204895 95.000000000 2.2929999828 30.586278915  -999.250000 2.3340001106
 2838.1425781  -999.250000 13.093999863  -999.250000 0.0020000001  -999.250000 2.4749999046 68.049530029 95.000000000 2.2479999065 30.984794617  -999.250000 2.4079999924
 2838.2949219  -999.250000 13.093999863  -999.250000 0.0040000002  -999.250000 2.4920001030 59.653194427 94.375007629 2.1970000267 30.856588364  -999.250000 2.4730000496
 2838.4472656  -999.250000 13.116999626  -999.250000 -0.006000000  -999.250000 2.4749999046 57.911106110 93.375000000 2.1540000439 31.223594666  -999.250000 2.5000000000
 2838.5998535  -999.250000 13.116999626  -999.250000 -0.003000000  -999.250000 2.4920001030 61.122703552 94.563003540 2.1289999485 31.594373703  -999.250000 2.3870000839
 2838.7521973  -999.250000 13.116999626  -999.250000 -0.001000000  -999.250000 2.4879999161 70.056289673 96.375000000 2.1089999676 31.710382462  -999.250000 2.1970000267
 2838.9045410  -999.250000 13.093999863  -999.250000 0.0060000001  -999.250000 2.4960000515 65.863182068 97.000000000 2.0780000687 31.323986053  -999.250000 2.0880000591
 2839.0568848  -999.250000 13.093999863  -999.250000 0.0080000004  -999.250000 2.4900000095 58.488430023 97.563003540 2.0290000439 30.691379547  -999.250000 2.1459999084
 2839.2092285  -999.250000 13.093999863  -999.250000 0.0149999997  -999.250000 2.4960000515 51.289813995 96.563011169 1.9650000334 30.303836823  -999.250000 2.2500000000
 2839.3618164  -999.250000 13.093999863  -999.250000 0.0309999995  -999.250000 2.5099999905 56.792598724 96.563011169 1.9049999714 29.580562592  -999.250000 2.2049999237
 2839.5141602  -999.250000 13.093999863  -999.250000 0.0250000004  -999.250000 2.4939999580 60.411357880 98.188003540 1.8660000563 30.067840576  -999.250000 2.0759999752
 2839.6665039  -999.250000 13.093999863  -999.250000 -0.001000000  -999.250000 2.4649999142 63.745342255 99.188003540 1.8240000010 30.594444275  -999.250000 2.0230000019
 2839.8188477  -999.250000 13.093999863  -999.250000 -0.011000000  -999.250000 2.4549999237 60.843200684 99.563003540 1.7829999924 32.115795135  -999.250000 1.9910000563
 2839.9714355  -999.250000 13.093999863  -999.250000 -0.005000000  -999.250000 2.4709999561 60.348899841 100.37500000 1.7660000324 30.741779327  -999.250000 1.9049999714
 2840.1237793  -999.250000 13.093999863  -999.250000 0.0120000001  -999.250000 2.4839999676 61.877105713 101.37500000 1.7690000534 30.984394073  -999.250000 1.7560000420
 2840.2761230  -999.250000 13.093999863  -999.250000 0.0149999997  -999.250000 2.4800000191 63.192504883 101.37500000 1.7749999762 30.605590820  -999.250000 1.7159999609
 2840.4284668  -999.250000 13.093999863  -999.250000 0.0080000004  -999.250000 2.4609999657 66.000602722 100.56300354 1.7949999571 30.349386215  -999.250000 1.8689999580
 2840.5810547  -999.250000 13.093999863  -999.250000 0.0049999999  -999.250000 2.4489998817 66.365699768 99.563003540 1.8159999847 29.967376709  -999.250000 2.0450000763
 2840.7333984  -999.250000 13.093999863  -999.250000 0.0000000000  -999.250000 2.4379999638 63.470455170 97.750000000 1.8270000219 30.085586548  -999.250000 2.1370000839
 2840.8857422  -999.250000 13.093999863  -999.250000 0.0070000002  -999.250000 2.4609999657 64.370841980 97.188003540 1.8459999561 30.452184677  -999.250000 2.1840000153
 2841.0380859  -999.250000 13.093999863  -999.250000 0.0060000001  -999.250000 2.4590001106 61.779994965 97.750000000 1.8609999418 30.566780090  -999.250000 2.2639999390
 2841.1904297  -999.250000 13.093999863  -999.250000 0.0309999995  -999.250000 2.4979999065 61.161155701 97.375000000 1.8569999933 30.429834366  -999.250000 2.2300000191
 2841.3430176  -999.250000 13.093999863  -999.250000 0.0329999998  -999.250000 2.4939999580 64.376998901 98.375000000 1.8550000191 30.329368591  -999.250000 2.0739998817
 2841.4953613  -999.250000 13.093999863  -999.250000 0.0240000002  -999.250000 2.4879999161 64.992889404 99.563003540 1.8589999676 31.067981720  -999.250000 1.9140000343
 2841.6477051  -999.250000 13.101999283  -999.250000 0.0140000004  -999.250000 2.4609999657 60.556388855 100.56300354 1.8509999514 31.679636002  -999.250000 1.8159999847
 2841.8000488  -999.250000 13.093999863  -999.250000 0.0040000002  -999.250000 2.4409999847 56.433692932 100.37500000 1.8329999447 31.452980042  -999.250000 1.8200000525
 2841.9526367  -999.250000 13.093999863  -999.250000 0.0089999996  -999.250000 2.4319999218 53.761600494 99.188003540 1.8140000105 30.817760468  -999.250000 1.9049999714
 2842.1049805  -999.250000 13.093999863  -999.250000 0.0160000008  -999.250000 2.4530000687 57.363380432 97.999992371 1.7829999924 31.054237366  -999.250000 2.0290000439
 2842.2573242  -999.250000 13.093999863  -999.250000 0.0099999998  -999.250000 2.4509999752 50.123245239 97.188003540 1.7730000019 30.578439713  -999.250000 2.1070001125
 2842.4096680  -999.250000 13.093999863  -999.250000 0.0189999994  -999.250000 2.4839999676 49.038558960 97.375000000 1.7710000277 30.227443695  -999.250000 2.1089999676
 2842.5622559  -999.250000 13.101999283  -999.250000 0.0080000004  -999.250000 2.4609999657 53.765598297 98.563003540 1.7819999456 29.271186829  -999.250000 2.0209999084
 2842.7145996  -999.250000 13.093999863  -999.250000 0.0250000004  -999.250000 2.4709999561 58.629356384 99.750000000 1.8070000410 33.379402161  -999.250000 1.8780000210
 2842.8669434  -999.250000 13.093999863  -999.250000 0.0160000008  -999.250000 2.4409999847 61.341949463 100.56300354 1.8339999914 33.625190735  -999.250000 1.7879999876
 2843.0192871  -999.250000 13.093999863  -999.250000 0.0080000004  -999.250000 2.4409999847 60.066505432 100.56300354 1.8420000076 31.250791550  -999.250000 1.8400000334
 2843.1716309  -999.250000 13.093999863  -999.250000 0.0120000001  -999.250000 2.4709999561 62.249248505 99.563003540 1.8500000238 31.121398926  -999.250000 2.0060000420
 2843.3242188  -999.250000 13.093999863  -999.250000 0.0130000003  -999.250000 2.4920001030 61.784053802 98.188003540 1.8500000238 30.746192932  -999.250000 2.1600000858
 2843.4765625  -999.250000 13.093999863  -999.250000 0.0160000008  -999.250000 2.4860000610 63.683692932 96.749992371 1.8439999819 30.242790222  -999.250000 2.2249999046
 2843.6289063  -999.250000 13.116999626  -999.250000 -0.001000000  -999.250000 2.4549999237 60.999900818 96.188003540 1.8289999962 30.112594604  -999.250000 2.2320001125
 2843.7812500  -999.250000 13.125000000  -999.250000 -0.007000000  -999.250000 2.4389998913 60.937095642 96.188003540 1.8220000267 30.483390808  -999.250000 2.1970000267
 2843.9338379  -999.250000 13.125000000  -999.250000 -0.004000000  -999.250000 2.4470000267 60.380001068 97.999992371 1.8070000410 30.729486465  -999.250000 2.0739998817
 2844.0861816  -999.250000 13.140999794  -999.250000 -0.004000000  -999.250000 2.4470000267 61.935142517 99.375007629 1.7960000038 31.503400803  -999.250000 1.8689999580
 2844.2385254  -999.250000 13.171999931  -999.250000 0.0070000002  -999.250000 2.4630000591 60.156749725 101.37500000 1.7929999828 31.130197525  -999.250000 1.6940000057
 2844.3908691  -999.250000 13.171999931  -999.250000 0.0000000000  -999.250000 2.4630000591 60.622646332 102.37500000 1.7879999876 31.875591278  -999.250000 1.6809999943
 2844.5434570  -999.250000 13.171999931  -999.250000 -0.003000000  -999.250000 2.4530000687 59.163398743 100.56300354 1.7790000439 31.621587753  -999.250000 1.8359999657
 2844.6958008  -999.250000 13.171999931  -999.250000 -0.010000000  -999.250000 2.4570000172 61.469303131 98.750000000 1.7860000134 31.491794586  -999.250000 2.0529999733
