# LAS format log file from PETREL
# Project units are specified as depth units
#==================================================================
~Version information
VERS.   2.0:
WRAP.   NO:
#==================================================================
~Well
STRT .m      913.63586426 :
STOP .m      4531.7631836 :
STEP .m     0.00000000 :
NULL .        -999.250000 :
COMP.           : COMPANY
WELL.  33/5-2   : WELL
FLD.            : FIELD
LOC.            : LOCATION
SRVC.           : SERVICE COMPANY
DATE.  2018-09-11 14:48:41   : Log Export Date {yyyy-MM-dd HH:mm:ss}
PROV.           : PROVINCE
UWI.   33/5-2   : UNIQUE WELL ID
API.            : API NUMBER
#==================================================================
~Curve
DEPT .m                   : DEPTH
Lithology_geolink ._      : Lithology_geolink
CALI .in                  : CALI
BS .in                    : BS
DRHO .g/cm3               : DRHO
NPHI .m3/m3               : NPHI
RHOB .g/cm3               : RHOB
GR .gAPI                  : GR
DTC .us/ft                : DTC
RDEP .ohm.m               : RDEP
SP .mV                    : SP
RSHA .ohm.m               : RSHA
RMED .ohm.m               : RMED
~Parameter
#==================================================================
~Ascii
# ...
 4285.9423828 6.0000000000 6.9890003204 6.0000000000 -0.014000000 0.2739800215 2.6489999294 110.30416107 80.050994873 5.7220001221 55.089000702  -999.250000 8.4350004196
 4286.0947266 6.0000000000 6.9769997597 6.0000000000 -0.016000001 0.2750999928 2.6319999695 110.03572845 79.560997009 5.7280001640 54.948001862  -999.250000 9.2840003967
 4286.2470703 6.0000000000 6.9749999046 6.0000000000 -0.018999999 0.2765699923 2.6229999065 107.44053650 79.039993286 5.9450001717 55.304000854  -999.250000 9.3299999237
 4286.3994141 6.0000000000 6.9840002060 6.0000000000 -0.017000001 0.2784099877 2.6270000935 100.45413971 78.520660400 6.1573195457 55.090999603  -999.250000 8.7996997833
 4286.5517578 6.0000000000 6.9920001030 6.0000000000 -0.015000000 0.2841300070 2.6440000534 100.50007629 78.203018188 6.2327594757 54.570999146  -999.250000 8.2029132843
 4286.7041016 6.0000000000 7.0000000000 6.0000000000 -0.013000000 0.2906199992 2.6600000858 101.45899963 78.078399658 6.1582403183 54.598999023  -999.250000 8.0783939362
 4286.8564453 6.0000000000 7.0029997826 6.0000000000 -0.010000000 0.2935099900 2.6689999104 102.13200378 78.067039490 5.9177722931 55.174999237  -999.250000 8.0271635056
 4287.0087891 6.0000000000 6.9840002060 6.0000000000 -0.007000000 0.2963999808 2.6710000038 101.75199890 78.315200806 5.5900516510 55.784999847  -999.250000 8.0728521347
 4287.1611328 6.0000000000 6.9649996758 6.0000000000 -0.004000000 0.3016900122 2.6800000668 101.09700012 78.444587708 5.2142047882 55.796001434  -999.250000 8.0111980438
 4287.3139648 6.0000000000 6.9460000992 6.0000000000 -0.008000000 0.3067699969 2.6770000458 101.36829376 78.434005737 4.9380002022 55.617000580  -999.250000 7.8899998665
 4287.4663086 6.0000000000 6.8839998245 6.0000000000 -0.014000000 0.3088200092 2.6610000134 103.64941406 78.653999329 4.6599998474 54.997001648  -999.250000 7.2810001373
 4287.6186523 6.0000000000 6.8130002022 6.0000000000 -0.020000000 0.3026600182 2.6440000534 107.51875305 79.206008911 4.5619997978 54.854999542  -999.250000 6.3220000267
 4287.7709961 6.0000000000 6.7030000687 6.0000000000 -0.018999999 0.2951599956 2.6250000000 110.55534363 80.119071960 4.4922237396 55.106998444  -999.250000 5.5036230087
 4287.9233398 6.0000000000 6.6500000954 6.0000000000 -0.013000000 0.2868300080 2.6199998856 112.21711731 81.381950378 4.4521284103 55.452999115  -999.250000 5.2557888031
 4288.0756836 6.0000000000 6.6710000038 6.0000000000 -0.007000000 0.2874799967 2.6229999065 112.25199890 82.512382507 4.4101343155 55.965999603  -999.250000 5.3736186028
 4288.2280273 6.0000000000 6.6919999123 6.0000000000 -0.009000000 0.2957299948 2.6240000725 111.90000153 82.330596924 4.3701281548 56.846000671  -999.250000 5.8973174095
 4288.3803711 7.0000000000 6.7130002975 6.0000000000 -0.016000001 0.3048900068 2.6170001030 112.68299866 81.944244385 4.4068813324 56.962001801  -999.250000 6.6625447273
 4288.5332031 7.0000000000 6.7049999237 6.0000000000 -0.021000000 0.3080999851 2.6080000401 114.49143982 81.556999207 4.5069999695 56.497001648  -999.250000 7.3260002136
 4288.6855469 7.0000000000 6.6900000572 6.0000000000 -0.011000000 0.3063600063 2.6150000095 118.05904388 81.170005798 4.6119999886 56.861999512  -999.250000 7.3810000420
 4288.8378906 7.0000000000 6.6739993095 6.0000000000 0.0010000000 0.3038400114 2.6410000324 121.18169403 80.782997131 4.6539998055 57.625999451  -999.250000 7.4140000343
 4288.9902344 7.0000000000 6.6889996529 6.0000000000 0.0109999999 0.3013300002 2.6559998989 121.08313751 80.512001038 4.6079998016 58.130001068  -999.250000 7.3369998932
 4289.1425781 7.0000000000 6.7049999237 6.0000000000 -0.001000000 0.2996900082 2.6500000954 120.19186401 80.886802673 4.4345560074 58.140998840  -999.250000 6.9721693993
 4289.2949219 7.0000000000 6.6869997978 6.0000000000 -0.014000000 0.2980599999 2.6199998856 119.84023285 81.550872803 4.1828079224 57.859001160  -999.250000 6.2772307396
 4289.4472656 7.0000000000 6.6350002289 6.0000000000 -0.026000001 0.3005200028 2.6019999981 120.53700256 82.259727478 3.9696826935 57.681999207  -999.250000 5.4646058083
 4289.5996094 7.0000000000 6.5819993019 6.0000000000 -0.029999999 0.3085300028 2.6099998951 120.13500214 83.429244995 3.7806057930 57.775001526  -999.250000 5.0194230080
 4289.7519531 7.0000000000 6.5580000877 6.0000000000 -0.035000000 0.3167499900 2.6250000000 118.23699951 83.894515991 3.7002563477 57.477001190  -999.250000 4.9621791840
 4289.9047852 7.0000000000 6.5830001831 6.0000000000 -0.041000001 0.3253300190 2.6310000420 118.28814697 84.043998718 3.6489999294 56.805999756  -999.250000 4.9060001373
 4290.0571289 7.0000000000 6.6110000610 6.0000000000 -0.043000001 0.3337599933 2.6349999905 119.90027618 84.114997864 3.6510000229 56.669998169  -999.250000 4.8949999809
 4290.2094727 7.0000000000 6.6389999390 6.0000000000 -0.037999999 0.3415299952 2.6449999809 123.42136383 84.222000122 3.6840000153 57.057998657  -999.250000 4.9800000191
 4290.3618164 7.0000000000 6.6449999809 6.0000000000 -0.033000000 0.3456000090 2.6570000648 127.58123016 83.739547729 3.7438082695 57.230998993  -999.250000 5.3378534317
 4290.5141602 7.0000000000 6.6440000534 6.0000000000 -0.028999999 0.3466199934 2.6730000973 128.27418518 81.873992920 3.8506572247 57.341999054  -999.250000 5.9231219292
 4290.6665039 7.0000000000 6.6490001678 6.0000000000 -0.028000001 0.3433499932 2.6860001087 128.33000183 80.130584717 4.0124807358 57.604999542  -999.250000 6.5091218948
 4290.8188477 7.0000000000 6.6729998589 6.0000000000 -0.028999999 0.3409000039 2.7109999657 130.49099731 79.912681580 4.2243204117 57.286998749  -999.250000 6.8548941612
 4290.9711914 7.0000000000 6.6960000992 6.0000000000 -0.028999999 0.3493500054 2.7360000610 135.02400208 81.098182678 4.4692144394 56.772998810  -999.250000 6.7842307091
 4291.1235352 7.0000000000 6.6999998093 6.0000000000 -0.023000000 0.3598400056 2.7300000191 138.19400024 83.049736023 4.7132182121 56.889999390  -999.250000 6.5716829300
 4291.2763672 7.0000000000 6.6900000572 6.0000000000 -0.012000000 0.3703500032 2.6900000572 136.97351074 85.154998779 4.9590001106 57.464000702  -999.250000 6.5370001793
 4291.4287109 7.0000000000 6.6149997711 6.0000000000 -0.007000000 0.3703300059 2.6540000439 131.52549744 85.815002441 5.1869997978 58.446998596  -999.250000 7.0110001564
 4291.5810547 7.0000000000 6.5399999619 6.0000000000 -0.009000000 0.3708499968 2.6099998951 127.93466187 85.671989441 5.4109997749 58.811000824  -999.250000 7.8109998703
 4291.7333984 7.0000000000 6.4650001526 6.0000000000 -0.013000000 0.3799299896 2.5840001106 124.39862823 85.234405518 5.6522269249 58.398998260  -999.250000 8.6463232040
 4291.8857422 7.0000000000 6.4149999619 6.0000000000 -0.016000001 0.3909800053 2.5729999542 121.17543793 84.901069641 5.9799485207 57.465999603  -999.250000 9.4175291061
 4292.0380859 7.0000000000 6.4140000343 6.0000000000 -0.017999999 0.4025500119 2.5690000057 121.30999756 85.528976440 6.1763720512 56.826999664  -999.250000 9.6632175446
 4292.1904297 7.0000000000 6.4129996300 6.0000000000 -0.017000001 0.4061000049 2.5710000992 124.94000244 86.431106567 6.3524360657 56.987998962  -999.250000 9.8902721405
 4292.3427734 7.0000000000 6.4120001793 6.0000000000 -0.012000000 0.4022000134 2.5739998817 127.38400269 87.280281067 6.3759260178 57.877998352  -999.250000 10.125247002
 4292.4956055 7.0000000000 6.4320001602 6.0000000000 -0.008000000 0.3975700140 2.5750000477 127.44681549 87.357002258 6.3629999161 58.686000824  -999.250000 10.130999565
 4292.6479492 7.0000000000 6.4679999352 6.0000000000 -0.006000000 0.3953599930 2.5699999332 126.45166016 86.276000977 6.2969999313 59.041999817  -999.250000 9.8610000610
 4292.8002930 7.0000000000 6.4999995232 6.0000000000 -0.010000000 0.4064799845 2.5650000572 124.78447723 85.178001404 6.2220001221 59.332000732  -999.250000 9.3839998245
 4292.9526367 7.0000000000 6.5260000229 6.0000000000 -0.015000000 0.4148799777 2.5620000362 123.06130219 85.097000122 6.1399998665 59.709999084  -999.250000 8.8470001221
 4293.1049805 7.0000000000 6.5520000458 6.0000000000 -0.016000001 0.4072299898 2.5680000782 121.59231567 85.872512817 6.0642428398 60.262001038  -999.250000 8.8470001221
