# LAS format log file from PETREL
# Project units are specified as depth units
#==================================================================
~Version information
VERS.   2.0:
WRAP.   NO:
#==================================================================
~Well
STRT .m      913.63586426 :
STOP .m      4531.7631836 :
STEP .m     0.00000000 :
NULL .        -999.250000 :
COMP.           : COMPANY
WELL.  33/5-2   : WELL
FLD.            : FIELD
LOC.            : LOCATION
SRVC.           : SERVICE COMPANY
DATE.  2018-09-11 14:48:41   : Log Export Date {yyyy-MM-dd HH:mm:ss}
PROV.           : PROVINCE
UWI.   33/5-2   : UNIQUE WELL ID
API.            : API NUMBER
#==================================================================
~Curve
DEPT .m                   : DEPTH
Lithology_geolink ._      : Lithology_geolink
CALI .in                  : CALI
BS .in                    : BS
DRHO .g/cm3               : DRHO
NPHI .m3/m3               : NPHI
RHOB .g/cm3               : RHOB
GR .gAPI                  : GR
DTC .us/ft                : DTC
RDEP .ohm.m               : RDEP
SP .mV                    : SP
RSHA .ohm.m               : RSHA
RMED .ohm.m               : RMED
~Parameter
#==================================================================
~Ascii
# ...
 2362.0449219  -999.250000 13.093999863  -999.250000 0.0000000000  -999.250000 2.3680000305 63.902294159 113.37500000 1.3680096865 32.593429565  -999.250000 1.4789999723
 2362.1975098  -999.250000 13.078001022  -999.250000 0.0000000000  -999.250000 2.3699998856 61.601314545 113.18730164 1.3439999819 34.112205505  -999.250000 1.5310144424
 2362.3498535  -999.250000 13.069999695  -999.250000 0.0010000000  -999.250000 2.3810000420 63.874000549 112.74909973 1.3400064707 35.728794098  -999.250000 1.5400031805
 2362.5021973  -999.250000 13.046999931  -999.250000 0.0010000000  -999.250000 2.3900001049 63.562999725 112.18800354 1.3390015364 34.728694916  -999.250000 1.5420000553
 2362.6545410  -999.250000 13.022999763  -999.250000 0.0010000000  -999.250000 2.3980000019 63.568008423 112.75000000 1.3320112228 33.701602936  -999.250000 1.5399999619
 2362.8071289  -999.250000 12.969000816  -999.250000 0.0010000000  -999.250000 2.4019999504 66.697814941 113.18860626 1.3300000429 34.699199677  -999.250000 1.5259470940
 2362.9594727  -999.250000 13.413999557  -999.250000 0.0020000001  -999.250000 2.4000000954 69.744590759 113.56560516 1.3159999847 34.450000763  -999.250000 1.4929438829
 2363.1118164  -999.250000 13.125000000  -999.250000 0.0020000001  -999.250000 2.3849999905 68.046272278 115.18889618 1.2970304489 34.448799133  -999.250000 1.4579710960
 2363.2641602  -999.250000 13.140999794  -999.250000 0.0020000001  -999.250000 2.3699998856 62.836601257 115.75000000 1.2780303955 34.073799133  -999.250000 1.4400000572
 2363.4167480  -999.250000 13.156000137  -999.250000 0.0020000001  -999.250000 2.3619999886 60.540214539 115.37720490 1.2580000162 33.700000763  -999.250000 1.4199839830
 2363.5690918  -999.250000 13.171999931  -999.250000 0.0020000001  -999.250000 2.3559999466 63.400390625 116.75129700 1.2549999952 33.698398590  -999.250000 1.4100064039
 2363.7214355  -999.250000 13.171999931  -999.250000 0.0010000000  -999.250000 2.3540000916 61.672527313 117.56050110 1.2609903812 33.201602936  -999.250000 1.4139935970
 2363.8737793  -999.250000 13.171999931  -999.250000 0.0000000000  -999.250000 2.3610000610 66.808601379 116.00000000 1.2709840536 33.699600220  -999.250000 1.4099999666
 2364.0261230  -999.250000 13.194999695  -999.250000 0.0010000000  -999.250000 2.3719999790 65.437805176 116.18800354 1.2909679413 33.575428009  -999.250000 1.4110000134
 2364.1787109  -999.250000 13.203000069  -999.250000 0.0010000000  -999.250000 2.3870000839 65.304084778 116.37209320 1.3200000525 33.840999603  -999.250000 1.4321378469
 2364.3310547  -999.250000 13.305000305  -999.250000 0.0010000000  -999.250000 2.4089999199 62.535305023 114.55980682 1.3429632187 33.841800690  -999.250000 1.5181088448
 2364.4833984  -999.250000 13.344000816  -999.250000 0.0010000000  -999.250000 2.4370000362 63.873100281 112.56300354 1.3649647236 34.092201233  -999.250000 1.5859999657
 2364.6357422  -999.250000 13.147999763  -999.250000 0.0010000000  -999.250000 2.4530000687 63.274188995 112.37500000 1.4059343338 34.465396881  -999.250000 1.5750000477
 2364.7883301  -999.250000 13.203000069  -999.250000 0.0010000000  -999.250000 2.4159998894 59.029499054 114.74879456 1.4450000525 34.090198517  -999.250000 1.4878926277
 2364.9406738  -999.250000 13.203000069  -999.250000 0.0010000000  -999.250000 2.3780000210 58.577922821 114.00090027 1.4750000238 33.841400146  -999.250000 1.4210962057
 2365.0930176  -999.250000 13.203000069  -999.250000 0.0010000000  -999.250000 2.3540000916 63.222705841 114.56270599 1.5049519539 33.968402863  -999.250000 1.4811950922
 2365.2453613  -999.250000 13.203000069  -999.250000 0.0010000000  -999.250000 2.3440001011 64.387397766 114.37500763 1.5359503031 34.715251923  -999.250000 1.6030000448
 2365.3979492  -999.250000 13.203000069  -999.250000 0.0010000000  -999.250000 2.3550000191 68.246597290 112.56009674 1.5629999638 34.483600616  -999.250000 1.7270753384
 2365.5502930  -999.250000 13.272999763  -999.250000 0.0010000000  -999.250000 2.3640000820 67.177787781 110.74909973 1.6000000238 34.978794098  -999.250000 1.7739984989
 2365.7026367  -999.250000 13.203000069  -999.250000 0.0010000000  -999.250000 2.3719999790 63.982273102 110.18569183 1.6509183645 33.986404419  -999.250000 1.7730832100
 2365.8549805  -999.250000 13.203000069  -999.250000 0.0010000000  -999.250000 2.3800001144 58.460903168 108.75000000 1.6899375916 35.355445862  -999.250000 1.8250000477
 2366.0073242  -999.250000 13.203000069  -999.250000 0.0010000000  -999.250000 2.3840000629 55.936344147 107.37500000 1.7199519873 34.872203827  -999.250000 1.8739999533
 2366.1599121  -999.250000 13.203000069  -999.250000 0.0010000000  -999.250000 2.3840000629 54.905899048 106.56591797 1.7589999437 34.996601105  -999.250000 1.8829935789
 2366.3122559  -999.250000 13.194999695  -999.250000 0.0010000000  -999.250000 2.3849999905 54.883213043 108.37310028 1.7999343872 34.870048523  -999.250000 1.8790175915
 2366.4645996  -999.250000 13.171999931  -999.250000 0.0010000000  -999.250000 2.3880000114 57.442897797 107.18800354 1.8369407654 34.264202118  -999.250000 1.8899999857
 2366.6169434  -999.250000 13.171999931  -999.250000 0.0010000000  -999.250000 2.3910000324 58.968349457 106.18800354 1.8749390841 34.637226105  -999.250000 1.9420000315
 2366.7695313  -999.250000 13.171999931  -999.250000 0.0010000000  -999.250000 2.3940000534 58.563697815 106.74718475 1.8799999952 34.154048920  -999.250000 1.9960657358
 2366.9218750  -999.250000 13.171999931  -999.250000 0.0010000000  -999.250000 2.3989999294 58.784904480 104.99839783 1.8769999743 34.168498993  -999.250000 2.0370430946
 2367.0742188  -999.250000 13.171999931  -999.250000 0.0010000000  -999.250000 2.4049999714 60.003704071 104.00060272 1.8580304384 34.013751984  -999.250000 2.0639791489
 2367.2265625  -999.250000 13.171999931  -999.250000 0.0010000000  -999.250000 2.4070000648 61.164199829 104.37500763 1.8350368738 34.245800018  -999.250000 2.0510001183
 2367.3791504  -999.250000 13.171999931  -999.250000 0.0010000000  -999.250000 2.4070000648 63.728118896 104.74939728 1.7960000038 33.871601105  -999.250000 2.0018928051
 2367.5314941  -999.250000 13.171999931  -999.250000 0.0010000000  -999.250000 2.3959999084 66.550781250 104.38141632 1.7380000353 33.748657227  -999.250000 1.9347835779
 2367.6838379  -999.250000 13.218999863  -999.250000 0.0010000000  -999.250000 2.3780000210 62.746494293 108.37629700 1.6840864420 34.260997772  -999.250000 1.7997951508
 2367.8361816  -999.250000 13.272999763  -999.250000 0.0010000000  -999.250000 2.3610000610 61.658599854 109.18800354 1.6041281223 33.638050079  -999.250000 1.6720000505
 2367.9885254  -999.250000 13.305000305  -999.250000 0.0010000000  -999.250000 2.3529999256 62.477367401 110.56300354 1.5550785065 33.653972626  -999.250000 1.5779999495
 2368.1411133  -999.250000 13.272999763  -999.250000 0.0010000000  -999.250000 2.3710000515 67.688003540 111.37310028 1.4809999466 33.640304565  -999.250000 1.5739696026
 2368.2934570  -999.250000 13.272999763  -999.250000 0.0010000000  -999.250000 2.3880000114 67.692008972 110.19279480 1.4210959673 34.356998444  -999.250000 1.5549488068
 2368.4458008  -999.250000 13.203000069  -999.250000 0.0010000000  -999.250000 2.3910000324 68.941200256 113.18800354 1.3860561848 34.358596802  -999.250000 1.5230000019
 2368.5981445  -999.250000 13.203000069  -999.250000 0.0010000000  -999.250000 2.3589999676 69.931594849 112.99999237 1.3580448627 34.857021332  -999.250000 1.4620000124
 2368.7507324  -999.250000 13.203000069  -999.250000 0.0010000000  -999.250000 2.3169999123 65.929786682 109.75871277 1.3600000143 34.872303009  -999.250000 1.4458605051
 2368.9030762  -999.250000 13.734000206  -999.250000 0.0010000000  -999.250000 2.2869999409 63.356773376 115.18448639 1.3450000286 34.964397430  -999.250000 1.3590785265
 2369.0554199  -999.250000 13.156000137  -999.250000 0.0010000000  -999.250000 2.2890000343 57.688800812 112.99999237 1.3130511045 34.465198517  -999.250000 1.4079711437
 2369.2077637  -999.250000 13.171999931  -999.250000 0.0010000000  -999.250000 2.3020000458 57.928131104 112.99999237 1.2620817423 34.215797424  -999.250000 1.3899999857
