# LAS format log file from PETREL
# Project units are specified as depth units
#==================================================================
~Version information
VERS.   2.0:
WRAP.   NO:
#==================================================================
~Well
STRT .m      2483.9675293 :
STOP .m      4422.1909180 :
STEP .m     0.00000000 :
NULL .        -999.250000 :
COMP.           : COMPANY
WELL.  33/6-3 S   : WELL
FLD.            : FIELD
LOC.            : LOCATION
SRVC.           : SERVICE COMPANY
DATE.  2018-09-11 14:48:41   : Log Export Date {yyyy-MM-dd HH:mm:ss}
PROV.           : PROVINCE
UWI.   33/6-3 S   : UNIQUE WELL ID
API.            : API NUMBER
#==================================================================
~Curve
DEPT .m                   : DEPTH
Lithology_geolink ._      : Lithology_geolink
CALI .in                  : CALI
BS .in                    : BS
ROP .m/h                  : ROP
DRHO .g/cm3               : DRHO
THOR .ppm                 : THOR
NPHI .m3/m3               : NPHI
RHOB .g/cm3               : RHOB
PEF .b/e                  : PEF
GR .gAPI                  : GR
URAN .ppm                 : URAN
DTC .us/ft                : DTC
DTS .us/ft                : DTS
RDEP .ohm.m               : RDEP
RMED .ohm.m               : RMED
~Parameter
#==================================================================
~Ascii
# ...
 2614.7265625  -999.250000 12.086600304 12.250000954 119.45826721  -999.250000 11.043920517 0.2991000116  -999.250000  -999.250000 65.069999695 1.0425769091 100.41016388 212.17541504 2.1465418339 2.2038719654
 2614.8791504  -999.250000 12.086001396 12.250000954 123.02581787  -999.250000 10.184878349 0.3122000098  -999.250000  -999.250000 64.879997253 1.3516037464 100.45294189 213.37808228 2.1363165379 2.2059969902
 2615.0314941  -999.250000 12.083299637 12.250000954 130.13949585  -999.250000 9.2666711807 0.3233999908  -999.250000  -999.250000 65.839996338 1.7100255489 100.72456360 216.19448853 2.1038520336 2.1101536751
 2615.1838379  -999.250000 12.063400269 12.250000954 133.16445923  -999.250000 8.9139633179 0.3271000087  -999.250000  -999.250000 67.290000916 1.8147329092 100.97758484 217.42402649 2.1126856804 2.1199839115
 2615.3361816  -999.250000 12.035400391 12.250000954 139.15400696  -999.250000 9.3111228943 0.3147999942  -999.250000  -999.250000 64.339996338 1.5744718313 101.52026367 218.74177551 2.0883779526 2.1020576954
 2615.4887695  -999.250000 12.022700310 12.250000954 140.18865967  -999.250000 10.216548920 0.2987999916  -999.250000  -999.250000 64.720001221 1.1086465120 101.71269226 218.54731750 2.0818104744 2.0610659122
 2615.6411133  -999.250000 12.028599739 12.250000954 142.22114563  -999.250000 10.979777336 0.2919000089  -999.250000  -999.250000 65.709999084 0.7285090089 101.82981110 217.48071289 2.0948789120 2.0839631557
 2615.7934570  -999.250000 12.039400101 12.250000954 143.10881042  -999.250000 11.309473038 0.2908000052  -999.250000  -999.250000 61.659999847 0.5517827272 101.67723846 216.85797119 2.0998919010 2.0929856300
 2615.9458008  -999.250000 12.050000191 12.250000954 144.94163513  -999.250000 11.137951851 0.2883999944  -999.250000  -999.250000 69.540000916 0.6062243581 101.23841858 216.16523743 2.1070768833 2.1229038239
 2616.0983887  -999.250000 12.059100151 12.250000954 143.96482849  -999.250000 10.530873299 0.2879999876  -999.250000  -999.250000 68.550003052 0.8719736934 101.03333282 216.21292114 2.1071000099 2.1319856644
 2616.2507324  -999.250000 12.065500259 12.250000954 141.96514893  -999.250000 9.6121730804 0.2964000106  -999.250000  -999.250000 66.139999390 1.2807445526 100.82733154 216.20800781 2.0796442032 2.1010496616
 2616.4030762  -999.250000 12.071400642 12.250000954 144.48414612  -999.250000 8.4471673965 0.3107999861  -999.250000  -999.250000 68.209999084 1.7906825542 100.89688873 215.79765320 2.0723116398 2.0840272903
 2616.5554199  -999.250000 12.072200775 12.250000954 149.49983215  -999.250000 7.3697266579 0.3156000078  -999.250000  -999.250000 68.199996948 2.2290976048 101.16556549 214.64685059 2.0743966103 2.0969791412
 2616.7077637  -999.250000 12.059799194 12.250000954 150.22735596  -999.250000 6.6188049316 0.3140000105  -999.250000  -999.250000 67.599998474 2.4089248180 101.30953217 214.39778137 2.0712101460 2.0930128098
 2616.8603516  -999.250000 12.038599968 12.250000954 151.73641968  -999.250000 6.1840939522 0.3219999969  -999.250000  -999.250000 65.339996338 2.2650320530 101.50268555 215.14778137 2.0465395451 2.0380883217
 2617.0126953  -999.250000 12.019100189 12.250000954 147.70988464  -999.250000 6.0763716698 0.3276000023  -999.250000  -999.250000 67.739997864 1.8793187141 101.52297211 216.31411743 2.0412085056 2.0350048542
 2617.1650391  -999.250000 12.006401062 12.250000954 139.67823792  -999.250000 6.4052715302 0.3156000078  -999.250000  -999.250000 68.870002747 1.4675599337 101.47907257 218.79103088 2.0454931259 2.0519728661
 2617.3173828  -999.250000 12.014199257 12.250000954 135.15228271  -999.250000 7.1034603119 0.3001999855  -999.250000  -999.250000 66.260002136 1.1200135946 101.42816162 219.60540771 2.0423102379 2.0280768871
 2617.4699707  -999.250000 12.044099808 12.250000954 126.12994385  -999.250000 7.9867858887 0.2890000045  -999.250000  -999.250000 65.389999390 0.8166851401 101.32816315 220.31785583 2.0418007374 2.0489664078
 2617.6223145  -999.250000 12.074700356 12.250000954 127.58950043  -999.250000 8.8489179611 0.2820000052  -999.250000  -999.250000 65.379997253 0.6523630023 101.29605103 220.27407837 2.0467917919 2.0480017662
 2617.7746582  -999.250000 12.087699890 12.250000954 130.57263184  -999.250000 9.4331645966 0.2860000134  -999.250000  -999.250000 68.559997559 0.6768602729 101.27404022 220.02239990 2.0475988388 2.0420095921
 2617.9270020  -999.250000 12.089900017 12.250000954 133.65155029  -999.250000 9.6530971527 0.3018999994  -999.250000  -999.250000 66.589996338 0.7951204777 101.32283783 219.91235352 2.0689315796 2.1067922115
 2618.0795898  -999.250000 12.088999748 12.250000954 135.23370361  -999.250000 9.6814556122 0.3172000051  -999.250000  -999.250000 68.870002747 0.9009307623 101.37591553 219.93896484 2.0784847736 2.1239728928
 2618.2319336  -999.250000 12.086198807 12.250000954 127.60411835  -999.250000 9.7098541260 0.3230000138  -999.250000  -999.250000 70.400001526 0.9765788317 101.49481201 220.04283142 2.0850894451 2.1279935837
 2618.3842773  -999.250000 12.088800430 12.250000954 123.79219055  -999.250000 9.6705627441 0.3217000067  -999.250000  -999.250000 66.410003662 1.1045947075 101.53793335 220.11688232 2.0850999355 2.1220095158
 2618.5366211  -999.250000 12.095400810 12.250000954 125.52214050  -999.250000 9.3255538940 0.3170999885  -999.250000  -999.250000 68.889999390 1.3965317011 101.57893372 220.35362244 2.0755155087 2.1150112152
 2618.6889648  -999.250000 12.097900391 12.250000954 126.37522125  -999.250000 8.6149797440 0.3118999898  -999.250000  -999.250000 69.480003357 1.8662934303 101.59096527 220.55136108 2.0647344589 2.0970575809
 2618.8415527  -999.250000 12.096300125 12.250000954 131.12754822  -999.250000 7.8590092659 0.3154999912  -999.250000  -999.250000 71.160003662 2.2910206318 101.65689087 220.92539978 2.0492248535 2.0590608120
 2618.9938965  -999.250000 12.095499992 12.250000954 133.52633667  -999.250000 7.0367178917 0.3280999959  -999.250000  -999.250000 70.199996948 2.6330521107 101.73587036 220.86607361 2.0582854748 2.0809648037
 2619.1462402  -999.250000 12.095100403 12.250000954 131.66310120  -999.250000 6.2450685501 0.3440999985  -999.250000  -999.250000 65.309997559 2.9078598022 101.92269897 219.99739075 2.0476171970 2.0320785046
 2619.2985840  -999.250000 12.095199585 12.250000954 130.71171570  -999.250000 6.0921869278 0.3564999998  -999.250000  -999.250000 66.069999695 2.8858718872 101.97782135 219.08094788 2.0635488033 2.0549263954
 2619.4511719  -999.250000 12.095898628 12.250000954 122.11286163  -999.250000 6.5295972824 0.3555000126  -999.250000  -999.250000 67.709999084 2.6163325310 101.74436951 217.47157288 2.0863635540 2.1169006824
 2619.6035156  -999.250000 12.095299721 12.250000954 117.81495667  -999.250000 7.0580525398 0.3411000073  -999.250000  -999.250000 67.260002136 2.3757855892 101.11201477 217.26133728 2.0921907425 2.1359694004
 2619.7558594  -999.250000 12.094300270 12.250000954 119.98031616  -999.250000 7.2596778870 0.3235000074  -999.250000  -999.250000 68.610000610 2.3430519104 98.987411499 217.36882019 2.0948956013 2.0970623493
 2619.9082031  -999.250000 12.096199036 12.250000954 121.06299591  -999.250000 6.9638509750 0.3005999923  -999.250000  -999.250000 75.269996643 2.5701706409 97.502754211 217.02809143 2.1092538834 2.1029806137
 2620.0607910  -999.250000 12.098299980 12.250000954 131.10235596  -999.250000 6.3951110840 0.2818999887  -999.250000  -999.250000 67.480003357 2.9790449142 94.702484131 214.94235229 2.2806251049 2.3565931320
 2620.2131348  -999.250000 12.097399712 12.250000954 136.12205505  -999.250000 6.1425037384 0.2782999873  -999.250000  -999.250000 62.740001678 3.1890637875 93.788459778 213.22373962 2.3396058083 2.7413830757
 2620.3654785  -999.250000 12.092201233 12.250000954 133.36614990  -999.250000 5.9170613289 0.2842999995  -999.250000  -999.250000 52.779998779 3.4858241081 92.932373047 210.10099792 2.2064137459 2.4684391022
 2620.5178223  -999.250000 12.088199615 12.250000954 131.98818970  -999.250000 6.0876259804 0.3073000014  -999.250000  -999.250000 51.049999237 3.5384163857 93.145660400 209.24237061 2.1489918232 2.2673220634
