# LAS format log file from PETREL
# Project units are specified as depth units
#==================================================================
~Version information
VERS.   2.0:
WRAP.   NO:
#==================================================================
~Well
STRT .m      2483.9675293 :
STOP .m      4422.1909180 :
STEP .m     0.00000000 :
NULL .        -999.250000 :
COMP.           : COMPANY
WELL.  33/6-3 S   : WELL
FLD.            : FIELD
LOC.            : LOCATION
SRVC.           : SERVICE COMPANY
DATE.  2018-09-11 14:48:41   : Log Export Date {yyyy-MM-dd HH:mm:ss}
PROV.           : PROVINCE
UWI.   33/6-3 S   : UNIQUE WELL ID
API.            : API NUMBER
#==================================================================
~Curve
DEPT .m                   : DEPTH
Lithology_geolink ._      : Lithology_geolink
CALI .in                  : CALI
BS .in                    : BS
ROP .m/h                  : ROP
DRHO .g/cm3               : DRHO
THOR .ppm                 : THOR
NPHI .m3/m3               : NPHI
RHOB .g/cm3               : RHOB
PEF .b/e                  : PEF
GR .gAPI                  : GR
URAN .ppm                 : URAN
DTC .us/ft                : DTC
DTS .us/ft                : DTS
RDEP .ohm.m               : RDEP
RMED .ohm.m               : RMED
~Parameter
#==================================================================
~Ascii
# ...
 3898.5444336  -999.250000 12.549201012 12.250000954 77.657478333 -0.001500000 8.5024995804 0.3483999968 2.5596001148 3.4806001186 86.427421570 3.5394001007 96.274993896 221.05400085 1.2122999430 1.2640000582
 3898.6967773  -999.250000 12.563799858 12.250000954 79.790023804 -0.001400000 8.7882995605 0.3291000128 2.5569999218 3.3364000320 84.831474304 3.2897000313 96.389999390 221.04299927 1.2186000347 1.2719999552
 3898.8493652  -999.250000 12.587400436 12.250000954 82.513122559 -0.000800000 9.0544996262 0.3169000149 2.5567998886 3.2843000889 91.990211487 3.1363999844 96.440994263 221.04602051 1.2045999765 1.2400000095
 3899.0017090  -999.250000 12.613300323 12.250000954 83.103675842 -0.000400000 9.1021003723 0.3170999885 2.5564000607 3.4449999332 95.163040161 3.1293001175 96.406005859 221.05801392 1.2027000189 1.2339999676
 3899.1540527  -999.250000 12.625499725 12.250000954 85.498687744 -0.001500000 8.9615001678 0.3318000138 2.5510001183 3.6310999393 90.824310303 3.1670999527 96.308998108 221.08799744 1.2084000111 1.2339999676
 3899.3063965  -999.250000 12.627599716 12.250000954 87.335960388 -0.002700000 8.6684999466 0.3524000049 2.5439000130 3.6833000183 87.272964478 3.2081000805 96.290000916 221.09298706 1.2179000378 1.2450000048
 3899.4587402  -999.250000 12.632699966 12.250000954 88.057746887 -0.002100000 8.3247003555 0.3526999950 2.5411999226 3.7298998833 82.887741089 3.1486001015 96.243003845 221.10401917 1.2180000544 1.2450000048
 3899.6113281  -999.250000 12.630499840 12.250000954 86.909446716 0.0001000000 8.3366003036 0.3379999995 2.5436000824 3.8294000626 81.484344482 2.8371999264 96.230003357 221.09700012 1.2229000330 1.2510000467
 3899.7636719  -999.250000 12.613400459 12.250000954 89.730972290 0.0031000001 8.9076995850 0.3312000036 2.5494000912 3.8838000298 84.189186096 2.3838000298 96.221000671 221.07499695 1.2359000444 1.2380000353
 3899.9160156  -999.250000 12.603799820 12.250000954 93.700782776 0.0034000000 9.9001998901 0.3274999857 2.5552000999 3.8826999664 83.678543091 1.9910000563 96.222000122 221.06799316 1.2194000483 1.2209999561
 3900.0683594  -999.250000 12.604700089 12.250000954 100.06562042 0.0022000000 10.478500366 0.3260999918 2.5573999882 3.8638000488 82.769180298 1.8107999563 96.214996338 221.07200623 1.2664999962 1.3159999847
 3900.2209473  -999.250000 12.606800079 12.250000954 102.46063232 -0.002200000 11.652700424 0.3337000012 2.5597999096 3.7639999390 82.257698059 1.4592000246 96.189002991 221.08900452 1.2537000179 1.2869999409
 3900.3732910  -999.250000 12.601200104 12.250000954 96.653541565 -0.006600000 12.779800415 0.3521000147 2.5604999065 3.6340000629 81.543220520 1.0953999758 96.092002869 221.12800598 1.2402000427 1.2519999743
 3900.5256348  -999.250000 12.596399307 12.250000954 80.282150269 -0.008100000 13.743499756 0.3583999872 2.5639998913 3.6101000309 83.552101135 0.6916000247 95.852996826 221.16499329 1.2020000219 1.1699999571
 3900.6779785  -999.250000 12.596599579 12.250000954 78.510498047 -0.004300000 14.297300339 0.3463999927 2.5739998817 3.7411000729 84.860099792 0.2444999963 95.670997620 221.17999268 1.1914999485 1.1590000391
 3900.8305664  -999.250000 12.596399307 12.250000954 75.000000000 0.0023000001 14.279500008 0.3255999982 2.5834999084 3.9558000565 84.922401428 0.0015000000 95.209999084 221.20397949 1.1971000433 1.1679999828
 3900.9829102  -999.250000 12.597000122 12.250000954 72.375328064 0.0068000001 13.773599625 0.3086000085 2.5841000080 4.1493000984 85.668312073 0.0204000007 95.016006470 221.21600342 1.1988999844 1.1710000038
 3901.1352539  -999.250000 12.599499702 12.250000954 67.191596985 0.0089999996 12.894499779 0.3041999936 2.5838999748 4.2705001831 84.618385315 0.3799999952 95.102996826 221.24800110 1.2388999462 1.2710000277
 3901.2875977  -999.250000 12.596500397 12.250000954 67.650924683 0.0111999996 11.824500084 0.3224000037 2.5899999142 4.2878999710 83.610656738 0.8495000005 95.414001465 221.26300049 1.2364000082 1.2539999485
 3901.4401855  -999.250000 12.585598946 12.250000954 68.602363586 0.0107000005 11.055899620 0.3440000117 2.5903000832 4.1981000900 84.018653870 1.1721999645 96.247001648 221.25799561 1.2424000502 1.2619999647
 3901.5925293  -999.250000 12.567600250 12.250000954 70.144355774 0.0080000004 10.357500076 0.3571999967 2.5847001076 4.0503001213 83.594322205 1.4486000538 96.561996460 221.22599792 1.2460000515 1.2779999971
 3901.7448730  -999.250000 12.525600433 12.250000954 73.195533752 0.0038999999 9.6871004105 0.3486999869 2.5766000748 3.8571999073 80.053634644 1.5987999439 96.656997681 221.11700439 1.2411999702 1.2690000534
 3901.8972168  -999.250000 12.484800339 12.250000954 74.967193604 0.0034000000 9.4313001633 0.3361000121 2.5799002647 3.7681999207 76.099098206 1.4515999556 96.486999512 221.04800415 1.2405999899 1.2649999857
 3902.0495605  -999.250000 12.494799614 12.250000954 78.510498047 0.0052999998 9.5747995377 0.3353999853 2.5897998810 3.7560000420 81.768188477 1.1825000048 96.115997314 220.89300537 1.2195999622 1.2209999561
 3902.2021484  -999.250000 12.522700310 12.250000954 76.640419006 0.0070000002 9.8571996689 0.3328000009 2.5977001190 3.8399999142 80.647323608 0.9814000130 95.922996521 220.79400635 1.2281999588 1.2269999981
 3902.3544922  -999.250000 12.529100418 12.250000954 72.933067322 0.0063000000 10.066499710 0.3224999905 2.5969998837 4.0444002151 82.932807922 0.9020000100 95.417999268 220.56900024 1.2937999964 1.3450000286
 3902.5068359  -999.250000 12.529801369 12.250000954 73.359580994 0.0020000001 10.061400414 0.3194000125 2.5841000080 4.1803002357 84.682357788 0.9850999713 95.097999573 220.46099854 1.2913999557 1.2990000248
 3902.6591797  -999.250000 12.531000137 12.250000954 74.245407104 -0.001700000 9.6462001801 0.3312999904 2.5682001114 4.0682001114 86.146926880 1.3389999866 94.596000671 220.30799866 1.2516000271 1.2849999666
 3902.8117676  -999.250000 12.532999039 12.250000954 74.114173889 -0.002300000 8.8127002716 0.3467999995 2.5580999851 3.8484001160 84.216400146 1.9679000378 94.547004700 220.28500366 1.2828999758 1.3509999514
 3902.9641113  -999.250000 12.534199715 12.250000954 73.818901062 -0.001600000 8.3776998520 0.3515000045 2.5559999943 3.7730998993 79.982696533 2.3092999458 94.656997681 220.25199890 1.3142999411 1.3890000582
 3903.1164551  -999.250000 12.536799431 12.250000954 71.719161987 0.0009000000 7.7385993004 0.3583000004 2.5569999218 3.7021000385 81.656158447 2.8640000820 94.737998962 220.19400024 1.3199000359 1.3710000515
 3903.2687988  -999.250000 12.539198875 12.250000954 67.454063416 0.0029000000 7.4665999413 0.3670000136 2.5629000664 3.6373000145 79.258110046 3.2188000679 94.791000366 219.96499634 1.2465000153 1.2100000381
 3903.4213867  -999.250000 12.540599823 12.250000954 67.814964294 0.0027999999 7.4361000061 0.3619000018 2.5697999001 3.5822000504 78.087425232 3.4047000408 94.796997070 219.77699280 1.2914999723 1.2940000296
 3903.5737305  -999.250000 12.540599823 12.250000954 68.471130371 0.0015000000 7.6215000153 0.3364000022 2.5757000446 3.6493999958 80.396751404 3.4070999622 94.887992859 219.38600159 1.3193000555 1.3020000458
 3903.7260742  -999.250000 12.539899826 12.250000954 67.913391113 -0.000100000 7.8596005440 0.3115000129 2.5792000294 3.8018999100 78.367355347 3.3403999805 94.982002258 219.24400330 1.3410999775 1.4570000172
 3903.8784180  -999.250000 12.539999008 12.250000954 67.618110657 -0.001800000 8.1347999573 0.3000999987 2.5808000565 3.9618999958 76.721687317 3.2716999054 95.046997070 219.15100098 1.4355000257 1.6590000391
 3904.0307617  -999.250000 12.540800095 12.250000954 69.094490051 -0.003500000 8.5510997772 0.3016999960 2.5841000080 4.2456002235 77.773445129 3.1705999374 94.916000366 219.22500610 1.3806999922 1.5240000486
 3904.1833496  -999.250000 12.542099953 12.250000954 69.849082947 -0.004700000 8.9611997604 0.3100000024 2.5868999958 4.6930999756 79.922111511 3.0123999119 94.721992493 219.38000488 1.3372999430 1.3750000000
 3904.3356934  -999.250000 12.544300079 12.250000954 61.778221130 -0.005600000 9.2423000336 0.3165000081 2.5803999901 4.9724998474 80.580451965 2.7739000320 94.330001831 219.89999390 1.2903000116 1.2899999619
