# LAS format log file from PETREL
# Project units are specified as depth units
#==================================================================
~Version information
VERS.   2.0:
WRAP.   NO:
#==================================================================
~Well
STRT .m      2483.9675293 :
STOP .m      4422.1909180 :
STEP .m     0.00000000 :
NULL .        -999.250000 :
COMP.           : COMPANY
WELL.  33/6-3 S   : WELL
FLD.            : FIELD
LOC.            : LOCATION
SRVC.           : SERVICE COMPANY
DATE.  2018-09-11 14:48:41   : Log Export Date {yyyy-MM-dd HH:mm:ss}
PROV.           : PROVINCE
UWI.   33/6-3 S   : UNIQUE WELL ID
API.            : API NUMBER
#==================================================================
~Curve
DEPT .m                   : DEPTH
Lithology_geolink ._      : Lithology_geolink
CALI .in                  : CALI
BS .in                    : BS
ROP .m/h                  : ROP
DRHO .g/cm3               : DRHO
THOR .ppm                 : THOR
NPHI .m3/m3               : NPHI
RHOB .g/cm3               : RHOB
PEF .b/e                  : PEF
GR .gAPI                  : GR
URAN .ppm                 : URAN
DTC .us/ft                : DTC
DTS .us/ft                : DTS
RDEP .ohm.m               : RDEP
RMED .ohm.m               : RMED
~Parameter
#==================================================================
~Ascii
# ...
 4284.8784180 3.0000000000 6.4019999504 6.0000000000 21.062992096 -0.004000000 6.7930998802 0.1169999987 2.5404999256 14.264900208 108.95999908 1.8902000189 91.898002625 199.08801270 1.3789999485 1.1130000353
 4285.0312500 6.0000000000 6.4642000198 6.0000000000 21.128713608 -0.002915064 11.637100220 0.1321753263 2.5177063942 13.961824417 117.21849060 2.7657999992 98.242996216 218.62399292 1.1964999437 1.0355000496
 4285.1835938 6.0000000000 6.4805998802 6.0000000000 21.156370163 -0.007618910 17.980300903 0.1559269130 2.4885070324 13.625903130 119.88708496 1.9519000053 101.63700104 230.52499390 1.1640000343 1.0379999876
 4285.3359375 7.0000000000 6.5001997948 6.0000000000 19.581565857 -0.013501283 21.368799210 0.2578147650 2.4595928192 13.192012787 128.31329346 1.1094000340 107.98300171 254.85600281 1.1009999514 1.0499999523
 4285.4882813 7.0000000000 6.3814997673 6.0000000000 18.008445740 -0.013904166 21.976200104 0.3247051537 2.4573798180 13.353598595 129.35115051 1.0713000298 110.42600250 265.23300171 1.0770000219 1.0449999571
 4285.6406250 7.0000000000 6.3496003151 6.0000000000 16.963619232 -0.015202556 21.586000443 0.3573728502 2.4510927200 14.007574081 132.81709290 1.2984000444 112.21700287 276.80599976 1.0470000505 1.0190000534
 4285.7929688 6.0000000000 6.3474001884 6.0000000000 17.486877441 -0.016000001 20.760499954 0.3488999903 2.4488000870 14.342599869 131.91000366 1.6952999830 112.13899994 279.27999878 1.0440000296 1.0160000324
 4285.9453125 6.0000000000 6.4232997894 6.0000000000 18.143045425 -0.011900000 19.899000168 0.3325999975 2.4646999836 14.822299957 122.22000122 2.0648999214 110.49299622 277.45700073 1.0499999523 1.0449999571
 4286.0976563 6.0000000000 6.4151000977 6.0000000000 18.274278641 -0.009500000 18.801300049 0.3265999854 2.4723999500 14.878100395 123.62000275 2.5023000240 109.53900146 275.42199707 1.0609999895 1.0640000105
 4286.2500000 6.0000000000 6.3446998596 6.0000000000 18.372703552 -0.005800000 17.636800766 0.3237999976 2.4841001034 14.899999619 125.16000366 2.8722999096 108.42900085 271.90701294 1.0909999609 1.1089999676
 4286.4028320 6.0000000000 6.3496003151 6.0000000000 18.372703552 -0.003895192 17.528900146 0.3275278807 2.4904317856 14.914402962 124.12377930 2.9098000526 108.34899902 270.87899780 1.0935000181 1.1115000248
 4286.5551758 6.0000000000 6.3102998734 6.0000000000 18.372598648 -0.002404167 18.248199463 0.3362006545 2.5003039837 14.977645874 122.20233917 2.8089001179 109.31199646 270.95300293 1.0920000076 1.1039999723
 4286.7075195 6.0000000000 6.3583998680 6.0000000000 18.339580536 -0.003714423 19.327800751 0.3364134729 2.5015928745 15.022868156 126.09009552 2.5432000160 109.84400940 271.29000854 1.0720000267 1.0640000105
 4286.8598633 7.0000000000 6.4423995018 6.0000000000 18.242942810 -0.008207693 20.018600464 0.3406093121 2.4993927479 14.981591225 141.67903137 2.4082000256 109.79599762 271.30599976 1.0490000248 1.0089999437
 4287.0122070 7.0000000000 6.4042000771 6.0000000000 18.703826904 -0.010603834 20.260099411 0.3435194790 2.4971914291 14.885783195 144.45230103 2.4189999104 109.36799622 270.94198608 1.0499999523 1.0049999952
 4287.1645508 7.0000000000 6.4151000977 6.0000000000 19.652231216 -0.011800000 20.309000015 0.3495999873 2.4944999218 14.942999840 132.69000244 2.6136999130 108.33399963 268.79299927 1.1200000048 1.1280000210
 4287.3168945 7.0000000000 6.3824000359 6.0000000000 21.522310257 -0.009000000 20.214899063 0.3569999933 2.4941999912 15.231300354 134.03999329 2.6851000786 108.05000305 267.20300293 1.1579999924 1.1890000105
 4287.4692383 7.0000000000 6.5525994301 6.0000000000 25.262466431 -0.005200000 19.754499435 0.3641999960 2.4881000519 15.654199600 135.53999329 2.7177000046 108.36400604 263.73599243 1.1649999619 1.2039999962
 4287.6220703 7.0000000000 6.4151000977 6.0000000000 24.933332443 -0.005811859 16.208299637 0.3798051178 2.4812691212 15.726533890 129.71087646 3.1135001183 108.67300415 262.33200073 1.1369999647 1.1169999838
 4287.7744141 7.0000000000 6.3824000359 6.0000000000 24.602830887 -0.009493589 11.598799706 0.3813323677 2.4716649055 15.579482079 129.95980835 3.2479000092 108.31198883 260.76000977 1.1139999628 1.0690000057
 4287.9267578 7.0000000000 6.3050999641 6.0000000000 23.521203995 -0.007487179 10.667499542 0.3602810800 2.4918506145 14.950724602 123.67349243 3.3517999649 105.93599701 258.71398926 1.1180000305 1.0820000172
 4288.0791016 6.0000000000 6.2993993759 6.0000000000 22.760511398 -0.003484295 10.723999977 0.3544320464 2.5076410770 14.614371300 121.63006592 3.3010001183 104.19699860 256.95901489 1.1289999485 1.0939999819
 4288.2314453 6.0000000000 6.2797999382 6.0000000000 20.105449677 0.0013910256 11.172499657 0.3644112051 2.5203711987 14.013975143 115.41176605 3.2130000591 100.31600952 251.92100525 1.1419999599 1.0959999561
 4288.3837891 6.0000000000 6.3824000359 6.0000000000 18.206565857 -0.001424601 13.052100182 0.3678409159 2.5113425255 13.788105965 109.67990112 2.8364999294 98.623001099 249.39199829 1.1610000134 1.1119999886
 4288.5361328 6.0000000000 6.3824000359 6.0000000000 17.552494049 -0.009100000 14.308600426 0.3494000137 2.4934000969 13.633999825 90.930000305 2.6321001053 96.962997437 245.71998596 1.2829999924 1.3070000410
 4288.6884766 6.0000000000 6.3256006241 6.0000000000 18.832019806 -0.010200000 13.857099533 0.3499999940 2.4946999550 13.731300354 88.430000305 2.8477001190 96.985992432 244.56100464 1.3150000572 1.3580000401
 4288.8408203 6.0000000000 6.3310999870 6.0000000000 19.619422913 -0.008800000 13.129799843 0.3754999936 2.5118999481 14.301600456 109.40000153 3.1893999577 99.345001221 244.56900024 1.2949999571 1.2710000277
 4288.9936523 7.0000000000 6.3299999237 6.0000000000 19.404012680 -0.007885576 12.119000435 0.3989977539 2.5216710567 14.830611229 126.07881927 3.5467998981 100.18399811 245.02098083 1.2875000238 1.2495000362
 4289.1459961 7.0000000000 6.4576997757 6.0000000000 18.730442047 -0.003392308 10.776300430 0.4293653965 2.5438339710 15.860515594 191.25151062 3.7911000252 102.72000885 247.25799561 1.2749999762 1.2120000124
 4289.2983398 7.0000000000 6.4477996826 6.0000000000 17.743034363 -0.000986859 10.368000031 0.4186153710 2.5544362068 15.864069939 263.16043091 3.6496000290 104.07900238 249.17399597 1.2810000181 1.2109999657
 4289.4506836 7.0000000000 6.4477996826 6.0000000000 15.781997681 0.0031035258 10.347599983 0.4234663546 2.5656890869 15.481148720 235.13842773 3.2802999020 105.57900238 252.47300720 1.3289999962 1.2280000448
 4289.6030273 7.0000000000 6.4828000069 6.0000000000 16.144144058 0.0041869008 10.129099846 0.4442801774 2.5622069836 15.371788979 184.74205017 2.9519000053 105.72100067 253.16198730 1.3500000238 1.2159999609
 4289.7553711 7.0000000000 6.4151000977 6.0000000000 16.896326065 0.0001000000 10.098699570 0.5005000234 2.5332000256 15.337400436 138.58000183 2.7418999672 105.21399689 252.13499451 1.5169999599 1.3969999552
 4289.9077148 7.0000000000 6.4674997330 6.0000000000 19.849082947 -0.005300000 9.9711999893 0.4828000069 2.5137999058 15.140500069 130.25000000 2.9544000626 104.69599915 250.29402161 1.6820000410 1.6560000181
 4290.0600586 7.0000000000 6.3496003151 6.0000000000 25.787403107 -0.014600000 9.5671997070 0.3675999939 2.4955000877 14.271100044 118.06999969 3.6705000401 103.16200256 243.60099792 1.9069999456 1.9179999828
 4290.2124023 6.0000000000 6.3496003151 6.0000000000 26.738843918 -0.015600000 9.4771003723 0.3151000142 2.5004999638 13.934900284 114.79000092 4.4453001022 102.04100800 238.67599487 2.0599999428 2.0780000687
 4290.3652344 6.0000000000 6.3562002182 6.0000000000 27.726146698 -0.012389423 9.6631002426 0.2749762833 2.5193204880 13.647082329 110.91932678 4.9755001068 98.785003662 226.08399963 2.1670000553 2.2000000477
 4290.5175781 6.0000000000 6.3643999100 6.0000000000 28.701986313 -0.009087821 9.8798999786 0.2675948739 2.5257196426 13.579747200 107.58676147 5.3597998619 96.825996399 219.42100525 2.2939999104 2.4110000134
 4290.6699219 6.0000000000 6.3050999641 6.0000000000 37.251205444 -0.005302243 9.7868003845 0.2659862339 2.5318224430 13.656867981 103.44218445 5.5117998123 93.339996338 208.06500244 2.4030001163 2.5329999924
