# LAS format log file from PETREL
# Project units are specified as depth units
#==================================================================
~Version information
VERS.   2.0:
WRAP.   NO:
#==================================================================
~Well
STRT .m      2483.9675293 :
STOP .m      4422.1909180 :
STEP .m     0.00000000 :
NULL .        -999.250000 :
COMP.           : COMPANY
WELL.  33/6-3 S   : WELL
FLD.            : FIELD
LOC.            : LOCATION
SRVC.           : SERVICE COMPANY
DATE.  2018-09-11 14:48:41   : Log Export Date {yyyy-MM-dd HH:mm:ss}
PROV.           : PROVINCE
UWI.   33/6-3 S   : UNIQUE WELL ID
API.            : API NUMBER
#==================================================================
~Curve
DEPT .m                   : DEPTH
Lithology_geolink ._      : Lithology_geolink
CALI .in                  : CALI
BS .in                    : BS
ROP .m/h                  : ROP
DRHO .g/cm3               : DRHO
THOR .ppm                 : THOR
NPHI .m3/m3               : NPHI
RHOB .g/cm3               : RHOB
PEF .b/e                  : PEF
GR .gAPI                  : GR
URAN .ppm                 : URAN
DTC .us/ft                : DTC
DTS .us/ft                : DTS
RDEP .ohm.m               : RDEP
RMED .ohm.m               : RMED
~Parameter
#==================================================================
~Ascii
# ...
 3773.7290039  -999.250000 12.248000145 12.250000954 52.919944763 -0.002000000 9.4503002167 0.3174089789 2.5552000999 3.8357000351 73.086853027 2.0966000557 93.492996216 196.33099365 1.5241999626 1.6269999743
 3773.8813477  -999.250000 12.258000374 12.250000954 52.296585083 -0.003100000 9.9160003662 0.3201921582 2.5431001186 3.6691000462 75.225593567 2.1398000717 93.836006165 197.44000244 1.5042999983 1.5829999447
 3774.0336914  -999.250000 12.262400627 12.250000954 53.937011719 -0.001400000 10.505900383 0.3153009415 2.5338997841 3.5569000244 78.707595825 2.2107999325 94.588996887 199.94200134 1.4921000004 1.5399999619
 3774.1860352  -999.250000 12.262400627 12.250000954 56.167984009 0.0029000000 10.942899704 0.3159035146 2.5350000858 3.4786000252 77.211685181 2.3210999966 94.926002502 200.96000671 1.5173000097 1.5850000381
 3774.3386230  -999.250000 12.261599541 12.250000954 55.807086945 0.0063999998 10.990400314 0.3180872202 2.5404999256 3.4742999077 78.256706238 2.5081999302 95.441001892 202.03999329 1.5056999922 1.5980000496
 3774.4909668  -999.250000 12.260700226 12.250000954 53.215221405 0.0068999999 10.486200333 0.3140993416 2.5425999165 3.5436000824 77.230758667 2.7676999569 95.524002075 201.66299438 1.4979000092 1.5700000525
 3774.6433105  -999.250000 12.260399818 12.250000954 49.015747070 0.0062000002 10.092700005 0.3137104213 2.5415999889 3.5815000534 77.695960999 2.8905999660 95.335998535 200.12800598 1.4974999428 1.5720000267
 3774.7956543  -999.250000 12.260001183 12.250000954 47.408134460 0.0041999999 9.1749000549 0.3202065527 2.5369999409 3.6663999557 75.176605225 3.0487000942 94.963989258 199.22801208 1.4805999994 1.5290000439
 3774.9479980  -999.250000 12.259900093 12.250000954 45.308399200 0.0031000001 8.0448999405 0.3242761195 2.5320999622 3.8719000816 73.061134338 3.0801000595 94.108001709 198.20100403 1.4867999554 1.5479999781
 3775.1005859  -999.250000 12.260100365 12.250000954 44.783462524 0.0031999999 6.9309000969 0.3093494177 2.5281000137 4.2645001411 73.764846802 3.0322999954 93.822998047 198.42900085 1.4917999506 1.5679999590
 3775.2529297  -999.250000 12.260399818 12.250000954 44.324146271 0.0035999999 6.3201999664 0.2935964763 2.5251998901 4.6402997971 72.160980225 2.9272999763 93.644996643 199.38400269 1.4789999723 1.5340000391
 3775.4052734  -999.250000 12.259499550 12.250000954 44.389762878 0.0037000000 6.1876001358 0.2914015949 2.5260000229 4.7147998810 72.773300171 2.7723999023 93.799003601 199.73501587 1.4828000069 1.5570000410
 3775.5576172  -999.250000 12.257499695 12.250000954 46.227035522 0.0027999999 6.4060001373 0.2923964858 2.5311000347 4.5310997963 74.831008911 2.5580000877 94.234001160 199.65699768 1.4972000122 1.5820000172
 3775.7102051  -999.250000 12.254299164 12.250000954 48.031497955 -0.000200000 7.0500001907 0.2902268767 2.5373001099 4.3260998726 75.453308105 2.2852001190 94.433998108 199.07601929 1.5042999983 1.5889999866
 3775.8625488  -999.250000 12.250799179 12.250000954 48.950130463 -0.003600000 7.9457993507 0.2986305952 2.5422999859 4.2185997963 73.368141174 2.0209999084 94.749000549 197.52999878 1.5145000219 1.6119999886
 3776.0148926  -999.250000 12.253399849 12.250000954 48.064304352 -0.006500000 8.7993001938 0.3177177906 2.5429000854 4.2206997871 72.212982178 1.8415999413 94.832000732 196.90699768 1.5003000498 1.5870000124
 3776.1672363  -999.250000 12.267499924 12.250000954 49.081363678 -0.007200000 9.6732997894 0.3288028836 2.5413999557 4.2316999435 74.069999695 1.7598999739 94.876998901 196.60299683 1.5023000240 1.5620000362
 3776.3198242  -999.250000 12.285499573 12.250000954 50.984252930 -0.004700000 10.330100060 0.3306041658 2.5432000160 4.1062998772 74.071533203 1.7991000414 94.853004456 197.19599915 1.5213999748 1.6000000238
 3776.4721680  -999.250000 12.296098709 12.250000954 51.279529572 -0.000600000 10.281299591 0.3319011331 2.5481998920 3.9086000919 74.545448303 2.0144000053 94.829002380 198.50700378 1.5276999474 1.6280000210
 3776.6245117  -999.250000 12.298600197 12.250000954 48.031497955 0.0019000000 9.6035995483 0.3326011300 2.5492000580 3.8162999153 71.710655212 2.3787999153 94.841011047 199.58099365 1.5166000128 1.6030000448
 3776.7768555  -999.250000 12.296899796 12.250000954 47.047245026 0.0012000001 8.7587003708 0.3333039880 2.5436999798 3.8705000877 72.121620178 2.7688000202 94.847007751 199.85800171 1.5200999975 1.6069999933
 3776.9291992  -999.250000 12.293999672 12.250000954 45.013126373 0.0003000000 8.1476001740 0.3358046412 2.5399000645 3.9670999050 73.128089905 3.0402998924 94.638999939 198.58099365 1.5255999565 1.6150000095
 3777.0817871  -999.250000 12.289199829 12.250000954 42.027561188 -0.0000000000 7.5146999359 0.3386884630 2.5383000374 4.0631999969 71.942207336 3.2987000942 94.416999817 197.57200623 1.5127999783 1.5900000334
 3777.2341309  -999.250000 12.278100014 12.250000954 36.056430817 0.0004000000 6.7722001076 0.3350770772 2.5390999317 4.1250000000 72.633827209 3.5127000809 93.697998047 195.99299622 1.5083999634 1.5709999800
 3777.3864746  -999.250000 12.264100075 12.250000954 37.467193604 0.0010000000 6.5984001160 0.3207868636 2.5408000946 4.1161999702 75.018684387 3.4140999317 93.328002930 195.62300110 1.5259000063 1.6080000401
 3777.5388184  -999.250000 12.255299568 12.250000954 40.321521759 0.0019000000 7.0152001381 0.3126139343 2.5425999165 4.0911998749 74.205490112 3.0752000809 92.877998352 196.39700317 1.5325000286 1.6210000515
 3777.6914063  -999.250000 12.257200241 12.250000954 49.507873535 0.0034000000 7.7115001678 0.3213368058 2.5439000130 4.0254001617 77.618698120 2.5959000587 92.792991638 197.10299683 1.5427000523 1.6319999695
 3777.8437500  -999.250000 12.263799667 12.250000954 67.847770691 0.0055999998 8.3669004440 0.3327975869 2.5448999405 3.9042999744 74.101554871 2.1419000626 93.239997864 198.06399536 1.5360000134 1.6080000401
 3777.9960938  -999.250000 12.266599655 12.250000954 67.027557373 0.0081000002 8.8780002594 0.3312913477 2.5467000008 3.8296000957 75.067581177 1.9240999222 93.637001038 198.10099792 1.5353000164 1.5989999771
 3778.1484375  -999.250000 12.265700340 12.250000954 65.387138367 0.0099999998 9.2559003830 0.3258983791 2.5490999222 3.8810000420 73.560256958 2.0092000961 94.401000977 197.00399780 1.5076999664 1.5369999409
 3778.3010254  -999.250000 12.265600204 12.250000954 65.944885254 0.0096000005 9.4884996414 0.3248862326 2.5506000519 4.0538997650 73.732063293 2.2876999378 94.587989807 196.38900757 1.5233000517 1.5839999914
 3778.4533691  -999.250000 12.267399788 12.250000954 67.060371399 0.0065000001 9.5530996323 0.3205903769 2.5522999763 4.3119997978 77.490028381 2.6779000759 94.158996582 196.40899658 1.5884000063 1.7280000448
 3778.6057129  -999.250000 12.272500038 12.250000954 66.863517761 0.0020000001 9.4350996017 0.3146091402 2.5564999580 4.5296001434 77.504829407 3.1291000843 93.731010437 196.93798828 1.5764000416 1.7059999704
 3778.7580566  -999.250000 12.280900002 12.250000954 66.469818115 -0.001600000 9.2784004211 0.3203205168 2.5613000393 4.5563001633 74.277885437 3.4116001129 93.008003235 197.98300171 1.5243999958 1.5939999819
 3778.9104004  -999.250000 12.290399551 12.250000954 59.251968384 -0.004000000 9.3164997101 0.3331060708 2.5622999668 4.4640998840 72.960060120 3.3378999233 92.842002869 198.13201904 1.5152000189 1.5640000105
 3779.0629883  -999.250000 12.293699265 12.250000954 44.783462524 -0.005000000 9.5792999268 0.3368929625 2.5596001148 4.4288997650 73.008193970 2.9948999882 92.958000183 197.37600708 1.5269999504 1.5939999819
 3779.2153320  -999.250000 12.288499832 12.250000954 42.814960480 -0.004800000 9.9778995514 0.3346927762 2.5546998978 4.4067001343 75.559547424 2.5899999142 93.109001160 196.76301575 1.5206999779 1.5980000496
 3779.3676758  -999.250000 12.286499977 12.250000954 38.812335968 -0.004500000 10.174500465 0.3301689029 2.5518000126 4.3603000641 75.278526306 2.4082999229 93.277000427 195.72700500 1.5104000568 1.5820000172
 3779.5200195  -999.250000 12.292799950 12.250000954 43.208660126 -0.003200000 10.545499802 0.3107757866 2.5460000038 4.1946997643 74.356620789 2.0048999786 93.277000427 195.35200500 1.4965000153 1.5599999428
