# LAS format log file from PETREL
# Project units are specified as depth units
#==================================================================
~Version information
VERS.   2.0:
WRAP.   NO:
#==================================================================
~Well
STRT .m      3400.0439453 :
STOP .m      3961.3330078 :
STEP .m     0.00000000 :
NULL .        -999.250000 :
COMP.           : COMPANY
WELL.  33/6-2   : WELL
FLD.            : FIELD
LOC.            : LOCATION
SRVC.           : SERVICE COMPANY
DATE.  2018-09-11 14:48:41   : Log Export Date {yyyy-MM-dd HH:mm:ss}
PROV.           : PROVINCE
UWI.   33/6-2   : UNIQUE WELL ID
API.            : API NUMBER
#==================================================================
~Curve
DEPT .m                   : DEPTH
Lithology_geolink ._      : Lithology_geolink
NPHI .m3/m3               : NPHI
RHOB .g/cm3               : RHOB
GR .gAPI                  : GR
DTC .us/ft                : DTC
RDEP .ohm.m               : RDEP
RSHA .ohm.m               : RSHA
RMED .ohm.m               : RMED
~Parameter
#==================================================================
~Ascii
# ...
 3617.6713867 4.0000000000 0.2401199937 2.4130001068 85.129203796 82.817001343 2.4349999428 1.3220000267 2.2920000553
 3617.8237305 4.0000000000 0.2344300151 2.3800001144 84.256576538 82.806999207 2.6119999886 1.1039999723 2.2200000286
 3617.9760742 2.0000000000 0.2454000115 2.3489999771 83.988822937 82.796997070 2.6349999905 0.8780720234 1.9240000248
 3618.1284180 2.0000000000 0.2432399988 2.3469998837 83.243041992 82.786003113 2.2490000725 0.6970880032 1.5140000582
 3618.2810059 2.0000000000 0.2569400072 2.3299999237 74.524650574 82.776000977 1.9759999514 0.6075149775 1.3040000200
 3618.4333496 2.0000000000 0.2467200160 2.3039999008 68.804603577 82.765998840 1.9739999771 0.5771939754 1.2400000095
 3618.5856934 2.0000000000 0.2443799973 2.2869999409 66.696746826 82.755004883 2.2070000172 0.5839449763 1.2660000324
 3618.7380371 2.0000000000 0.2470000088 2.2850000858 70.279075623 82.745002747 2.5980000496 0.6315169930 1.3960000277
 3618.8903809 2.0000000000 0.2500099838 2.2880001068 71.573196411 82.734001160 2.9409999847 0.7269979715 1.6440000534
 3619.0424805 2.0000000000 0.2600200176 2.2909903526 71.696998596 82.724029541 3.0845391750 0.8749789596 1.9968671799
 3619.1950684 2.0000000000 0.2603499889 2.3109681606 78.570999146 82.714012146 3.2058062553 1.0736818314 2.4303061962
 3619.3474121 2.0000000000 0.2708200216 2.3579246998 84.084999084 82.703018188 3.5893845558 1.3245978355 2.9152226448
 3619.4997559 4.0000000000 0.2585700154 2.4189021587 89.640998840 82.693016052 4.6293315887 1.6504775286 3.4731056690
 3619.6520996 4.0000000000 0.2411700040 2.4738240242 88.085998535 82.683029175 6.3654317856 2.0277905464 4.0212430954
 3619.8046875 4.0000000000 0.2293899953 2.5109405518 88.430000305 82.672012329 6.6944808960 2.3584711552 4.2216811180
 3619.9570313 4.0000000000 0.2344000041 2.5030128956 85.680999756 82.662017822 5.8603401184 2.6235754490 4.1351394653
 3620.1093750 4.0000000000 0.2368499935 2.4950127602 86.052001953 82.651016235 5.7771315575 2.9345016479 4.0860786438
 3620.2617188 4.0000000000 0.2338699847 2.4780542850 80.755996704 82.641029358 5.5836210251 3.2659375668 4.0261921883
 3620.4143066 4.0000000000 0.2432300001 2.4809951782 76.904998779 82.631011963 4.4088845253 3.2909615040 3.7474470139
 3620.5666504 4.0000000000 0.2264500111 2.5129487514 68.250000000 82.620018005 3.9307644367 2.9345722198 3.4874167442
 3620.7189941 4.0000000000 0.2182700038 2.5389583111 71.356002808 82.610015869 5.1899776459 2.5645928383 3.5089647770
 3620.8713379 1.0000000000 0.1969000101 2.5090482235 73.690002441 82.600013733 7.7498946190 2.2854471207 3.4620752335
 3621.0236816 1.0000000000 0.1945000142 2.4352366924 79.281997681 82.589042664 5.9657406807 1.9730015993 2.9047889709
 3621.1762695 1.0000000000 0.1799699962 2.3890736103 74.809997559 82.579017639 3.8044600487 1.6015944481 2.2061185837
 3621.3286133 1.0000000000 0.1768899858 2.3740241528 71.989997864 82.568016052 3.1001250744 1.2954903841 1.7627098560
 3621.4809570 1.0000000000 0.1796500087 2.3610208035 67.705001831 82.558013916 2.9472436905 1.1112948656 1.5623205900
 3621.6333008 1.0000000000 0.1863299906 2.3380737305 66.722000122 82.548027039 2.8991534710 1.0342464447 1.5181407928
 3621.7858887 1.0000000000 0.1813599914 2.3320095539 65.738998413 82.537017822 2.8900144100 1.0409888029 1.5719134808
 3621.9382324 1.0000000000 0.1754700094 2.3310017586 63.500999451 82.527015686 2.8780193329 1.1148813963 1.6958012581
 3622.0905762 1.0000000000 0.1783999950 2.3359918594 65.675003052 82.517013550 2.9468894005 1.2328109741 1.9356154203
 3622.2429199 1.0000000000 0.1836500019 2.3459680080 65.279998779 82.506034851 3.4723136425 1.3386608362 2.3287391663
 3622.3955078 1.0000000000 0.1952400059 2.3559839725 69.259002686 82.496017456 4.7479553223 1.3869230747 2.7403411865
 3622.5478516 1.0000000000 0.1933900118 2.3639872074 69.547996521 82.486015320 5.5567049980 1.3710256815 2.8238668442
 3622.7001953 1.0000000000 0.1935199946 2.3679935932 74.903999329 82.475013733 4.9000563622 1.2981169224 2.5913734436
 3622.8525391 1.0000000000 0.1938900054 2.3699967861 78.246002197 82.465011597 4.3498811722 1.1911714077 2.3683574200
 3623.0048828 1.0000000000 0.2010799944 2.3779745102 75.027000427 82.454040527 3.9044272900 1.0923168659 2.1855854988
 3623.1574707 1.0000000000 0.2120400071 2.3750047684 67.797996521 82.444015503 3.4567165375 1.0580544472 2.0881555080
 3623.3098145 1.0000000000 0.2013400048 2.3720047474 61.118000031 82.434013367 3.3621506691 1.1308830976 2.2008187771
 3623.4621582 1.0000000000 0.1865600049 2.3530304432 66.191001892 82.423019409 3.6545305252 1.3027243614 2.5534341335
 3623.6145020 1.0000000000 0.1646299958 2.3649616241 72.302001953 82.413032532 4.0766463280 1.4674720764 2.9886047840
 3623.7670898 1.0000000000 0.1617300063 2.3949518204 76.153999329 82.403015137 4.4274392128 1.4749888182 3.1307740211
 3623.9194336 1.0000000000 0.1738899946 2.4219567776 76.175003052 82.392013550 4.7005624771 1.3502002954 2.8764085770
 3624.0717773 1.0000000000 0.1837199926 2.4180064201 73.752998352 82.382011414 4.7179727554 1.2371810675 2.5954504013
 3624.2241211 1.0000000000 0.1961800009 2.3980638981 72.622001648 82.371040344 4.2156128883 1.1951344013 2.4723935127
 3624.3767090 1.0000000000 0.1824200004 2.3930079937 70.179000854 82.361015320 3.6169583797 1.1959984303 2.4590208530
 3624.5290527 1.0000000000 0.1710100025 2.3979918957 71.084999084 82.351013184 3.4452738762 1.1810240746 2.4390318394
 3624.6813965 1.0000000000 0.1641900092 2.4019935131 70.781997681 82.340011597 3.7445192337 1.1230930090 2.3431537151
 3624.8337402 1.0000000000 0.1783499867 2.4010016918 69.012001038 82.330017090 4.0574984550 1.0551089048 2.2271859646
 3624.9863281 1.0000000000 0.1885499954 2.3970065117 67.285003662 82.320014954 3.8533279896 1.0050799847 2.2030384541
 3625.1386719 1.0000000000 0.1910700053 2.3790287971 67.697998047 82.309013367 3.3637852669 0.9759376645 2.2279598713
 3625.2910156 1.0000000000 0.1874299943 2.3640241623 70.419998169 82.299018860 3.2162356377 0.9914689660 2.2719295025
 3625.4433594 1.0000000000 0.1945099980 2.3649983406 70.792999268 82.288017273 3.6832499504 1.0768630505 2.3948028088
 3625.5957031 1.0000000000 0.1979800016 2.3759646416 71.428001404 82.278030396 4.5342707634 1.2115679979 2.5963535309
 3625.7482910 1.0000000000 0.1885700077 2.4039552212 71.153999329 82.268013000 5.2828025818 1.3647547960 2.9404487610
 3625.9006348 1.0000000000 0.1770400107 2.4179775715 75.875000000 82.257019043 6.0128302574 1.4698317051 3.3273799419
 3626.0529785 2.0000000000 0.1875000000 2.4170017242 82.550003052 82.247016907 5.9481058121 1.3941218853 3.1003654003
 3626.2053223 2.0000000000 0.1960899979 2.4050383568 82.947998047 82.237030029 4.7299103737 1.2534512281 2.5637216568
 3626.3579102 2.0000000000 0.1981800050 2.3900241852 78.102996826 82.226013184 3.9252853394 1.2180562019 2.3693091869
 3626.5102539 2.0000000000 0.1899999976 2.4129631519 73.309997559 82.216011047 3.9319870472 1.2599326372 2.4618508816
 3626.6625977 2.0000000000 0.1834900081 2.4229841232 73.669998169 82.206016541 4.6508460045 1.3119167089 2.6546907425
 3626.8149414 2.0000000000 0.1807000041 2.4389486313 75.644996643 82.195037842 5.5062575340 1.3757952452 2.8852608204
 3626.9675293 2.0000000000 0.1699500084 2.4429936409 76.975997925 82.185012817 5.3812050819 1.4398975372 3.0207836628
 3627.1198730 2.0000000000 0.1715399921 2.4469935894 77.983001709 82.174018860 4.9456987381 1.4619647264 2.9850575924
 3627.2722168 2.0000000000 0.1811800003 2.4450030327 76.616996765 82.164016724 4.8132119179 1.4480223656 2.9061264992
 3627.4245605 2.0000000000 0.1863799989 2.4370129108 72.742996216 82.154014587 4.5544147491 1.4200447798 2.7652261257
 3627.5769043 2.0000000000 0.1905899942 2.4220478535 72.977996826 82.143035889 4.4473423958 1.3970735073 2.6354160309
 3627.7294922 2.0000000000 0.1855800003 2.4010336399 75.709999084 82.133018494 5.0590176582 1.4349390268 2.7318446636
 3627.8818359 2.0000000000 0.1984300017 2.4000017643 83.162002563 82.123016357 5.8417448997 1.5607980490 3.0574777126
