# LAS format log file from PETREL
# Project units are specified as depth units
#==================================================================
~Version information
VERS.   2.0:
WRAP.   NO:
#==================================================================
~Well
STRT .m      1936.1920166 :
STOP .m      3906.2648926 :
STEP .m     0.00000000 :
NULL .        -999.250000 :
COMP.           : COMPANY
WELL.  33/6-1   : WELL
FLD.            : FIELD
LOC.            : LOCATION
SRVC.           : SERVICE COMPANY
DATE.  2018-09-11 14:48:41   : Log Export Date {yyyy-MM-dd HH:mm:ss}
PROV.           : PROVINCE
UWI.   33/6-1   : UNIQUE WELL ID
API.            : API NUMBER
#==================================================================
~Curve
DEPT .m                   : DEPTH
Lithology_geolink ._      : Lithology_geolink
CALI .in                  : CALI
BS .in                    : BS
DRHO .g/cm3               : DRHO
NPHI .m3/m3               : NPHI
RHOB .g/cm3               : RHOB
GR .gAPI                  : GR
DTC .us/ft                : DTC
RDEP .ohm.m               : RDEP
SP .mV                    : SP
RSHA .ohm.m               : RSHA
RMED .ohm.m               : RMED
~Parameter
#==================================================================
~Ascii
# ...
 2331.2124023  -999.250000 15.413999557  -999.250000 0.0610128194 0.4325066507 2.3720030785 71.860816956 113.73953247 1.1998846531 29.373908997 1.2771794796 1.2771794796
 2331.3647461  -999.250000 15.343999863  -999.250000 0.0689951926 0.4376954734 2.3729710579 72.865188599 115.06713867 1.2178846598 29.172294617 1.2680577040 1.2680577040
 2331.5170898  -999.250000 15.248000145  -999.250000 0.0659967959 0.4393614531 2.3640224934 74.356925964 115.91910553 1.2348639965 29.106521606 1.2818878889 1.2818878889
 2331.6696777  -999.250000 15.159999847  -999.250000 0.0640224367 0.4304035008 2.3710577488 75.164031982 115.10597229 1.2518910170 29.105005264 1.3157820702 1.3157820702
 2331.8220215  -999.250000 15.123999596  -999.250000 0.0709967986 0.4145210981 2.3830046654 73.709800720 114.00996399 1.2629294395 29.104005814 1.3497821093 1.3497821093
 2331.9743652  -999.250000 15.118000031  -999.250000 0.0699808002 0.4043878913 2.3839840889 71.177719116 112.91964722 1.2729358673 29.103006363 1.3609294891 1.3609294891
 2332.1267090  -999.250000 15.149000168  -999.250000 0.0639887825 0.4068827629 2.3789551258 69.672958374 112.71305847 1.2739920616 29.101015091 1.3490959406 1.3490959406
 2332.2792969  -999.250000 15.221999168  -999.250000 0.0569839738 0.4202356339 2.3649904728 70.083885193 113.34996796 1.2690321207 29.100006104 1.3191922903 1.3191922903
 2332.4316406  -999.250000 15.260999680  -999.250000 0.0519903861 0.4296571910 2.3629806042 71.102432251 113.97452545 1.2640321255 29.099006653 1.2911795378 1.2911795378
 2332.5839844  -999.250000 15.270000458  -999.250000 0.0490096137 0.4248791933 2.3589806557 72.860290527 115.45127106 1.2510833740 28.973806381 1.2661602497 1.2661602497
 2332.7363281  -999.250000 15.277000427  -999.250000 0.0520288013 0.4090099633 2.3530545235 75.412284851 115.33408356 1.2371120453 28.972999573 1.2729439735 1.2729439735
 2332.8889160  -999.250000 15.274000168  -999.250000 0.0610064119 0.3872140944 2.3700335026 77.125099182 114.52236176 1.2220962048 29.163770676 1.2819422483 1.2819422483
 2333.0412598  -999.250000 15.260000229  -999.250000 0.0629903823 0.3839464784 2.3769233227 76.674957275 114.26937866 1.2080897093 29.404455185 1.2879614830 1.2879614830
 2333.1936035  -999.250000 15.194998741  -999.250000 0.0599839725 0.3894216418 2.3609712124 76.669441223 114.48558044 1.1930961609 29.628562927 1.2740898132 1.2740898132
 2333.3459473  -999.250000 15.142000198  -999.250000 0.0549903996 0.3837020695 2.3520064354 77.384178162 114.88835144 1.1840577126 29.728364944 1.2491601706 1.2491601706
 2333.4982910  -999.250000 15.135999680  -999.250000 0.0519903861 0.3812566698 2.3540160656 78.038459778 115.16512299 1.1790400743 29.775623322 1.2242000103 1.2242000103
 2333.6508789  -999.250000 15.149000168  -999.250000 0.0459679477 0.3864642382 2.3589279652 77.082939148 114.57067108 1.1760191917 29.823692322 1.2190320492 1.2190320492
 2333.8032227  -999.250000 15.164999962  -999.250000 0.0359935872 0.3914788365 2.3439664841 74.157440186 114.67775726 1.1799743176 29.866724014 1.2219808102 1.2219808102
 2333.9555664  -999.250000 15.181000710  -999.250000 0.0340160020 0.3912527561 2.3370318413 71.130371094 115.09554291 1.1839743853 29.763668060 1.2478333712 1.2478333712
 2334.1079102  -999.250000 15.196999550  -999.250000 0.0390144251 0.3952468932 2.3470511436 68.295806885 113.77721405 1.1909439564 29.597335815 1.2817279100 1.2817279100
 2334.2604980  -999.250000 15.210000038  -999.250000 0.0480448715 0.4035967290 2.3630719185 65.550674438 112.58316803 1.1999423504 29.431064606 1.3207499981 1.3207499981
 2334.4128418  -999.250000 15.213999748  -999.250000 0.0620480776 0.3988012969 2.3780384064 63.415336609 113.06983948 1.2099359035 29.311763763 1.3577628136 1.3577628136
 2334.5651855  -999.250000 15.211001396  -999.250000 0.0770032033 0.4032574892 2.3859968185 63.702419281 112.57755280 1.2229167223 29.281192780 1.3659487963 1.3659487963
 2334.7175293  -999.250000 15.204000473  -999.250000 0.0779584050 0.4149576724 2.3849904537 65.871345520 112.20398712 1.2358959913 29.280008316 1.3372319937 1.3372319937
 2334.8701172  -999.250000 15.196000099  -999.250000 0.0649551228 0.4267329276 2.3819422722 68.440406799 113.85794830 1.2469294071 29.279005051 1.3012307882 1.3012307882
 2335.0224609  -999.250000 15.171000481  -999.250000 0.0509711541 0.4397505224 2.3699085712 70.681465149 113.83924103 1.2430256605 29.191564560 1.2751666307 1.2751666307
 2335.1748047  -999.250000 15.128000259  -999.250000 0.0420032032 0.4377655387 2.3510193825 71.603019714 112.17137909 1.2211409807 29.063819885 1.2710256577 1.2710256577
 2335.3271484  -999.250000 15.067999840  -999.250000 0.0430288017 0.4332765341 2.3570449352 71.188705444 112.08256531 1.1971539259 28.934827805 1.2839167118 1.2839167118
 2335.4794922  -999.250000 15.013998985  -999.250000 0.0520096160 0.4353232980 2.3710095882 70.296134949 113.45063019 1.1741840839 28.912176132 1.2730879784 1.2730879784
 2335.6320801  -999.250000 14.973999977  -999.250000 0.0579743572 0.4394274354 2.3739328384 69.705177307 115.04347229 1.1561154127 28.952735901 1.2421987057 1.2421987057
 2335.7844238  -999.250000 14.958999634  -999.250000 0.0499615408 0.4305962026 2.3599374294 70.370155334 117.14390564 1.1480512619 29.002679825 1.2082178593 1.2082178593
 2335.9367676  -999.250000 14.961000443  -999.250000 0.0380319990 0.4256563485 2.3470222950 72.064826965 118.97600555 1.1430320740 29.051685333 1.2000513077 1.2000513077
 2336.0891113  -999.250000 14.972000122  -999.250000 0.0480016023 0.4244973361 2.3539807796 73.484634399 116.94351959 1.1430000067 29.050014496 1.2267839909 1.2267839909
 2336.2416992  -999.250000 14.982999802  -999.250000 0.0489487164 0.4174323380 2.3479039669 74.866752625 113.73440552 1.1549230814 29.021184921 1.2568076849 1.2568076849
 2336.3940430  -999.250000 14.987999916  -999.250000 0.0330064110 0.4137890935 2.3279521465 76.061607361 113.02539063 1.1699037552 28.990198135 1.2768718004 1.2768718004
 2336.5463867  -999.250000 14.990000725  -999.250000 0.0350320525 0.4156690240 2.3180737495 76.811424255 113.55439758 1.1849037409 28.959197998 1.2839552164 1.2839552164
 2336.6987305  -999.250000 14.991999626  -999.250000 0.0450064018 0.4122174382 2.3410835266 77.518165588 114.08284760 1.2088079453 28.928247452 1.2810239792 1.2810239792
 2336.8513184  -999.250000 14.994000435  -999.250000 0.0470288433 0.4020826519 2.3670866489 77.121490479 114.46232605 1.2328461409 28.898193359 1.2939167023 1.2939167023
 2337.0036621  -999.250000 14.996000290  -999.250000 0.0560576953 0.3984909058 2.3850719929 74.389953613 114.04198456 1.2469102144 28.871173859 1.3029422760 1.3029422760
 2337.1560059  -999.250000 14.998000145  -999.250000 0.0739839748 0.3987003565 2.3999519348 71.690185547 113.10649109 1.2599166632 28.862056732 1.3079679012 1.3079679012
 2337.3083496  -999.250000 14.998999596  -999.250000 0.0689807981 0.4050371051 2.3849647045 71.940788269 112.56542206 1.2728960514 28.861007690 1.3119680882 1.3119680882
 2337.4606934  -999.250000 15.005000114  -999.250000 0.0629759654 0.4072315991 2.3739552498 73.135429382 113.27244568 1.2868877649 28.860008240 1.3120000362 1.3120000362
 2337.6132813  -999.250000 15.012999535  -999.250000 0.0479230769 0.4014878273 2.3599133492 72.181159973 112.95581055 1.2999166250 28.859004974 1.3199487925 1.3199487925
 2337.7656250  -999.250000 15.029999733  -999.250000 0.0239935908 0.3969014883 2.3420000076 70.765930176 113.70114899 1.3129166365 28.858005524 1.3378846645 1.3378846645
 2337.9179688  -999.250000 15.082000732  -999.250000 0.0220480002 0.3972253501 2.3420512676 70.962089539 113.56274414 1.3269102573 28.900722504 1.3678077459 1.3678077459
 2338.0703125  -999.250000 15.199000359  -999.250000 0.0370272435 0.4019903541 2.3580546379 71.810752869 112.04752350 1.3448560238 28.965478897 1.4027199745 1.4027199745
 2338.2229004  -999.250000 15.185000420  -999.250000 0.0540448725 0.3990258873 2.3750529289 72.378929138 109.24140167 1.3599038124 29.031576157 1.4417500496 1.4417500496
 2338.3752441  -999.250000 15.093000412  -999.250000 0.0679775700 0.4065004885 2.3860192299 71.735282898 106.68120575 1.3649679422 29.097576141 1.4787627459 1.4787627459
