# LAS format log file from PETREL
# Project units are specified as depth units
#==================================================================
~Version information
VERS.   2.0:
WRAP.   NO:
#==================================================================
~Well
STRT .m      2483.9675293 :
STOP .m      4422.1909180 :
STEP .m     0.00000000 :
NULL .        -999.250000 :
COMP.           : COMPANY
WELL.  33/6-3 S   : WELL
FLD.            : FIELD
LOC.            : LOCATION
SRVC.           : SERVICE COMPANY
DATE.  2018-09-11 14:48:41   : Log Export Date {yyyy-MM-dd HH:mm:ss}
PROV.           : PROVINCE
UWI.   33/6-3 S   : UNIQUE WELL ID
API.            : API NUMBER
#==================================================================
~Curve
DEPT .m                   : DEPTH
Lithology_geolink ._      : Lithology_geolink
CALI .in                  : CALI
BS .in                    : BS
ROP .m/h                  : ROP
DRHO .g/cm3               : DRHO
THOR .ppm                 : THOR
NPHI .m3/m3               : NPHI
RHOB .g/cm3               : RHOB
PEF .b/e                  : PEF
GR .gAPI                  : GR
URAN .ppm                 : URAN
DTC .us/ft                : DTC
DTS .us/ft                : DTS
RDEP .ohm.m               : RDEP
RMED .ohm.m               : RMED
~Parameter
#==================================================================
~Ascii
# ...
 4029.3037109 13.000000000 8.8788003922 8.5000000000 8.7926511765 -0.000100000  -999.250000 0.3424000144 2.5851998329 6.2136001587 81.147697449  -999.250000 90.267532349 204.87559509 1.3780000210 1.3140000105
 4029.4560547 13.000000000 8.8746004105 8.5000000000 9.1863517761 -0.001300000  -999.250000 0.3161000013 2.5848000050 6.3666000366 80.425880432  -999.250000 89.260017395 203.87300110 1.3999999762 1.3730000257
 4029.6083984 13.000000000 8.8863000870 8.5000000000 9.3832015991 -0.001100000  -999.250000 0.2973999977 2.5861001015 5.8060998917 77.863319397  -999.250000 87.747627258 204.46760559 1.4349999428 1.4689999819
 4029.7607422 13.000000000 8.9062004089 8.5000000000 9.3832015991 -0.000800000  -999.250000 0.2989000082 2.5857000351 5.7055997849 79.929695129  -999.250000 86.097686768 208.99299622 1.4199999571 1.3750000000
 4029.9133301 13.000000000 8.9261999130 8.5000000000 9.3832015991 -0.002900000  -999.250000 0.3061000109 2.5769999027 6.1560001373 79.711166382  -999.250000 87.019409180 210.25169373 1.4210000038 1.3789999485
 4030.0656738 13.000000000 8.9470996857 8.5000000000 10.334646225 -0.009500000  -999.250000 0.3237000108 2.5524001122 6.1395998001 70.727645874  -999.250000 88.754226685 210.57748413 1.4479999542 1.5340000391
 4030.2180176 13.000000000 8.9525995255 8.5000000000 10.793963432 -0.010800000  -999.250000 0.3330999911 2.5450000763 5.3901000023 69.276046753  -999.250000 90.490814209 210.65679932 1.3980000019 1.4199999571
 4030.3703613 13.000000000 8.9547004700 8.5000000000 11.253281593 -0.009100000  -999.250000 0.3382000029 2.5450997353 4.8116998672 79.274085999  -999.250000 91.598640442 210.81619263 1.3420000076 1.3170000315
 4030.5227051 13.000000000 8.9549999237 8.5000000000 11.482939720 -0.007300000  -999.250000 0.3384999931 2.5448999405 4.6382999420 81.827613831  -999.250000 92.014076233 211.85479736 1.3350000381 1.3109999895
 4030.6752930 13.000000000 8.9542999268 8.5000000000 12.171916008 -0.006200000  -999.250000 0.3370000124 2.5448000431 4.7617998123 86.579345703  -999.250000 92.085784912 213.12088013 1.2940000296 1.2680000067
 4030.8276367 13.000000000 8.9533004761 8.5000000000 12.500000000 -0.004600000  -999.250000 0.3361999989 2.5494000912 5.1999001503 86.171104431  -999.250000 92.172065735 214.77520752 1.2899999619 1.2910000086
 4030.9799805 13.000000000 8.9490995407 8.5000000000 12.500000000 -0.002200000  -999.250000 0.3213000000 2.5580999851 5.9096999168 86.860000610  -999.250000 92.494583130 215.54519653 1.2749999762 1.2619999647
 4031.1323242 13.000000000 8.9372997284 8.5000000000 12.434383392 -0.000600000  -999.250000 0.3070000112 2.5653998852 6.4468002319 86.857070923  -999.250000 93.057891846 216.67289734 1.2519999743 1.2159999609
 4031.2849121 13.000000000 8.9190998077 8.5000000000 12.434383392 0.0001000000  -999.250000 0.3009000123 2.5717000961 6.9042000771 85.032203674  -999.250000 93.596099854 216.96420288 1.2500000000 1.2200000286
 4031.4372559 13.000000000 8.8945999146 8.5000000000 12.171916008 -0.002800000  -999.250000 0.3120999932 2.5699000359 7.4331998825 85.722724915  -999.250000 93.745498657 217.31327820 1.2330000401 1.1799999475
 4031.5895996 13.000000000 8.8838996887 8.5000000000 11.942257881 -0.010000000  -999.250000 0.3197000027 2.5508000851 7.8850998878 87.418540955  -999.250000 93.399902344 217.10749817 1.2350000143 1.1729999781
 4031.7419434 13.000000000 8.8837995529 8.5000000000 11.187664032 -0.014000000  -999.250000 0.3124000132 2.5336999893 7.9774999619 86.510131836  -999.250000 92.915611267 216.67539978 1.2960000038 1.3229999542
 4031.8945313 13.000000000 8.8884000778 8.5000000000 10.662730217 -0.008400000  -999.250000 0.3120999932 2.5392000675 7.5473999977 86.591499329  -999.250000 92.940696716 215.95730591 1.3099999428 1.3500000238
 4032.0468750 13.000000000 8.9008998871 8.5000000000 9.9737529755 0.0035999999  -999.250000 0.3129999936 2.5571999550 6.7803997993 87.054885864  -999.250000 93.371002197 215.91180420 1.2860000134 1.2760000229
 4032.1992188 13.000000000 8.9123001099 8.5000000000 9.8097114563 0.0144999996  -999.250000 0.3046999872 2.5662999153 6.0711002350 83.870903015  -999.250000 93.801399231 215.86630249 1.2740000486 1.2510000467
 4032.3515625 13.000000000 8.9174003601 8.5000000000 9.8425197601 0.0187999997  -999.250000 0.3012000024 2.5692999363 5.7005000114 84.430801392  -999.250000 95.054901123 216.45610046 1.2489999533 1.2059999704
 4032.5039063 13.000000000 8.9228000641 8.5000000000 10.039369583 0.0197999999  -999.250000 0.3163999915 2.5841000080 5.6414999962 84.931472778  -999.250000 95.817001343 218.42469788 1.2389999628 1.1920000315
 4032.6564941 13.000000000 8.9306001663 8.5000000000 10.334646225 0.0163000003  -999.250000 0.3407999873 2.6031999588 5.6006999016 85.851005554  -999.250000 95.579902649 219.79139709 1.2220000029 1.1770000458
 4032.8088379 13.000000000 8.9364004135 8.5000000000 10.400262833 0.0062000002  -999.250000 0.3515999913 2.6017000675 5.4457998276 86.486045837  -999.250000 94.674797058 220.42039490 1.2180000544 1.1749999523
 4032.9611816 13.000000000 8.9479999542 8.5000000000 10.695538521 -0.000900000  -999.250000 0.3433000147 2.5861999989 5.3888001442 90.253448486  -999.250000 93.996002197 220.23359680 1.2100000381 1.1590000391
 4033.1135254 13.000000000 8.9626998901 8.5000000000 10.892388344 -0.003500000  -999.250000 0.3321999907 2.5703001022 5.4412999153 92.402008057  -999.250000 94.169700623 219.53129578 1.2100000381 1.1569999456
 4033.2661133 13.000000000 8.9621000290 8.5000000000 10.629920959 -0.001100000  -999.250000 0.3305999935 2.5571999550 5.6883001328 93.648628235  -999.250000 95.005691528 218.63850403 1.2220000029 1.1859999895
 4033.4184570 13.000000000 8.9281997681 8.5000000000 10.170603752 0.0010000000  -999.250000 0.3450999856 2.5473001003 6.0219001770 93.214309692  -999.250000 95.797607422 217.93490601 1.2280000448 1.2020000219
 4033.5708008 13.000000000 8.8937997818 8.5000000000 9.7440948486 -0.003500000  -999.250000 0.3621999919 2.5309998989 6.2741999626 89.670845032  -999.250000 95.998100281 218.61090088 1.2330000401 1.2150000334
 4033.7231445 13.000000000 8.8816995621 8.5000000000 9.7440948486 -0.010200000  -999.250000 0.3743999898 2.5232999325 6.1031999588 90.199417114  -999.250000 95.646003723 220.56681824 1.2189999819 1.1829999685
 4033.8757324 13.000000000 8.8780002594 8.5000000000 9.2847766876 -0.014600000  -999.250000 0.3697000146 2.5374999046 5.4015998840 89.844795227  -999.250000 95.242698669 218.84919739 1.2050000429 1.1599999666
 4034.0280762 13.000000000 8.8765001297 8.5000000000 8.3989496231 -0.020300001  -999.250000 0.3517999947 2.5597999096 4.7390999794 91.343170166  -999.250000 95.226501465 216.59320068 1.1970000267 1.1540000439
 4034.1804199 13.000000000 8.8784999847 8.5000000000 8.1692914963 -0.032699998  -999.250000 0.3452000022 2.5653998852 4.5405998230 93.319854736  -999.250000 95.555488586 211.45867920 1.1900000572 1.1380000114
 4034.3327637 13.000000000 8.8712997437 8.5000000000 7.7099728584 -0.048200000  -999.250000 0.3578000069 2.5541999340 4.6803998947 93.230789185  -999.250000 95.882003784 216.00219727 1.1959999800 1.1410000324
 4034.4853516 13.000000000 8.8467998505 8.5000000000 7.9396328926 -0.057599999  -999.250000 0.3686000109 2.5425000191 5.0046000481 93.729187012  -999.250000 95.958503723 219.40269470 1.2020000219 1.1349999905
 4034.6376953 13.000000000 8.8245000839 8.5000000000 8.4317579269 -0.054900002  -999.250000 0.3644999862 2.5397000313 5.2796001434 96.591407776  -999.250000 95.808998108 222.67300415 1.2079999447 1.1219999790
 4034.7900391 13.000000000 8.8215999603 8.5000000000 8.4317579269 -0.041499998  -999.250000 0.3517000079 2.5462999344 5.2217001915 97.473075867  -999.250000 95.574996948 222.55142212 1.2109999657 1.1250000000
 4034.9423828 13.000000000 8.8243999481 8.5000000000 8.4317579269 -0.033000000  -999.250000 0.3452999890 2.5513000488 5.0956997871 99.384696960  -999.250000 95.314399719 218.84959412 1.2589999437 1.2029999495
 4035.0947266 13.000000000 8.8267002106 8.5000000000 8.7598428726 -0.017200001  -999.250000 0.3352000117 2.5590999126 4.8611001968 96.064666748  -999.250000 94.973503113 214.46119690 1.2999999523 1.2710000277
