# LAS format log file from PETREL
# Project units are specified as depth units
#==================================================================
~Version information
VERS.   2.0:
WRAP.   NO:
#==================================================================
~Well
STRT .m      1936.1920166 :
STOP .m      3906.2648926 :
STEP .m     0.00000000 :
NULL .        -999.250000 :
COMP.           : COMPANY
WELL.  33/6-1   : WELL
FLD.            : FIELD
LOC.            : LOCATION
SRVC.           : SERVICE COMPANY
DATE.  2018-09-11 14:48:41   : Log Export Date {yyyy-MM-dd HH:mm:ss}
PROV.           : PROVINCE
UWI.   33/6-1   : UNIQUE WELL ID
API.            : API NUMBER
#==================================================================
~Curve
DEPT .m                   : DEPTH
Lithology_geolink ._      : Lithology_geolink
CALI .in                  : CALI
BS .in                    : BS
DRHO .g/cm3               : DRHO
NPHI .m3/m3               : NPHI
RHOB .g/cm3               : RHOB
GR .gAPI                  : GR
DTC .us/ft                : DTC
RDEP .ohm.m               : RDEP
SP .mV                    : SP
RSHA .ohm.m               : RSHA
RMED .ohm.m               : RMED
~Parameter
#==================================================================
~Ascii
# ...
 2587.2443848  -999.250000 12.845999718  -999.250000 0.0919744000 0.3549170196 2.4829280376 66.127273560 99.439590454 1.9498159885 26.559055328 2.0688400269 2.0688400269
 2587.3967285  -999.250000 12.900999069  -999.250000 0.0839839727 0.3542867005 2.4679567814 65.390632629 99.530708313 1.9797596931 26.685981750 2.0908238888 2.0908238888
 2587.5490723  -999.250000 12.904001236  -999.250000 0.0740048066 0.3515216708 2.4589872360 64.865440369 99.797447205 2.0117437840 26.757431030 2.1148076057 2.1148076057
 2587.7014160  -999.250000 12.859000206  -999.250000 0.0769807696 0.3489377499 2.4549326897 64.336105347 100.09591675 2.0437436104 26.733200073 2.1556713581 2.1556713581
 2587.8540039  -999.250000 12.869999886  -999.250000 0.0649584010 0.3482936621 2.4339039326 64.363632202 99.862442017 2.0777280331 26.587177277 2.2016317844 2.2016317844
 2588.0063477  -999.250000 12.928999901  -999.250000 0.0520288460 0.3615241647 2.4141199589 65.083984375 98.387153625 2.1147034168 26.361810684 2.2367196083 2.2367196083
 2588.1586914  -999.250000 12.939999580  -999.250000 0.0699727535 0.3727829456 2.4389517307 65.386177063 99.335670471 2.1487274170 26.118947983 2.2677514553 2.2677514553
 2588.3110352  -999.250000 12.914999962  -999.250000 0.0530144237 0.3799128234 2.4240512848 64.473991394 98.348983765 2.1648716927 25.876939774 2.2858557701 2.2858557701
 2588.4636230  -999.250000 12.887999535  -999.250000 0.0620351993 0.3776492476 2.4400577545 62.815029144 97.731307983 2.1759295464 25.633558273 2.2979230881 2.2979230881
 2588.6159668  -999.250000 12.862000465  -999.250000 0.0729903802 0.3713064194 2.4519472122 62.682041168 98.707809448 2.1879038811 25.422687531 2.3069279194 2.3069279194
 2588.7683105  -999.250000 12.838000298  -999.250000 0.0670096204 0.3768157959 2.4410352707 65.492874146 98.520523071 2.2058558464 25.312873840 2.3149359226 2.3149359226
 2588.9206543  -999.250000 12.835000038  -999.250000 0.0729823709 0.3847984374 2.4520256519 67.809005737 98.133689880 2.2317917347 25.240575790 2.3259117603 2.3259117603
 2589.0729980  -999.250000 12.864000320  -999.250000 0.0619759597 0.3749729097 2.4599742889 69.052879333 97.654693604 2.2577915192 25.178495407 2.3398876190 2.3398876190
 2589.2255859  -999.250000 12.899999619  -999.250000 0.0469871983 0.3758742511 2.4520335197 69.227813721 97.596862793 2.2798240185 25.129392624 2.3528959751 2.3528959751
 2589.3779297  -999.250000 12.904001236  -999.250000 0.0429919772 0.3767326176 2.4589936733 68.104324341 98.510414124 2.2919039726 25.084360123 2.3619279861 2.3619279861
 2589.5302734  -999.250000 12.878000259  -999.250000 0.0379583314 0.3713327348 2.4569454193 66.596237183 99.352264404 2.3029117584 25.039360046 2.3500959873 2.3500959873
 2589.6826172  -999.250000 12.895999908  -999.250000 0.0250320509 0.3721994758 2.4399936199 65.191764832 99.611007690 2.3149039745 24.999320984 2.3132965565 2.3132965565
 2589.8352051  -999.250000 12.940999985  -999.250000 0.0350721143 0.3751229346 2.4380865097 64.107131958 98.981712341 2.3229360580 25.041656494 2.3110160828 2.3110160828
 2589.9875488  -999.250000 12.937000275  -999.250000 0.0500911996 0.3714962602 2.4560768604 63.815666199 97.532974243 2.3289518356 25.120367050 2.3705193996 2.3705193996
 2590.1398926  -999.250000 12.900999069  -999.250000 0.0689423084 0.3520252407 2.4719998837 63.604763031 96.130744934 2.3349518776 25.199367523 2.4374630451 2.4374630451
 2590.2922363  -999.250000 12.880998611  -999.250000 0.0509775616 0.3411761224 2.4720768929 62.941314697 95.628120422 2.3389680386 25.277374268 2.4915673733 2.4915673733
 2590.4448242  -999.250000 12.887001038  -999.250000 0.0440288447 0.3306691945 2.4960241318 61.765048981 96.278106689 2.3320448399 25.356492996 2.5188269615 2.5188269615
 2590.5971680  -999.250000 12.899000168  -999.250000 0.0500719994 0.3346890211 2.5009615421 61.778102875 97.230865479 2.3230719566 25.431398392 2.5090801716 2.5090801716
 2590.7495117  -999.250000 12.890998840  -999.250000 0.0649903789 0.3428030312 2.4929423332 62.561424255 98.142692566 2.3120882511 25.503423691 2.4871761799 2.4871761799
 2590.9018555  -999.250000 12.881999969  -999.250000 0.0619647428 0.3499906957 2.4749164581 61.376945496 98.403274536 2.2991042137 25.575424194 2.4622001648 2.4622001648
 2591.0541992  -999.250000 12.887999535  -999.250000 0.0509711541 0.3563766778 2.4490511417 59.712139130 97.838729858 2.2870960236 25.647424698 2.4292643070 2.4292643070
 2591.2067871  -999.250000 12.899999619  -999.250000 0.0420383997 0.3428497016 2.4651007652 60.163684845 97.786010742 2.2780721188 25.719423294 2.4190800190 2.4190800190
 2591.3591309  -999.250000 12.902999878  -999.250000 0.0499455146 0.3303526640 2.4859392643 61.511367798 98.256141663 2.2780001163 25.790431976 2.4100720882 2.4100720882
 2591.5114746  -999.250000 12.902999878  -999.250000 0.0330480784 0.3312213719 2.4669871330 61.719524384 98.744682312 2.2780001163 25.854486465 2.3881762028 2.3881762028
 2591.6638184  -999.250000 12.909000397  -999.250000 0.0480448715 0.3441254497 2.4629454613 60.793163300 98.886154175 2.2780001163 25.915512085 2.3572485447 2.3572485447
 2591.8164063  -999.250000 12.913000107  -999.250000 0.0619471148 0.3551611304 2.4458415508 60.832378387 99.126869202 2.2740318775 25.977504730 2.3421199322 2.3421199322
 2591.9687500  -999.250000 12.921999931  -999.250000 0.0509376004 0.3574754894 2.4130578041 61.671691895 99.573867798 2.2680480480 25.959152222 2.3420000076 2.3420000076
 2592.1210938  -999.250000 12.935999870  -999.250000 0.0380288437 0.3586210608 2.4250864983 62.550155640 100.01734161 2.2620482445 25.900472641 2.3439841270 2.3439841270
 2592.2734375  -999.250000 12.942000389  -999.250000 0.0469583310 0.3620726168 2.4519710541 61.947196960 99.910377502 2.2620000839 25.840480804 2.3568959236 2.3568959236
 2592.4260254  -999.250000 12.932000160  -999.250000 0.0339326933 0.3660119474 2.4429183006 60.742229462 98.743904114 2.2729294300 25.763494492 2.3768718243 2.3768718243
 2592.5783691  -999.250000 12.918999672  -999.250000 0.0201295987 0.3705814481 2.4261152744 60.160591125 98.261054993 2.2849040031 25.675703049 2.4067599773 2.4067599773
 2592.7307129  -999.250000 12.909000397  -999.250000 0.0470032021 0.3750211596 2.4500641823 60.564174652 97.804916382 2.2959117889 25.661111832 2.4387435913 2.4387435913
 2592.8830566  -999.250000 12.897998810  -999.250000 0.0479711555 0.3722484410 2.4699935913 60.899513245 97.949317932 2.3049280643 25.727464676 2.4707436562 2.4707436562
 2593.0351563  -999.250000 12.880998611  -999.250000 0.0389903858 0.3624320924 2.4679758549 60.386634827 98.430488586 2.3129229546 25.763654709 2.4977402687 2.4977402687
 2593.1877441  -999.250000 12.861000061  -999.250000 0.0330576003 0.3637526035 2.4530193806 60.895874023 98.894256592 2.3199326992 25.651094437 2.4960193634 2.4960193634
 2593.3400879  -999.250000 12.850000381  -999.250000 0.0510032028 0.3708043694 2.4589793682 61.075641632 99.364463806 2.3279230595 25.482625961 2.4771826267 2.4771826267
 2593.4924316  -999.250000 12.847000122  -999.250000 0.0529935881 0.3797740638 2.4460082054 60.792984009 99.875869751 2.3339424133 25.480009079 2.4472885132 2.4472885132
 2593.6447754  -999.250000 12.855999947  -999.250000 0.0489823706 0.3760541975 2.4510030746 60.477584839 99.833488464 2.3409328461 25.557250977 2.4133269787 2.4133269787
 2593.7971191  -999.250000 12.878999710  -999.250000 0.0379935876 0.3599605858 2.4529953003 60.348175049 99.362159729 2.3390223980 25.642047882 2.3872911930 2.3872911930
 2593.9497070  -999.250000 12.902999878  -999.250000 0.0340576023 0.3541166782 2.4500064850 60.403686523 99.100753784 2.3340482712 25.730154037 2.3870000839 2.3870000839
 2594.1020508  -999.250000 12.916000366  -999.250000 0.0519807711 0.3593278825 2.4519822598 60.548526764 99.051612854 2.3280577660 25.821125031 2.3870000839 2.3870000839
 2594.2543945  -999.250000 12.916000366  -999.250000 0.0400032029 0.3642330766 2.4410142899 61.074466705 99.178222656 2.3250288963 25.911134720 2.3870000839 2.3870000839
 2594.4067383  -999.250000 12.906999588  -999.250000 0.0420048088 0.3599001765 2.4500224590 61.844730377 99.245674133 2.3368844986 26.001134872 2.4137403965 2.4137403965
