# LAS format log file from PETREL
# Project units are specified as depth units
#==================================================================
~Version information
VERS.   2.0:
WRAP.   NO:
#==================================================================
~Well
STRT .m      3400.0439453 :
STOP .m      3961.3330078 :
STEP .m     0.00000000 :
NULL .        -999.250000 :
COMP.           : COMPANY
WELL.  33/6-2   : WELL
FLD.            : FIELD
LOC.            : LOCATION
SRVC.           : SERVICE COMPANY
DATE.  2018-09-11 14:48:41   : Log Export Date {yyyy-MM-dd HH:mm:ss}
PROV.           : PROVINCE
UWI.   33/6-2   : UNIQUE WELL ID
API.            : API NUMBER
#==================================================================
~Curve
DEPT .m                   : DEPTH
Lithology_geolink ._      : Lithology_geolink
NPHI .m3/m3               : NPHI
RHOB .g/cm3               : RHOB
GR .gAPI                  : GR
DTC .us/ft                : DTC
RDEP .ohm.m               : RDEP
RSHA .ohm.m               : RSHA
RMED .ohm.m               : RMED
~Parameter
#==================================================================
~Ascii
# ...
 3907.8408203 7.0000000000 0.2974300086 2.6229999065 133.48374939 83.728996277 3.7939999104 5.2039999962 3.1259999275
 3907.9931641 7.0000000000 0.3082399964 2.6259999275 132.08114624 84.228996277 3.6809999943 5.4330000877 3.1700000763
 3908.1457520 6.0000000000 0.3067699969 2.6219999790 126.55335999 84.433998108 3.5850000381 5.7230000496 3.1919999123
 3908.2980957 6.0000000000 0.3052899837 2.6180000305 122.61978912 84.527000427 3.7230000496 6.1160001755 3.2699999809
 3908.4504395 6.0000000000 0.3020199835 2.6110000610 124.98031616 84.430000305 3.9309999943 6.8289999962 3.4400000572
 3908.6027832 5.0000000000 0.3103500009 2.6099998951 123.92332458 84.166000366 4.1079998016 7.7919998169 3.6459999084
 3908.7553711 5.0000000000 0.3029800057 2.6089999676 119.13224030 83.831001282 4.3649997711 8.6929998398 3.7739999294
 3908.9077148 5.0000000000 0.2971900105 2.6180000305 115.77803802 83.177001953 4.7080001831 9.9460000992 3.8269999027
 3909.0600586 6.0000000000 0.2807700038 2.6219999790 113.93918610 82.706001282 5.0159997940 12.763999939 3.9969999790
 3909.2124023 6.0000000000 0.2754800022 2.6289999485 118.41917419 82.350006104 5.0469999313 16.871000290 4.2639999390
 3909.3649902 5.0000000000 0.2749799788 2.6259999275 121.00997925 81.775993347 4.8550000191 17.635999680 4.3410000801
 3909.5173340 5.0000000000 0.2894400060 2.6280000210 117.88903809 80.873001099 4.7579998970 15.369999886 4.1560001373
 3909.6696777 5.0000000000 0.2892200053 2.6340000629 117.28447723 80.349998474 4.7719998360 13.454999924 3.9330000877
 3909.8220215 5.0000000000 0.2890900075 2.6480000019 115.09498596 80.224998474 4.6750001907 12.211999893 3.7709999084
 3909.9743652 5.0000000000 0.2844000161 2.6449999809 118.83181763 80.166000366 4.3889999390 12.187000275 3.6549999714
 3910.1269531 5.0000000000 0.2773199975 2.6449999809 123.70449066 79.987007141 3.8759999275 13.529999733 3.5280001163
 3910.2792969 6.0000000000 0.2730699778 2.6370000839 124.17526245 79.949996948 3.2360000610 14.847000122 3.3110001087
 3910.4316406 6.0000000000 0.2696500123 2.6440000534 128.69841003 79.807998657 2.9230000973 15.479000092 3.1679999828
 3910.5839844 6.0000000000 0.2707299888 2.6349999905 126.46858215 79.822998047 3.2239999771 16.010999680 3.2430000305
 3910.7365723 6.0000000000 0.2806999981 2.6219999790 129.93411255 79.995002747 4.5139999390 17.106000900 3.5230000019
 3910.8889160 6.0000000000 0.2793399990 2.6129999161 125.61415100 80.064002991 6.9670000076 18.271999359 3.8529999256
 3911.0412598 6.0000000000 0.2820700109 2.6199998856 129.43864441 80.203002930 6.3239998817 15.722999573 3.8259999752
 3911.1936035 6.0000000000 0.2757500112 2.6300001144 125.47947693 80.621002197 3.7609999180 12.263999939 3.4360001087
 3911.3461914 6.0000000000 0.2742200196 2.6340000629 128.25100708 81.139999390 3.2269999981 11.310000420 3.3289999962
 3911.4985352 6.0000000000 0.2802000046 2.6400001049 122.33480835 81.125999451 5.8829998970 11.564000130 3.7850000858
 3911.6508789 6.0000000000 0.2887099981 2.6770000458 124.08319855 80.483001709 11.633000374 10.671999931 4.2129998207
 3911.8032227 6.0000000000 0.2893700004 2.7320001125 124.20625305 79.681999207 21.740999222 9.5389995575 3.8629999161
 3911.9555664 7.0000000000 0.2826400101 2.8059999943 123.75392914 78.791000366 9.8350000381 8.8009996414 3.5099999905
 3912.1081543 7.0000000000 0.2764399946 2.8050000668 132.44064331 77.500999451 9.1879997253 7.7290000916 3.7019999027
 3912.2604980 7.0000000000 0.2841300070 2.7909998894 134.82948303 75.103996277 15.878000259 7.2849998474 4.4460000992
 3912.4128418 7.0000000000 0.2817200124 2.7790000439 139.47593689 70.877998352 18.968000412 8.0450000763 5.2300000191
 3912.5651855 7.0000000000 0.2830400169 2.7929999828 130.09059143 66.244003296 10.862000465 8.7620000839 5.1849999428
 3912.7177734 6.0000000000 0.2815699875 2.8280000687 125.45536804 63.011001587 7.5409998894 7.9079999924 4.7820000648
 3912.8701172 6.0000000000 0.2794300020 2.8159999847 121.52467346 64.325996399 7.4089999199 6.5799999237 4.8340001106
 3913.0224609 6.0000000000 0.2624000013 2.7679998875 125.05139923 70.487998962 8.4060001373 5.9149999619 5.5180001259
 3913.1748047 5.0000000000 0.2412299961 2.7279999256 119.68352509 72.727996826 8.1969995499 5.7420001030 6.0580000877
 3913.3273926 5.0000000000 0.2388100028 2.7160000801 111.87638855 72.678001404 7.0539999008 5.6329998970 5.8649997711
 3913.4797363 4.0000000000 0.2263900042 2.7239999771 100.77548218 72.367996216 6.5390000343 5.5859999657 5.5570001602
 3913.6320801 4.0000000000 0.2168899924 2.7200000286 96.721855164 71.258003235 6.5110001564 5.6840000153 5.3979997635
 3913.7844238 4.0000000000 0.2178799957 2.7119998932 99.747680664 70.495002747 6.5580000877 5.8369998932 5.3169999123
 3913.9367676 4.0000000000 0.2108699977 2.7149999142 100.17742920 70.375000000 6.5570001602 6.0050001144 5.2760000229
 3914.0893555 4.0000000000 0.2081300020 2.7219998837 104.81619263 69.776000977 6.5419998169 6.2150001526 5.2630000114
 3914.2416992 5.0000000000 0.1931900084 2.7090001106 106.80928040 67.833999634 6.5510001183 6.3720002174 5.2610001564
 3914.3940430 5.0000000000 0.2034199834 2.6860001087 111.96752167 65.279998779 6.5869998932 6.3509998322 5.2540001869
 3914.5463867 5.0000000000 0.2157000005 2.6619999409 112.28185272 63.998001099 6.5960001945 6.2170000076 5.2410001755
 3914.6989746 5.0000000000 0.2287700027 2.6619999409 107.17859650 64.496002197 6.5650000572 6.0780000687 5.2259998322
 3914.8513184 1.0000000000 0.2022100091 2.6440000534 98.617469788 65.698997498 6.5250000954 5.8810000420 5.2049999237
 3915.0036621 1.0000000000 0.1453400105 2.5850000381 83.323532104 66.602996826 6.4980001450 5.5510001183 5.1729998589
 3915.1560059 1.0000000000 0.0794100016 2.5169999599 74.299980164 66.828002930 6.4869999886 5.1649999619 5.1399998665
 3915.3085938 1.0000000000 0.0680899993 2.4719998837 65.572257996 66.861000061 6.4910001755 4.8070001602 5.1139998436
 3915.4609375 1.0000000000 0.0920699984 2.4639999866 67.518936157 67.573997498 6.5100002289 4.4530000687 5.0789999962
 3915.6132813 1.0000000000 0.1388600022 2.4619998932 66.227775574 69.162002563 6.5430002213 4.1209998131 5.0289998055
 3915.7656250 2.0000000000 0.1689500064 2.4749999046 65.469261169 70.803001404 6.5999999046 3.9010000229 4.9899997711
 3915.9182129 2.0000000000 0.1995000094 2.4860000610 66.879135132 70.704002380 6.6659998894 3.8389999866 4.9749999046
 3916.0705566 2.0000000000 0.2164900005 2.4909999371 67.857101440 68.880996704 6.7160000801 3.9079999924 4.9800000191
 3916.2229004 2.0000000000 0.2265200019 2.5000000000 68.537284851 66.685997009 6.7249999046 4.0329999924 4.9899997711
 3916.3752441 2.0000000000 0.2250499874 2.5039999485 64.979553223 65.210998535 6.6599998474 4.1589999199 4.9910001755
 3916.5275879 2.0000000000 0.2099400014 2.5369999409 67.201225281 64.844001770 6.5310001373 4.3260002136 4.9939999580
 3916.6796875 2.0000000000 0.1926800013 2.5808591843 71.081001282 64.395439148 6.4492621422 4.6180624962 5.0199170113
 3916.8322754 16.000000000 0.1403799951 2.6588749886 70.440002441 63.408580780 6.5897741318 4.9963946342 5.0739135742
 3916.9846191 16.000000000 0.0832799971 2.7019309998 62.812999725 62.328731537 7.1131601334 5.2665677071 5.1438879967
 3917.1369629 16.000000000 0.0352599993 2.7019999027 55.742000580 61.801841736 7.9746184349 5.2919597626 5.1979136467
 3917.2893066 2.0000000000 0.0252599996 2.6900384426 51.053001404 62.017307281 8.8412218094 5.1095857620 5.2009906769
 3917.4418945 2.0000000000 0.0388399996 2.6870048046 53.433998108 63.225063324 9.7525415421 4.8114776611 5.1800336838
 3917.5942383 2.0000000000 0.0641099960 2.6740207672 55.442001343 65.600189209 10.908146858 4.4825272560 5.1480512619
 3917.7465820 2.0000000000 0.1083100066 2.6370594501 62.268001556 68.175872803 10.286001205 4.1994533539 4.9792709351
 3917.8989258 2.0000000000 0.1546999961 2.6110832691 65.855003357 70.300193787 7.3564019203 4.0145921707 4.6331105232
 3918.0515137 2.0000000000 0.1859100014 2.5900335312 74.239997864 71.269462585 5.4500451088 3.9520993233 4.3684229851
