# LAS format log file from PETREL
# Project units are specified as depth units
#==================================================================
~Version information
VERS.   2.0:
WRAP.   NO:
#==================================================================
~Well
STRT .m      3400.0439453 :
STOP .m      3961.3330078 :
STEP .m     0.00000000 :
NULL .        -999.250000 :
COMP.           : COMPANY
WELL.  33/6-2   : WELL
FLD.            : FIELD
LOC.            : LOCATION
SRVC.           : SERVICE COMPANY
DATE.  2018-09-11 14:48:41   : Log Export Date {yyyy-MM-dd HH:mm:ss}
PROV.           : PROVINCE
UWI.   33/6-2   : UNIQUE WELL ID
API.            : API NUMBER
#==================================================================
~Curve
DEPT .m                   : DEPTH
Lithology_geolink ._      : Lithology_geolink
NPHI .m3/m3               : NPHI
RHOB .g/cm3               : RHOB
GR .gAPI                  : GR
DTC .us/ft                : DTC
RDEP .ohm.m               : RDEP
RSHA .ohm.m               : RSHA
RMED .ohm.m               : RMED
~Parameter
#==================================================================
~Ascii
# ...
 3731.6665039 6.0000000000 0.2691900134 2.6679999828 118.44899750 81.186996460 8.6969995499 52.693000793 6.7340002060
 3731.8188477 6.0000000000 0.2779999971 2.6549999714 126.66699982 81.549003601 8.4169998169 56.835998535 6.4530000687
 3731.9711914 6.0000000000 0.2739399970 2.6259999275 123.68699646 82.381996155 7.7259998322 63.055000305 6.2160000801
 3732.1235352 6.0000000000 0.2687100172 2.6099998951 120.58000183 83.149002075 6.8979997635 52.035999298 6.0390000343
 3732.2761230 5.0000000000 0.2622400224 2.6110000610 117.07900238 83.624000549 6.2119998932 25.909000397 5.7020001411
 3732.4284668 5.0000000000 0.2560099959 2.6240000725 120.45300293 83.670005798 5.9840002060 13.173999786 5.3470001221
 3732.5808105 5.0000000000 0.2638599873 2.6289999485 116.39499664 83.229995728 6.5689997673 10.119000435 5.5650000572
 3732.7331543 5.0000000000 0.2894499898 2.6310000420 115.02300262 82.371002197 8.1070003510 11.020999908 6.5640001297
 3732.8857422 5.0000000000 0.3068799973 2.6219999790 112.87200165 80.977989197 9.3920001984 12.467000008 7.1259999275
 3733.0380859 5.0000000000 0.2855400145 2.6029999256 112.60399628 78.943000793 10.135000229 13.130999565 6.8600001335
 3733.1904297 5.0000000000 0.2531699836 2.5869998932 110.00299835 77.558998108 11.756999969 17.163999557 6.8990001678
 3733.3427734 5.0000000000 0.2273800075 2.5639998913 104.94799805 76.908996582 12.803999901 30.709999084 7.0430002213
 3733.4951172 4.0000000000 0.2214999944 2.5309998989 99.338996887 76.512001038 11.656999588 52.215000153 6.7620000839
 3733.6477051 4.0000000000 0.2050600052 2.4990000725 96.360000610 75.948997498 10.484000206 51.879001617 6.4439997673
 3733.8000488 4.0000000000 0.1962400079 2.4739999771 91.251998901 75.599998474 9.9540004730 40.751998901 6.3540000916
 3733.9523926 16.000000000 0.1893700063 2.4790000916 88.472999573 76.196998596 9.5609998703 30.451000214 6.3720002174
 3734.1047363 16.000000000 0.1860199869 2.4790000916 85.740997314 76.150001526 9.3900003433 27.048999786 6.6329998970
 3734.2573242 16.000000000 0.1961199939 2.4839999676 85.331001282 75.347999573 9.8990001678 39.770000458 7.5450000763
 3734.4096680 16.000000000 0.1976400018 2.5000000000 86.764999390 74.463996887 10.993000031 33.405998230 8.8739995956
 3734.5620117 16.000000000 0.2101600021 2.5220000744 90.738998413 73.508003235 12.583000183 26.451999664 9.8210000992
 3734.7143555 4.0000000000 0.2179299891 2.5429999828 96.222999573 72.540000916 14.517000198 22.955999374 10.324000359
 3734.8669434 4.0000000000 0.2476499975 2.5799999237 102.91100311 72.214996338 15.078000069 23.018999100 10.390000343
 3735.0192871 4.0000000000 0.2930800021 2.5720000267 105.51899719 72.635002136 14.104000092 24.082000732 9.9899997711
 3735.1716309 4.0000000000 0.3207799792 2.5669999123 108.92600250 73.623001099 12.357000351 17.694999695 9.3420000076
 3735.3239746 5.0000000000 0.3339000046 2.5139999390 112.35900116 74.690002441 10.519000053 10.810000420 8.4090003967
 3735.4763184 5.0000000000 0.3370299935 2.4909999371 117.05899811 75.967002869 8.9949998856 7.6849999428 7.3870000839
 3735.6289063 5.0000000000 0.3537900150 2.4570000172 118.01499939 78.412002563 8.0319995880 6.3959999084 6.5199999809
 3735.7812500 5.0000000000 0.3784199953 2.4470000267 120.55999756 82.721000671 7.4180002213 5.7719998360 5.8400001526
 3735.9335938 6.0000000000 0.3767699897 2.4619998932 123.33100128 87.137001038 6.9569997787 5.4239997864 5.4089999199
 3736.0859375 6.0000000000 0.3804799914 2.4700000286 129.53999329 90.419998169 6.4600000381 5.3130002022 5.1510000229
 3736.2385254 6.0000000000 0.3794699907 2.4579999447 132.14700317 92.150001526 5.9019999504 5.2909998894 4.8930001259
 3736.3908691 6.0000000000 0.3832100034 2.4549999237 130.81700134 92.582000732 5.5159997940 5.3639998436 4.6669998169
 3736.5432129 6.0000000000 0.3574499786 2.4609999657 130.79499817 91.924003601 5.5289998055 5.8920001984 4.6750001907
 3736.6955566 6.0000000000 0.3541299701 2.4739999771 127.54499817 90.286994934 5.9699997902 7.1269998550 4.9039998055
 3736.8481445 6.0000000000 0.3597999811 2.4749999046 125.25399780 88.064002991 6.6890001297 8.7629995346 5.1110000610
 3737.0004883 6.0000000000 0.3810299933 2.4690001011 119.46199799 87.372001648 7.4010000229 10.347999573 5.2090001106
 3737.1528320 5.0000000000 0.3685500026 2.4630000591 112.40499878 87.493003845 7.9120001793 12.616000175 5.3969998360
 3737.3051758 5.0000000000 0.3544400036 2.4570000172 111.14299774 87.235000610 8.2550001144 16.900999069 5.7239999771
 3737.4575195 5.0000000000 0.3375599980 2.4489998817 108.88200378 86.343002319 8.4670000076 22.976999283 5.9439997673
 3737.6101074 5.0000000000 0.3293399811 2.4409999847 117.45099640 85.651000977 8.5010004044 27.905000687 5.9140000343
 3737.7624512 5.0000000000 0.3336600065 2.4430000782 118.74199677 85.004997253 8.2379999161 29.909999847 5.7259998322
 3737.9147949 5.0000000000 0.3346099854 2.4460000992 128.55599976 84.947998047 7.5970001221 28.577999115 5.4510002136
 3738.0671387 6.0000000000 0.3341899812 2.4440000057 127.29299927 85.773002625 6.7950000763 22.811000824 5.0900001526
 3738.2197266 6.0000000000 0.3323099911 2.4470000267 129.89799500 85.973999023 6.2119998932 16.497999191 4.7109999657
 3738.3720703 6.0000000000 0.3581900001 2.4430000782 126.94799805 86.393997192 5.9939999580 13.795000076 4.4949998856
 3738.5244141 6.0000000000 0.3643800020 2.4419999123 124.58899689 88.333999634 5.8800001144 14.300999641 4.4479999542
 3738.6767578 5.0000000000 0.3756600320 2.4460000992 121.73999786 90.654998779 5.8169999123 17.194999695 4.5009999275
 3738.8293457 5.0000000000 0.3580199778 2.4590001106 118.21299744 92.321998596 5.9850001335 22.561000824 4.6139998436
 3738.9816895 5.0000000000 0.3671000004 2.4509999752 115.73100281 93.603004456 6.2610001564 30.239000320 4.6739997864
 3739.1340332 5.0000000000 0.3713700175 2.4249999523 114.70400238 94.843002319 6.4539999962 38.644001007 4.6739997864
 3739.2863770 5.0000000000 0.3875800073 2.4070000648 112.56400299 95.931999207 6.4470000267 43.599998474 4.6339998245
 3739.4387207 5.0000000000 0.3863499761 2.4170000553 114.46499634 96.310997009 6.1449999809 43.595001221 4.5279998779
 3739.5913086 5.0000000000 0.3621699810 2.4530000687 113.94899750 96.227996826 5.6269998550 47.117000580 4.3759999275
 3739.7436523 5.0000000000 0.3473600149 2.4820001125 117.98400116 96.077003479 5.1050000191 62.092998505 4.2039999962
 3739.8959961 6.0000000000 0.3537799716 2.5150001049 122.90799713 95.521003723 4.6620001793 94.007003784 3.9800000191
 3740.0483398 6.0000000000 0.3642399907 2.5350000858 127.50099945 93.959999084 4.3080000877 129.19200134 3.7320001125
 3740.2009277 6.0000000000 0.3663700223 2.5729999542 126.12300110 91.443992615 4.0570001602 95.825996399 3.5339999199
 3740.3532715 6.0000000000 0.3259699941 2.6029999256 124.01200104 89.581001282 3.9530000687 53.873001099 3.4219999313
 3740.5056152 6.0000000000 0.3199099898 2.6250000000 121.92199707 88.454002380 3.9500000477 39.659999847 3.3900001049
 3740.6579590 5.0000000000 0.3093300164 2.6250000000 121.14900208 87.451995850 3.8870000839 34.014999390 3.3580000401
 3740.8105469 5.0000000000 0.3311299980 2.6129999161 121.25299835 87.138999939 3.7449998856 29.832000732 3.2630000114
 3740.9628906 5.0000000000 0.3235699832 2.5950000286 121.33499908 86.836997986 3.6679999828 36.800998688 3.1949999332
 3741.1152344 5.0000000000 0.3294399977 2.5989999771 121.48799896 86.271003723 3.7070000172 108.54799652 3.2609999180
 3741.2675781 5.0000000000 0.3398599923 2.6140000820 117.54399872 86.152000427 3.8280000687 239.93200684 3.4300000668
 3741.4199219 5.0000000000 0.3246900141 2.6180000305 118.82700348 86.130996704 3.9809999466 728.55200195 3.5460000038
 3741.5725098 5.0000000000 0.3168399930 2.6129999161 119.98300171 86.009002686 4.0840001106 677.01800537 3.5239999294
 3741.7248535 5.0000000000 0.3303500116 2.6050000191 119.64399719 85.971000671 4.0640001297 414.64001465 3.4340000153
 3741.8771973 5.0000000000 0.3594900072 2.6040000916 119.64399719 85.897003174 3.9939999580 164.72799683 3.3829998970
