# LAS format log file from PETREL
# Project units are specified as depth units
#==================================================================
~Version information
VERS.   2.0:
WRAP.   NO:
#==================================================================
~Well
STRT .m      3400.0439453 :
STOP .m      3961.3330078 :
STEP .m     0.00000000 :
NULL .        -999.250000 :
COMP.           : COMPANY
WELL.  33/6-2   : WELL
FLD.            : FIELD
LOC.            : LOCATION
SRVC.           : SERVICE COMPANY
DATE.  2018-09-11 14:48:41   : Log Export Date {yyyy-MM-dd HH:mm:ss}
PROV.           : PROVINCE
UWI.   33/6-2   : UNIQUE WELL ID
API.            : API NUMBER
#==================================================================
~Curve
DEPT .m                   : DEPTH
Lithology_geolink ._      : Lithology_geolink
NPHI .m3/m3               : NPHI
RHOB .g/cm3               : RHOB
GR .gAPI                  : GR
DTC .us/ft                : DTC
RDEP .ohm.m               : RDEP
RSHA .ohm.m               : RSHA
RMED .ohm.m               : RMED
~Parameter
#==================================================================
~Ascii
# ...
 3586.5815430 16.000000000 0.1332300007 2.5000000000 108.59600067 84.932998657 1.1380000114 0.9546610117 1.0310000181
 3586.7341309 16.000000000 0.1869100034 2.4700000286 118.91400146 84.923004150 0.4864340127 0.9081040025 0.7989209890
 3586.8864746 16.000000000 0.2298900038 2.4419999123 130.88499451 84.912002563 0.5316820145 1.0820000172 0.7486479878
 3587.0388184 16.000000000 0.2890999913 2.4579999447 136.34399414 84.902000427 1.1469999552 1.7630000114 0.9151909947
 3587.1911621 16.000000000 0.3066399992 2.5039999485 133.69000244 84.890991211 1.5520000458 4.3489999771 1.2649999857
 3587.3437500 6.0000000000 0.3240300119 2.5429999828 129.06799316 84.880996704 0.9832860231 9.1210002899 1.6849999428
 3587.4960938 6.0000000000 0.2901499867 2.5529999733 126.78199768 84.871002197 1.1950000525 11.112000465 2.6760001183
 3587.6484375 6.0000000000 0.2814999819 2.5699999332 125.41799927 84.860000610 2.7660000324 6.1209998131 4.3979997635
 3587.8007813 6.0000000000 0.2643499970 2.5910000801 122.70400238 84.850006104 2.8699998856 3.5109999180 3.6419999599
 3587.9531250 6.0000000000 0.2803300023 2.5759999752 125.89800262 84.839996338 1.4520000219 2.6129999161 2.7260000706
 3588.1057129 6.0000000000 0.2787599862 2.4990000725 127.28399658 84.829002380 1.2039999962 2.4110000134 2.5280001163
 3588.2580566 6.0000000000 0.2666299939 2.4730000496 126.27100372 84.819000244 1.5379999876 2.4030001163 2.7200000286
 3588.4104004 6.0000000000 0.2447900027 2.4719998837 129.06500244 84.807998657 2.8110001087 2.4349999428 3.2620000839
 3588.5627441 6.0000000000 0.2358700037 2.4630000591 130.55599976 84.797996521 4.4860000610 2.6059999466 3.4509999752
 3588.7153320 6.0000000000 0.2599599957 2.4110000134 138.38299561 84.788002014 3.1940000057 3.0499999523 2.9449999332
 3588.8676758 6.0000000000 0.2996500134 2.4330000877 139.34100342 84.777008057 1.8739999533 3.6659998894 2.9000000954
 3589.0200195 6.0000000000 0.3375400305 2.4219999313 144.43499756 84.766998291 1.7819999456 3.4869999886 3.2739999294
 3589.1723633 6.0000000000 0.3516999781 2.4379999638 139.73599243 84.757003784 2.1909999847 2.5699999332 2.4489998817
 3589.3249512 6.0000000000 0.3453699946 2.3289999962 132.85899353 84.746002197 2.1329998970 2.2309999466 1.5180000067
 3589.4772949 6.0000000000 0.2903800011 2.3159999847 115.18900299 84.736000061 2.2969999313 3.6960000992 1.5779999495
 3589.6296387 6.0000000000 0.2357700020 2.3350000381 108.93499756 84.724990845 4.0749998093 7.4869999886 4.2080001831
 3589.7819824 6.0000000000 0.1987500042 2.3239998817 118.23300171 84.714996338 4.8559999466 9.3629999161 6.2699999809
 3589.9343262 6.0000000000 0.2488600016 2.3389999866 135.95899963 84.705001831 3.5599999428 5.4549999237 3.9340000153
 3590.0869141 6.0000000000 0.2993000150 2.3599998951 141.94099426 84.694000244 3.3810000420 3.5950000286 2.8870000839
 3590.2392578 6.0000000000 0.3466700017 2.4619998932 131.04800415 84.684005737 2.4200000763 3.1280000210 2.9089999199
 3590.3916016 6.0000000000 0.3293600082 2.6849999428 111.74099731 84.674003601 1.9320000410 2.3559999466 2.4969999790
 3590.5439453 16.000000000 0.2621200085 2.8540000916 92.608001709 84.663002014 3.2019999027 2.2360000610 2.6270000935
 3590.6965332 16.000000000 0.2216899991 2.7639999390 88.574996948 84.652999878 6.1789999008 3.1340000629 3.4539999962
 3590.8488770 16.000000000 0.2054200023 2.7139999866 96.519996643 84.642997742 4.2969999313 5.6420001984 3.9930000305
 3591.0012207 6.0000000000 0.2339100093 2.7650001049 105.83699799 84.632003784 2.4419999123 13.137999535 4.5300002098
 3591.1535645 6.0000000000 0.2398300022 2.7179999352 110.82399750 84.622001648 3.3540000916 9.1850004196 5.2829999924
 3591.3061523 6.0000000000 0.2520999908 2.5429999828 121.88200378 84.611007690 4.3210000992 5.4910001755 3.2520000935
 3591.4584961 7.0000000000 0.2821899951 2.4409999847 137.28199768 84.600997925 2.1830000877 2.6319999695 2.0109999180
 3591.6108398 7.0000000000 0.2967700064 2.4200000763 144.24000549 84.591003418 1.5149999857 3.5739998817 2.2269999981
 3591.7631836 7.0000000000 0.3356600106 2.3849999905 147.44400024 84.580001831 2.0529999733 5.7100000381 3.1860001087
 3591.9155273 6.0000000000 0.3425599933 2.3469998837 147.37699890 84.569999695 3.9189999104 3.4070000648 3.0209999084
 3592.0681152 6.0000000000 0.3519499898 2.3459999561 146.90299988 84.559997559 3.4230000973 2.6600000858 2.3980000019
 3592.2204590 6.0000000000 0.3359500170 2.4470000267 141.31399536 84.549003601 2.0510001183 3.9570000172 2.0199999809
 3592.3728027 6.0000000000 0.3037799895 2.5859999657 128.61000061 84.539001465 2.0899999142 7.8880000114 1.9789999723
 3592.5251465 6.0000000000 0.2914099991 2.7100000381 126.98100281 84.527999878 2.9479999542 9.8290004730 2.2960000038
 3592.6777344 6.0000000000 0.2727899849 2.6879999638 130.13600159 84.517990112 2.9639999866 7.6830000877 2.6359999180
 3592.8300781 6.0000000000 0.2794499993 2.6400001049 144.25599670 84.508003235 2.3340001106 6.1539998055 2.6770000458
 3592.9824219 6.0000000000 0.2488600016 2.6129999161 149.11700439 84.497001648 2.2780001163 5.9829998016 2.5989999771
 3593.1347656 6.0000000000 0.2529900074 2.6259999275 147.69200134 84.486999512 2.4639999866 6.0890002251 2.4619998932
 3593.2873535 7.0000000000 0.2505500019 2.6119999886 144.61099243 84.476997375 2.4230000973 5.6510000229 2.4340000153
 3593.4396973 7.0000000000 0.2722600102 2.5799999237 143.88999939 84.466003418 2.5269999504 5.3979997635 2.7320001125
 3593.5920410 7.0000000000 0.2862600088 2.5290000439 143.30299377 84.456001282 3.0320000648 5.1519999504 3.0759999752
 3593.7443848 7.0000000000 0.3212699890 2.5030000210 140.91000366 84.445007324 3.3740000725 4.5700001717 2.8800001144
 3593.8967285 6.0000000000 0.3304000199 2.4869999886 137.13299561 84.434997559 3.0039999485 4.7350001335 2.6800000668
 3594.0493164 6.0000000000 0.3518999815 2.4670000076 136.53500366 84.425003052 2.5850000381 6.3470001221 2.8169999123
 3594.2016602 6.0000000000 0.3045899868 2.3540000916 134.02999878 84.414001465 2.5429999828 6.4860000610 2.9379999638
 3594.3540039 6.0000000000 0.2784200013 2.2039999962 132.16600037 84.403999329 2.6129999161 4.0640001297 2.8210000992
 3594.5063477 6.0000000000 0.2458900064 2.0999999046 126.94499969 84.393997192 2.3650000095 2.9330000877 2.6849999428
 3594.6589355 6.0000000000 0.2574099898 2.0429999828 129.47500610 84.383003235 2.3929998875 2.2899999619 2.7669999599
 3594.8112793 6.0000000000 0.2744100094 1.9479999542 128.10899353 84.373001099 3.0320000648 1.5740000010 2.5840001106
 3594.9636230 6.0000000000 0.2750300169 1.9240000248 126.98999786 84.362998962 4.2740001678 1.1430000067 2.4389998913
 3595.1159668 6.0000000000 0.2828800082 1.9819999933 121.95200348 84.351989746 3.3929998875 1.0199999809 2.3840000629
 3595.2685547 6.0000000000 0.2550500035 2.1659998894 126.57199860 84.342002869 2.3719999790 1.1740000248 2.6199998856
 3595.4208984 6.0000000000 0.2595199943 2.2709999084 130.10499573 84.331001282 2.5309998989 1.5959999561 3.7609999180
 3595.5732422 6.0000000000 0.2877500057 2.3239998817 136.24600220 84.320999146 3.0409998894 1.6779999733 3.7569999695
 3595.7255859 6.0000000000 0.3343500197 2.3129999638 135.10400391 84.311004639 2.6530001163 1.3200000525 2.2650001049
 3595.8779297 6.0000000000 0.3631600142 2.3459999561 138.72300720 84.300003052 2.6240000725 1.3209999800 1.9570000172
 3596.0305176 6.0000000000 0.3637300134 2.4200000763 138.12500000 84.290000916 4.1680002213 1.9170000553 2.8650000095
 3596.1828613 6.0000000000 0.3065600097 2.4419999123 139.21899414 84.279998779 4.0590000153 2.5050001144 3.7599999905
 3596.3352051 6.0000000000 0.3062800169 2.4040000439 136.39500427 84.268997192 2.9449999332 2.0650000572 3.0959999561
 3596.4875488 6.0000000000 0.3275699914 2.3619999886 140.86799622 84.259002686 4.9580001831 1.8860000372 3.0659999847
 3596.6401367 6.0000000000 0.3357400000 2.2939999104 140.62699890 84.248001099 5.5590000153 2.3650000095 3.9500000477
 3596.7924805 6.0000000000 0.3360599875 2.1860001087 150.81500244 84.237998962 4.7820000648 3.2030000687 3.8829998970
