# LAS format log file from PETREL
# Project units are specified as depth units
#==================================================================
~Version information
VERS.   2.0:
WRAP.   NO:
#==================================================================
~Well
STRT .m      3400.0439453 :
STOP .m      3961.3330078 :
STEP .m     0.00000000 :
NULL .        -999.250000 :
COMP.           : COMPANY
WELL.  33/6-2   : WELL
FLD.            : FIELD
LOC.            : LOCATION
SRVC.           : SERVICE COMPANY
DATE.  2018-09-11 14:48:41   : Log Export Date {yyyy-MM-dd HH:mm:ss}
PROV.           : PROVINCE
UWI.   33/6-2   : UNIQUE WELL ID
API.            : API NUMBER
#==================================================================
~Curve
DEPT .m                   : DEPTH
Lithology_geolink ._      : Lithology_geolink
NPHI .m3/m3               : NPHI
RHOB .g/cm3               : RHOB
GR .gAPI                  : GR
DTC .us/ft                : DTC
RDEP .ohm.m               : RDEP
RSHA .ohm.m               : RSHA
RMED .ohm.m               : RMED
~Parameter
#==================================================================
~Ascii
# ...
 3835.2983398 5.0000000000 0.2687900066 2.6370000839 108.04499817 76.663925171 6.6909999847 1950.0000000 5.1560001373
 3835.4506836 5.0000000000 0.2730199993 2.6380000114 107.52899933 76.787803650 6.7639999390 1950.0000000 5.1880002022
 3835.6030273 5.0000000000 0.2558499873 2.6400001049 107.09300232 76.855781555 6.7630000114 1950.0000000 5.2439999580
 3835.7556152 5.0000000000 0.2483399957 2.6570000648 105.10099792 76.884956360 6.7810001373 1950.0000000 5.3159999847
 3835.9079590 5.0000000000 0.2564200163 2.6510000229 102.36299896 77.056724548 6.7950000763 1950.0000000 5.3639998436
 3836.0603027 5.0000000000 0.2599300146 2.6380000114 103.54599762 77.225730896 6.7480001450 1950.0000000 5.3559999466
 3836.2126465 5.0000000000 0.2651199996 2.6240000725 107.28099823 77.289794922 6.7100000381 1950.0000000 5.3200001717
 3836.3652344 5.0000000000 0.2559899986 2.6380000114 108.29399872 77.319953918 6.7719998360 1950.0000000 5.3099999428
 3836.5175781 5.0000000000 0.2697699964 2.6329998970 104.93399811 77.151268005 6.8660001755 1950.0000000 5.3330001831
 3836.6699219 5.0000000000 0.2669300139 2.6459999084 102.44400024 76.753631592 6.8819999695 1950.0000000 5.3689999580
 3836.8222656 5.0000000000 0.2626499832 2.6270000935 104.80699921 76.509780884 6.8460001945 1950.0000000 5.4120001793
 3836.9748535 5.0000000000 0.2612200081 2.6180000305 107.06600189 76.633804321 6.8159999847 1950.0000000 5.4479999542
 3837.1271973 5.0000000000 0.2558600008 2.6219999790 105.92800140 77.085273743 6.8319997787 1950.0000000 5.4730000496
 3837.2795410 5.0000000000 0.2593399882 2.6210000515 102.92600250 77.521301270 6.8379998207 1950.0000000 5.4460000992
 3837.4318848 5.0000000000 0.2535000145 2.6229999065 99.938003540 77.845481873 6.7719998360 1717.2440186 5.3489999771
 3837.5842285 5.0000000000 0.2635599971 2.6259999275 99.830001831 77.936706543 6.6869997978 1636.2280273 5.2500000000
 3837.7368164 5.0000000000 0.2648999989 2.6459999084 101.41600037 77.850135803 6.6449999809 821.55603027 5.2150001526
 3837.8891602 5.0000000000 0.2743600011 2.6470000744 109.15599823 77.602394104 6.6279997826 478.07501221 5.2259998322
 3838.0415039 5.0000000000 0.2737100124 2.6470000744 112.37400055 77.344421387 6.6490001678 1597.0870361 5.2519998550
 3838.1938477 5.0000000000 0.2752899826 2.6310000420 108.67299652 77.259277344 6.6779999733 1690.3929443 5.2769999504
 3838.3464355 5.0000000000 0.2718800008 2.6349999905 105.55899811 77.332878113 6.5390000343 1556.0629883 5.2560000420
 3838.4987793 5.0000000000 0.2671400011 2.6419999599 104.52700043 77.566627502 6.2779998779 1203.0159912 5.2090001106
 3838.6511230 5.0000000000 0.2534399927 2.6480000019 110.25099945 77.984336853 6.1479997635 507.73001099 5.1539998055
 3838.8034668 4.0000000000 0.2479000092 2.6419999599 103.27600098 78.430572510 6.1399998665 218.49200439 5.0419998169
 3838.9560547 4.0000000000 0.2532700002 2.6319999695 99.503997803 78.826377869 6.0460000038 222.64300537 4.8889999390
 3839.1083984 4.0000000000 0.2658099830 2.6489999294 96.516998291 79.162460327 5.8080000877 238.95599365 4.7430000305
 3839.2607422 4.0000000000 0.2569199800 2.6449999809 103.16600037 79.510444641 5.5890002251 140.60200500 4.6380000114
 3839.4130859 5.0000000000 0.2639499903 2.6429998875 105.21499634 79.975250244 5.4910001755 75.589996338 4.5659999847
 3839.5654297 5.0000000000 0.2685799897 2.6329998970 111.58300018 80.468421936 5.3920001984 48.596000671 4.4629998207
 3839.7180176 5.0000000000 0.2895700037 2.6400001049 107.44300079 81.184852600 5.1700000763 38.096000671 4.3099999428
 3839.8703613 5.0000000000 0.2881200016 2.6419999599 110.71499634 81.806007385 4.9619998932 35.164001465 4.1830000877
 3840.0227051 5.0000000000 0.2824000120 2.6410000324 109.75700378 82.073570251 4.9070000648 34.546001434 4.1370000839
 3840.1750488 4.0000000000 0.2701600194 2.6449999809 108.69300079 82.448791504 4.9559998512 33.242000580 4.1539998055
 3840.3276367 4.0000000000 0.2725400031 2.6410000324 107.92700195 82.948196411 4.9840002060 32.886001587 4.1849999428
 3840.4799805 4.0000000000 0.2759599984 2.6289999485 101.41300201 82.829193115 5.0069999695 36.932998657 4.2140002251
 3840.6323242 4.0000000000 0.2761099935 2.6219999790 106.94400024 82.437622070 5.1170001030 48.926998138 4.2569999695
 3840.7846680 4.0000000000 0.2710500062 2.6159999371 107.23100281 82.257575989 5.2259998322 69.130996704 4.2899999619
 3840.9372559 4.0000000000 0.2654999793 2.6129999161 111.81900024 82.157157898 5.1750001907 75.850997925 4.2729997635
 3841.0895996 4.0000000000 0.2854599953 2.6210000515 115.28500366 82.207916260 5.0120000839 55.955001831 4.2220001221
 3841.2419434 5.0000000000 0.3012700081 2.6219999790 119.64499664 82.290870667 4.8930001259 39.334999084 4.1789999008
 3841.3942871 5.0000000000 0.2975299954 2.6289999485 120.39099884 82.207138062 4.9109997749 35.209999084 4.1979999542
 3841.5466309 5.0000000000 0.2745899856 2.6250000000 114.73799896 81.764419556 5.0700001717 41.303001404 4.2950000763
 3841.6992188 4.0000000000 0.2555400133 2.6310000420 110.58999634 81.195907593 5.2829999924 49.661998749 4.4019999504
 3841.8515625 4.0000000000 0.2732299864 2.6400001049 108.86599731 80.490127563 5.4650001526 51.270999908 4.4759998322
 3842.0039063 4.0000000000 0.2919200063 2.6519999504 108.91600037 79.672309875 5.5500001907 56.383998871 4.5279998779
 3842.1562500 4.0000000000 0.2945699990 2.6579999924 106.55200195 78.999160767 5.4499998093 63.935001373 4.5430002213
 3842.3088379 4.0000000000 0.2796999812 2.6619999409 107.36799622 78.466850281 5.2849998474 52.970001221 4.5580000877
 3842.4611816 4.0000000000 0.2546800077 2.6589999199 102.97799683 78.156494141 5.3639998436 37.897998810 4.6529998779
 3842.6135254 4.0000000000 0.2626899779 2.6619999409 100.62100220 77.959320068 5.6929998398 31.103000641 4.7859997749
 3842.7658691 4.0000000000 0.2627499998 2.6489999294 98.880996704 77.807487488 5.8099999428 28.052999496 4.7779998779
 3842.9184570 4.0000000000 0.2681300044 2.6449999809 98.524002075 77.879882813 5.6149997711 26.419000626 4.6490001678
 3843.0708008 4.0000000000 0.2599000037 2.6459999084 99.211997986 78.111625671 5.5050001144 27.106000900 4.5700001717
 3843.2231445 4.0000000000 0.2528100014 2.6510000229 101.67900085 78.452453613 5.4539999962 26.865999222 4.4939999580
 3843.3754883 5.0000000000 0.2585799992 2.6429998875 109.23699951 78.872329712 5.1880002022 22.618999481 4.3039999008
 3843.5278320 5.0000000000 0.2589600086 2.6370000839 115.09600067 79.239822388 4.8200001717 19.037000656 4.0920000076
 3843.6804199 5.0000000000 0.2587800026 2.6319999695 115.09600067 79.587432861 4.5970001221 17.951999664 3.9700000286
 3843.8327637 5.0000000000 0.2639200091 2.6349999905 110.34799957 79.974380493 4.5440001488 18.485000610 3.9340000153
 3843.9851074 5.0000000000 0.2652300000 2.6400001049 108.71299744 80.307464600 4.5840001106 19.947000504 3.9530000687
 3844.1374512 5.0000000000 0.2958000004 2.6380000114 106.47699738 80.430603027 4.6620001793 21.822000504 4.0029997826
 3844.2900391 5.0000000000 0.2882399857 2.6319999695 109.81199646 80.478919983 4.7610001564 23.847999573 4.0650000572
 3844.4423828 5.0000000000 0.2884899974 2.6259999275 108.32099915 80.732589722 4.8699998856 26.246000290 4.1269998550
 3844.5947266 5.0000000000 0.2967000008 2.6270000935 109.68800354 80.793907166 4.9609999657 28.808000565 4.1909999847
 3844.7470703 5.0000000000 0.3031399846 2.6329998970 110.72100067 80.822906494 5.0100002289 30.587999344 4.2430000305
 3844.8996582 5.0000000000 0.3111700118 2.6429998875 110.84500122 81.265296936 5.0120000839 31.270000458 4.2610001564
 3845.0520020 5.0000000000 0.2941800058 2.6440000534 108.79599762 81.517593384 4.9759998322 31.023000717 4.2420001030
 3845.2043457 5.0000000000 0.2915399969 2.6419999599 103.55799866 81.592880249 4.9190001488 29.403999329 4.1989998817
 3845.3566895 5.0000000000 0.2855400145 2.6380000114 105.31700134 81.672866821 4.8680000305 27.017999649 4.1599998474
 3845.5090332 5.0000000000 0.2854299843 2.6229999065 103.51399994 81.578308105 4.8260002136 25.187000275 4.1409997940
