# LAS format log file from PETREL
# Project units are specified as depth units
#==================================================================
~Version information
VERS.   2.0:
WRAP.   NO:
#==================================================================
~Well
STRT .m      3400.0439453 :
STOP .m      3961.3330078 :
STEP .m     0.00000000 :
NULL .        -999.250000 :
COMP.           : COMPANY
WELL.  33/6-2   : WELL
FLD.            : FIELD
LOC.            : LOCATION
SRVC.           : SERVICE COMPANY
DATE.  2018-09-11 14:48:41   : Log Export Date {yyyy-MM-dd HH:mm:ss}
PROV.           : PROVINCE
UWI.   33/6-2   : UNIQUE WELL ID
API.            : API NUMBER
#==================================================================
~Curve
DEPT .m                   : DEPTH
Lithology_geolink ._      : Lithology_geolink
NPHI .m3/m3               : NPHI
RHOB .g/cm3               : RHOB
GR .gAPI                  : GR
DTC .us/ft                : DTC
RDEP .ohm.m               : RDEP
RSHA .ohm.m               : RSHA
RMED .ohm.m               : RMED
~Parameter
#==================================================================
~Ascii
# ...
 3514.0390625 5.0000000000 0.1936400086 2.5460095406 131.68299866 89.869018555 5.5469536781 1950.0000000 4.3929309845
 3514.1914063 5.0000000000 0.1970700026 2.5430095196 134.98500061 89.859031677 5.6406989098 1950.0000000 4.3939967155
 3514.3439941 5.0000000000 0.2160499990 2.5439982414 143.53399658 89.848014832 5.7038989067 1950.0000000 4.3690400124
 3514.4963379 6.0000000000 0.2087999880 2.5559806824 144.25300598 89.838012695 5.6580739021 1950.0000000 4.3490319252
 3514.6486816 6.0000000000 0.2075600028 2.5759680271 138.95500183 89.828018188 5.5831203461 1950.0000000 4.3320269585
 3514.8010254 6.0000000000 0.2058399916 2.5849857330 126.69999695 89.817016602 5.5999727249 1950.0000000 4.3379902840
 3514.9533691 6.0000000000 0.2112000138 2.5859968662 123.42900085 89.807029724 5.6458525658 1950.0000000 4.3619232178
 3515.1059570 6.0000000000 0.2215200067 2.5859999657 122.87500000 89.797012329 5.5980768204 1950.0000000 4.3540129662
 3515.2583008 6.0000000000 0.2221100032 2.5919904709 132.01899719 89.786018372 5.5460834503 1950.0000000 4.3290400505
 3515.4106445 6.0000000000 0.2092200071 2.5949952602 133.50700378 89.776016235 5.5649695396 1950.0000000 4.3220114708
 3515.5629883 6.0000000000 0.1978599876 2.5969934464 135.55599976 89.765037537 5.5550317764 1950.0000000 4.3030610085
 3515.7155762 6.0000000000 0.2160300016 2.5890128613 131.39999390 89.755012512 5.4561586380 1950.0000000 4.2490863800
 3515.8679199 6.0000000000 0.2242400050 2.5850064754 129.38000488 89.745025635 5.3771266937 1950.0000000 4.2010769844
 3516.0202637 6.0000000000 0.2282000035 2.5770127773 138.00199890 89.734016418 5.3720083237 1950.0000000 4.1850256920
 3516.1726074 6.0000000000 0.1974799931 2.5789935589 141.41099548 89.724029541 5.4268240929 1950.0000000 4.2079267502
 3516.3251953 6.0000000000 0.1888800114 2.5700142384 135.44599915 89.714012146 5.5298352242 1950.0000000 4.2758908272
 3516.4775391 6.0000000000 0.1916500032 2.5660064220 124.71299744 89.703018188 5.6098718643 1950.0000000 4.3299136162
 3516.6298828 6.0000000000 0.2103099972 2.5570142269 123.94100189 89.693016052 5.5580835342 1950.0000000 4.2880673409
 3516.7822266 6.0000000000 0.2170899957 2.5560016632 138.70199585 89.682014465 5.3613157272 1950.0000000 4.1811718941
 3516.9345703 7.0000000000 0.2199999988 2.5510160923 153.72099304 89.672027588 5.1088094711 1950.0000000 4.0693583488
 3517.0871582 7.0000000000 0.2521800101 2.5400176048 165.69799805 89.662017822 4.8713798523 1950.0000000 3.9471955299
 3517.2395020 7.0000000000 0.2636400163 2.5350081921 167.93400574 89.651016235 4.6753144264 1950.0000000 3.8202035427
 3517.3918457 7.0000000000 0.2772299945 2.5320048332 168.09700012 89.641014099 4.5571894646 1950.0000000 3.7281472683
 3517.5441895 7.0000000000 0.2544699907 2.5379807949 157.58399963 89.631027222 4.5639777184 1950.0000000 3.7100577354
 3517.6967773 7.0000000000 0.2437299937 2.5330080986 149.75599670 89.620018005 4.6887998581 1950.0000000 3.7748959064
 3517.8491211 6.0000000000 0.2230499983 2.5559630394 144.90699768 89.610015869 4.8357644081 1950.0000000 3.8758380413
 3518.0014648 6.0000000000 0.1978599876 2.5679807663 143.44299316 89.599014282 4.9018940926 1950.0000000 3.9369022846
 3518.1538086 6.0000000000 0.1962700039 2.5759744644 145.18200684 89.589027405 4.8830609322 1950.0000000 3.9449744225
 3518.3063965 6.0000000000 0.1953000128 2.5610241890 138.39599609 89.579010010 4.8700208664 1950.0000000 3.9529871941
 3518.4587402 6.0000000000 0.2126500010 2.5550096035 132.65499878 89.568016052 4.9568605423 1950.0000000 4.0049166679
 3518.6110840 6.0000000000 0.2151100039 2.5559983253 125.47100067 89.558013916 5.1476936340 1950.0000000 4.1038413048
 3518.7634277 6.0000000000 0.2073200047 2.5609920025 128.48800659 89.548011780 5.2737984657 1950.0000000 4.1728892326
 3518.9160156 6.0000000000 0.1955900043 2.5759758949 134.38800049 89.537017822 5.2390556335 1950.0000000 4.1640143394
 3519.0683594 6.0000000000 0.1871799976 2.5690112114 143.16999817 89.527015686 5.1870832443 1950.0000000 4.1470270157
 3519.2207031 6.0000000000 0.1859600097 2.5660047531 149.92900085 89.517013550 5.1879987717 1950.0000000 4.1569838524
 3519.3730469 6.0000000000 0.1959000081 2.5380449295 152.37699890 89.506011963 5.1959872246 1950.0000000 4.1669836044
 3519.5253906 6.0000000000 0.2069300115 2.5399935246 149.90800476 89.496032715 5.2578015327 1950.0000000 4.1869359016
 3519.6779785 6.0000000000 0.2204100043 2.5429952145 147.45199585 89.485015869 5.4037656784 1950.0000000 4.2339248657
 3519.8303223 6.0000000000 0.2140399963 2.5479919910 140.05400085 89.475013733 5.5717306137 1950.0000000 4.2949023247
 3519.9826660 6.0000000000 0.2226399928 2.5370175838 141.27200317 89.465011597 5.7167677879 1950.0000000 4.3549036980
 3520.1350098 6.0000000000 0.2243899852 2.5389935970 138.98399353 89.454040527 5.7957472801 1950.0000000 4.3799200058
 3520.2875977 6.0000000000 0.2278300077 2.5280177593 143.33099365 89.444015503 5.7950015068 1950.0000000 4.3760061264
 3520.4399414 6.0000000000 0.2168600112 2.5339903831 144.05000305 89.434013367 5.7760305405 1950.0000000 4.3919744492
 3520.5922852 6.0000000000 0.2009900063 2.5220193863 146.09899902 89.423011780 5.7959680557 1950.0000000 4.4309377670
 3520.7446289 6.0000000000 0.1938400120 2.5279808044 144.88000488 89.413024902 5.8717570305 1950.0000000 4.4698748589
 3520.8972168 6.0000000000 0.1864200085 2.5130240917 139.55700684 89.402015686 5.9548668861 1950.0000000 4.5059423447
 3521.0495605 6.0000000000 0.2092900127 2.5050129890 138.67300415 89.392013550 5.9549999237 1950.0000000 4.4890270233
 3521.2019043 7.0000000000 0.2246699929 2.5010063648 144.34700012 89.382019043 5.9230513573 1950.0000000 4.4300942421
 3521.3542480 7.0000000000 0.2568899989 2.5059919357 153.50000000 89.371017456 5.9090223312 1950.0000000 4.3840737343
 3521.5065918 7.0000000000 0.2650099993 2.5149712563 157.67500305 89.361030579 5.8860735893 1950.0000000 4.3670544624
 3521.6591797 7.0000000000 0.2690500021 2.5159983635 156.58999634 89.351013184 5.8760161400 1950.0000000 4.3969516754
 3521.8115234 7.0000000000 0.2588700056 2.5150017738 155.95399475 89.340011597 5.8919744492 1950.0000000 4.4668879509
 3521.9638672 7.0000000000 0.2379499972 2.5110063553 155.05999756 89.330017090 5.9608893394 1950.0000000 4.5488681793
 3522.1162109 7.0000000000 0.2367099971 2.5050194263 155.81300354 89.319038391 6.0636706352 1950.0000000 4.5898690224
 3522.2687988 7.0000000000 0.2477100044 2.5079951286 155.67999268 89.309013367 6.0240640640 1950.0000000 4.5141215324
 3522.4211426 7.0000000000 0.2612600029 2.5020096302 159.00900269 89.299026489 5.8392968178 1950.0000000 4.3812131882
 3522.5734863 7.0000000000 0.2608099878 2.4990048409 161.61799622 89.288017273 5.7381615639 1950.0000000 4.3390674591
 3522.7258301 7.0000000000 0.2566699982 2.4940159321 168.30400085 89.278030396 5.8137569427 1950.0000000 4.4406733513
 3522.8784180 7.0000000000 0.2533999979 2.4870111942 169.59700012 89.268013000 5.9258208275 1950.0000000 4.5628046989
 3523.0307617 7.0000000000 0.2601799965 2.4879982471 167.69799805 89.257019043 5.9669342041 1950.0000000 4.5699887276
 3523.1831055 7.0000000000 0.2543100119 2.4860031605 167.13299561 89.247009277 5.9709939957 1950.0000000 4.5190815926
 3523.3354492 7.0000000000 0.2603000104 2.4800095558 161.94099426 89.237014771 5.9909682274 1950.0000000 4.5379695892
 3523.4877930 7.0000000000 0.2379299998 2.4849839211 158.21499634 89.226036072 6.0478172302 1950.0000000 4.6127600670
 3523.6403809 7.0000000000 0.2231500000 2.4989776611 151.45700073 89.216018677 6.1138939857 1950.0000000 4.6469454765
 3523.7927246 7.0000000000 0.2223200053 2.5099823475 156.15199280 89.205017090 6.0660767555 1950.0000000 4.5880942345
 3523.9450684 7.0000000000 0.2589499950 2.5030112267 170.65699768 89.195014954 5.9212322235 1950.0000000 4.5061316490
 3524.0974121 7.0000000000 0.2672300041 2.4950253963 177.72799683 89.185028076 5.8442463875 1950.0000000 4.4790863991
 3524.2500000 7.0000000000 0.2657500207 2.4810223579 177.86399841 89.174011230 5.8989119530 1950.0000000 4.5009646416
