# LAS format log file from PETREL
# Project units are specified as depth units
#==================================================================
~Version information
VERS.   2.0:
WRAP.   NO:
#==================================================================
~Well
STRT .m      1936.1920166 :
STOP .m      3906.2648926 :
STEP .m     0.00000000 :
NULL .        -999.250000 :
COMP.           : COMPANY
WELL.  33/6-1   : WELL
FLD.            : FIELD
LOC.            : LOCATION
SRVC.           : SERVICE COMPANY
DATE.  2018-09-11 14:48:41   : Log Export Date {yyyy-MM-dd HH:mm:ss}
PROV.           : PROVINCE
UWI.   33/6-1   : UNIQUE WELL ID
API.            : API NUMBER
#==================================================================
~Curve
DEPT .m                   : DEPTH
Lithology_geolink ._      : Lithology_geolink
CALI .in                  : CALI
BS .in                    : BS
DRHO .g/cm3               : DRHO
NPHI .m3/m3               : NPHI
RHOB .g/cm3               : RHOB
GR .gAPI                  : GR
DTC .us/ft                : DTC
RDEP .ohm.m               : RDEP
SP .mV                    : SP
RSHA .ohm.m               : RSHA
RMED .ohm.m               : RMED
~Parameter
#==================================================================
~Ascii
# ...
 3896.6635742  -999.250000 8.7080001831 8.5000000000 0.0110080130 0.1506676376 2.5590336323 69.580970764 74.935134888 3.5835623741 43.581623077 4.0103125572 4.0103125572
 3896.8159180  -999.250000 8.7430000305 8.5000000000 0.0080048079 0.1440306455 2.5380337238 69.598968506 74.849136353 3.4959263802 42.985439301 3.8270990849 3.8270990849
 3896.9682617  -999.250000 8.7360000610 8.5000000000 0.0050096000 0.1408202648 2.5041086674 69.617935181 74.816108704 3.4353461266 42.666999817 3.7281763554 3.7281763554
 3897.1208496  -999.250000 8.6840000153 8.5000000000 0.0059983977 0.1417385042 2.4660608768 69.635971069 74.851936340 3.3674166203 43.076145172 3.6662707329 3.6662707329
 3897.2731934  -999.250000 8.6300001144 8.5000000000 0.0099935895 0.1443158686 2.4400417805 69.654968262 74.888938904 3.2827706337 43.479602814 3.6052708626 3.6052708626
 3897.4255371  -999.250000 8.5719995499 8.5000000000 0.0119967954 0.1458774954 2.4479870796 69.672966003 74.925941467 3.1920385361 43.716758728 3.5619633198 3.5619633198
 3897.5778809  -999.250000 8.5579996109 8.5000000000 0.0129968002 0.1451623142 2.4789009094 69.691940308 74.961883545 3.1010415554 43.900894165 3.5297179222 3.5297179222
 3897.7304688  -999.250000 8.6129999161 8.5000000000 0.0179919861 0.1428636760 2.5788397789 69.709968567 74.994949341 3.0098958015 43.294979095 3.4692707062 3.4692707062
 3897.8828125  -999.250000 8.6280002594 8.5000000000 0.0249887817 0.1413623989 2.6119470596 69.718986511 74.999992371 2.9159584045 43.000000000 3.3926041126 3.3926041126
 3898.0351563  -999.250000 8.5830001831 8.5000000000 0.0279951934 0.1410305202 2.6229822636 69.720001221 75.000000000 2.8209791183 42.979312897 3.2470624447 3.2470624447
 3898.1875000  -999.250000 8.5430002213 8.5000000000 0.0260032061 0.1406805664 2.6180081367 69.720001221 75.000000000 2.7251503468 42.655414581 3.0758528709 3.0758528709
 3898.3400879  -999.250000 8.5430002213 8.5000000000 0.0190111995 0.1403605044 2.5990304947 69.719001770 75.000000000 2.6387917995 42.195625305 3.0191249847 3.0191249847
 3898.4924316  -999.250000 8.5649995804 8.5000000000 0.0140080135 0.1407992989 2.5860207081 69.718002319 75.000000000 2.5782499313 41.832523346 3.0845832825 3.0845832825
 3898.6447754  -999.250000 8.5909996033 8.5000000000 0.0070112180 0.1406602263 2.5909919739 69.718002319 75.000000000 2.6504373550 41.759395599 3.2132916451 3.2132916451
 3898.7971191  -999.250000 8.6280002594 8.5000000000 0.0050032050 0.1405202299 2.6019823551 69.717002869 75.000000000 2.8514304161 41.976005554 3.4740865231 3.4740865231
 3898.9494629  -999.250000 8.6700000763 8.5000000000 0.0089871995 0.1403704733 2.6089775562 69.716003418 75.000000000 3.0925705433 42.036720276 3.9648718834 3.9648718834
 3899.1020508  -999.250000 8.6739997864 8.5000000000 0.0109967953 0.1402402073 2.6060047150 69.716003418 75.000000000 3.3378958702 41.925395966 4.5830836296 4.5830836296
 3899.2543945  -999.250000 8.6389999390 8.5000000000 0.0100016026 0.1403398365 2.6059999466 69.714996338 75.000000000 3.5701668262 42.100227356 5.2833747864 5.2833747864
 3899.4067383  -999.250000 8.6079998016 8.5000000000 0.0080032051 0.1405297071 2.6229727268 69.713996887 75.000000000 3.7626991272 42.417808533 6.0106701851 6.0106701851
 3899.5590820  -999.250000 8.6049995422 8.5000000000 0.0080000004 0.1407094151 2.6399457455 69.713996887 75.000000000 3.9302532673 42.878589630 6.7015190125 6.7015190125
 3899.7116699  -999.250000 8.6269998550 8.5000000000 0.0129919872 0.1409096718 2.6559741497 69.712997437 75.000000000 4.0005831718 43.397190094 7.0264167786 7.0264167786
 3899.8640137  -999.250000 8.6339998245 8.5000000000 0.0159951933 0.1411196589 2.6579968929 69.711997986 74.973045349 4.0411663055 43.911293030 7.0036249161 7.0036249161
 3900.0163574  -999.250000 8.6009998322 8.5000000000 0.0219903849 0.1413196772 2.6520094872 69.711997986 74.840209961 4.0899791718 44.150146484 6.8189167976 6.8189167976
 3900.1687012  -999.250000 8.5579996109 8.5000000000 0.0319680013 0.1415691972 2.6599745750 69.710998535 74.940681458 4.1398797035 44.186283112 6.5930848122 6.5930848122
 3900.3212891  -999.250000 8.5290002823 8.5000000000 0.0349951908 0.1418096125 2.6659903526 69.709999084 75.137687683 4.1635208130 44.184059143 6.4685416222 6.4685416222
 3900.4736328  -999.250000 8.5170001984 8.5000000000 0.0120368591 0.1419397891 2.6550176144 69.708000183 75.159965515 4.1679167747 43.790374756 6.4160623550 6.4160623550
 3900.6259766  -999.250000 8.5209999084 8.5000000000 0.0080064107 0.1419499815 2.6500082016 69.704002380 75.110084534 4.1680002213 43.218978882 6.3493957520 6.3493957520
 3900.7783203  -999.250000 8.5299997330 8.5000000000 0.0080000004 0.1420897692 2.6440095901 69.699996948 75.060073853 4.1611566544 43.377101898 6.3264927864 6.3264927864
 3900.9306641  -999.250000 8.5299997330 8.5000000000 0.0129840001 0.1422993243 2.6340320110 69.695999146 75.010169983 4.1111445427 44.292091370 6.3563041687 6.3563041687
 3901.0832520  -999.250000 8.5139999390 8.5000000000 0.0179919861 0.1425296366 2.6220192909 69.692001343 74.988037109 4.0483126640 45.411624908 6.4000835419 6.4000835419
 3901.2355957  -999.250000 8.4969997406 8.5000000000 0.0269855782 0.1431190670 2.6120159626 69.688003540 74.986000061 3.9911875725 46.729457855 6.4440836906 6.4440836906
 3901.3879395  -999.250000 8.4720001221 8.5000000000 0.0369839743 0.1437889189 2.6119999886 69.683998108 74.984008789 3.9655599594 48.351467133 6.4880142212 6.4880142212
 3901.5402832  -999.250000 8.4180002213 8.5000000000 0.0429808013 0.1443282664 2.6090095043 69.680000305 74.983001709 3.9816186428 49.157341003 6.5320129395 6.5320129395
 3901.6928711  -999.250000 8.3529996872 8.5000000000 0.0439983979 0.1443299949 2.5940241814 69.676002502 74.981010437 4.0103960037 49.080997467 6.5770626068 6.5770626068
 3901.8452148  -999.250000 8.3120002747 8.5000000000 0.0410048105 0.1443299949 2.5850143433 69.670997620 74.984001160 4.0403747559 49.048645020 6.5642919540 6.5642919540
 3901.9975586  -999.250000 8.3000001907 8.5000000000 0.0390032046 0.1443299949 2.5840017796 69.666999817 75.019935608 4.0693960190 49.700126648 6.5169997215 6.5169997215
 3902.1499023  -999.250000 8.3020000458 8.5000000000 0.0370064005 0.1443898082 2.5879871845 69.663002014 75.062866211 4.0875964165 50.873435974 6.4661426544 6.4661426544
 3902.3024902  -999.250000 8.3129997253 8.5000000000 0.0350032039 0.1455780864 2.5880000591 69.658996582 75.105934143 4.0850625038 51.523727417 6.4287710190 6.4287710190
 3902.4548340  -999.250000 8.3290004730 8.5000000000 0.0369967967 0.1473871022 2.5870015621 69.654998779 75.147933960 4.0742292404 51.363689423 6.4201669693 6.4201669693
 3902.6071777  -999.250000 8.3290004730 8.5000000000 0.0429903865 0.1488975883 2.5969839096 69.651000977 75.123039246 4.0632295609 51.227809906 6.4581875801 6.4581875801
 3902.7595215  -999.250000 8.3059997559 8.5000000000 0.0469935872 0.1477518380 2.6059856415 69.647003174 75.028152466 4.0522465706 51.334491730 6.5420961380 6.5420961380
 3902.9118652  -999.250000 8.2860002518 8.5000000000 0.0559712015 0.1460853517 2.6149711609 69.642997742 74.932304382 4.0412468910 51.177658081 6.6368684769 6.6368684769
 3903.0644531  -999.250000 8.2810001373 8.5000000000 0.0649855733 0.1455907971 2.6299760342 69.638000488 74.837150574 4.0302295685 50.048938751 6.7222290039 6.7222290039
 3903.2167969  -999.250000 8.2790002823 8.5000000000 0.0679951981 0.1444218755 2.6409823895 69.634002686 74.767112732 4.0309791565 47.391040802 6.8121252060 6.8121252060
 3903.3691406  -999.250000 8.2729997635 8.5000000000 0.0660032034 0.1418541223 2.6439952850 69.629997253 74.800949097 4.0388207436 43.751117706 6.8804769516 6.8804769516
 3903.5214844  -999.250000 8.2670001984 8.5000000000 0.0570288002 0.1377232522 2.6270544529 69.613998413 74.834892273 4.0487751961 41.714847565 6.8702692986 6.8702692986
 3903.6740723  -999.250000 8.2659997940 8.5000000000 0.0510096140 0.1337663382 2.6100270748 69.581001282 74.868949890 4.0587916374 40.820079803 6.7642502785 6.7642502785
 3903.8264160  -999.250000 8.2690000534 8.5000000000 0.0490032025 0.1308047324 2.6020128727 69.542999268 74.903945923 4.0854372978 40.423065186 6.6826877594 6.6826877594
