# LAS format log file from PETREL
# Project units are specified as depth units
#==================================================================
~Version information
VERS.   2.0:
WRAP.   NO:
#==================================================================
~Well
STRT .m      2483.9675293 :
STOP .m      4422.1909180 :
STEP .m     0.00000000 :
NULL .        -999.250000 :
COMP.           : COMPANY
WELL.  33/6-3 S   : WELL
FLD.            : FIELD
LOC.            : LOCATION
SRVC.           : SERVICE COMPANY
DATE.  2018-09-11 14:48:41   : Log Export Date {yyyy-MM-dd HH:mm:ss}
PROV.           : PROVINCE
UWI.   33/6-3 S   : UNIQUE WELL ID
API.            : API NUMBER
#==================================================================
~Curve
DEPT .m                   : DEPTH
Lithology_geolink ._      : Lithology_geolink
CALI .in                  : CALI
BS .in                    : BS
ROP .m/h                  : ROP
DRHO .g/cm3               : DRHO
THOR .ppm                 : THOR
NPHI .m3/m3               : NPHI
RHOB .g/cm3               : RHOB
PEF .b/e                  : PEF
GR .gAPI                  : GR
URAN .ppm                 : URAN
DTC .us/ft                : DTC
DTS .us/ft                : DTS
RDEP .ohm.m               : RDEP
RMED .ohm.m               : RMED
~Parameter
#==================================================================
~Ascii
# ...
 3256.6354980  -999.250000 12.126699448 12.250000954 109.97375488  -999.250000 3.8087794781 0.3368000090  -999.250000  -999.250000 78.459999084 4.2671413422 95.126197815 196.93299866 1.7920999527 1.7419999838
 3256.7880859  -999.250000 12.127500534 12.250000954 109.54724121  -999.250000 3.8617143631 0.3228000104  -999.250000  -999.250000 78.440002441 4.2403430939 95.850837708 196.54400635 1.8035000563 1.7530000210
 3256.9404297  -999.250000 12.127200127 12.250000954 113.87796021  -999.250000 4.2078442574 0.2951999903  -999.250000  -999.250000 79.540000916 4.1814942360 96.351196289 195.50100708 1.8401999474 1.7910000086
 3257.0927734  -999.250000 12.127300262 12.250000954 116.04330444  -999.250000 4.6821393967 0.2703999877  -999.250000  -999.250000 83.099998474 4.1310806274 96.016540527 195.13600159 1.8665000200 1.8569999933
 3257.2451172  -999.250000 12.126999855 12.250000954 113.41863251  -999.250000 5.0701780319 0.2639000118  -999.250000  -999.250000 81.279998779 4.0669031143 94.909774780 194.55401611 1.9660999775 2.0699999332
 3257.3974609  -999.250000 12.125699997 12.250000954 112.10629272  -999.250000 5.1732711792 0.2691000104  -999.250000  -999.250000 81.029998779 3.9741976261 94.631881714 193.91499329 1.9844000340 2.0889999866
 3257.5500488  -999.250000 12.124000549 12.250000954 121.98162079  -999.250000 4.9508576393 0.2732000053  -999.250000  -999.250000 79.940002441 3.8371193409 94.974449158 191.15101624 2.0243999958 2.1410000324
 3257.7023926  -999.250000 12.122200012 12.250000954 126.90288544  -999.250000 4.6559000015 0.2703000009  -999.250000  -999.250000 76.970001221 3.6524999142 95.251998901 189.04100037 2.0434000492 2.1589999199
 3257.8547363  -999.250000 12.119099617 12.250000954 136.08923340  -999.250000 4.3558998108 0.2649999857  -999.250000  -999.250000 71.680000305 3.3482000828 94.957992554 184.10400391 2.0657999516 2.1619999409
 3258.0070801  -999.250000 12.117800713 12.250000954 140.68241882  -999.250000 4.2814002037 0.2685999870  -999.250000  -999.250000 72.660003662 3.1659998894 94.243995667 181.77400208 2.0762999058 2.1730000973
 3258.1596680  -999.250000 12.117400169 12.250000954 138.15617371  -999.250000 4.3508000374 0.2671000063  -999.250000  -999.250000 68.730003357 3.0569000244 92.155998230 178.08099365 2.1071000099 2.2170000076
 3258.3120117  -999.250000 12.116999626 12.250000954 136.90945435  -999.250000 4.5054998398 0.2628000081  -999.250000  -999.250000 65.129997253 3.0567998886 91.201995850 176.74400330 2.1182999611 2.2479999065
 3258.4643555  -999.250000 12.116600037 12.250000954 117.09317780  -999.250000 4.6771001816 0.2626000047  -999.250000  -999.250000 65.279998779 3.1594998837 89.999000549 175.30999756 2.1522998810 2.3159999847
 3258.6166992  -999.250000 12.116700172 12.250000954 107.18503571  -999.250000 4.8218998909 0.2655000091  -999.250000  -999.250000 65.500000000 3.2997999191 89.667999268 175.15699768 2.1558001041 2.3199999332
 3258.7692871  -999.250000 12.117699623 12.250000954 101.73884583  -999.250000 4.8538999557 0.2716999948  -999.250000  -999.250000 69.449996948 3.3882000446 89.404998779 175.89599609 2.1477000713 2.3169999123
 3258.9216309  -999.250000 12.118300438 12.250000954 98.982940674  -999.250000 4.8393998146 0.2802999914  -999.250000  -999.250000 69.470001221 3.3949999809 89.400001526 176.33900452 2.1408998966 2.3069999218
 3259.0739746  -999.250000 12.118700027 12.250000954 98.162727356  -999.250000 4.9197001457 0.2793000042  -999.250000  -999.250000 71.879997253 3.3157000542 89.789001465 176.67399597 2.1159999371 2.2560000420
 3259.2263184  -999.250000 12.121199608 12.250000954 99.606300354  -999.250000 5.0612001419 0.2691999972  -999.250000  -999.250000 67.300003052 3.1714999676 90.789001465 177.03698730 2.0882999897 2.2019999027
 3259.3786621  -999.250000 12.125699997 12.250000954 101.47637939  -999.250000 5.1438999176 0.2687999904  -999.250000  -999.250000 73.199996948 3.0769999027 91.527999878 177.82899475 2.0625998974 2.1960000992
 3259.5312500  -999.250000 12.129300117 12.250000954 102.52624512  -999.250000 5.1835999489 0.2797999978  -999.250000  -999.250000 73.230003357 3.1538000107 93.154998779 180.50700378 1.9617999792 2.0160000324
 3259.6835938  -999.250000 12.130900383 12.250000954 101.70603943  -999.250000 5.1881999969 0.2851000130  -999.250000  -999.250000 72.809997559 3.3743000031 93.893997192 182.00801086 1.9189000130 1.9229999781
 3259.8359375  -999.250000 12.131199837 12.250000954 109.51444244  -999.250000 5.0683999062 0.2813000083  -999.250000  -999.250000 71.720001221 3.6429998875 95.089996338 184.28300476 1.9048000574 1.9010000229
 3259.9882813  -999.250000 12.130499840 12.250000954 118.17586517  -999.250000 4.7512998581 0.2854000032  -999.250000  -999.250000 71.279998779 3.8982999325 95.518997192 184.83401489 1.8907999992 1.8880000114
 3260.1408691  -999.250000 12.129399300 12.250000954 125.85301208  -999.250000 4.2778000832 0.2915000021  -999.250000  -999.250000 70.860000610 4.0370001793 96.070991516 185.03201294 1.8854999542 1.8430000544
 3260.2932129  -999.250000 12.128499985 12.250000954 124.86878204  -999.250000 3.8826000690 0.2908000052  -999.250000  -999.250000 71.529998779 3.9833998680 96.137992859 184.66799927 1.9074000120 1.8760000467
 3260.4455566  -999.250000 12.130800247 12.250000954 120.53805542  -999.250000 3.6937999725 0.2878000140  -999.250000  -999.250000 67.419998169 3.8231000900 95.775001526 183.05299377 1.9344999790 1.9450000525
 3260.5979004  -999.250000 12.135700226 12.250000954 117.15879822  -999.250000 3.6791999340 0.2849999964  -999.250000  -999.250000 67.970001221 3.6700000763 95.383010864 182.05099487 1.9551000595 1.9809999466
 3260.7504883  -999.250000 12.137399673 12.250000954 111.28608704  -999.250000 3.8286998272 0.2833999991  -999.250000  -999.250000 66.180000305 3.6345999241 94.471000671 180.69100952 2.0053000450 2.0669999123
 3260.9028320  -999.250000 12.135101318 12.250000954 108.79264832  -999.250000 4.1209998131 0.2843999863  -999.250000  -999.250000 64.949996948 3.7518000603 94.095001221 180.67901611 2.0455000401 2.1419999599
 3261.0551758  -999.250000 12.133700371 12.250000954 111.35169983  -999.250000 4.3826999664 0.2836999893  -999.250000  -999.250000 67.059997559 3.9632000923 93.680000305 181.83000183 2.0657999516 2.1809999943
 3261.2075195  -999.250000 12.134498596 12.250000954 116.43701172  -999.250000 4.3694000244 0.2834999859  -999.250000  -999.250000 64.550003052 4.3126001358 93.644996643 182.52299500 2.0743999481 2.1889998913
 3261.3598633  -999.250000 12.135199547 12.250000954 114.89501190  -999.250000 4.0925998688 0.2897999883  -999.250000  -999.250000 65.900001526 4.7294998169 93.873992920 183.38600159 2.0801999569 2.1919999123
 3261.5124512  -999.250000 12.135800362 12.250000954 108.26771545  -999.250000 3.7702000141 0.2937999964  -999.250000  -999.250000 67.500000000 4.9854001999 94.027999878 183.54899597 2.0829000473 2.1919999123
 3261.6647949  -999.250000 12.135800362 12.250000954 104.42913818  -999.250000 3.5002000332 0.2856999934  -999.250000  -999.250000 65.250000000 5.0402998924 94.097000122 183.55400085 2.0948998928 2.2049999237
 3261.8171387  -999.250000 12.135199547 12.250000954 107.18503571  -999.250000 3.3053998947 0.2750000060  -999.250000  -999.250000 68.500000000 4.9910998344 93.907997131 183.47999573 2.1005001068 2.2070000172
 3261.9694824  -999.250000 12.133199692 12.250000954 111.25328064  -999.250000 3.3710000515 0.2750000060  -999.250000  -999.250000 68.500000000 4.8480000496 92.992996216 183.13400269 2.1038000584 2.2070000172
 3262.1220703  -999.250000 12.128700256 12.250000954 112.56562042  -999.250000 3.7448000908 0.2806999981  -999.250000  -999.250000 65.059997559 4.5826997757 92.487007141 182.97799683 2.1059999466 2.2109999657
 3262.2744141  -999.250000 12.122699738 12.250000954 113.71391296  -999.250000 4.1760997772 0.2849999964  -999.250000  -999.250000 67.239997864 4.2853999138 91.915992737 183.16600037 2.0873000622 2.1610000134
 3262.4267578  -999.250000 12.119600296 12.250000954 113.38584137  -999.250000 4.5254001617 0.2865000069  -999.250000  -999.250000 72.209999084 4.0805997849 91.997001648 183.92599487 2.0680000782 2.1570000648
