# LAS format log file from PETREL
# Project units are specified as depth units
#==================================================================
~Version information
VERS.   2.0:
WRAP.   NO:
#==================================================================
~Well
STRT .m      1936.1920166 :
STOP .m      3906.2648926 :
STEP .m     0.00000000 :
NULL .        -999.250000 :
COMP.           : COMPANY
WELL.  33/6-1   : WELL
FLD.            : FIELD
LOC.            : LOCATION
SRVC.           : SERVICE COMPANY
DATE.  2018-09-11 14:48:41   : Log Export Date {yyyy-MM-dd HH:mm:ss}
PROV.           : PROVINCE
UWI.   33/6-1   : UNIQUE WELL ID
API.            : API NUMBER
#==================================================================
~Curve
DEPT .m                   : DEPTH
Lithology_geolink ._      : Lithology_geolink
CALI .in                  : CALI
BS .in                    : BS
DRHO .g/cm3               : DRHO
NPHI .m3/m3               : NPHI
RHOB .g/cm3               : RHOB
GR .gAPI                  : GR
DTC .us/ft                : DTC
RDEP .ohm.m               : RDEP
SP .mV                    : SP
RSHA .ohm.m               : RSHA
RMED .ohm.m               : RMED
~Parameter
#==================================================================
~Ascii
# ...
 3377.2851563  -999.250000 13.649000168 12.250000954 0.0199999996 0.4107492566 2.5200369358 68.623146057 93.045295715 1.6128400564 36.275005341 1.8442480564 1.8442480564
 3377.4375000  -999.250000 13.586999893 12.250000954 0.0469999984 0.4102803469 2.5429904461 68.713668823 93.848480225 1.6218557358 36.267108917 1.8991185427 1.8991185427
 3377.5898438  -999.250000 13.529000282 12.250000954 0.0450000018 0.4042676389 2.5370063782 69.130729675 90.418121338 1.6308557987 36.264049530 1.9521505833 1.9521505833
 3377.7424316  -999.250000 13.567000389 12.250000954 0.0260000005 0.4090703726 2.5411086082 69.587104797 92.990676880 1.6319855452 36.300464630 1.9815816879 1.9815816879
 3377.8947754  -999.250000 13.675999641 12.250000954 0.0140000004 0.4185444713 2.5750784874 69.621284485 94.138992310 1.6270720959 36.356189728 1.9524327517 1.9524327517
 3378.0471191  -999.250000 13.786000252 12.250000954 -0.001000000 0.4275633693 2.6240401268 69.798721313 96.624504089 1.6220799685 36.413089752 1.8762320280 1.8762320280
 3378.1994629  -999.250000 13.822999954 12.250000954 0.0329999998 0.4358850420 2.6489887238 70.875259399 95.687179565 1.6151121855 36.400226593 1.8277692795 1.8277692795
 3378.3518066  -999.250000 13.822999954 12.250000954 0.0839999989 0.4390264750 2.6418669224 72.282905579 93.310005188 1.6071281433 36.315376282 1.8191281557 1.8191281557
 3378.5043945  -999.250000 13.876999855 12.250000954 0.0619999990 0.4430624843 2.5587952137 73.471321106 94.559272766 1.5981298685 36.281475067 1.8327980042 1.8327980042
 3378.6567383  -999.250000 13.953000069 12.250000954 0.0520000011 0.4469374120 2.4950094223 73.569465637 94.955726624 1.5911120176 36.313472748 1.8143039942 1.8143039942
 3378.8090820  -999.250000 13.944000244 12.250000954 0.0659999996 0.4390957952 2.5009982586 72.610496521 94.782409668 1.5900160074 36.362213135 1.7746410370 1.7746410370
 3378.9614258  -999.250000 13.840999603 12.250000954 0.0829999968 0.4302342832 2.5000383854 71.047966003 93.792877197 1.5900000334 36.411212921 1.7592403889 1.7592403889
 3379.1140137  -999.250000 13.840000153 12.250000954 0.0619999990 0.4203965068 2.5240991116 69.149833679 94.337532043 1.5900000334 36.430725098 1.7649134398 1.7649134398
 3379.2663574  -999.250000 13.862999916 12.250000954 0.0570000000 0.4099366665 2.5550625324 66.915397644 93.568466187 1.5772080421 36.430015564 1.8053439856 1.8053439856
 3379.4187012  -999.250000 13.817000389 12.250000954 0.0460000001 0.3954255283 2.5939376354 64.670883179 91.995391846 1.5602723360 36.427047729 1.8857018948 1.8857018948
 3379.5710449  -999.250000 13.824001312 12.250000954 0.0250000004 0.3988965750 2.5550096035 64.598350525 91.618041992 1.5442564487 36.424049377 1.9942532778 1.9942532778
 3379.7236328  -999.250000 13.782999992 12.250000954 0.0359999985 0.4092387557 2.5611186028 64.196952820 92.275047302 1.5272451639 36.453567505 2.0403509140 2.0403509140
 3379.8759766  -999.250000 13.734000206 12.250000954 0.0560000017 0.4150890410 2.5980319977 64.495094299 93.854118347 1.5112559795 36.511074066 1.9150480032 1.9150480032
 3380.0283203  -999.250000 13.840999603 12.250000954 0.0649999976 0.4207497835 2.6180241108 65.805397034 97.046028137 1.4952564240 36.573989868 1.7545801401 1.7545801401
 3380.1806641  -999.250000 13.944999695 12.250000954 0.0370000005 0.4268303514 2.6330015659 66.675285339 98.303215027 1.4684327841 36.664543152 1.6260511875 1.6260511875
 3380.3330078  -999.250000 13.887999535 12.250000954 0.0149999997 0.4208487868 2.6340482235 67.475769043 97.189186096 1.4404487610 36.777187347 1.5738172531 1.5738172531
 3380.4855957  -999.250000 13.829000473 12.250000954 0.0839999989 0.4325976372 2.6638145447 68.582191467 96.678840637 1.4143750668 36.894313812 1.5207643509 1.5207643509
 3380.6379395  -999.250000 13.857999802 12.250000954 0.0750000030 0.4474154413 2.6059198380 69.574813843 95.689605713 1.4110480547 36.976688385 1.5052399635 1.5052399635
 3380.7902832  -999.250000 13.901000023 12.250000954 0.0799999982 0.4383342862 2.5560288429 68.834846497 92.947578430 1.4139519930 36.995708466 1.5394390821 1.5394390821
 3380.9426270  -999.250000 13.876000404 12.250000954 0.0759999976 0.4347815216 2.5740544796 66.871604919 90.187019348 1.4307276011 36.964511871 1.6315096617 1.6315096617
 3381.0952148  -999.250000 13.814999580 12.250000954 0.0829999968 0.4419512451 2.6079936028 65.378074646 88.958221436 1.4487403631 36.879238129 1.9966779947 1.9966779947
 3381.2475586  -999.250000 13.798000336 12.250000954 0.0790000036 0.4454415739 2.6059839725 64.777832031 90.900169373 1.4647440910 36.806167603 2.3090078831 2.3090078831
 3381.3999023  -999.250000 13.829999924 12.250000954 0.0560000017 0.4401828051 2.5959823132 64.672737122 93.504623413 1.4699199200 36.786304474 2.2254421711 2.2254421711
 3381.5522461  -999.250000 13.869999886 12.250000954 0.0270000007 0.4294266701 2.5850272179 65.758186340 96.388839722 1.4749199152 36.783050537 1.8441859484 1.8441859484
 3381.7048340  -999.250000 13.866000175 12.250000954 -0.001000000 0.4023897946 2.6020736694 67.746955872 97.528839111 1.4621875286 36.862831116 1.4979759455 1.4979759455
 3381.8571777  -999.250000 13.814999580 12.250000954 0.0170000009 0.3836579919 2.6249551773 68.980621338 96.233306885 1.4452720881 36.984046936 1.4998879433 1.4998879433
 3382.0095215  -999.250000 13.776000023 12.250000954 0.0439999998 0.3949167132 2.5969502926 69.364768982 95.795829773 1.4361442327 37.107028961 1.5570704937 1.5570704937
 3382.1618652  -999.250000 13.774999619 12.250000954 0.0659999996 0.4177904427 2.5659711361 69.221290588 95.688606262 1.4369840622 37.129665375 1.6052306890 1.6052306890
 3382.3142090  -999.250000 13.776000023 12.250000954 0.0520000011 0.4118192196 2.5480401516 68.777397156 95.434585571 1.4488077164 37.083751678 1.6325672865 1.6325672865
 3382.4667969  -999.250000 13.755000114 12.250000954 0.0489999987 0.3988821208 2.5730926991 69.026557922 95.179412842 1.4677259922 37.025836945 1.6566537619 1.6566537619
 3382.6191406  -999.250000 13.784999847 12.250000954 0.0480000004 0.4026476443 2.6019856930 69.823432922 94.997695923 1.4876800776 36.974815369 1.7317839861 1.7317839861
 3382.7714844  -999.250000 13.939000130 12.250000954 0.0439999998 0.4011587799 2.5929934978 70.714683533 95.430625916 1.5057115555 36.957271576 1.8176218271 1.8176218271
 3382.9238281  -999.250000 14.043999672 12.250000954 0.0439999998 0.3879318833 2.5889806747 69.265464783 94.577339172 1.5237115622 36.954048157 1.8386794329 1.8386794329
 3383.0764160  -999.250000 14.048000336 12.250000954 0.0450000018 0.3829144239 2.5770382881 67.065208435 94.786407471 1.5417404175 36.951042175 1.8350577354 1.8350577354
 3383.2287598  -999.250000 14.070000648 12.250000954 0.0489999987 0.3905268312 2.5890431404 67.752494812 94.602203369 1.5577440262 36.948051453 1.8123680353 1.8123680353
 3383.3811035  -999.250000 13.956999779 12.250000954 0.0619999990 0.3947814405 2.6159822941 68.682304382 94.732315063 1.5589840412 36.945049286 1.7883845568 1.7883845568
 3383.5334473  -999.250000 13.812999725 12.250000954 0.0630000010 0.3894438744 2.6049680710 68.871353149 96.172760010 1.5590000153 36.942050934 1.7653685808 1.7653685808
 3383.6860352  -999.250000 13.827999115 12.250000954 0.0450000018 0.3856836259 2.5849328041 67.841522217 96.019676208 1.5521010160 36.939041138 1.7443028688 1.7443028688
 3383.8383789  -999.250000 13.894000053 12.250000954 0.0370000005 0.3992609978 2.5640110970 66.445610046 95.919662476 1.5401920080 36.896686554 1.7400640249 1.7400640249
 3383.9907227  -999.250000 13.913001060 12.250000954 0.0419999994 0.3936671615 2.5710241795 66.200065613 95.088249207 1.5242564678 36.804492950 1.7281923294 1.7281923294
 3384.1430664  -999.250000 13.888999939 12.250000954 0.0399999991 0.3856785893 2.5860047340 65.620948792 94.003288269 1.5240000486 36.697715759 1.7289839983 1.7289839983
 3384.2954102  -999.250000 13.847000122 12.250000954 0.0219999999 0.3910337090 2.5890128613 64.968475342 94.806533813 1.5387597084 36.589733124 1.7417916059 1.7417916059
 3384.4479980  -999.250000 13.814001083 12.250000954 0.0359999985 0.3933058381 2.5969197750 65.891960144 95.138008118 1.5547691584 36.535762787 1.7597403526 1.7597403526
