# LAS format log file from PETREL
# Project units are specified as depth units
#==================================================================
~Version information
VERS.   2.0:
WRAP.   NO:
#==================================================================
~Well
STRT .m      3400.0439453 :
STOP .m      3961.3330078 :
STEP .m     0.00000000 :
NULL .        -999.250000 :
COMP.           : COMPANY
WELL.  33/6-2   : WELL
FLD.            : FIELD
LOC.            : LOCATION
SRVC.           : SERVICE COMPANY
DATE.  2018-09-11 14:48:41   : Log Export Date {yyyy-MM-dd HH:mm:ss}
PROV.           : PROVINCE
UWI.   33/6-2   : UNIQUE WELL ID
API.            : API NUMBER
#==================================================================
~Curve
DEPT .m                   : DEPTH
Lithology_geolink ._      : Lithology_geolink
NPHI .m3/m3               : NPHI
RHOB .g/cm3               : RHOB
GR .gAPI                  : GR
DTC .us/ft                : DTC
RDEP .ohm.m               : RDEP
RSHA .ohm.m               : RSHA
RMED .ohm.m               : RMED
~Parameter
#==================================================================
~Ascii
# ...
 3949.2934570  -999.250000 0.2388999909 2.4349999428  -999.250000 76.703010559 2.5199904442 0.5106762052 4.3640127182
 3949.4458008  -999.250000 0.2388999909 2.4349999428  -999.250000 76.709991455 2.5259904861 0.5115785599 4.3639998436
 3949.5981445  -999.250000 0.2388999909 2.4349999428  -999.250000 76.713981628 2.5269968510 0.5118222237 4.3620061874
 3949.7507324  -999.250000 0.2388999909 2.4349999428  -999.250000 76.722984314 2.5240046978 0.5112998486 4.3600034714
 3949.9030762  -999.250000 0.2388999909 2.4349999428  -999.250000 76.734985352 2.5190081596 0.5100100636 4.3699836731
 3950.0554199  -999.250000 0.2388999909 2.4349999428  -999.250000 76.749969482 2.5170030594 0.5089107752 4.3869729042
 3950.2077637  -999.250000 0.2388999909 2.4349999428  -999.250000 76.758972168 2.5179967880 0.5087993741 4.3810191154
 3950.3603516  -999.250000 0.2388999909 2.4349999428  -999.250000 76.765991211 2.5209951401 0.5098164082 4.3700175285
 3950.5126953  -999.250000 0.2388999909 2.4349999428  -999.250000 76.772987366 2.5200016499 0.5111378431 4.3620128632
 3950.6650391  -999.250000 0.2388999909 2.4349999428  -999.250000 76.770004272 2.5170047283 0.5117790103 4.3550114632
 3950.8173828  -999.250000 0.2388999909 2.4349999428  -999.250000 76.771995544 2.5189936161 0.5119434595 4.3579902649
 3950.9699707  -999.250000 0.2388999909 2.4349999428  -999.250000 76.774002075 2.5229935646 0.5120158792 4.3649883270
 3951.1223145  -999.250000 0.2388999909 2.4349999428  -999.250000 76.775001526 2.5220017433 0.5119940639 4.3669967651
 3951.2746582  -999.250000 0.2388999909 2.4349999428  -999.250000 76.781982422 2.5200030804 0.5119001865 4.3670001030
 3951.4270020  -999.250000 0.2388999909 2.4349999428  -999.250000 76.787994385 2.5199999809 0.5117931962 4.3679986000
 3951.5793457  -999.250000 0.2388999909 2.4349999428  -999.250000 76.790992737 2.5209968090 0.5117092729 4.3680000305
 3951.7319336  -999.250000 0.2388999909 2.4349999428  -999.250000 76.793991089 2.5209999084 0.5116660595 4.3680000305
 3951.8842773  -999.250000 0.2388999909 2.4349999428  -999.250000 76.794998169 2.5200016499 0.5116519928 4.3680000305
 3952.0366211  -999.250000 0.2388999909 2.4349999428  -999.250000 76.791007996 2.5199999809 0.5116500258 4.3680000305
 3952.1889648  -999.250000 0.2388999909 2.4349999428  -999.250000 76.790000916 2.5209968090 0.5116500258 4.3680000305
 3952.3415527  -999.250000 0.2388999909 2.4349999428  -999.250000 76.791000366 2.5209999084 0.5116509795 4.3680000305
 3952.4938965  -999.250000 0.2388999909 2.4349999428  -999.250000 76.792999268 2.5200016499 0.5116519928 4.3680000305
 3952.6462402  -999.250000 0.2388999909 2.4349999428  -999.250000 76.797988892 2.5199999809 0.5116519928 4.3680000305
 3952.7985840  -999.250000 0.2388999909 2.4349999428  -999.250000 76.805976868 2.5199999809 0.5116530061 4.3680000305
 3952.9511719  -999.250000 0.2388999909 2.4349999428  -999.250000 76.814987183 2.5199999809 0.5116530061 4.3680000305
 3953.1035156  -999.250000 0.2388999909 2.4349999428  -999.250000 76.813003540 2.5199999809 0.5116530061 4.3680000305
 3953.2558594  -999.250000 0.2388999909 2.4349999428  -999.250000 76.809005737 2.5199999809 0.5116519928 4.3680000305
 3953.4082031  -999.250000 0.2388999909 2.4349999428  -999.250000 76.806007385 2.5199999809 0.5116519928 4.3680000305
 3953.5607910  -999.250000 0.2388999909 2.4349999428  -999.250000 76.804000854 2.5199999809 0.5116519928 4.3680000305
 3953.7131348  -999.250000 0.2388999909 2.4349999428  -999.250000 76.805007935 2.5199999809 0.5116519928 4.3680000305
 3953.8654785  -999.250000 0.2388999909 2.4349999428  -999.250000 76.808990479 2.5199999809 0.5116509795 4.3689985275
 3954.0178223  -999.250000 0.2388999909 2.4349999428  -999.250000 76.809997559 2.5199999809 0.5116509795 4.3689999580
 3954.1701660  -999.250000 0.2388999909 2.4349999428  -999.250000 76.799049377 2.5199999809 0.5116509795 4.3689999580
 3954.3227539  -999.250000 0.2388999909 2.4349999428  -999.250000 76.704154968 2.5199999809 0.5116500258 4.3680014610
 3954.4750977  -999.250000 0.2388999909 2.4349999428  -999.250000 76.556236267 2.5199999809 0.5116500258 4.3680000305
 3954.6274414  -999.250000 0.2388999909 2.4349999428  -999.250000 76.554000854 2.5199999809 0.5116500258 4.3680000305
 3954.7797852  -999.250000 0.2388999909 2.4349999428  -999.250000 76.653678894 2.5199999809 0.5116500258 4.3680000305
 3954.9323730  -999.250000 0.2388999909 2.4349999428  -999.250000 76.907592773 2.5199999809 0.5116500258 4.3680000305
 3955.0847168  -999.250000 0.2388999909 2.4349999428  -999.250000 76.895019531 2.5199999809 0.5116490126 4.3680000305
 3955.2370605  -999.250000 0.2388999909 2.4349999428  -999.250000 76.847076416 2.5199999809 0.5116490126 4.3680000305
 3955.3894043  -999.250000 0.2388999909 2.4349999428  -999.250000 76.847000122 2.5199999809 0.5116490126 4.3680000305
 3955.5419922  -999.250000 0.2388999909 2.4349999428  -999.250000 76.847000122 2.5199999809 0.5116490126 4.3680000305
 3955.6943359  -999.250000 0.2388999909 2.4349999428  -999.250000 76.847000122 2.5199999809 0.5116490126 4.3680000305
 3955.8466797  -999.250000 0.2388999909 2.4349999428  -999.250000 76.847000122 2.5199999809 0.5116490126 4.3680000305
 3955.9990234  -999.250000 0.2388999909 2.4349999428  -999.250000 76.847000122 2.5199999809 0.5116500258 4.3680000305
 3956.1513672  -999.250000 0.2388999909 2.4349999428  -999.250000 76.847000122 2.5199999809 0.5116500258 4.3680000305
 3956.3039551  -999.250000 0.2388999909 2.4349999428  -999.250000 76.847000122 2.5199999809 0.5116500258 4.3680000305
 3956.4562988  -999.250000 0.2388999909 2.4349999428  -999.250000 76.847000122 2.5199999809 0.5116500258 4.3680000305
 3956.6086426  -999.250000 0.2388999909 2.4349999428  -999.250000 76.847000122 2.5199999809 0.5116500258 4.3680000305
 3956.7609863  -999.250000 0.2388999909 2.4349999428  -999.250000 76.847000122 2.5199999809 0.5116500258 4.3680000305
 3956.9135742  -999.250000 0.2388999909 2.4349999428  -999.250000 76.847000122 2.5199999809 0.5116500258 4.3680000305
 3957.0659180  -999.250000 0.2388999909 2.4349999428  -999.250000 76.847000122 2.5199999809 0.5116500258 4.3680000305
 3957.2182617  -999.250000 0.2388999909 2.4349999428  -999.250000 76.847000122 2.5199999809 0.5116500258 4.3680000305
 3957.3706055  -999.250000 0.2388999909 2.4349999428  -999.250000 76.847000122 2.5199999809 0.5116500258 4.3680000305
 3957.5231934  -999.250000 0.2388999909 2.4349999428  -999.250000 76.847000122 2.5199999809 0.5116500258 4.3680000305
 3957.6755371  -999.250000 0.2388999909 2.4349999428  -999.250000 76.847000122 2.5199999809 0.5116500258 4.3680000305
 3957.8278809  -999.250000 0.2388999909 2.4349999428  -999.250000 76.847000122 2.5199999809 0.5116500258 4.3680000305
 3957.9802246  -999.250000 0.2388999909 2.4349999428  -999.250000 76.847000122 2.5199999809 0.5116500258 4.3680000305
 3958.1325684  -999.250000 0.2388999909 2.4349999428  -999.250000 76.847000122 2.5199999809 0.5116500258 4.3680000305
 3958.2851563  -999.250000 0.2388999909 2.4349999428  -999.250000 76.847000122 2.5199999809 0.5116500258 4.3680000305
 3958.4375000  -999.250000 0.2388999909 2.4349999428  -999.250000 76.847000122 2.5199999809 0.5116500258 4.3680000305
 3958.5898438  -999.250000 0.2388999909 2.4349999428  -999.250000 76.847000122 2.5199999809 0.5116500258 4.3680000305
 3958.7421875  -999.250000 0.2388999909 2.4349999428  -999.250000 76.847000122 2.5199999809 0.5116500258 4.3680000305
 3958.8947754  -999.250000 0.2388999909 2.4349999428  -999.250000 76.847000122 2.5199999809 0.5116500258 4.3680000305
 3959.0471191  -999.250000 0.2388999909 2.4349999428  -999.250000 76.847000122 2.5199999809 0.5116500258 4.3680000305
 3959.1994629  -999.250000 0.2388999909 2.4349999428  -999.250000 76.847000122 2.5199999809 0.5116500258 4.3680000305
 3959.3518066  -999.250000 0.2388999909 2.4349999428  -999.250000  -999.250000 2.5199999809 0.5116500258 4.3680000305
 3959.5043945  -999.250000 0.2388999909 2.4349999428  -999.250000  -999.250000 2.5199999809 0.5116500258 4.3680000305
