# LAS format log file from PETREL
# Project units are specified as depth units
#==================================================================
~Version information
VERS.   2.0:
WRAP.   NO:
#==================================================================
~Well
STRT .m      2483.9675293 :
STOP .m      4422.1909180 :
STEP .m     0.00000000 :
NULL .        -999.250000 :
COMP.           : COMPANY
WELL.  33/6-3 S   : WELL
FLD.            : FIELD
LOC.            : LOCATION
SRVC.           : SERVICE COMPANY
DATE.  2018-09-11 14:48:41   : Log Export Date {yyyy-MM-dd HH:mm:ss}
PROV.           : PROVINCE
UWI.   33/6-3 S   : UNIQUE WELL ID
API.            : API NUMBER
#==================================================================
~Curve
DEPT .m                   : DEPTH
Lithology_geolink ._      : Lithology_geolink
CALI .in                  : CALI
BS .in                    : BS
ROP .m/h                  : ROP
DRHO .g/cm3               : DRHO
THOR .ppm                 : THOR
NPHI .m3/m3               : NPHI
RHOB .g/cm3               : RHOB
PEF .b/e                  : PEF
GR .gAPI                  : GR
URAN .ppm                 : URAN
DTC .us/ft                : DTC
DTS .us/ft                : DTS
RDEP .ohm.m               : RDEP
RMED .ohm.m               : RMED
~Parameter
#==================================================================
~Ascii
# ...
 3125.8764648  -999.250000 12.151599884 12.250000954 108.30052185  -999.250000 4.8875999451 0.3122999966  -999.250000  -999.250000 73.620002747 4.1168999672 98.211997986 195.76698303 1.8660000563 1.8969999552
 3126.0288086  -999.250000 12.153300285 12.250000954 107.48030853  -999.250000 4.7856001854 0.3066999912  -999.250000  -999.250000 72.540000916 4.1539998055 98.673004150 193.72500610 1.8312000036 1.7740000486
 3126.1811523  -999.250000 12.152700424 12.250000954 106.82415009  -999.250000 4.8587999344 0.3066999912  -999.250000  -999.250000 74.730003357 4.1115999222 98.148002625 193.04200745 1.8186000586 1.7339999676
 3126.3334961  -999.250000 12.151000977 12.250000954 108.79264832  -999.250000 4.8640999794 0.3057000041  -999.250000  -999.250000 74.660003662 4.0798001289 95.621002197 191.23199463 1.8575999737 1.7560000420
 3126.4860840  -999.250000 12.153499603 12.250000954 111.41732025  -999.250000 4.7186999321 0.3023000062  -999.250000  -999.250000 69.720001221 4.0875000954 93.997001648 189.73899841 1.9266999960 1.8539999723
 3126.6384277  -999.250000 12.158699989 12.250000954 113.68111420  -999.250000 4.4093999863 0.2982000113  -999.250000  -999.250000 63.080001831 4.0936999321 91.437995911 186.23802185 2.0711998940 2.1719999313
 3126.7907715  -999.250000 12.162299156 12.250000954 113.32022095  -999.250000 4.1128997803 0.3014000058  -999.250000  -999.250000 56.500000000 4.0338001251 90.785011292 184.81300354 2.1054999828 2.2379999161
 3126.9431152  -999.250000 12.163700104 12.250000954 116.01050568  -999.250000 3.9937000275 0.3217999935  -999.250000  -999.250000 51.880001068 3.9581000805 90.385002136 183.58200073 2.3127000332 2.6719999313
 3127.0957031  -999.250000 12.165399551 12.250000954 119.06169128  -999.250000 4.0682997704 0.3458000124  -999.250000  -999.250000 52.819999695 3.8785996437 90.443000793 183.74099731 2.2242000103 2.6570000648
 3127.2480469  -999.250000 12.165599823 12.250000954 120.11154938  -999.250000 4.2937002182 0.3519999981  -999.250000  -999.250000 66.599998474 3.7820999622 90.568000793 184.06100464 2.1340999603 2.2969999313
 3127.4003906  -999.250000 12.152500153 12.250000954 118.11024475  -999.250000 4.4379000664 0.3470000029  -999.250000  -999.250000 70.339996338 3.7646999359 90.711997986 183.93698120 2.1535000801 2.2269999981
 3127.5527344  -999.250000 12.124699593 12.250000954 104.69160461  -999.250000 4.3935999870 0.3388999999  -999.250000  -999.250000 70.769996643 3.8287999630 91.536994934 184.10200500 2.1012001038 2.1979999542
 3127.7053223  -999.250000 12.099900246 12.250000954 93.241470337  -999.250000 4.2713999748 0.3165999949  -999.250000  -999.250000 66.449996948 3.8880999088 92.444999695 185.19000244 2.0762999058 2.1559998989
 3127.8576660  -999.250000 12.089199066 12.250000954 75.984252930  -999.250000 4.1964001656 0.2949999869  -999.250000  -999.250000 74.169998169 3.8589000702 94.516998291 188.84599304 2.0213000774 2.1040000916
 3128.0100098  -999.250000 12.086198807 12.250000954 70.144355774  -999.250000 4.2835001945 0.2906999886  -999.250000  -999.250000 71.190002441 3.7056999207 95.339996338 190.99299622 1.9944000244 2.0969998837
 3128.1623535  -999.250000 12.085000038 12.250000954 61.154853821  -999.250000 4.5412998199 0.2951999903  -999.250000  -999.250000 75.379997253 3.4711999893 96.250999451 194.00599670 1.9449000359 2.0520000458
 3128.3146973  -999.250000 12.083200455 12.250000954 58.038059235  -999.250000 4.8682999611 0.2964000106  -999.250000  -999.250000 77.879997253 3.2083001137 96.320999146 194.28500366 1.8949999809 1.9800000191
 3128.4672852  -999.250000 12.079899788 12.250000954 67.749343872  -999.250000 5.1227002144 0.3009999990  -999.250000  -999.250000 74.510002136 3.0699999332 96.606994629 193.97599792 1.8837000132 1.9500000477
 3128.6196289  -999.250000 12.079700470 12.250000954 80.577423096  -999.250000 5.2347002029 0.3088999987  -999.250000  -999.250000 69.559997559 3.1375999451 97.016998291 193.62399292 1.8558000326 1.9179999828
 3128.7719727  -999.250000 12.084600449 12.250000954 98.359580994  -999.250000 5.2648000717 0.3120000064  -999.250000  -999.250000 78.339996338 3.3180999756 97.983001709 192.84800720 1.8276000023 1.9010000229
 3128.9243164  -999.250000 12.090299606 12.250000954 108.26771545  -999.250000 5.3273000717 0.3194999993  -999.250000  -999.250000 77.349998474 3.5362000465 98.609001160 192.02200317 1.7920999527 1.8630000353
 3129.0769043  -999.250000 12.092599869 12.250000954 123.26115417  -999.250000 5.5100998878 0.3447000086  -999.250000  -999.250000 81.730003357 3.7334001064 98.774993896 191.83200073 1.7721999884 1.8500000238
 3129.2292480  -999.250000 12.091199875 12.250000954 153.18241882  -999.250000 5.8080000877 0.3718000054  -999.250000  -999.250000 77.769996643 3.8927001953 99.068000793 192.97799683 1.7653000355 1.8420000076
 3129.3815918  -999.250000 12.087300301 12.250000954 153.24803162  -999.250000 6.1767001152 0.3664999902  -999.250000  -999.250000 76.949996948 4.0616998672 99.276008606 194.27600098 1.7584999800 1.8150000572
 3129.5339355  -999.250000 12.082599640 12.250000954 153.31364441  -999.250000 6.5511999130 0.3436999917  -999.250000  -999.250000 77.629997253 4.3056001663 99.736000061 197.33401489 1.7185000181 1.7009999752
 3129.6865234  -999.250000 12.080400467 12.250000954 152.09974670  -999.250000 6.8263998032 0.3357000053  -999.250000  -999.250000 81.000000000 4.5802001953 99.917999268 198.62100220 1.6994999647 1.6729999781
 3129.8388672  -999.250000 12.084300041 12.250000954 149.67192078  -999.250000 6.9264998436 0.3265999854  -999.250000  -999.250000 86.510002136 4.7571997643 99.906997681 199.82400513 1.6273000240 1.5019999743
 3129.9912109  -999.250000 12.095000267 12.250000954 143.27427673  -999.250000 6.8860001564 0.3063000143  -999.250000  -999.250000 85.360000610 4.7820000648 99.544006348 199.64300537 1.5884000063 1.4730000496
 3130.1435547  -999.250000 12.111200333 12.250000954 130.51181030  -999.250000 6.6707000732 0.3147000074  -999.250000  -999.250000 79.000000000 4.5918998718 98.029998779 198.29100037 1.6024999619 1.5360000134
 3130.2958984  -999.250000 12.114199638 12.250000954 130.24934387  -999.250000 6.4486999512 0.3352000117  -999.250000  -999.250000 74.660003662 4.4601001740 96.909996033 197.27200317 1.6418999434 1.6469999552
 3130.4484863  -999.250000 12.113599777 12.250000954 129.69160461  -999.250000 6.2936000824 0.3149999976  -999.250000  -999.250000 71.889999390 4.3414001465 94.681007385 195.20701599 1.7644000053 1.8580000401
 3130.6008301  -999.250000 12.113300323 12.250000954 128.51049805  -999.250000 6.2697000504 0.2799000144  -999.250000  -999.250000 73.930000305 4.1891999245 93.777000427 194.25500488 1.8008999825 1.9259999990
 3130.7531738  -999.250000 12.112299919 12.250000954 126.11548615  -999.250000 6.2663002014 0.2660999894  -999.250000  -999.250000 73.620002747 3.9669997692 92.388999939 192.30700684 1.8539999723 1.9950000048
 3130.9055176  -999.250000 12.110600471 12.250000954 128.54330444  -999.250000 6.1798000336 0.2705000043  -999.250000  -999.250000 68.180000305 3.6661000252 91.970001221 191.24099731 1.8696000576 2.0109999180
 3131.0581055  -999.250000 12.106999397 12.250000954 133.39895630  -999.250000 6.0602002144 0.2827000022  -999.250000  -999.250000 63.549999237 3.3875000477 91.569007874 189.37100220 1.9121999741 2.0490000248
 3131.2104492  -999.250000 12.098699570 12.250000954 134.28477478  -999.250000 5.9310998917 0.2924000025  -999.250000  -999.250000 65.410003662 3.2418999672 91.833000183 188.97798157 1.9236999750 2.0539999008
 3131.3627930  -999.250000 12.088999748 12.250000954 136.02362061  -999.250000 5.7877998352 0.2894999981  -999.250000  -999.250000 69.739997864 3.2346000671 92.859992981 189.03799438 1.9541000128 2.0510001183
 3131.5151367  -999.250000 12.084799767 12.250000954 142.84777832  -999.250000 5.6378998756 0.2804999948  -999.250000  -999.250000 69.790000916 3.3389000893 93.533996582 189.49099731 1.9586000443 2.0529999733
 3131.6677246  -999.250000 12.085800171 12.250000954 156.49606323  -999.250000 5.5058999062 0.2790000141  -999.250000  -999.250000 71.690002441 3.4869000912 94.580001831 190.48899841 1.9761999846 2.0789999962
