# LAS format log file from PETREL
# Project units are specified as depth units
#==================================================================
~Version information
VERS.   2.0:
WRAP.   NO:
#==================================================================
~Well
STRT .m      2483.9675293 :
STOP .m      4422.1909180 :
STEP .m     0.00000000 :
NULL .        -999.250000 :
COMP.           : COMPANY
WELL.  33/6-3 S   : WELL
FLD.            : FIELD
LOC.            : LOCATION
SRVC.           : SERVICE COMPANY
DATE.  2018-09-11 14:48:41   : Log Export Date {yyyy-MM-dd HH:mm:ss}
PROV.           : PROVINCE
UWI.   33/6-3 S   : UNIQUE WELL ID
API.            : API NUMBER
#==================================================================
~Curve
DEPT .m                   : DEPTH
Lithology_geolink ._      : Lithology_geolink
CALI .in                  : CALI
BS .in                    : BS
ROP .m/h                  : ROP
DRHO .g/cm3               : DRHO
THOR .ppm                 : THOR
NPHI .m3/m3               : NPHI
RHOB .g/cm3               : RHOB
PEF .b/e                  : PEF
GR .gAPI                  : GR
URAN .ppm                 : URAN
DTC .us/ft                : DTC
DTS .us/ft                : DTS
RDEP .ohm.m               : RDEP
RMED .ohm.m               : RMED
~Parameter
#==================================================================
~Ascii
# ...
 4415.6376953 6.0000000000 6.0964999199 6.0000000000 44.266407013 0.0044999998  -999.250000 0.2477999926 2.6524999142 12.640600204 108.83999634  -999.250000  -999.250000  -999.250000 1.9900000095 1.7749999762
 4415.7900391 6.0000000000 6.0583000183 6.0000000000 50.003940582 0.0022000000  -999.250000 0.2468000054 2.6412000656 12.437299728 102.95999908  -999.250000  -999.250000  -999.250000 1.9160000086 1.7170000076
 4415.9423828 6.0000000000 6.2252001762 6.0000000000 61.478679657 0.0024000001  -999.250000 0.2351000011 2.6333000660 12.303999901 97.400001526  -999.250000  -999.250000  -999.250000 1.8669999838 1.7489999533
 4416.0952148 6.0000000000 6.2339997292 6.0000000000 57.024936676 0.0020929486  -999.250000 0.2299016118 2.6316776276 12.251056671 98.977340698  -999.250000  -999.250000  -999.250000 1.8279999495 1.7309999466
 4416.2475586 7.0000000000 6.2580003738 6.0000000000 48.118110657 -0.000099038  -999.250000 0.2304426283 2.6246843338 12.394045830 110.61278534  -999.250000  -999.250000  -999.250000 1.6490000486 1.5249999762
 4416.3999023 7.0000000000 6.2775998116 6.0000000000 50.635826111 0.0002009615  -999.250000 0.2438583374 2.6197552681 12.690818787 117.71958160  -999.250000  -999.250000  -999.250000 1.5880000591 1.4359999895
 4416.5522461 7.0000000000 6.1772003174 6.0000000000 55.670932770 0.0004961539  -999.250000 0.2931897342 2.6057834625 13.505939484 123.80746460  -999.250000  -999.250000  -999.250000 1.4520000219 1.2769999504
 4416.7045898 7.0000000000 6.0855994225 6.0000000000 54.316268921 -0.000701597  -999.250000 0.3211313188 2.6006925106 13.704977036 123.02421570  -999.250000  -999.250000  -999.250000 1.4079999924 1.2289999723
 4416.8569336 7.0000000000 6.0746002197 6.0000000000 51.606628418 -0.001200000  -999.250000 0.3309000134 2.5984001160 13.729200363 124.33999634  -999.250000  -999.250000  -999.250000 1.3630000353 1.1970000267
 4417.0092773 7.0000000000 6.0746002197 6.0000000000 52.460628510 -0.000700000  -999.250000 0.3310999870 2.5987000465 13.729299545 125.91000366  -999.250000  -999.250000  -999.250000 1.3550000191 1.2020000219
 4417.1616211 7.0000000000 6.0909996033 6.0000000000 54.169288635 -0.002100000  -999.250000 0.3258999884 2.5955998898 13.758600235 124.22000122  -999.250000  -999.250000  -999.250000 1.3519999981 1.1779999733
 4417.3139648 7.0000000000 6.1434001923 6.0000000000 53.903869629 -0.004600000  -999.250000 0.3300000131 2.5920000076 13.700699806 122.55999756  -999.250000  -999.250000  -999.250000 1.3500000238 1.1529999971
 4417.4667969 7.0000000000 6.1498999596 6.0000000000 53.373359680 -0.007999360  -999.250000 0.3270836771 2.5918281078 13.415354729 122.14048004  -999.250000  -999.250000  -999.250000 1.3919999599 1.1599999666
 4417.6191406 7.0000000000 6.1827001572 6.0000000000 54.547573090 -0.007794231  -999.250000 0.3219692409 2.6006643772 13.183189392 122.27176666  -999.250000  -999.250000  -999.250000 1.4359999895 1.1929999590
 4417.7714844 7.0000000000 6.2121000290 6.0000000000 56.895996094 -0.005997756  -999.250000 0.3123801351 2.6207265854 13.056410789 116.58913422  -999.250000  -999.250000  -999.250000 1.5429999828 1.3049999475
 4417.9238281 6.0000000000 6.2203001976 6.0000000000 56.271331787 -0.005287179  -999.250000 0.3060993552 2.6290631294 13.341572762 113.17724609  -999.250000  -999.250000  -999.250000 1.6369999647 1.3919999599
 4418.0761719 6.0000000000 6.2121000290 6.0000000000 55.003387451 -0.001288179  -999.250000 0.2746827602 2.6487319469 13.892526627 102.95034790  -999.250000  -999.250000  -999.250000 1.7769999504 1.5520000458
 4418.2285156 6.0000000000 6.1982002258 6.0000000000 49.305118561 0.0024000001  -999.250000 0.2381000072 2.6586999893 13.776000023 90.580001831  -999.250000  -999.250000  -999.250000 1.9639999866 1.7209999561
 4418.3808594 6.0000000000 6.2284998894 6.0000000000 46.446849823 0.0024999999  -999.250000 0.2222999930 2.6630001068 13.758199692 86.150001526  -999.250000  -999.250000  -999.250000 2.0620000362 1.8370000124
 4418.5332031 5.0000000000 6.1696000099 6.0000000000 43.266403198 0.0020000001  -999.250000 0.2025000006 2.6733000278 13.814299583 81.510002136  -999.250000  -999.250000  -999.250000 2.2279999256 2.0889999866
 4418.6860352 5.0000000000 6.1423001289 6.0000000000 41.672245026 0.0035051282  -999.250000 0.1976160258 2.6765978336 13.775844574 83.743850708  -999.250000  -999.250000  -999.250000 2.2730000019 2.1289999485
 4418.8383789 5.0000000000 6.1880998611 6.0000000000 40.445537567 0.0050955131  -999.250000 0.2026163489 2.6758978367 13.696361542 91.159553528  -999.250000  -999.250000  -999.250000 2.2320001125 2.0269999504
 4418.9907227 5.0000000000 6.2038993835 6.0000000000 39.836204529 0.0036913462  -999.250000 0.2077407092 2.6752192974 13.652942657 91.028778076  -999.250000  -999.250000  -999.250000 2.2070000172 1.9850000143
 4419.1430664 6.0000000000 6.1400995255 6.0000000000 40.731098175 0.0010022436  -999.250000 0.2204076946 2.6812167168 13.541726112 93.787979126  -999.250000  -999.250000  -999.250000 2.1730000973 2.0009999275
 4419.2954102 6.0000000000 6.1597995758 6.0000000000 41.195152283 0.0017115385  -999.250000 0.2228778899 2.6864101887 13.518962860 102.54249573  -999.250000  -999.250000  -999.250000 2.1389999390 1.9589999914
 4419.4477539 6.0000000000 6.1400995255 6.0000000000 46.490756989 0.0053025559  -999.250000 0.2471642196 2.6895895004 13.507216454 118.88795471  -999.250000  -999.250000  -999.250000 1.9809999466 1.7569999695
 4419.6000977 7.0000000000 6.1793999672 6.0000000000 49.134513855 0.0060999999  -999.250000 0.2671999931 2.6863000393 13.418899536 124.48999786  -999.250000  -999.250000  -999.250000 1.9259999990 1.6670000553
 4419.7524414 7.0000000000 6.0746002197 6.0000000000 54.868114471 0.0029000000  -999.250000 0.3043000102 2.6649999619 13.096799850 122.58999634  -999.250000  -999.250000  -999.250000 1.7790000439 1.4830000401
 4419.9047852 7.0000000000 6.1248002052 6.0000000000 57.734912872 -0.000700000  -999.250000 0.3109000027 2.6507000923 13.086199760 123.63999939  -999.250000  -999.250000  -999.250000 1.7480000257 1.4379999638
 4420.0576172 7.0000000000 6.2121000290 6.0000000000 54.386703491 -0.006400000  -999.250000  -999.250000 2.6380140781 13.417122841 125.55327606  -999.250000  -999.250000  -999.250000 1.7510000467 1.4179999828
 4420.2099609 7.0000000000 6.2284998894 6.0000000000 52.719062805 -0.006367948  -999.250000  -999.250000 2.6424665451 13.485319138 126.53862000  -999.250000  -999.250000  -999.250000 1.7760000229 1.4249999523
 4420.3623047 7.0000000000 6.1902999878 6.0000000000 52.178924561 0.0036073718  -999.250000  -999.250000 2.6631016731 13.149145126 116.78611755  -999.250000  -999.250000  -999.250000 1.8930000067 1.5140000582
 4420.5146484 7.0000000000 6.1400995255 6.0000000000 51.916557312 0.0059009618  -999.250000  -999.250000 2.6635777950 13.069494247 118.94965363  -999.250000  -999.250000  -999.250000 1.9600000381 1.5770000219
 4420.6669922 7.0000000000 6.1423001289 6.0000000000 54.232379913 0.0062009585  -999.250000  -999.250000 2.6566822529 12.942883492 199.73776245  -999.250000  -999.250000  -999.250000 2.4030001163 2.1459999084
 4420.8193359 6.0000000000 6.1237001419 6.0000000000 55.388454437 0.0065000001  -999.250000  -999.250000 2.6512000561 12.812800407 211.52000427  -999.250000  -999.250000  -999.250000 2.8929998875 2.8210000992
 4420.9716797 6.0000000000 6.1498999596 6.0000000000 44.485237122 0.0074000000  -999.250000  -999.250000 2.6326999664 12.733200073 118.11000061  -999.250000  -999.250000  -999.250000 3.5150001049 3.8340001106
 4421.1240234 6.0000000000 6.1182999611 6.0000000000 38.066272736 0.0077999998  -999.250000  -999.250000 2.6001000404 12.872699738 65.529998779  -999.250000  -999.250000  -999.250000 3.8010001183 3.8559999466
 4421.2763672 5.0000000000 6.1423001289 6.0000000000 37.099082947 0.0089999996  -999.250000  -999.250000 2.5794999599 12.934100151 50.650001526  -999.250000  -999.250000  -999.250000 3.9010000229 3.9040000439
 4421.4291992 5.0000000000 6.1957993507 6.0000000000 34.578044891 0.0047833337  -999.250000  -999.250000 2.5291357040 13.069256783 51.853652954  -999.250000  -999.250000  -999.250000 4.1859998703 4.2410001755
