# LAS format log file from PETREL
# Project units are specified as depth units
#==================================================================
~Version information
VERS.   2.0:
WRAP.   NO:
#==================================================================
~Well
STRT .m      3400.0439453 :
STOP .m      3961.3330078 :
STEP .m     0.00000000 :
NULL .        -999.250000 :
COMP.           : COMPANY
WELL.  33/6-2   : WELL
FLD.            : FIELD
LOC.            : LOCATION
SRVC.           : SERVICE COMPANY
DATE.  2018-09-11 14:48:41   : Log Export Date {yyyy-MM-dd HH:mm:ss}
PROV.           : PROVINCE
UWI.   33/6-2   : UNIQUE WELL ID
API.            : API NUMBER
#==================================================================
~Curve
DEPT .m                   : DEPTH
Lithology_geolink ._      : Lithology_geolink
NPHI .m3/m3               : NPHI
RHOB .g/cm3               : RHOB
GR .gAPI                  : GR
DTC .us/ft                : DTC
RDEP .ohm.m               : RDEP
RSHA .ohm.m               : RSHA
RMED .ohm.m               : RMED
~Parameter
#==================================================================
~Ascii
# ...
 3545.1286621 5.0000000000 0.1800000072 2.5720000267 113.90599823 87.754028320 4.8239998817 8.1400003433 4.7039999962
 3545.2812500 5.0000000000 0.1803700030 2.5850000381 112.59300232 87.743011475 4.8610000610 8.4919996262 4.6050000191
 3545.4335938 5.0000000000 0.2046200037 2.5690000057 110.23899841 87.733016968 4.9990000725 10.020000458 4.5419998169
 3545.5859375 5.0000000000 0.2080300003 2.5520000458 105.66000366 87.722015381 4.9629998207 11.713000298 4.4910001755
 3545.7382813 5.0000000000 0.2122099996 2.5390000343 107.39099884 87.712013245 4.6970000267 11.635000229 4.3730001450
 3545.8908691 5.0000000000 0.2235199958 2.5510001183 105.46700287 87.702018738 4.5329999924 10.111000061 4.2399997711
 3546.0432129 5.0000000000 0.2296100110 2.5710000992 111.13800049 87.691009521 4.6789999008 8.5729999542 4.2100000381
 3546.1955566 5.0000000000 0.2418199927 2.5639998913 115.73000336 87.681015015 5.0269999504 7.6849999428 4.2979998589
 3546.3479004 5.0000000000 0.2332099974 2.5559999943 122.18099976 87.671012878 5.3189997673 7.7769999504 4.4600000381
 3546.5002441 6.0000000000 0.2446900010 2.5280001163 127.26599884 87.660041809 5.5089998245 8.5069999695 4.6739997864
 3546.6528320 6.0000000000 0.2585300207 2.5109999180 129.54600525 87.650024414 5.9930000305 8.4849996567 4.9429998398
 3546.8051758 6.0000000000 0.2569499910 2.4830000401 125.68399811 87.640014648 7.1250000000 6.6630001068 5.0390000343
 3546.9575195 5.0000000000 0.2262900025 2.4609999657 111.01300049 87.629013062 7.6770000458 4.2049999237 4.4400000572
 3547.1098633 5.0000000000 0.1900600046 2.4360001087 97.572998047 87.619033813 5.5949997902 2.6630001068 3.3719999790
 3547.2624512 6.0000000000 0.1920800060 2.4110000134 85.856002808 87.608016968 3.7369999886 2.0309998989 2.6170001030
 3547.4147949 6.0000000000 0.2063200027 2.4330000877 83.444000244 87.598014832 3.0499999523 1.8589999676 2.2599999905
 3547.5671387 6.0000000000 0.2154899985 2.4909999371 80.819999695 87.588012695 3.0780000687 1.9500000477 2.1770000458
 3547.7194824 6.0000000000 0.1892399937 2.5940001011 81.737998962 87.577049255 4.0009999275 2.5230000019 2.4779999256
 3547.8720703 6.0000000000 0.1534100026 2.6530001163 77.892997742 87.567016602 8.6510000229 4.6240000725 3.6150000095
 3548.0244141 6.0000000000 0.1252100021 2.6730000973 71.886001587 87.557006836 17.517999649 12.626999855 6.7399997711
 3548.1767578 6.0000000000 0.1252000034 2.6289999485 72.905998230 87.546012878 28.959999084 27.419000626 10.958000183
 3548.3291016 6.0000000000 0.1249899939 2.5899999142 73.384002686 87.536018372 22.740999222 29.618999481 9.8509998322
 3548.4814453 16.000000000 0.1205599979 2.5799999237 75.248001099 87.525039673 14.109999657 24.735000610 7.9060001373
 3548.6340332 6.0000000000 0.1250299960 2.5590000153 71.045997620 87.515014648 17.760999680 16.454999924 6.9510002136
 3548.7863770 6.0000000000 0.1657500118 2.5109999180 74.760002136 87.505012512 19.311000824 9.6590003967 5.4239997864
 3548.9387207 6.0000000000 0.2121800035 2.4690001011 84.213996887 87.494018555 10.831999779 4.7930002213 3.7820000648
 3549.0910645 6.0000000000 0.2276000082 2.4419999123 85.819000244 87.484039307 6.4970002174 2.5969998837 2.6510000229
 3549.2436523 6.0000000000 0.2176799923 2.4279999733 80.973999023 87.474014282 4.2810001373 1.7000000477 1.9539999962
 3549.3959961 6.0000000000 0.2205400020 2.4200000763 72.185997009 87.463012695 3.1119999886 1.3780000210 1.6050000191
 3549.5483398 6.0000000000 0.2233200073 2.4119999409 71.428001404 87.453018188 2.7009999752 1.3250000477 1.5099999905
 3549.7006836 6.0000000000 0.2225800008 2.3959999084 73.530998230 87.442039490 2.7560000420 1.3600000143 1.5390000343
 3549.8532715 6.0000000000 0.2344599962 2.3959999084 72.324996948 87.432014465 3.0969998837 1.3990000486 1.6000000238
 3550.0056152 6.0000000000 0.2508099973 2.3929998875 82.966003418 87.422012329 3.6289999485 1.5130000114 1.7059999704
 3550.1579590 6.0000000000 0.2499200106 2.4140000343 88.305999756 87.411026001 4.1290001869 1.6870000362 1.8400000334
 3550.3103027 6.0000000000 0.2202000022 2.4270000458 94.495002747 87.401016235 4.1389999390 1.7170000076 1.8980000019
 3550.4626465 6.0000000000 0.1980500072 2.4930000305 87.149002075 87.391021729 3.7679998875 1.6710000038 1.9019999504
 3550.6152344 6.0000000000 0.2075800002 2.5759999752 82.066001892 87.380012512 3.4879999161 1.8459999561 1.9930000305
 3550.7675781 6.0000000000 0.2115399987 2.6659998894 72.833999634 87.370018005 3.6670000553 2.6340000629 2.3610000610
 3550.9199219 6.0000000000 0.1753100008 2.6830000877 75.763999939 87.360015869 5.0850000381 6.4559998512 3.4849998951
 3551.0722656 6.0000000000 0.1206700057 2.6400001049 87.350997925 87.349037170 11.571000099 13.501000404 6.7319998741
 3551.2248535 16.000000000 0.1217500046 2.5539999008 107.76499939 87.339012146 24.905000687 45.049999237 12.019000053
 3551.3771973 16.000000000 0.1720100045 2.4920001030 118.80000305 87.328018188 31.966999054 52.495998383 11.440999985
 3551.5295410 16.000000000 0.2329999954 2.4709999561 122.47399902 87.318008423 15.907999992 91.958000183 7.3990001678
 3551.6818848 16.000000000 0.2559100091 2.4749999046 128.41200256 87.308029175 8.2650003433 43.016998291 5.5040001869
 3551.8344727 6.0000000000 0.2512000203 2.4890000820 126.56999969 87.297012329 6.0599999428 18.830999374 4.6319999695
 3551.9868164 6.0000000000 0.2470899969 2.5020000935 126.23899841 87.287017822 5.2529997826 14.260999680 4.2379999161
 3552.1391602 6.0000000000 0.2247599959 2.5199999809 115.47399902 87.277023315 5.0549998283 13.552000046 4.1609997749
 3552.2915039 6.0000000000 0.2282099873 2.5209999084 120.01399994 87.266014099 5.1760001183 14.463000298 4.2930002213
 3552.4438477 6.0000000000 0.2368099988 2.5009999275 126.01200104 87.256027222 5.3239998817 13.463000298 4.4310002327
 3552.5964355 6.0000000000 0.2347800136 2.4920001030 141.00999451 87.245025635 5.2259998322 10.416000366 4.3639998436
 3552.7487793 6.0000000000 0.2394599915 2.4909999371 151.86399841 87.235015869 4.8169999123 8.5159997940 4.0749998093
 3552.9011230 7.0000000000 0.2505800128 2.4869999886 161.85000610 87.225006104 4.2729997635 7.6630001068 3.7079999447
 3553.0534668 7.0000000000 0.2916799784 2.4719998837 173.38999939 87.214035034 3.7620000839 6.6989998817 3.3770000935
 3553.2060547 7.0000000000 0.3112500012 2.4539999962 177.14700317 87.204017639 3.3740000725 5.7290000916 3.1800000668
 3553.3583984 7.0000000000 0.2912899852 2.4679999352 177.01699829 87.194015503 3.1610000134 5.2779998779 3.1589999199
 3553.5107422 6.0000000000 0.2604199946 2.4790000916 160.04600525 87.183013916 3.1879999638 5.2680001259 3.2869999409
 3553.6630859 6.0000000000 0.2327100039 2.4600000381 148.83599854 87.173027039 3.5610001087 5.5590000153 3.5780000687
 3553.8156738 6.0000000000 0.2344799936 2.4219999313 142.40400696 87.162017822 4.2919998169 6.2249999046 4.0229997635
 3553.9680176 6.0000000000 0.2419300079 2.3949999809 144.90800476 87.152008057 5.2080001831 7.4990000725 4.5430002213
 3554.1203613 6.0000000000 0.3047899902 2.4000000954 153.98800659 87.142013550 5.8940000534 9.9119997025 4.9990000725
 3554.2727051 7.0000000000 0.3371700048 2.4010000229 167.12500000 87.131011963 5.1539998055 12.225999832 4.8979997635
 3554.4250488 7.0000000000 0.3495700061 2.4230000973 186.45700073 87.121032715 3.6119999886 9.2720003128 4.0819997787
 3554.5776367 7.0000000000 0.2976900041 2.4660000801 190.32699585 87.111022949 2.9270000458 5.9390001297 3.3840000629
 3554.7299805 7.0000000000 0.2698299885 2.5280001163 194.49899292 87.100013733 3.1870000362 5.0539999008 3.2850000858
 3554.8823242 7.0000000000 0.2905099988 2.5309998989 190.75199890 87.090011597 3.8810000420 5.6020002365 3.5889999866
 3555.0346680 7.0000000000 0.3243999779 2.4990000725 194.83599854 87.080032349 3.7179999352 5.9380002022 3.5659999847
 3555.1872559 7.0000000000 0.3332199752 2.4639999866 189.33000183 87.069015503 3.1329998970 5.2449998856 3.1140000820
 3555.3395996 7.0000000000 0.3270300031 2.4500000477 194.49699402 87.059013367 2.9460000992 4.7249999046 2.7969999313
