# LAS format log file from PETREL
# Project units are specified as depth units
#==================================================================
~Version information
VERS.   2.0:
WRAP.   NO:
#==================================================================
~Well
STRT .m      1936.1920166 :
STOP .m      3906.2648926 :
STEP .m     0.00000000 :
NULL .        -999.250000 :
COMP.           : COMPANY
WELL.  33/6-1   : WELL
FLD.            : FIELD
LOC.            : LOCATION
SRVC.           : SERVICE COMPANY
DATE.  2018-09-11 14:48:41   : Log Export Date {yyyy-MM-dd HH:mm:ss}
PROV.           : PROVINCE
UWI.   33/6-1   : UNIQUE WELL ID
API.            : API NUMBER
#==================================================================
~Curve
DEPT .m                   : DEPTH
Lithology_geolink ._      : Lithology_geolink
CALI .in                  : CALI
BS .in                    : BS
DRHO .g/cm3               : DRHO
NPHI .m3/m3               : NPHI
RHOB .g/cm3               : RHOB
GR .gAPI                  : GR
DTC .us/ft                : DTC
RDEP .ohm.m               : RDEP
SP .mV                    : SP
RSHA .ohm.m               : RSHA
RMED .ohm.m               : RMED
~Parameter
#==================================================================
~Ascii
# ...
 2982.2646484  -999.250000 13.253999710  -999.250000 0.0249951929 0.3539066613 2.5100080967 60.772083282 96.651252747 1.9652304649 30.312715530 2.0877697468 2.0877697468
 2982.4169922  -999.250000 13.260999680  -999.250000 0.0219951998 0.3455932736 2.5150048733 60.488254547 96.731109619 1.9511795044 30.229064941 2.1087307930 2.1087307930
 2982.5695801  -999.250000 13.262001038  -999.250000 0.0190480761 0.3351312280 2.5180318356 60.882610321 97.075820923 1.9401234388 30.209213257 2.1228427887 2.1228427887
 2982.7219238  -999.250000 13.258998871  -999.250000 0.0490112156 0.3234328628 2.5380258560 61.632358551 97.247505188 1.9370336533 30.208999634 2.1229999065 2.1229999065
 2982.8742676  -999.250000 13.246999741  -999.250000 0.0559711568 0.3252439797 2.5539550781 62.057983398 97.404281616 1.9241664410 30.225782394 2.1210255623 2.1210255623
 2983.0266113  -999.250000 13.230999947  -999.250000 0.0379711539 0.3339688182 2.5259647369 62.993450165 97.179885864 1.9062308073 30.314846039 2.1012563705 2.1012563705
 2983.1791992  -999.250000 13.215999603  -999.250000 0.0199871995 0.3457261324 2.5040192604 65.320701599 96.520553589 1.8931457996 30.433664322 2.0476057529 2.0476057529
 2983.3315430  -999.250000 13.200999260  -999.250000 0.0160080139 0.3569686711 2.5100257397 67.333229065 96.013359070 1.8593814373 30.552665710 1.9965721369 1.9965721369
 2983.4838867  -999.250000 13.189000130  -999.250000 0.0210016016 0.3498956561 2.5260159969 68.205726624 95.882682800 1.8303253651 30.665731430 1.9663364887 1.9663364887
 2983.6362305  -999.250000 13.183999062  -999.250000 0.0219759606 0.3534033895 2.5360064507 67.187927246 96.723243713 1.8003839254 30.773616791 1.9334223270 1.9334223270
 2983.7888184  -999.250000 13.185000420  -999.250000 0.0070448001 0.3367876112 2.5400414467 67.165596008 98.356849670 1.7693477869 30.882778168 1.8934487104 1.8934487104
 2983.9411621  -999.250000 13.185999870  -999.250000 0.0210256409 0.3204907477 2.5530064106 67.492256165 99.155372620 1.7373589277 30.964092255 1.8316954374 1.8316954374
 2984.0935059  -999.250000 13.187999725  -999.250000 0.0370256416 0.3272311985 2.5569903851 66.713111877 99.440711975 1.7053589821 30.940280914 1.7815608978 1.7815608978
 2984.2458496  -999.250000 13.193999290  -999.250000 0.0529887825 0.3466797769 2.5509858131 65.812461853 99.661766052 1.6832815409 30.873857498 1.7839616537 1.7839616537
 2984.3984375  -999.250000 13.206000328  -999.250000 0.0459615998 0.3589802384 2.5419232845 65.329925537 99.902389526 1.6731121540 30.816638947 1.8304727077 1.8304727077
 2984.5507813  -999.250000 13.218999863  -999.250000 0.0340032056 0.3559387028 2.5179855824 64.899856567 100.39717865 1.6611346006 30.800178528 1.8715400696 1.8715400696
 2984.7031250  -999.250000 13.229999542  -999.250000 0.0360224359 0.3551229239 2.5090193748 64.874511719 100.63918304 1.6689102650 30.799011230 1.8284935951 1.8284935951
 2984.8554688  -999.250000 13.234000206  -999.250000 0.0500096157 0.3569516242 2.5209774971 66.277275085 100.38171387 1.6877567768 30.798999786 1.7648192644 1.7648192644
 2985.0078125  -999.250000 13.236000061  -999.250000 0.0560016036 0.3641643822 2.5070447922 66.671409607 99.354713440 1.7077435255 30.761486053 1.8025000095 1.8025000095
 2985.1604004  -999.250000 13.237000465  -999.250000 0.0569455996 0.3482090533 2.5349681377 65.862037659 98.328163147 1.7277756929 30.678930283 1.8880352974 1.8880352974
 2985.3127441  -999.250000 13.237999916  -999.250000 0.0399919860 0.3447943032 2.5249793530 65.248611450 97.325080872 1.7477756739 30.583078384 1.9730464220 1.9730464220
 2985.4650879  -999.250000 13.239999771  -999.250000 0.0350112170 0.3412454724 2.5120482445 65.172233582 96.926651001 1.7677756548 30.487077713 2.0491473675 2.0491473675
 2985.6174316  -999.250000 13.235000610  -999.250000 0.0420128182 0.3384276032 2.5420432091 66.492630005 97.128860474 1.7837952375 30.432689667 2.0529615879 2.0529615879
 2985.7700195  -999.250000 13.196000099  -999.250000 0.0499840006 0.3432033360 2.5689775944 67.625747681 97.397285461 1.7919102907 30.462652206 1.9847739935 1.9847739935
 2985.9223633  -999.250000 13.138999939  -999.250000 0.0450016037 0.3566733599 2.5619695187 68.199684143 97.663955688 1.7999101877 30.521337509 1.9414823055 1.9414823055
 2986.0747070  -999.250000 13.160000801  -999.250000 0.0460160263 0.3463207483 2.5430271626 69.173782349 97.859779358 1.8069214821 30.578361511 1.9014487267 1.9014487267
 2986.2270508  -999.250000 13.211999893  -999.250000 0.0559791699 0.3529998958 2.5599741936 70.036849976 97.478111267 1.8139103651 30.594795227 1.9197567701 1.9197567701
 2986.3796387  -999.250000 13.208000183  -999.250000 0.0429584011 0.3528936803 2.5439198017 69.363533020 97.203041077 1.8189438581 30.594999313 1.9546073675 1.9546073675
 2986.5319824  -999.250000 13.200999260  -999.250000 0.0299791656 0.3384548128 2.5189695358 68.648254395 97.003288269 1.8239438534 30.594011307 1.9896073341 1.9896073341
 2986.6843262  -999.250000 13.206000328  -999.250000 0.0169935916 0.3289914429 2.5000128746 68.907234192 96.855575562 1.8279551268 30.615753174 2.0236184597 2.0236184597
 2986.8366699  -999.250000 13.217000008  -999.250000 0.0129919872 0.3361248672 2.5079934597 68.666206360 96.723983765 1.8299744129 30.655488968 2.0506544113 2.0506544113
 2986.9890137  -999.250000 13.223999977  -999.250000 0.0079983976 0.3329521716 2.5039856434 67.485733032 97.032341003 1.8300000429 30.699436188 2.0608718395 2.0608718395
 2987.1416016  -999.250000 13.218000412  -999.250000 0.0070256004 0.3405771554 2.4950191975 67.098510742 97.452880859 1.8300000429 30.743505478 2.0540783405 2.0540783405
 2987.2939453  -999.250000 13.210000038  -999.250000 0.0150352558 0.3521586657 2.5010256767 68.451087952 97.843025208 1.8300000429 30.769708633 2.0213701725 2.0213701725
 2987.4462891  -999.250000 13.210000038  -999.250000 0.0370224379 0.3637742996 2.5170335770 69.709655762 97.847259521 1.8290112019 30.728471756 1.9715608358 1.9715608358
 2987.5986328  -999.250000 13.211999893  -999.250000 0.0509935878 0.3602365553 2.5380001068 68.663879395 97.617134094 1.8319616318 30.661857605 1.9818592072 1.9818592072
 2987.7512207  -999.250000 13.213999748  -999.250000 0.0470063984 0.3642626405 2.5379648209 66.761116028 97.349662781 1.8389214277 30.581897736 2.0264952183 2.0264952183
 2987.9035645  -999.250000 13.213000298  -999.250000 0.0489999987 0.3463831842 2.5270256996 66.581207275 97.279319763 1.8459213972 30.451469421 2.0764389038 2.0764389038
 2988.0559082  -999.250000 13.206999779  -999.250000 0.0490016006 0.3359016478 2.5429840088 67.243721008 97.346366882 1.8529214859 30.395616531 2.1106185913 2.1106185913
 2988.2082520  -999.250000 13.180001259  -999.250000 0.0500160269 0.3307026923 2.5330369473 66.842803955 97.461639404 1.8599103689 30.390064240 2.0803966522 2.0803966522
 2988.3608398  -999.250000 13.147999763  -999.250000 0.0600191988 0.3324020505 2.5560255051 66.474891663 97.661537170 1.8728542328 30.389011383 2.0275945663 2.0275945663
 2988.5131836  -999.250000 13.156998634  -999.250000 0.0659887791 0.3392900527 2.5639791489 67.492691040 97.140892029 1.8878316879 30.390977859 2.0052468777 2.0052468777
 2988.6655273  -999.250000 13.199000359  -999.250000 0.0589839742 0.3517815471 2.5510017872 68.466400146 95.039192200 1.9127194881 30.431539536 2.0613605976 2.0613605976
 2988.8178711  -999.250000 13.220000267  -999.250000 0.0489791669 0.3527280092 2.5520193577 68.906448364 93.232505798 1.9485392570 30.487283707 2.1873743534 2.1873743534
 2988.9702148  -999.250000 13.187001228  -999.250000 0.0359535255 0.3577319384 2.5640382767 69.669723511 92.769058228 1.9796025753 30.544269562 2.3074615002 2.3074615002
 2989.1228027  -999.250000 13.147999763  -999.250000 0.0069936002 0.3588963449 2.5880928040 70.516822815 93.103889465 1.9849438667 30.597404480 2.3396520615 2.3396520615
 2989.2751465  -999.250000 13.175000191  -999.250000 0.0050224359 0.3484106660 2.6170065403 70.685707092 94.334442139 1.9840111732 30.648427963 2.2628750801 2.2628750801
 2989.4274902  -999.250000 13.253000259  -999.250000 0.0190256406 0.3488059342 2.6208992004 70.208717346 96.707603455 1.9731234312 30.697450638 2.1720209122 2.1720209122
