# LAS format log file from PETREL
# Project units are specified as depth units
#==================================================================
~Version information
VERS.   2.0:
WRAP.   NO:
#==================================================================
~Well
STRT .m      3400.0439453 :
STOP .m      3961.3330078 :
STEP .m     0.00000000 :
NULL .        -999.250000 :
COMP.           : COMPANY
WELL.  33/6-2   : WELL
FLD.            : FIELD
LOC.            : LOCATION
SRVC.           : SERVICE COMPANY
DATE.  2018-09-11 14:48:41   : Log Export Date {yyyy-MM-dd HH:mm:ss}
PROV.           : PROVINCE
UWI.   33/6-2   : UNIQUE WELL ID
API.            : API NUMBER
#==================================================================
~Curve
DEPT .m                   : DEPTH
Lithology_geolink ._      : Lithology_geolink
NPHI .m3/m3               : NPHI
RHOB .g/cm3               : RHOB
GR .gAPI                  : GR
DTC .us/ft                : DTC
RDEP .ohm.m               : RDEP
RSHA .ohm.m               : RSHA
RMED .ohm.m               : RMED
~Parameter
#==================================================================
~Ascii
# ...
 3876.7512207 5.0000000000 0.3222299814 2.7090001106 107.02999878 85.777000427 3.9839999676 10.536999702 3.5109999180
 3876.9035645 5.0000000000 0.3080900013 2.6719999313 109.92700195 83.974998474 3.6840000153 8.5050001144 3.2780001163
 3877.0559082 5.0000000000 0.3079400063 2.6300001144 111.29599762 82.583999634 3.5490000248 7.4270000458 3.1280000210
 3877.2084961 5.0000000000 0.3137999773 2.6340000629 112.82900238 81.720001221 3.5150001049 7.2470002174 3.0950000286
 3877.3608398 5.0000000000 0.3010300100 2.6250000000 115.97200012 81.271003723 3.4590001106 7.3979997635 3.0950000286
 3877.5131836 5.0000000000 0.2948699892 2.6340000629 113.73200226 81.673995972 3.3819999695 7.3979997635 3.0690000057
 3877.6655273 5.0000000000 0.2952699959 2.6340000629 113.58799744 82.549003601 3.3310000896 7.2810001373 3.0460000038
 3877.8181152 5.0000000000 0.3025400043 2.6349999905 111.62899780 83.306999207 3.3250000477 7.1900000572 3.0569999218
 3877.9704590 5.0000000000 0.2963400185 2.6419999599 113.04299927 83.601997375 3.3970000744 7.1539998055 3.1080000401
 3878.1228027 5.0000000000 0.2924300134 2.6429998875 108.65000153 83.300003052 3.5859999657 7.2969999313 3.2009999752
 3878.2751465 5.0000000000 0.2946900129 2.6519999504 107.46600342 82.541000366 3.7780001163 7.6350002289 3.2980000973
 3878.4277344 5.0000000000 0.2924599946 2.6480000019 107.93699646 82.069000244 3.7960000038 7.9759998322 3.3480000496
 3878.5800781 5.0000000000 0.2846800089 2.6489999294 111.04599762 82.546997070 3.7699999809 8.3400001526 3.3949999809
 3878.7324219 5.0000000000 0.2912000120 2.6459999084 112.40200043 82.906997681 3.9240000248 9.1459999084 3.5320000648
 3878.8847656 5.0000000000 0.2997400165 2.6400001049 111.92199707 82.707000732 4.1999998093 10.557999611 3.7320001125
 3879.0371094 5.0000000000 0.2949500084 2.6329998970 107.30400085 82.643997192 4.4060001373 12.180999756 3.9000000954
 3879.1896973 6.0000000000 0.2702099979 2.6340000629 107.43599701 83.169998169 4.5700001717 13.583000183 4.0329999924
 3879.3420410 6.0000000000 0.2809399962 2.6349999905 111.19599915 83.876991272 4.6040000916 13.376000404 4.0310001373
 3879.4943848 6.0000000000 0.2858799994 2.6300001144 119.17400360 84.358001709 4.2729997635 10.932000160 3.7690000534
 3879.6467285 6.0000000000 0.3180199862 2.6289999485 123.62400055 84.412994385 3.7909998894 8.5310001373 3.4149999619
 3879.7993164 6.0000000000 0.3038600087 2.6300001144 124.63899994 84.472999573 3.5000000000 7.3000001907 3.1770000458
 3879.9516602 6.0000000000 0.3133699894 2.6380000114 121.30599976 84.747001648 3.4440000057 7.0929999352 3.0969998837
 3880.1040039 6.0000000000 0.3094100058 2.6679999828 116.36000061 85.305000305 3.4839999676 7.4739999771 3.1129999161
 3880.2563477 5.0000000000 0.3316500187 2.6940000057 113.35700226 85.744003296 3.4360001087 7.6919999123 3.1129999161
 3880.4089355 5.0000000000 0.3372099996 2.7039999962 112.71800232 85.686996460 3.2300000191 7.1170001030 2.9990000725
 3880.5612793 5.0000000000 0.3283800185 2.6789999008 117.43699646 85.336997986 2.9700000286 6.0830001831 2.7969999313
 3880.7136230 5.0000000000 0.3203499913 2.6540000439 117.12999725 85.053001404 2.7939999104 5.2890000343 2.6250000000
 3880.8659668 5.0000000000 0.3121500015 2.6489999294 116.30000305 85.045997620 2.7650001049 4.9730000496 2.5620000362
 3881.0183105 5.0000000000 0.3129999936 2.6289999485 112.30599976 85.250000000 2.8429999352 5.0949997902 2.5950000286
 3881.1708984 5.0000000000 0.3149500191 2.6210000515 111.20899963 85.624000549 2.9739999771 5.6430001259 2.6900000572
 3881.3232422 5.0000000000 0.3075300157 2.5989999771 112.57399750 86.134002686 3.1250000000 6.6119999886 2.8139998913
 3881.4755859 5.0000000000 0.3331300020 2.6019999981 111.20899963 86.525001526 3.2300000191 7.5999999046 2.8989999294
 3881.6279297 5.0000000000 0.3243800104 2.5980000496 114.78700256 86.629997253 3.2119998932 7.6420001984 2.8829998970
 3881.7805176 5.0000000000 0.3270800114 2.6099998951 117.72499847 86.412002563 3.1410000324 6.9670000076 2.8269999027
 3881.9328613 5.0000000000 0.2954000235 2.6089999676 119.06999969 85.805999756 3.2149999142 6.7950000763 2.9010000229
 3882.0852051 5.0000000000 0.2995499969 2.6210000515 117.74600220 84.836997986 3.4379999638 7.3769998550 3.1110000610
 3882.2375488 6.0000000000 0.3187199831 2.6250000000 117.18699646 84.057998657 3.6919999123 8.4709997177 3.3559999466
 3882.3901367 6.0000000000 0.3323699832 2.6259999275 119.21299744 83.976005554 3.9289999008 9.7709999084 3.5529999733
 3882.5424805 6.0000000000 0.3206100166 2.6240000725 120.68199921 84.072006226 4.1380000114 10.802000046 3.6449999809
 3882.6948242 6.0000000000 0.3185899854 2.6319999695 119.17199707 83.455001831 4.3029999733 11.626000404 3.6800000668
 3882.8471680 6.0000000000 0.3174799979 2.6329998970 122.75099945 81.748001099 4.3649997711 12.597000122 3.6900000572
 3882.9995117 6.0000000000 0.3213299811 2.6619999409 120.78500366 78.792999268 4.3109998703 14.100000381 3.6900000572
 3883.1520996 6.0000000000 0.3228200078 2.7070000172 121.71499634 75.041999817 4.3119997978 18.198999405 3.7990000248
 3883.3044434 6.0000000000 0.3034299910 2.7960000038 112.20999908 72.640998840 4.6240000725 30.434000015 4.1550002098
 3883.4567871 5.0000000000 0.3077799976 2.8810000420 111.10199738 71.433998108 5.3600001335 61.661998749 4.6890001297
 3883.6091309 5.0000000000 0.2784399986 2.9049999714 109.42500305 73.297996521 6.1659998894 75.353996277 5.0440001488
 3883.7617188 5.0000000000 0.2972599864 2.8800001144 113.05699921 78.189010620 5.9289999008 44.486000061 4.7870001793
 3883.9140625 5.0000000000 0.2851199806 2.7909998894 115.44499969 80.512001038 4.7170000076 18.017999649 4.0529999733
 3884.0664063 5.0000000000 0.3107900023 2.7109999657 116.52100372 82.117004395 3.6949999332 9.6979999542 3.3829998970
 3884.2187500 5.0000000000 0.3064100146 2.6540000439 114.54100037 83.564002991 3.1510000229 7.0840001106 3.0009999275
 3884.3713379 5.0000000000 0.3072299957 2.6400001049 111.18699646 84.027000427 2.9539999962 6.0079998970 2.8410000801
 3884.5236816 5.0000000000 0.2905099988 2.6480000019 110.27700043 84.297996521 2.9949998856 5.4510002136 2.7929999828
 3884.6760254 5.0000000000 0.2795499861 2.6549999714 111.34100342 84.415000916 3.1480000019 5.2940001488 2.7839999199
 3884.8283691 5.0000000000 0.2792499959 2.6530001163 113.43399811 84.406997681 3.2209999561 5.5149998665 2.7969999313
 3884.9807129 5.0000000000 0.2631199956 2.6389999390 115.27600098 84.323997498 3.1800000668 5.9889998436 2.8399999142
 3885.1333008 6.0000000000 0.2788699865 2.6240000725 122.39099884 84.147003174 3.1889998913 6.6160001755 2.9289999008
 3885.2856445 6.0000000000 0.2930899858 2.6289999485 120.91899872 83.707000732 3.3159999847 7.3860001564 3.0510001183
 3885.4379883 6.0000000000 0.3092600107 2.6380000114 118.10199738 82.936996460 3.5160000324 8.2869997025 3.1840000153
 3885.5903320 6.0000000000 0.2812400162 2.6549999714 113.72000122 82.151000977 3.7760000229 9.1689996719 3.3329999447
 3885.7429199 5.0000000000 0.2625800073 2.6730000973 116.68299866 81.373001099 4.1040000916 9.8450002670 3.4960000515
 3885.8952637 5.0000000000 0.2526600063 2.6960000992 119.50199890 80.852996826 4.2930002213 10.114000320 3.6089999676
 3886.0476074 5.0000000000 0.2722600102 2.7019999027 117.51399994 80.860000610 3.9409999847 9.0830001831 3.4730000496
 3886.1999512 5.0000000000 0.2838999927 2.6800000668 115.52600098 81.109001160 3.3940000534 7.3470001221 3.1549999714
 3886.3525391 5.0000000000 0.2938599885 2.6579999924 114.32399750 81.422996521 3.1229999065 6.2839999199 2.9140000343
 3886.5048828 5.0000000000 0.2867999971 2.6470000744 109.35399628 81.787002563 3.0759999752 5.8969998360 2.7860000134
 3886.6572266 5.0000000000 0.2849500179 2.6570000648 108.96199799 82.094001770 3.0529999733 5.7930002213 2.7209999561
 3886.8095703 5.0000000000 0.2958700061 2.6359999180 108.55000305 81.875007629 3.0130000114 5.8520002365 2.7170000076
 3886.9619141 5.0000000000 0.3011699915 2.6240000725 113.53900146 81.542991638 3.0309998989 6.0520000458 2.7699999809
