# LAS format log file from PETREL
# Project units are specified as depth units
#==================================================================
~Version information
VERS.   2.0:
WRAP.   NO:
#==================================================================
~Well
STRT .m      3400.0439453 :
STOP .m      3961.3330078 :
STEP .m     0.00000000 :
NULL .        -999.250000 :
COMP.           : COMPANY
WELL.  33/6-2   : WELL
FLD.            : FIELD
LOC.            : LOCATION
SRVC.           : SERVICE COMPANY
DATE.  2018-09-11 14:48:41   : Log Export Date {yyyy-MM-dd HH:mm:ss}
PROV.           : PROVINCE
UWI.   33/6-2   : UNIQUE WELL ID
API.            : API NUMBER
#==================================================================
~Curve
DEPT .m                   : DEPTH
Lithology_geolink ._      : Lithology_geolink
NPHI .m3/m3               : NPHI
RHOB .g/cm3               : RHOB
GR .gAPI                  : GR
DTC .us/ft                : DTC
RDEP .ohm.m               : RDEP
RSHA .ohm.m               : RSHA
RMED .ohm.m               : RMED
~Parameter
#==================================================================
~Ascii
# ...
 3441.4968262 13.000000000 0.2802499831 2.5420000553 103.63200378 94.132003784 1.2000000477 1.5149999857 1.1180000305
 3441.6491699 13.000000000 0.2861900032 2.5529999733 104.58100128 94.883003235 1.2000000477 1.5140000582 1.1169999838
 3441.8017578 13.000000000 0.3242999911 2.5639998913 108.30000305 94.785003662 1.2000000477 1.5140000582 1.1139999628
 3441.9541016 13.000000000 0.3716700077 2.5569999218 104.83799744 94.774009705 1.2330000401 1.4859999418 1.0939999819
 3442.1064453 13.000000000 0.3924399912 2.5190000534 106.30200195 94.763999939 1.4650000334 1.4700000286 1.1180000305
 3442.2587891 13.000000000 0.3870899975 2.4430000782 102.70300293 94.754005432 1.4149999619 1.4639999866 1.1349999905
 3442.4111328 13.000000000 0.3719800115 2.2269999981 101.10600281 94.742996216 1.4149999619 1.4650000334 1.1419999599
 3442.5637207 13.000000000 0.4284199774 1.9620000124 100.83999634 94.733001709 1.4160000086 1.4650000334 1.1419999599
 3442.7160645 13.000000000 0.4396400154 1.9349999428 101.33599854 94.721992493 1.4160000086 1.4639999866 1.1419999599
 3442.8684082 13.000000000 0.4033900201 1.9400000572 97.594001770 94.711997986 1.4149999619 1.7500000000 1.1430000067
 3443.0207520 13.000000000 0.2996500134 2.0999999046 96.908996582 94.702003479 1.4160000086 1.8129999638 1.2289999723
 3443.1733398 13.000000000 0.2951300144 1.9390000105 100.54900360 94.691001892 1.4170000553 1.8830000162 1.2669999599
 3443.3256836 13.000000000 0.3014599979 1.7979999781 106.22799683 94.681007385 1.4179999828 1.8819999695 1.3880000114
 3443.4780273 13.000000000 0.3364099860 1.6449999809 105.43000031 94.670997620 1.4170000553 1.8819999695 1.3880000114
 3443.6303711 13.000000000 0.3389500082 1.6109999418 103.30200195 94.660003662 1.4179999828 1.8819999695 1.3880000114
 3443.7829590 13.000000000 0.3164300025 1.6150000095 100.09100342 94.650001526 1.4170000553 1.8819999695 1.3880000114
 3443.9353027 13.000000000 0.2846100032 1.6310000420 96.250999451 94.638999939 1.4160000086 1.8830000162 1.3880000114
 3444.0876465 13.000000000 0.2474699914 1.6920000315 92.527000427 94.628997803 1.4049999714 1.8839999437 1.3880000114
 3444.2399902 13.000000000 0.3121999800 1.7949999571 89.926002502 94.619003296 1.4060000181 1.8830000162 1.3880000114
 3444.3923340 13.000000000 0.3567599952 1.9110000134 90.914001465 94.608009338 1.4069999456 1.8839999437 1.3880000114
 3444.5449219 13.000000000 0.3711600006 2.0629999638 89.717002869 94.597999573 1.4069999456 1.8830000162 1.3880000114
 3444.6972656 13.000000000 0.3260800242 2.2609999180 89.733001709 94.587989807 1.4069999456 1.8830000162 1.3880000114
 3444.8496094 13.000000000 0.2933000028 2.5000000000 93.317001343 94.577003479 1.4079999924 1.8810000420 1.3880000114
 3445.0019531 13.000000000 0.2896099985 2.4479999542 103.42500305 94.567001343 1.4069999456 1.8830000162 1.3880000114
 3445.1545410 13.000000000 0.2786999941 2.2909998894 108.47499847 94.555999756 1.4069999456 1.8830000162 1.3880000114
 3445.3068848 13.000000000 0.3005599976 2.1199998856 111.33499908 94.545997620 1.4060000181 1.8839999437 1.3880000114
 3445.4592285 13.000000000 0.3512499928 2.0169999599 109.49299622 94.536003113 1.4060000181 1.8839999437 1.3880000114
 3445.6115723 13.000000000 0.4338800013 1.9329999685 110.00800323 94.525001526 1.4069999456 1.8839999437 1.3880000114
 3445.7641602 13.000000000 0.4420799911 1.9420000315 108.67800140 94.515007019 1.4069999456 1.8839999437 1.3880000114
 3445.9165039 13.000000000 0.3992399871 1.9670000076 108.65799713 94.504997253 1.4069999456 1.8839999437 1.3890000582
 3446.0688477 13.000000000 0.3370999992 1.9809999466 108.14299774 94.494003296 1.4079999924 1.8830000162 1.3880000114
 3446.2211914 13.000000000 0.3485299945 1.8919999599 108.42900085 94.484001160 1.4069999456 1.8839999437 1.3880000114
 3446.3735352 13.000000000 0.3900699914 1.7680000067 106.73899841 94.473999023 1.4079999924 1.8839999437 1.3890000582
 3446.5261230 13.000000000 0.3681499958 1.7389999628 104.76999664 94.462997437 1.4079999924 1.8860000372 1.3890000582
 3446.6784668 13.000000000 0.3410400152 1.7180000544 101.73300171 94.453002930 1.4090000391 1.8849999905 1.3899999857
 3446.8308105 13.000000000 0.3735800087 1.8359999657 104.38400269 94.442008972 1.4119999409 1.8860000372 1.3899999857
 3446.9831543 13.000000000 0.4131100178 1.8489999771 103.90399933 94.431999207 1.4119999409 1.8849999905 1.3899999857
 3447.1357422 13.000000000 0.4351300001 1.8960000277 107.75900269 94.421989441 1.4160000086 1.8869999647 1.3899999857
 3447.2880859 13.000000000 0.4155699909 1.8420000076 101.23000336 94.411003113 1.4359999895 1.8860000372 1.3899999857
 3447.4404297 13.000000000 0.4199599922 1.8339999914 102.50599670 94.401000977 1.4750000238 1.8869999647 1.3910000324
 3447.5927734 13.000000000 0.4420399964 1.8270000219 101.17500305 94.390998840 1.4730000496 1.8869999647 1.3910000324
 3447.7453613 13.000000000 0.4629200101 1.8250000477 104.79699707 94.379997253 1.4720000029 1.8880000114 1.3930000067
 3447.8977051 13.000000000 0.4475499988 1.8300000429 105.57700348 94.370002747 1.4739999771 1.8869999647 1.3960000277
 3448.0500488 13.000000000 0.4311000109 1.8240000010 105.55699921 94.359001160 1.4830000401 1.8769999743 1.3969999552
 3448.2023926 13.000000000 0.4206399918 1.8550000191 102.57599640 94.348991394 1.4969999790 1.8190000057 1.4049999714
 3448.3547363 13.000000000 0.4159500003 1.9049999714 100.84600067 94.338996887 1.5019999743 1.7960000038 1.4190000296
 3448.5073242 13.000000000 0.4147999883 1.9989999533 101.08799744 94.328002930 1.5030000210 1.8090000153 1.3899999857
 3448.6596680 13.000000000 0.3908000290 2.0950000286 100.06500244 94.318000793 1.5049999952 1.8220000267 1.4099999666
 3448.8120117 13.000000000 0.4145799875 2.0950000286 97.238998413 94.308006287 1.5099999905 1.8409999609 1.4240000248
 3448.9643555 13.000000000 0.4074800014 1.9140000343 93.420997620 94.296997070 1.5110000372 1.8500000238 1.4370000362
 3449.1169434 13.000000000 0.4361599982 1.7300000191 91.819000244 94.287002563 1.5119999647 1.8420000076 1.4309999943
 3449.2692871 13.000000000 0.4529600143 1.6299999952 96.262001038 94.275993347 1.5190000534 1.8059999943 1.3960000277
 3449.4216309 13.000000000 0.4370799959 1.6230000257 96.262001038 94.265998840 1.5240000486 1.7940000296 1.3589999676
 3449.5739746 13.000000000 0.4426299930 1.7070000172 99.507003784 94.255989075 1.4720000029 1.7899999619 1.2100000381
 3449.7265625 13.000000000 0.4416400194 1.8140000105 99.088996887 94.245002747 1.4459999800 1.7860000134 1.1900000572
 3449.8789063 13.000000000 0.4572399855 1.8990000486 101.66500092 94.235000610 1.4500000477 1.7860000134 1.1809999943
 3450.0312500 13.000000000 0.4613899887 1.8279999495 102.94999695 94.224998474 0.6458079815 0.8071050048 1.2860000134
 3450.1835938 13.000000000 0.4731200039 1.7769999504 102.55100250 94.213996887 0.6812750101 0.4086819887 0.4793500006
 3450.3359375 13.000000000 0.5063499808 1.8589999676 103.17099762 94.204002380 1.1720000505 0.5519710183 0.5352479815
 3450.4885254 13.000000000 0.4977299869 2.0179998875 102.52400208 94.193000793 2.4839999676 1.5909999609 0.8203529716
 3450.6408691 13.000000000 0.4283599854 2.0280001163 103.96800232 94.182991028 3.7170000076 3.0910000801 1.0190000534
 3450.7932129 13.000000000 0.3610300124 1.8739999533 100.97100067 94.172996521 2.7569999695 13.227000237 1.5740000010
 3450.9455566 13.000000000 0.3499900103 1.8170000315 100.81900024 94.162002563 0.9892410040 99.155998230 3.7990000248
 3451.0981445 13.000000000 0.3763999939 1.8769999743 98.043998718 94.152000427 1.3470000029 678.60699463 6.7989997864
 3451.2504883 13.000000000 0.4409799874 2.0150001049 99.286003113 94.142005920 2.7339999676 67.416999817 6.1510000229
 3451.4028320 13.000000000 0.4117799997 2.1040000916 99.818000793 94.130996704 1.9769999981 10.501000404 2.2209999561
 3451.5551758 13.000000000 0.4057300091 2.1250000000 104.47599792 94.121002197 1.0069999695 3.0680000782 1.1339999437
 3451.7077637 13.000000000 0.3859999776 2.0230000019 105.23899841 94.111000061 0.4555949867 1.1269999743 0.3787089884
