# LAS format log file from PETREL
# Project units are specified as depth units
#==================================================================
~Version information
VERS.   2.0:
WRAP.   NO:
#==================================================================
~Well
STRT .m      3400.0439453 :
STOP .m      3961.3330078 :
STEP .m     0.00000000 :
NULL .        -999.250000 :
COMP.           : COMPANY
WELL.  33/6-2   : WELL
FLD.            : FIELD
LOC.            : LOCATION
SRVC.           : SERVICE COMPANY
DATE.  2018-09-11 14:48:41   : Log Export Date {yyyy-MM-dd HH:mm:ss}
PROV.           : PROVINCE
UWI.   33/6-2   : UNIQUE WELL ID
API.            : API NUMBER
#==================================================================
~Curve
DEPT .m                   : DEPTH
Lithology_geolink ._      : Lithology_geolink
NPHI .m3/m3               : NPHI
RHOB .g/cm3               : RHOB
GR .gAPI                  : GR
DTC .us/ft                : DTC
RDEP .ohm.m               : RDEP
RSHA .ohm.m               : RSHA
RMED .ohm.m               : RMED
~Parameter
#==================================================================
~Ascii
# ...
 3690.2136230 1.0000000000 0.1958300024 2.3880000114 80.565002441 77.881011963 4.8940000534 1.4490000010 2.7070000172
 3690.3659668 1.0000000000 0.1804400086 2.3750000000 83.152000427 77.871017456 4.3850002289 1.3289999962 2.4679999352
 3690.5183105 1.0000000000 0.1858699918 2.3699998856 77.922996521 77.860008240 3.8229999542 1.2779999971 2.3399999142
 3690.6706543 1.0000000000 0.1814500093 2.3689999580 75.658996582 77.850028992 3.5039999485 1.2450000048 2.2579998970
 3690.8232422 1.0000000000 0.1717799902 2.3750000000 73.569999695 77.840011597 3.4579999447 1.2380000353 2.2290000916
 3690.9755859 1.0000000000 0.1735000014 2.4040000439 76.557998657 77.829017639 3.7679998875 1.2910000086 2.3239998817
 3691.1279297 1.0000000000 0.1724200100 2.4400000572 73.329002380 77.819023132 5.0700001717 1.4680000544 2.7139999866
 3691.2802734 2.0000000000 0.1913400143 2.4609999657 74.391998291 77.809013367 9.7569999695 1.8339999914 3.6789999008
 3691.4328613 2.0000000000 0.1870200038 2.4440000057 70.905998230 77.798011780 13.189000130 2.2139999866 4.7779998779
 3691.5852051 2.0000000000 0.1960300058 2.4110000134 71.267997742 77.788017273 7.7750000954 2.0940001011 4.1360001564
 3691.7375488 2.0000000000 0.1928000003 2.3970000744 70.600997925 77.777015686 4.4829998016 1.6900000572 2.9960000515
 3691.8898926 2.0000000000 0.2027799934 2.3919999599 71.846000671 77.767013550 3.8599998951 1.4279999733 2.4409999847
 3692.0422363 2.0000000000 0.1972599924 2.4040000439 73.338996887 77.757034302 4.1290001869 1.3329999447 2.3029999733
 3692.1948242 2.0000000000 0.1953900009 2.4040000439 70.271003723 77.746025085 4.3720002174 1.3439999819 2.3510000706
 3692.3471680 2.0000000000 0.1904100031 2.4040000439 72.512001038 77.736015320 4.4580001831 1.4170000553 2.4790000916
 3692.4995117 2.0000000000 0.2148199975 2.3789999485 74.005996704 77.726020813 4.7480001450 1.4769999981 2.5820000172
 3692.6518555 2.0000000000 0.2293899953 2.3670001030 76.660003662 77.715034485 4.5770001411 1.4290000200 2.5039999485
 3692.8044434 2.0000000000 0.2329500020 2.3610000610 73.184997559 77.705017090 3.7149999142 1.3059999943 2.3220000267
 3692.9567871 2.0000000000 0.2249099910 2.3550000191 73.309997559 77.694007874 3.3340001106 1.2259999514 2.2469999790
 3693.1091309 2.0000000000 0.2313600034 2.3459999561 74.551002502 77.684013367 3.8629999161 1.2400000095 2.3710000515
 3693.2614746 2.0000000000 0.2294799984 2.3469998837 74.267997742 77.674034119 4.9479999542 1.3129999638 2.6219999790
 3693.4140625 2.0000000000 0.2244099975 2.3529999256 75.152000427 77.663017273 5.1020002365 1.3600000143 2.7200000286
 3693.5664063 2.0000000000 0.2198399901 2.3510000706 72.857002258 77.653022766 4.4710001945 1.3370000124 2.5559999943
 3693.7187500 2.0000000000 0.2155900002 2.3610000610 76.587997437 77.643013000 3.9549999237 1.2799999714 2.3220000267
 3693.8710938 2.0000000000 0.2201700062 2.3670001030 74.097999573 77.632019043 3.5299999714 1.2410000563 2.1440000534
 3694.0234375 2.0000000000 0.2086400092 2.3780000210 77.031997681 77.622032166 3.4920001030 1.2810000181 2.1500000954
 3694.1760254 2.0000000000 0.2127099931 2.3910000324 77.916999817 77.611015320 4.1810002327 1.4309999943 2.4179999828
 3694.3283691 2.0000000000 0.2124399990 2.4110000134 80.281997681 77.601013184 5.3090000153 1.6610000134 2.8610000610
 3694.4807129 2.0000000000 0.2158000022 2.4349999428 83.634002686 77.591018677 5.6869997978 1.8860000372 3.2539999485
 3694.6330566 2.0000000000 0.2128899992 2.4479999542 83.041000366 77.580047607 5.6250000000 2.0529999733 3.4830000401
 3694.7856445 2.0000000000 0.1932399869 2.4619998932 84.242996216 77.570014954 5.9010000229 2.2119998932 3.6719999313
 3694.9379883 2.0000000000 0.1715200096 2.4600000381 82.860000610 77.560005188 6.3020000458 2.4240000248 3.9760000706
 3695.0903320 2.0000000000 0.1649300009 2.4549999237 80.191001892 77.549018860 6.2369999886 2.5639998913 4.2410001755
 3695.2426758 1.0000000000 0.1610499918 2.4489998817 76.932998657 77.539031982 5.9029998779 2.4790000916 4.2360000610
 3695.3952637 1.0000000000 0.1631599963 2.4509999752 75.330001831 77.529014587 5.8499999046 2.2780001163 4.0890002251
 3695.5476074 1.0000000000 0.1613299996 2.4279999733 72.699996948 77.518013000 5.9640002251 2.0460000038 3.8429999352
 3695.6999512 1.0000000000 0.1680199951 2.4089999199 68.767997742 77.508018494 5.5679998398 1.7220000029 3.3540000916
 3695.8522949 1.0000000000 0.1755100042 2.3929998875 64.378997803 77.497016907 4.5960001945 1.3799999952 2.7769999504
 3696.0046387 1.0000000000 0.1864100099 2.3849999905 63.022998810 77.487037659 3.7960000038 1.1449999809 2.3550000191
 3696.1572266 1.0000000000 0.1855600029 2.3750000000 69.000000000 77.477012634 3.4579999447 1.0199999809 2.1389999390
 3696.3095703 1.0000000000 0.1943199933 2.3689999580 72.602996826 77.466018677 3.4300000668 0.9581059813 2.0720000267
 3696.4619141 1.0000000000 0.1900499910 2.3689999580 74.228996277 77.456016541 3.4639999866 0.9234679937 2.0599999428
 3696.6142578 1.0000000000 0.1863799989 2.3670001030 71.078002930 77.446029663 3.4719998837 0.9051859975 2.0529999733
 3696.7668457 1.0000000000 0.1839500070 2.3629999161 66.930000305 77.435012817 3.5309998989 0.9087989926 2.0780000687
 3696.9191895 1.0000000000 0.1862100065 2.3640000820 65.541999817 77.425018311 3.6779999733 0.9311900139 2.1459999084
 3697.0715332 1.0000000000 0.1965200007 2.3699998856 60.584999084 77.414024353 3.8699998856 0.9613969922 2.2179999352
 3697.2238770 1.0000000000 0.1853199899 2.3770000935 62.147998810 77.404029846 4.0260000229 0.9914839864 2.2739999294
 3697.3764648 1.0000000000 0.1791699976 2.3740000725 62.388999939 77.394004822 4.0929999352 1.0169999599 2.3159999847
 3697.5288086 1.0000000000 0.1776700020 2.3729999065 62.633998871 77.383018494 4.1929998398 1.0460000038 2.3819999695
 3697.6811523 1.0000000000 0.1839900017 2.3640000820 60.659999847 77.373016357 4.3319997787 1.0850000381 2.4730000496
 3697.8334961 1.0000000000 0.1854100078 2.3680000305 60.791999817 77.363014221 4.1449999809 1.1250000000 2.4869999886
 3697.9858398 1.0000000000 0.1808699965 2.3840000629 65.502998352 77.352035522 3.8429999352 1.1840000153 2.4700000286
 3698.1384277 1.0000000000 0.1785600036 2.4460000992 67.702003479 77.342018127 4.1009998322 1.3380000591 2.7139999866
 3698.2907715 2.0000000000 0.1817900091 2.4960000515 75.166999817 77.332015991 5.3049998283 1.6929999590 3.5369999409
 3698.4431152 2.0000000000 0.1883900017 2.4930000305 78.135002136 77.321006775 7.3649997711 2.2790000439 5.0640001297
 3698.5954590 2.0000000000 0.1958000064 2.4300000668 81.489997864 77.311027527 10.571000099 2.8810000420 7.0069999695
 3698.7480469 2.0000000000 0.2030100077 2.3719999790 85.218002319 77.300018311 15.151000023 3.0940001011 8.0790004730
 3698.9003906 2.0000000000 0.2109799981 2.3320000172 89.924003601 77.290016174 13.189000130 2.8250000477 6.8480000496
 3699.0527344 2.0000000000 0.2206600010 2.2929999828 91.415000916 77.280021667 7.6319999695 2.3849999905 5.0149998665
 3699.2050781 1.0000000000 0.2204200029 2.2899999619 84.196998596 77.269035339 5.2129998207 2.0169999599 3.9019999504
 3699.3576660 1.0000000000 0.2175000012 2.2850000858 78.222000122 77.259017944 4.4949998856 1.7669999599 3.3399999142
 3699.5100098 1.0000000000 0.2088499963 2.2929999828 74.495002747 77.249015808 4.0939998627 1.5709999800 2.9240000248
 3699.6623535 1.0000000000 0.2209399939 2.2899999619 77.460998535 77.238014221 3.4030001163 1.3650000095 2.5130000114
 3699.8146973 1.0000000000 0.2576899827 2.2950000763 75.730003357 77.228004456 2.8199999332 1.1690000296 2.1770000458
 3699.9670410 1.0000000000 0.2656300068 2.2960000038 78.188003540 77.217041016 2.5789999962 1.0299999714 1.9700000286
 3700.1196289 2.0000000000 0.2615700066 2.2969999313 80.700996399 77.207015991 2.5350000858 0.9696419835 1.9220000505
 3700.2719727 2.0000000000 0.2483299971 2.3099999428 86.321998596 77.197013855 2.5409998894 0.9785010219 2.0260000229
 3700.4243164 2.0000000000 0.2620800138 2.3239998817 86.832000732 77.186012268 2.6080000401 1.0180000067 2.1889998913
