# LAS format log file from PETREL
# Project units are specified as depth units
#==================================================================
~Version information
VERS.   2.0:
WRAP.   NO:
#==================================================================
~Well
STRT .m      3400.0439453 :
STOP .m      3961.3330078 :
STEP .m     0.00000000 :
NULL .        -999.250000 :
COMP.           : COMPANY
WELL.  33/6-2   : WELL
FLD.            : FIELD
LOC.            : LOCATION
SRVC.           : SERVICE COMPANY
DATE.  2018-09-11 14:48:41   : Log Export Date {yyyy-MM-dd HH:mm:ss}
PROV.           : PROVINCE
UWI.   33/6-2   : UNIQUE WELL ID
API.            : API NUMBER
#==================================================================
~Curve
DEPT .m                   : DEPTH
Lithology_geolink ._      : Lithology_geolink
NPHI .m3/m3               : NPHI
RHOB .g/cm3               : RHOB
GR .gAPI                  : GR
DTC .us/ft                : DTC
RDEP .ohm.m               : RDEP
RSHA .ohm.m               : RSHA
RMED .ohm.m               : RMED
~Parameter
#==================================================================
~Ascii
 3400.0439453 13.000000000 0.3353500068 2.5829999447 109.25399780 96.268241882 1.3530000448 1.6849999428 1.2230000496
 3400.1962891 13.000000000 0.3335100114 2.5729999542 112.03399658 96.156181335 1.3409999609 1.6890000105 1.2230000496
 3400.3486328 13.000000000 0.3352000117 2.5669999123 105.76899719 96.287582397 1.3309999704 1.6859999895 1.2239999771
 3400.5012207 13.000000000 0.3317399919 2.5539999008 107.51100159 96.160209656 1.3300000429 1.6859999895 1.2259999514
 3400.6535645 13.000000000 0.3146400154 2.5610001087 105.34799957 95.684761047 1.3289999962 1.6950000525 1.2289999723
 3400.8059082 13.000000000 0.3232899904 2.5639998913 107.91000366 96.002487183 1.3279999495 1.7130000591 1.2289999723
 3400.9582520 13.000000000 0.3275199831 2.5739998817 106.20700073 96.592109680 1.3329999447 1.6979999542 1.2330000401
 3401.1108398 13.000000000 0.3386099935 2.5799999237 106.32900238 96.692840576 1.3350000381 1.7009999752 1.2269999981
 3401.2631836 13.000000000 0.3264300227 2.5859999657 105.75299835 97.052421570 1.3350000381 1.7150000334 1.2259999514
 3401.4155273 13.000000000 0.3059999943 2.5920000076 109.72699738 96.933189392 1.3350000381 1.7159999609 1.2209999561
 3401.5678711 13.000000000 0.3030599952 2.5910000801 110.63700104 97.028694153 1.3339999914 1.7189999819 1.2200000286
 3401.7204590 13.000000000 0.3180899918 2.5780000687 113.57199860 97.014022827 1.3289999962 1.7180000544 1.2189999819
 3401.8728027 13.000000000 0.3324000239 2.5720000267 110.24800110 96.818313599 1.3150000572 1.7009999752 1.2170000076
 3402.0251465 13.000000000 0.3366500139 2.5780000687 112.40100098 96.452590942 1.3140000105 1.7289999723 1.2180000544
 3402.1774902 13.000000000 0.3267800212 2.5899999142 111.80100250 96.328201294 1.3140000105 1.7300000191 1.2269999981
 3402.3300781 13.000000000 0.3289899826 2.5859999657 115.66500092 96.633514404 1.3150000572 1.7319999933 1.2280000448
 3402.4824219 13.000000000 0.3311500251 2.5739998817 116.83899689 96.168746948 1.3150000572 1.7680000067 1.2280000448
 3402.6347656 13.000000000 0.3275400102 2.5729999542 115.51899719 96.876869202 1.3140000105 1.7519999743 1.2139999866
 3402.7871094 13.000000000 0.3336800039 2.5720000267 115.89700317 96.910949707 1.3070000410 1.6909999847 1.1970000267
 3402.9394531 13.000000000 0.3366700113 2.5629999638 110.60800171 97.089424133 1.3059999943 1.6959999800 1.2230000496
 3403.0920410 13.000000000 0.3537099957 2.5539999008 108.72499847 97.099983215 1.3099999428 1.6970000267 1.2250000238
 3403.2443848 13.000000000 0.3480899930 2.5480000973 107.67900085 96.691658020 1.3099999428 1.6990000010 1.2259999514
 3403.3967285 13.000000000 0.3359299898 2.5520000458 113.33100128 96.550231934 1.3099999428 1.7029999495 1.2259999514
 3403.5490723 13.000000000 0.3251200020 2.5539999008 115.49199677 95.951919556 1.3179999590 1.7089999914 1.2269999981
 3403.7016602 13.000000000 0.3183699846 2.5590000153 114.45400238 95.619544983 1.3359999657 1.7610000372 1.2289999723
 3403.8540039 13.000000000 0.3193399906 2.5780000687 111.19499969 97.603813171 1.3439999819 1.8200000525 1.2419999838
 3404.0063477 13.000000000 0.3123899996 2.5850000381 109.57199860 96.641548157 1.3439999819 1.7879999876 1.2259999514
 3404.1586914 13.000000000 0.3156999946 2.5850000381 108.51100159 96.270187378 1.3450000286 1.7790000439 1.2250000238
 3404.3112793 13.000000000 0.3300899863 2.5610001087 104.38500214 96.360855103 1.3420000076 1.7500000000 1.2269999981
 3404.4636230 13.000000000 0.3444100320 2.5510001183 100.69200134 96.146347046 1.3400000334 1.7460000515 1.2309999466
 3404.6159668 13.000000000 0.3483400047 2.5450000763 96.827003479 95.318328857 1.3320000172 1.8209999800 1.2189999819
 3404.7683105 13.000000000 0.3378500044 2.5559999943 103.69300079 95.269073486 1.3339999914 1.8450000286 1.2300000191
 3404.9206543 13.000000000 0.3325500190 2.5569999218 106.12899780 94.961975098 1.3339999914 1.8459999561 1.2389999628
 3405.0732422 13.000000000 0.3229600191 2.5559999943 108.69000244 95.281486511 1.3359999657 1.8470000029 1.2389999628
 3405.2255859 13.000000000 0.3401699960 2.5510001183 103.70999908 95.306961060 1.3420000076 1.8550000191 1.2400000095
 3405.3779297 13.000000000 0.3406900167 2.5499999523 105.47399902 95.348930359 1.3530000448 1.8519999981 1.2439999580
 3405.5302734 13.000000000 0.3456100225 2.5639998913 109.12599945 95.542381287 1.3580000401 1.7790000439 1.2419999838
 3405.6828613 13.000000000 0.3346399963 2.5720000267 110.39099884 94.410812378 1.3569999933 1.7640000582 1.2400000095
 3405.8352051 13.000000000 0.3245199919 2.5869998932 115.93599701 94.635635376 1.3550000191 1.7619999647 1.2400000095
 3405.9875488 13.000000000 0.3268899918 2.5759999752 110.50299835 95.358833313 1.3559999466 1.7589999437 1.2400000095
 3406.1398926 13.000000000 0.3283700049 2.5750000477 109.42700195 95.693931580 1.3329999447 1.7569999695 1.2410000563
 3406.2924805 13.000000000 0.3431600332 2.5650000572 102.62799835 95.678031921 1.3270000219 1.7239999771 1.2460000515
 3406.4448242 13.000000000 0.3397200108 2.5590000153 106.48300171 96.222129822 1.3270000219 1.7070000172 1.2159999609
 3406.5971680 13.000000000 0.3355199695 2.5650000572 104.19200134 96.270927429 1.3279999495 1.7070000172 1.2079999447
 3406.7495117 13.000000000 0.3196699917 2.5659999847 103.91100311 94.879234314 1.3259999752 1.7020000219 1.2070000172
 3406.9018555 13.000000000 0.3216299713 2.5699999332 100.08799744 94.861053467 1.3329999447 1.6870000362 1.2059999704
 3407.0544434 13.000000000 0.3147799969 2.5659999847 104.27300262 94.976814270 1.3519999981 1.7350000143 1.2519999743
 3407.2067871 13.000000000 0.3303300142 2.5469999313 105.07700348 94.376960754 1.3580000401 1.7699999809 1.2690000534
 3407.3591309 13.000000000 0.3253600001 2.5469999313 107.37899780 93.508399963 1.3580000401 1.7699999809 1.2680000067
 3407.5114746 13.000000000 0.3315700293 2.5590000153 105.94699860 93.975494385 1.3580000401 1.7380000353 1.2680000067
 3407.6640625 13.000000000 0.3144599795 2.5580000877 106.82099915 94.844604492 1.3589999676 1.7699999809 1.2680000067
 3407.8164063 13.000000000 0.3097800016 2.5499999523 106.76399994 94.371765137 1.3960000277 1.7749999762 1.2680000067
 3407.9687500 13.000000000 0.3091099858 2.5339999199 107.61399841 94.826271057 1.4099999666 1.7139999866 1.2710000277
 3408.1210938 13.000000000 0.3188599944 2.5420000553 103.47799683 94.509025574 1.4119999409 1.7089999914 1.2929999828
 3408.2736816 13.000000000 0.3295000196 2.5510001183 106.19999695 94.563911438 1.4119999409 1.7109999657 1.2970000505
 3408.4260254 13.000000000 0.3267699778 2.5510001183 103.68299866 94.395263672 1.4129999876 1.7109999657 1.2960000038
 3408.5783691 13.000000000 0.3276499808 2.5599999428 116.07499695 93.278793335 1.4119999409 1.7200000286 1.2970000505
 3408.7307129 13.000000000 0.3353799880 2.5769999027 127.82099915 93.930946350 1.4199999571 1.7359999418 1.2999999523
 3408.8830566 13.000000000 0.3407000005 2.5859999657 146.25000000 94.662658691 1.4229999781 1.7269999981 1.3070000410
 3409.0356445 13.000000000 0.3419800103 2.5680000782 149.39700317 94.281616211 1.4220000505 1.7269999981 1.3109999895
 3409.1879883 13.000000000 0.3270300031 2.5480000973 144.44299316 94.547569275 1.4229999781 1.7269999981 1.3099999428
 3409.3403320 13.000000000 0.3289400041 2.5559999943 128.47300720 94.091735840 1.4170000553 1.7280000448 1.3099999428
 3409.4926758 13.000000000 0.3286600113 2.5590000153 115.21099854 93.461021423 1.4170000553 1.7389999628 1.3090000153
 3409.6452637 13.000000000 0.3230300248 2.5629999638 104.23899841 95.141296387 1.4170000553 1.7319999933 1.3029999733
 3409.7976074 13.000000000 0.3079400063 2.5529999733 100.20500183 94.149597168 1.4160000086 1.7289999723 1.2869999409
 3409.9499512 13.000000000 0.3155400157 2.5490000248 101.62599945 94.969680786 1.4140000343 1.7289999723 1.2869999409
 3410.1022949 13.000000000 0.3257300258 2.5490000248 104.45800018 94.843414307 1.4240000248 1.7330000401 1.2879999876
 3410.2548828 13.000000000 0.3345099986 2.5490000248 107.37400055 94.657295227 1.4229999781 1.7439999580 1.3059999943
