# LAS format log file from PETREL
# Project units are specified as depth units
#==================================================================
~Version information
VERS.   2.0:
WRAP.   NO:
#==================================================================
~Well
STRT .m      1936.1920166 :
STOP .m      3906.2648926 :
STEP .m     0.00000000 :
NULL .        -999.250000 :
COMP.           : COMPANY
WELL.  33/6-1   : WELL
FLD.            : FIELD
LOC.            : LOCATION
SRVC.           : SERVICE COMPANY
DATE.  2018-09-11 14:48:41   : Log Export Date {yyyy-MM-dd HH:mm:ss}
PROV.           : PROVINCE
UWI.   33/6-1   : UNIQUE WELL ID
API.            : API NUMBER
#==================================================================
~Curve
DEPT .m                   : DEPTH
Lithology_geolink ._      : Lithology_geolink
CALI .in                  : CALI
BS .in                    : BS
DRHO .g/cm3               : DRHO
NPHI .m3/m3               : NPHI
RHOB .g/cm3               : RHOB
GR .gAPI                  : GR
DTC .us/ft                : DTC
RDEP .ohm.m               : RDEP
SP .mV                    : SP
RSHA .ohm.m               : RSHA
RMED .ohm.m               : RMED
~Parameter
#==================================================================
~Ascii
 1936.1920166  -999.250000 17.979999542  -999.250000 -0.499000013 1.0488102436 1.9980000257 80.265357971 110.58972931 1.7731730938 21.567855835 1.9322379827 1.9322379827
 1936.3443604  -999.250000 17.981000900  -999.250000 -0.499000013 1.0488604307 1.9980000257 83.924308777 108.56700897 1.6653457880 21.628805161 1.9569199085 1.9569199085
 1936.4968262  -999.250000 17.981000900  -999.250000 -0.499000013 1.0489203930 1.9980000257 88.180015564 107.76066589 1.5562620163 21.696836472 1.9849326611 1.9849326611
 1936.6491699  -999.250000 17.981000900  -999.250000 -0.499000013 1.0489703417 1.9980056286 91.364700317 110.09565735 1.5021729469 21.771759033 1.9092434645 1.9092434645
 1936.8016357  -999.250000 17.981000900  -999.250000 -0.499000013 1.0490303040 1.9989999533 93.511642456 113.02822876 1.5129735470 21.847816467 1.8032547235 1.8032547235
 1936.9539795  -999.250000 17.982000351  -999.250000 -0.499000013 1.0490803719 1.9989999533 96.647796631 113.17544556 1.5429039001 21.923755646 1.7551537752 1.7551537752
 1937.1064453  -999.250000 17.982000351  -999.250000 -0.499000013 1.0491403341 1.9989999533 99.250953674 112.61275482 1.5519784689 21.999816895 1.7719590664 1.7719590664
 1937.2587891  -999.250000 17.982000351  -999.250000 -0.499000013 1.0491902828 1.9989999533 99.097938538 112.83509064 1.5480127335 22.022926331 1.7919360399 1.7919360399
 1937.4112549  -999.250000 17.982000351  -999.250000 -0.499000013 1.0492403507 1.9990063906 97.685531616 113.47429657 1.5310409069 21.976112366 1.7920000553 1.7920000553
 1937.5635986  -999.250000 17.982000351  -999.250000 -0.498996019 1.0493001938 2.0000000000 96.662498474 114.49585724 1.5040863752 21.910211563 1.7830288410 1.7830288410
 1937.7159424  -999.250000 17.982999802  -999.250000 -0.497999996 1.0493503809 2.0000000000 97.420639038 113.72062683 1.4740961790 21.844211578 1.7800096273 1.7800096273
 1937.8684082  -999.250000 17.982999802  -999.250000 -0.497999996 1.0494102240 2.0000000000 97.511840820 111.74134064 1.4550608397 21.778211594 1.7999359369 1.7999359369
 1938.0207520  -999.250000 17.982999802  -999.250000 -0.497999996 1.0494602919 2.0000000000 96.378952026 111.66206360 1.4490191936 21.712211609 1.8279101849 1.8279101849
 1938.1732178  -999.250000 17.982999802  -999.250000 -0.497999996 1.0495202541 2.0000000000 94.965812683 111.94077301 1.4559775591 21.649202347 1.8559103012 1.8559103012
 1938.3255615  -999.250000 17.983999252  -999.250000 -0.497999996 1.0495600700 2.0000000000 93.554687500 111.28739929 1.4310801029 21.591184616 1.8749390841 1.8749390841
 1938.4780273  -999.250000 17.983999252  -999.250000 -0.497999996 1.0495599508 2.0000000000 92.259292603 110.52176666 1.4170336723 21.535135269 1.8560456038 1.8560456038
 1938.6303711  -999.250000 17.983999252  -999.250000 -0.497999996 1.0495500565 2.0000000000 91.333366394 111.11974335 1.4179967642 21.479179382 1.8081537485 1.8081537485
 1938.7828369  -999.250000 17.983999252  -999.250000 -0.497999996 1.0495399237 2.0000000000 91.086547852 112.07942200 1.4509207010 21.337341309 1.7730841637 1.7730841637
 1938.9351807  -999.250000 17.983999252  -999.250000 -0.497996002 1.0495300293 2.0000000000 91.992553711 112.11865997 1.4858878851 21.125679016 1.7849615812 1.7849615812
 1939.0876465  -999.250000 17.985000610  -999.250000 -0.496991992 1.0495198965 2.0000000000 92.697410583 110.43882751 1.4949784279 20.916501999 1.8059495687 1.8059495687
 1939.2399902  -999.250000 17.985000610  -999.250000 -0.494987994 1.0495100021 2.0000000000 92.610191345 107.18866730 1.4950000048 20.974811554 1.8119808435 1.8119808435
 1939.3924561  -999.250000 17.985000610  -999.250000 -0.491988003 1.0494998693 2.0000000000 91.694648743 106.03213501 1.4950000048 21.144592285 1.8219759464 1.8219759464
 1939.5447998  -999.250000 17.986000061  -999.250000 -0.488979965 1.0494899750 2.0000000000 89.565193176 105.92561340 1.5099519491 21.314456940 1.8519039154 1.8519039154
 1939.6971436  -999.250000 17.986999512  -999.250000 -0.483977556 1.0494799614 2.0000000000 87.377449036 106.00453949 1.5399037600 21.485452652 1.9118076563 1.9118076563
 1939.8496094  -999.250000 17.989000320  -999.250000 -0.476943940 1.0494699478 2.0000000000 85.895851135 106.63874054 1.5758846998 21.634523392 1.9478846788 1.9478846788
 1940.0019531  -999.250000 17.989999771  -999.250000 -0.462875009 1.0494599342 1.9999943972 85.734352112 107.73265839 1.6138781309 21.746641159 1.9579678774 1.9579678774
 1940.1544189  -999.250000 17.990999222  -999.250000 -0.423759609 1.0494500399 1.9989999533 85.335098267 109.20856476 1.6528750658 21.744009018 1.9390608072 1.9390608072
 1940.3067627  -999.250000 17.992000580  -999.250000 -0.363731772 1.0494400263 1.9989999533 86.874008179 110.26525879 1.6908781528 21.549625397 1.9071024656 1.9071024656
 1940.4592285  -999.250000 17.993000031  -999.250000 -0.296543270 1.0494298935 1.9989999533 88.264938354 109.59961700 1.7309037447 21.305587769 1.9189711809 1.9189711809
 1940.6115723  -999.250000 17.995000839  -999.250000 -0.182523623 1.0494199991 1.9989999533 87.422210693 107.80248260 1.7449551821 21.233230591 1.9768142700 1.9768142700
 1940.7640381  -999.250000 17.996000290  -999.250000 -0.063719556 1.0494098663 1.9989999533 86.373077393 105.78892517 1.7190624475 21.326774597 2.0937187672 2.0937187672
 1940.9163818  -999.250000 17.996999741  -999.250000 0.0062321858 1.0493999720 1.9989999533 86.806282043 103.93003082 1.6532113552 21.521375656 2.2205932140 2.2205932140
 1941.0688477  -999.250000 17.997999191  -999.250000 0.0640921518 1.0493899584 1.9989999533 88.254371643 104.82719421 1.5682042837 21.777383804 2.2479350567 2.2479350567
 1941.2211914  -999.250000 17.999000549  -999.250000 0.0869999975 1.0493800640 1.9989999533 89.545089722 107.97290802 1.5291249752 22.048131943 2.0785446167 2.0785446167
 1941.3736572  -999.250000 18.000999451  -999.250000 0.0869999975 1.0493698120 1.9989999533 89.564369202 111.32838440 1.5599254370 22.320344925 1.8764855862 1.8764855862
 1941.5260010  -999.250000 18.002000809  -999.250000 0.0869999975 1.0493597984 1.9989999533 90.313438416 113.99402618 1.5629903078 22.415695190 1.7115284204 1.7115284204
 1941.6784668  -999.250000 18.003000259  -999.250000 0.0869999975 1.0493396521 1.9989999533 91.782508850 116.10484314 1.5061370134 22.450916290 1.6461563110 1.6461563110
 1941.8308105  -999.250000 18.003999710  -999.250000 0.0869999975 1.0492794514 1.9989999533 92.680419922 116.19721985 1.4372210503 22.532737732 1.6440064907 1.6440064907
 1941.9831543  -999.250000 18.004999161  -999.250000 0.0869999975 1.0491794348 1.9989999533 93.011398315 114.60737610 1.3652307987 22.573867798 1.6709134579 1.6709134579
 1942.1356201  -999.250000 18.006999969  -999.250000 0.0869999975 1.0490694046 1.9989999533 92.596473694 113.70384979 1.3370896578 22.514192581 1.7208398581 1.7208398581
 1942.2879639  -999.250000 18.007999420  -999.250000 0.0869999975 1.0489693880 1.9989999533 90.993827820 114.79713440 1.3559390306 22.482103348 1.7389422655 1.7389422655
 1942.4404297  -999.250000 18.007999420  -999.250000 0.0869999975 1.0488693714 1.9989999533 88.796081543 114.40187073 1.3929110765 22.755342484 1.7130625248 1.7130625248
 1942.5927734  -999.250000 17.997999191  -999.250000 0.0869999975 1.0487693548 1.9989999533 88.675834656 114.38002014 1.4318751097 23.238449097 1.6840928793 1.6840928793
 1942.7452393  -999.250000 17.982999802  -999.250000 0.0869999975 1.0486693382 1.9989999533 89.602348328 113.55191040 1.4569399357 23.290878296 1.6999615431 1.6999615431
 1942.8975830  -999.250000 17.955999374  -999.250000 0.0869999975 1.0485694408 1.9989999533 92.553894043 112.99359894 1.4430447817 23.300968170 1.7508367300 1.7508367300
 1943.0500488  -999.250000 17.906000137  -999.250000 0.0869999975 1.0484693050 1.9989999533 94.239250183 114.53747559 1.4210529327 23.566360474 1.7809278965 1.7809278965
 1943.2023926  -999.250000 17.849000931  -999.250000 0.0869999975 1.0483593941 1.9989999533 93.716773987 116.04446411 1.4847950935 23.659702301 1.7381377220 1.7381377220
 1943.3548584  -999.250000 17.791000366  -999.250000 0.0869959891 1.0482593775 1.9989999533 92.743934631 115.06069183 1.5448557138 23.282907486 1.6941057444 1.6941057444
