# LAS format log file from PETREL
# Project units are specified as depth units
#==================================================================
~Version information
VERS.   2.0:
WRAP.   NO:
#==================================================================
~Well
STRT .m      2483.9675293 :
STOP .m      4422.1909180 :
STEP .m     0.00000000 :
NULL .        -999.250000 :
COMP.           : COMPANY
WELL.  33/6-3 S   : WELL
FLD.            : FIELD
LOC.            : LOCATION
SRVC.           : SERVICE COMPANY
DATE.  2018-09-11 14:48:41   : Log Export Date {yyyy-MM-dd HH:mm:ss}
PROV.           : PROVINCE
UWI.   33/6-3 S   : UNIQUE WELL ID
API.            : API NUMBER
#==================================================================
~Curve
DEPT .m                   : DEPTH
Lithology_geolink ._      : Lithology_geolink
CALI .in                  : CALI
BS .in                    : BS
ROP .m/h                  : ROP
DRHO .g/cm3               : DRHO
THOR .ppm                 : THOR
NPHI .m3/m3               : NPHI
RHOB .g/cm3               : RHOB
PEF .b/e                  : PEF
GR .gAPI                  : GR
URAN .ppm                 : URAN
DTC .us/ft                : DTC
DTS .us/ft                : DTS
RDEP .ohm.m               : RDEP
RMED .ohm.m               : RMED
~Parameter
#==================================================================
~Ascii
# ...
 3642.9697266  -999.250000 12.185099602 12.250000954 105.41339111  -999.250000 11.427700043 0.3074171245  -999.250000  -999.250000 86.228591919 2.7672998905 96.186996460 191.45700073 1.7479000092 1.7799999714
 3643.1220703  -999.250000 12.187000275 12.250000954 106.92257690  -999.250000 11.661000252 0.3181189299  -999.250000  -999.250000 85.350669861 2.7149000168 96.341003418 191.28050232 1.7153999805 1.7200000286
 3643.2746582  -999.250000 12.186800003 12.250000954 107.93963623  -999.250000 11.796299934 0.3299112022  -999.250000  -999.250000 85.767631531 2.6465001106 96.673995972 191.00900269 1.6963000298 1.6979999542
 3643.4270020  -999.250000 12.189599991 12.250000954 106.85695648  -999.250000 11.605199814 0.3333960176  -999.250000  -999.250000 85.030433655 2.6027998924 96.819000244 192.02000427 1.7440999746 1.8159999847
 3643.5793457  -999.250000 12.192800522 12.250000954 109.54724121  -999.250000 11.155099869 0.3308944106  -999.250000  -999.250000 85.303916931 2.5862998962 96.876998901 193.12199402 1.7151000500 1.7790000439
 3643.7316895  -999.250000 12.193499565 12.250000954 114.86219788  -999.250000 10.642900467 0.3274022341  -999.250000  -999.250000 87.733634949 2.5692000389 97.084991455 196.06700134 1.6974999905 1.7389999628
 3643.8840332  -999.250000 12.191599846 12.250000954 118.70078278  -999.250000 10.188300133 0.3288281858  -999.250000  -999.250000 83.767593384 2.5278999805 97.188003540 197.68600464 1.7117999792 1.7519999743
 3644.0366211  -999.250000 12.187999725 12.250000954 126.41075134  -999.250000 10.017200470 0.3464921415  -999.250000  -999.250000 82.261001587 2.4630999565 97.277999878 200.35099792 1.6691999435 1.6560000181
 3644.1889648  -999.250000 12.185700417 12.250000954 125.55774689  -999.250000 10.197799683 0.3752033710  -999.250000  -999.250000 79.464874268 2.3548998833 97.309997559 201.00399780 1.6959999800 1.6929999590
 3644.3413086  -999.250000 12.187600136 12.250000954 123.85171509  -999.250000 10.461899757 0.3772555888  -999.250000  -999.250000 82.504264832 2.2221000195 97.611999512 200.52400208 1.7085000277 1.7189999819
 3644.4936523  -999.250000 12.192299843 12.250000954 126.83728027  -999.250000 10.659199715 0.3495604098  -999.250000  -999.250000 85.157341003 2.2070999146 97.882003784 199.20799255 1.7036000490 1.7029999495
 3644.6462402  -999.250000 12.196700096 12.250000954 132.77558899  -999.250000 10.947099686 0.3248731196  -999.250000  -999.250000 83.498718262 2.3368999958 98.126998901 196.00598145 1.7904000282 1.8229999542
 3644.7985840  -999.250000 12.198199272 12.250000954 128.14961243  -999.250000 11.491000175 0.3164964914  -999.250000  -999.250000 83.103874207 2.4049999714 97.815002441 194.50399780 1.7969000340 1.8609999418
 3644.9509277  -999.250000 12.197898865 12.250000954 118.93045044  -999.250000 11.847999573 0.3142867088  -999.250000  -999.250000 85.516403198 2.3633000851 96.665000916 191.90199280 1.7755999565 1.8209999800
 3645.1032715  -999.250000 12.195499420 12.250000954 119.55381012  -999.250000 12.673899651 0.3059862256  -999.250000  -999.250000 83.278091431 2.1398000717 95.965995789 190.66200256 1.7739000320 1.8099999428
 3645.2558594  -999.250000 12.192299843 12.250000954 120.86614227  -999.250000 13.330200195 0.2974176109  -999.250000  -999.250000 82.090095520 1.8784999847 94.847999573 188.00799561 1.7676000595 1.7929999828
 3645.4082031  -999.250000 12.190199852 12.250000954 121.58792877  -999.250000 13.517700195 0.3029333055  -999.250000  -999.250000 82.118049622 1.6323000193 94.573997498 186.80000305 1.7632999420 1.7779999971
 3645.5605469  -999.250000 12.190799713 12.250000954 123.09711456  -999.250000 13.242699623 0.3237359226  -999.250000  -999.250000 80.900787354 1.3911000490 94.183998108 185.13800049 1.8756999969 2.0009999275
 3645.7128906  -999.250000 12.194199562 12.250000954 116.43701172  -999.250000 12.498200417 0.3461142778  -999.250000  -999.250000 81.390945435 1.3372000456 94.007003784 185.04100037 1.9646999836 2.1800000668
 3645.8652344  -999.250000 12.198300362 12.250000954 103.11679840  -999.250000 11.445799828 0.3549865186  -999.250000  -999.250000 81.979461670 1.6081000566 93.591011047 185.71800232 1.9792000055 2.0739998817
 3646.0178223  -999.250000 12.200200081 12.250000954 104.33070374  -999.250000 10.520400047 0.3465542495  -999.250000  -999.250000 81.637504578 2.0427000523 93.440002441 186.60699463 1.9282000065 1.9450000525
 3646.1701660  -999.250000 12.198699951 12.250000954 106.75853729  -999.250000 10.033699989 0.3322855830  -999.250000  -999.250000 80.857482910 2.4412000179 93.480003357 188.91400146 1.8976000547 1.9110000134
 3646.3225098  -999.250000 12.194199562 12.250000954 109.15354919  -999.250000 9.8374004364 0.3232913613  -999.250000  -999.250000 79.294502258 2.8201999664 93.829002380 190.24400330 1.8926000595 1.9099999666
 3646.4748535  -999.250000 12.187600136 12.250000954 113.97637939  -999.250000 9.6037998199 0.3178935945  -999.250000  -999.250000 82.096038818 3.2590000629 94.817001343 192.83200073 1.8401999474 1.8609999418
 3646.6274414  -999.250000 12.181900024 12.250000954 111.31890106  -999.250000 9.2143001556 0.3139016032  -999.250000  -999.250000 79.633003235 3.6085999012 95.564002991 195.22799683 1.8407000303 1.8550000191
 3646.7797852  -999.250000 12.180299759 12.250000954 110.00656128  -999.250000 8.8147001266 0.3144115210  -999.250000  -999.250000 80.577758789 3.6814000607 95.724998474 196.37100220 1.8329999447 1.8530000448
 3646.9321289  -999.250000 12.180100441 12.250000954 109.64566040  -999.250000 8.6548004150 0.3216254711  -999.250000  -999.250000 85.411399841 3.4579000473 95.987998962 198.05400085 1.8114999533 1.8430000544
 3647.0844727  -999.250000 12.178499222 12.250000954 109.44882202  -999.250000 8.7573003769 0.3375269175  -999.250000  -999.250000 86.273170471 3.0288999081 96.251998901 198.30000305 1.7717000246 1.7869999409
 3647.2370605  -999.250000 12.177398682 12.250000954 108.36614227  -999.250000 9.1100997925 0.3543329537  -999.250000  -999.250000 82.020668030 2.4447000027 96.912994385 197.59199524 1.7773000002 1.7949999571
 3647.3894043  -999.250000 12.177900314 12.250000954 107.80840302  -999.250000 9.6770000458 0.3646144271  -999.250000  -999.250000 82.227104187 1.8198000193 97.117004395 196.91999817 1.7917000055 1.8359999657
 3647.5417480  -999.250000 12.178499222 12.250000954 115.97768402  -999.250000 10.160900116 0.3735948801  -999.250000  -999.250000 80.419578552 1.3990999460 97.092002869 196.42999268 1.7912000418 1.8899999857
 3647.6940918  -999.250000 12.178700447 12.250000954 120.07872772  -999.250000 10.393699646 0.3703655601  -999.250000  -999.250000 80.157455444 1.2489999533 96.971000671 196.99699402 1.7825000286 1.8780000210
 3647.8464355  -999.250000 12.181501389 12.250000954 116.46981812  -999.250000 10.424900055 0.3488700092  -999.250000  -999.250000 78.572692871 1.2619999647 97.042999268 198.77299500 1.7015999556 1.7029999495
 3647.9990234  -999.250000 12.187999725 12.250000954 114.69816589  -999.250000 10.158699989 0.3301795125  -999.250000  -999.250000 80.254577637 1.4064999819 97.293998718 199.61099243 1.6899000406 1.6720000505
 3648.1513672  -999.250000 12.193300247 12.250000954 108.85826874  -999.250000 9.6752004623 0.3238028884  -999.250000  -999.250000 81.677406311 1.6441999674 97.698997498 200.72500610 1.7489999533 1.8240000010
 3648.3037109  -999.250000 12.194100380 12.250000954 105.93832397  -999.250000 9.2926998138 0.3256233931  -999.250000  -999.250000 80.062400818 1.8237999678 97.626991272 200.97200012 1.7904000282 1.9240000248
 3648.4560547  -999.250000 12.192299843 12.250000954 92.322830200  -999.250000 9.0993995667 0.3402110636  -999.250000  -999.250000 81.567436218 1.9379999638 97.039001465 201.50799561 1.7453000546 1.8190000057
 3648.6086426  -999.250000 12.187400818 12.250000954 85.498687744  -999.250000 8.9997997284 0.3470267057  -999.250000  -999.250000 86.189949036 2.0734999180 96.484001160 201.88800049 1.6994999647 1.7460000515
 3648.7609863  -999.250000 12.177300453 12.250000954 73.786087036  -999.250000 9.0906000137 0.3241674602  -999.250000  -999.250000 83.056564331 2.1730999947 95.362991333 202.72300720 1.7059999704 1.7769999504
