# LAS format log file from PETREL
# Project units are specified as depth units
#==================================================================
~Version information
VERS.   2.0:
WRAP.   NO:
#==================================================================
~Well
STRT .m      3400.0439453 :
STOP .m      3961.3330078 :
STEP .m     0.00000000 :
NULL .        -999.250000 :
COMP.           : COMPANY
WELL.  33/6-2   : WELL
FLD.            : FIELD
LOC.            : LOCATION
SRVC.           : SERVICE COMPANY
DATE.  2018-09-11 14:48:41   : Log Export Date {yyyy-MM-dd HH:mm:ss}
PROV.           : PROVINCE
UWI.   33/6-2   : UNIQUE WELL ID
API.            : API NUMBER
#==================================================================
~Curve
DEPT .m                   : DEPTH
Lithology_geolink ._      : Lithology_geolink
NPHI .m3/m3               : NPHI
RHOB .g/cm3               : RHOB
GR .gAPI                  : GR
DTC .us/ft                : DTC
RDEP .ohm.m               : RDEP
RSHA .ohm.m               : RSHA
RMED .ohm.m               : RMED
~Parameter
#==================================================================
~Ascii
# ...
 3762.7561035 6.0000000000 0.2895299792 2.5750000477 130.78924561 84.135002136 2.6679999828 9.6940002441 2.6770000458
 3762.9084473 6.0000000000 0.2919799984 2.5780000687 128.44627380 84.504997253 2.9079999924 6.8619999886 2.7030000687
 3763.0607910 6.0000000000 0.3093899786 2.6400001049 124.88018799 84.666000366 3.1180000305 4.6050000191 2.6440000534
 3763.2133789 6.0000000000 0.3084900081 2.7119998932 126.23104858 85.021003723 3.1749999523 4.8060002327 2.7100000381
 3763.3657227 6.0000000000 0.3027299941 2.7219998837 122.50430298 85.380996704 3.1979999542 6.9210000038 2.8329999447
 3763.5180664 5.0000000000 0.2944000065 2.6860001087 118.95337677 85.944999695 3.1730000973 8.9589996338 2.8510000706
 3763.6704102 5.0000000000 0.2887299955 2.6549999714 117.94758606 85.731002808 2.9470000267 8.1059999466 2.7100000381
 3763.8229980 5.0000000000 0.3228799701 2.6510000229 120.79675293 84.539001465 2.6679999828 6.0500001907 2.4830000401
 3763.9753418 5.0000000000 0.3225400150 2.6940000057 118.21387482 83.122009277 2.5580000877 4.8899998665 2.3729999065
 3764.1276855 5.0000000000 0.3228799701 2.7699999809 109.40559387 81.727996826 2.6400001049 5.2589998245 2.5329999924
 3764.2800293 5.0000000000 0.2814800143 2.7679998875 104.16273499 79.741996765 2.9579999447 8.2150001526 3.0160000324
 3764.4323730 5.0000000000 0.2843399942 2.7079999447 100.27198792 77.523002625 3.6189999580 17.347000122 3.6110000610
 3764.5849609 5.0000000000 0.2704100013 2.6380000114 108.35169983 76.772003174 4.4689998627 32.398998260 3.9300000668
 3764.7373047 5.0000000000 0.2672800124 2.6240000725 105.77137756 77.616996765 4.7160000801 39.332000732 3.9089999199
 3764.8896484 5.0000000000 0.2748399973 2.6259999275 109.74335480 79.335998535 4.3720002174 37.964000702 3.7760000229
 3765.0419922 5.0000000000 0.2915000021 2.6140000820 108.72644043 80.592002869 4.1139998436 36.118000031 3.6930000782
 3765.1945801 5.0000000000 0.2944300175 2.6170001030 114.61277008 80.804000854 4.1149997711 30.936000824 3.6800000668
 3765.3469238 5.0000000000 0.2923800051 2.6189999580 116.71385193 80.758995056 4.1459999084 23.263999939 3.6689999104
 3765.4992676 5.0000000000 0.2926999927 2.6229999065 112.87592316 81.044998169 4.1529998779 18.288000107 3.6449999809
 3765.6516113 5.0000000000 0.2920500040 2.6140000820 109.08670807 81.336006165 4.2319998741 17.233999252 3.6480000019
 3765.8041992 5.0000000000 0.2976700068 2.6219999790 107.04034424 81.547996521 4.2449998856 19.202999115 3.6300001144
 3765.9565430 5.0000000000 0.2911100090 2.6300001144 107.15022278 81.782997131 4.1040000916 21.996000290 3.5580000877
 3766.1088867 5.0000000000 0.2899399996 2.6199998856 109.16069794 81.700996399 4.0329999924 24.513000488 3.5169999599
 3766.2612305 5.0000000000 0.2776600122 2.6150000095 112.09836578 81.210990906 4.1269998550 26.809999466 3.5369999409
 3766.4135742 5.0000000000 0.2734400034 2.6040000916 117.93296814 81.725997925 4.2160000801 27.857000351 3.5559999943
 3766.5661621 5.0000000000 0.2856599987 2.6150000095 117.29306793 81.943000793 4.2249999046 30.061000824 3.5639998913
 3766.7185059 5.0000000000 0.3059999943 2.6110000610 117.31699371 82.416000366 4.2210001945 35.235000610 3.5629999638
 3766.8708496 5.0000000000 0.3111400008 2.6159999371 119.18182373 82.806999207 4.2529997826 44.162998199 3.5610001087
 3767.0231934 5.0000000000 0.3144299984 2.6089999676 120.31598663 82.846000671 4.2859997749 66.130996704 3.5650000572
 3767.1757813 5.0000000000 0.2952499986 2.6229999065 118.42835236 82.819999695 4.3229999542 177.76199341 3.5840001106
 3767.3281250 6.0000000000 0.2874799967 2.6099998951 114.80598450 82.750000000 4.3569998741 329.10800171 3.6219999790
 3767.4804688 6.0000000000 0.2645400167 2.6170001030 118.53797913 83.011001587 4.3420000076 766.80603027 3.6489999294
 3767.6328125 6.0000000000 0.2528100014 2.6059999466 121.64723969 83.361007690 4.3039999008 419.01300049 3.6419999599
 3767.7849121 6.0000000000 0.2716600001 2.6129775047 123.66699982 83.594253540 4.2910413742 132.90548706 3.6041216850
 3767.9375000 6.0000000000 0.2967700064 2.5980241299 119.24099731 83.714805603 4.2440752983 62.999732971 3.5540800095
 3768.0898438 6.0000000000 0.2978099883 2.6019935608 117.26999664 83.414482117 4.1391682625 30.790523529 3.5220513344
 3768.2421875 5.0000000000 0.2999899983 2.6000030041 115.77700043 83.336120605 4.0411567688 20.614252090 3.4670882225
 3768.3945313 5.0000000000 0.2735799849 2.6059904099 115.91300201 83.377929688 3.9850895405 14.849227905 3.3741490841
 3768.5471191 5.0000000000 0.2778599858 2.6020064354 116.14700317 83.384994507 3.9221007824 12.102386475 3.3031134605
 3768.6994629 5.0000000000 0.2481100112 2.5950112343 115.95800018 83.558715820 3.8271522522 11.339218140 3.2780401707
 3768.8518066 5.0000000000 0.2517900169 2.5890095234 115.73400116 83.757682800 3.8559534550 12.366349220 3.3468892574
 3769.0041504 5.0000000000 0.2565299869 2.5830094814 112.35299683 83.966674805 4.1455349922 13.049904823 3.5366954803
 3769.1564941 5.0000000000 0.2620500028 2.5829999447 111.11699677 83.785583496 4.2865490913 9.6010751724 3.5848464966
 3769.3090820 5.0000000000 0.2786300182 2.5829999447 109.81099701 83.062164307 4.0743412971 7.5612564087 3.5221009254
 3769.4614258 5.0000000000 0.2742200196 2.5939824581 110.62500000 82.655647278 4.0111012459 8.0412244797 3.6727581024
 3769.6137695 6.0000000000 0.2808499932 2.5930016041 114.97100067 82.354476929 4.1457834244 9.3578872681 3.8217611313
 3769.7661133 6.0000000000 0.2676799893 2.6009745598 118.40899658 81.949302673 4.3902158737 10.776453018 3.8140254021
 3769.9187012 6.0000000000 0.2673200071 2.6049935818 119.04799652 81.297042847 4.6096491814 13.703309059 3.7850465775
 3770.0710449 6.0000000000 0.2609600127 2.6249680519 111.72200012 80.558181763 4.5680670738 19.403858185 3.7740175724
 3770.2233887 5.0000000000 0.2697800100 2.6289935112 106.15499878 80.107727051 4.2874503136 32.139572144 3.7660129070
 3770.3757324 5.0000000000 0.2619400024 2.6150448322 107.76999664 80.159835815 4.1624002457 62.980056763 3.7978978157
 3770.5283203 5.0000000000 0.2685900033 2.5830512047 111.18299866 80.852882385 4.5573654175 70.375289917 3.8618974686
 3770.6806641 5.0000000000 0.2704499960 2.5690224171 113.08399963 81.121574402 5.2029647827 45.379142761 3.8280546665
 3770.8330078 5.0000000000 0.2670699954 2.5709969997 112.71099854 81.057106018 4.8585543633 49.211780548 3.6153414249
 3770.9853516 5.0000000000 0.2703000009 2.5849776268 112.99800110 80.905235291 4.2579631805 107.96569824 3.5381236076
 3771.1376953 5.0000000000 0.2478100061 2.5700478554 114.75599670 80.659782410 4.5719885826 93.544601440 3.9377167225
 3771.2902832 5.0000000000 0.2517699897 2.5699999332 113.83000183 80.895614624 4.6438860893 29.213186264 4.1406760216
 3771.4426270 5.0000000000 0.2402099967 2.5680031776 113.56800079 81.726661682 3.4539101124 13.237477303 3.2514278889
 3771.5949707 5.0000000000 0.2574799955 2.5729918480 114.69899750 82.194252014 3.2313539982 5.5662722588 2.8496425152
 3771.7473145 5.0000000000 0.2546100020 2.5759904385 115.99900055 82.476097107 4.7800269127 5.2709088326 3.5029008389
 3771.8999023 5.0000000000 0.2570500076 2.5560319424 116.63899994 82.659713745 6.7598299980 4.9724779129 4.4265208244
 3772.0522461 5.0000000000 0.2619499862 2.5000896454 116.63899994 82.769813538 5.5050191879 3.7819101810 4.1843910217
 3772.2045898 5.0000000000 0.2542900145 2.4680511951 115.00499725 81.970283508 4.2719759941 3.2897868156 3.5560081005
 3772.3569336 5.0000000000 0.2409700006 2.5028879642 116.68000031 81.218414307 3.9141426086 3.7036688328 3.2619407177
 3772.5095215 5.0000000000 0.2278800011 2.5768814087 116.54199982 80.708816528 4.0797324181 5.1776361465 3.2530128956
 3772.6618652 5.0000000000 0.2385300100 2.6029582024 119.01999664 80.555252075 4.5073142052 7.4533505440 3.3728075027
 3772.8142090 5.0000000000 0.2576799989 2.5990064144 116.20899963 80.630882263 4.6038460732 8.3126268387 3.4219214916
 3772.9665527 5.0000000000 0.2809099853 2.5770351887 117.41000366 80.764778137 4.1487307549 7.4653625488 3.2892131805
