# LAS format log file from PETREL
# Project units are specified as depth units
#==================================================================
~Version information
VERS.   2.0:
WRAP.   NO:
#==================================================================
~Well
STRT .m      3400.0439453 :
STOP .m      3961.3330078 :
STEP .m     0.00000000 :
NULL .        -999.250000 :
COMP.           : COMPANY
WELL.  33/6-2   : WELL
FLD.            : FIELD
LOC.            : LOCATION
SRVC.           : SERVICE COMPANY
DATE.  2018-09-11 14:48:41   : Log Export Date {yyyy-MM-dd HH:mm:ss}
PROV.           : PROVINCE
UWI.   33/6-2   : UNIQUE WELL ID
API.            : API NUMBER
#==================================================================
~Curve
DEPT .m                   : DEPTH
Lithology_geolink ._      : Lithology_geolink
NPHI .m3/m3               : NPHI
RHOB .g/cm3               : RHOB
GR .gAPI                  : GR
DTC .us/ft                : DTC
RDEP .ohm.m               : RDEP
RSHA .ohm.m               : RSHA
RMED .ohm.m               : RMED
~Parameter
#==================================================================
~Ascii
# ...
 3804.2087402 6.0000000000 0.3354299963 2.6209952831 124.19400024 84.354202271 3.2260947227 7.9982419014 2.9270594120
 3804.3610840 6.0000000000 0.3451900184 2.6339793205 125.79100037 84.164306641 3.2170143127 8.0459222794 2.9060335159
 3804.5134277 6.0000000000 0.3251499832 2.6369953156 126.95300293 83.792594910 3.2449550629 8.3265495300 2.9099936485
 3804.6657715 6.0000000000 0.3088299930 2.6340095997 126.19699860 83.065338135 3.2589552402 8.6071004868 2.9189710617
 3804.8183594 7.0000000000 0.2930200100 2.6130335331 127.44100189 82.597747803 3.2270512581 8.5850372314 2.9160046577
 3804.9707031 7.0000000000 0.2931399941 2.6070096493 132.51699829 82.259544373 3.1940529346 8.4072847366 2.9150016308
 3805.1230469 7.0000000000 0.3018899858 2.6030063629 134.17199707 82.038360596 3.2099742889 8.4030065536 2.9409582615
 3805.2753906 7.0000000000 0.3007099926 2.6199455261 132.28900146 81.918380737 3.2698080540 8.5744495392 2.9868528843
 3805.4279785 7.0000000000 0.2904700041 2.6229951382 127.20099640 81.938980103 3.3239133358 8.7117805481 3.0129582882
 3805.5803223 5.0000000000 0.2713299990 2.6349806786 124.71600342 82.056808472 3.3259968758 8.8268156052 3.0040142536
 3805.7326660 5.0000000000 0.2618800104 2.6230192184 123.69999695 82.279647827 3.2770783901 9.0256814957 2.9790401459
 3805.8850098 5.0000000000 0.2648699880 2.6239984035 124.49600220 82.975883484 3.2011218071 9.1198492050 2.9480495453
 3806.0373535 5.0000000000 0.2703300118 2.6050608158 126.71099854 84.685516357 3.1202590466 9.0033750534 2.9141087532
 3806.1899414 5.0000000000 0.3088899851 2.6020047665 131.42900085 86.204574585 3.0650882721 8.7643833160 2.8800547123
 3806.3422852 5.0000000000 0.3081200123 2.6059935093 132.24099731 87.099563599 3.0410382748 8.3177165985 2.8390657902
 3806.4946289 7.0000000000 0.3239799738 2.6249694824 137.50199890 87.600196838 3.0220305920 7.6910047531 2.7900784016
 3806.6469727 7.0000000000 0.3188900054 2.6409487724 132.88099670 87.765472412 2.9761471748 7.1567120552 2.7511246204
 3806.7995605 7.0000000000 0.3312300146 2.6410000324 127.76300049 87.642196655 2.9180929661 6.6997308731 2.7300336361
 3806.9519043 7.0000000000 0.3165799975 2.6370065212 119.27300262 87.442321777 2.8780641556 6.0560317039 2.7060384750
 3807.1042480 5.0000000000 0.3218699992 2.6340048313 118.51000214 87.222343445 2.8101089001 5.2143492699 2.6361122131
 3807.2565918 5.0000000000 0.3121100068 2.6539361477 119.83699799 87.176147461 2.6355600357 4.4155602455 2.4854831696
 3807.4091797 5.0000000000 0.3135000169 2.6490080357 123.23300171 87.393638611 2.4582836628 3.9257819653 2.3312468529
 3807.5615234 5.0000000000 0.3120000064 2.6460046768 126.02899933 87.981056213 2.4500129223 3.8860623837 2.2880690098
 3807.7138672 6.0000000000 0.3350199759 2.6330206394 129.17700195 88.792694092 2.6167323589 4.2923479080 2.3748605251
 3807.8662109 6.0000000000 0.3402399719 2.6399888992 128.31100464 88.920791626 2.7927179337 4.9848895073 2.5157740116
 3808.0187988 6.0000000000 0.3255199790 2.6330111027 126.11100006 88.416809082 2.8459150791 5.5820450783 2.6148416996
 3808.1711426 5.0000000000 0.2991099954 2.6260111332 125.46499634 88.116477966 2.8450016975 5.8785257339 2.6599280834
 3808.3234863 6.0000000000 0.3017300069 2.6259999275 128.29699707 87.934288025 2.8769488335 6.0926570892 2.6989374161
 3808.4758301 6.0000000000 0.3007000089 2.6309919357 124.96600342 87.647468567 2.9289164543 6.3306183815 2.7389359474
 3808.6281738 5.0000000000 0.3009699881 2.6329934597 127.31500244 87.435676575 2.9449486732 6.4685583115 2.7529551983
 3808.7807617 5.0000000000 0.2889299989 2.6270096302 123.21499634 87.942184448 2.9220368862 6.4660048485 2.7430160046
 3808.9331055 6.0000000000 0.3030699790 2.6250030994 127.58300018 89.024269104 2.9020318985 6.3791394234 2.7360112667
 3809.0854492 6.0000000000 0.3139500022 2.6329870224 124.20400238 89.384429932 2.9209694862 6.2631859779 2.7409918308
 3809.2377930 6.0000000000 0.3283599913 2.6409745216 127.06700134 89.261398315 2.9788146019 6.1882400513 2.7639262676
 3809.3903809 5.0000000000 0.3155100048 2.6419982910 122.69999695 89.041351318 3.0339117050 6.2289342880 2.8059327602
 3809.5427246 5.0000000000 0.3334400058 2.6320159435 118.76399994 88.691566467 3.0629534721 6.4037194252 2.8629086018
 3809.6950684 5.0000000000 0.3225100040 2.6310017109 114.03600311 88.069999695 3.0869615078 6.4389438629 2.9209070206
 3809.8474121 5.0000000000 0.3021399975 2.6489710808 123.62200165 87.617721558 3.0470640659 5.8679165840 2.9050257206
 3810.0000000 5.0000000000 0.2646699846 2.6539919376 126.60399628 87.534118652 2.8473198414 4.8975534439 2.7492496967
 3810.1523438 5.0000000000 0.2666400075 2.6530017853 127.84600067 87.970298767 2.6053879261 4.1462035179 2.5393366814
 3810.3046875 6.0000000000 0.2832899988 2.6430158615 127.22799683 88.096801758 2.5411024094 3.8544664383 2.4301748276
 3810.4570313 6.0000000000 0.3075999916 2.6420016289 128.82099915 87.978187561 2.7137227058 4.0327129364 2.4819166660
 3810.6093750 6.0000000000 0.3010399938 2.6360192299 131.40899658 88.257110596 2.9472510815 4.6061596870 2.6365041733
 3810.7619629 6.0000000000 0.2804400027 2.6409919262 125.17600250 88.657356262 3.0148928165 5.3268461227 2.7767755985
 3810.9143066 6.0000000000 0.2892200053 2.6479887962 126.21399689 88.844703674 3.0060143471 5.8421745300 2.8508815765
 3811.0666504 5.0000000000 0.2782099843 2.6350207329 122.01100159 88.883941650 3.0868701935 6.0896043777 2.8919341564
 3811.2189941 5.0000000000 0.3045400083 2.6280224323 117.86100006 89.106277466 3.2215678692 6.2455005646 2.9308753014
 3811.3715820 5.0000000000 0.2834399939 2.6180160046 118.80200195 89.385551453 3.2799069881 6.5555033684 2.9699375629
 3811.5239258 7.0000000000 0.2975699902 2.6259870529 124.76599884 89.235244751 3.2929792404 7.2219309807 3.0289053917
 3811.6762695 7.0000000000 0.2989000082 2.6210081577 132.88699341 89.272933960 3.3209552765 8.1055841446 3.0749263763
 3811.8286133 7.0000000000 0.3128699958 2.6140224934 137.04200745 89.156372070 3.3519008160 8.8805170059 3.0939393044
 3811.9812012 7.0000000000 0.3281700015 2.6070113182 133.31500244 89.267814636 3.3609857559 9.4001703262 3.0930016041
 3812.1335449 7.0000000000 0.3135899901 2.6000111103 133.87100220 89.450714111 3.3699855804 9.7075080872 3.0880081654
 3812.2858887 6.0000000000 0.2984600067 2.6029951572 128.02900696 89.380111694 3.3799841404 9.9675836563 3.0740222931
 3812.4382324 6.0000000000 0.2792800069 2.6099886894 130.16299438 89.224250793 3.3380672932 10.167679787 3.0310688019
 3812.5905762 6.0000000000 0.2945899963 2.6418976784 130.37500000 89.279823303 3.2173871994 9.8191194534 2.9532496929
 3812.7431641 6.0000000000 0.3233599961 2.6390047073 130.22900391 89.356880188 3.0812180042 8.8505525589 2.8601489067
 3812.8955078 6.0000000000 0.3356200159 2.6230256557 130.30900574 89.383956909 3.0350737572 8.1591072083 2.8060865402
 3813.0478516 6.0000000000 0.3508800268 2.5930480957 125.96099854 89.327095032 3.1098797321 8.2418651581 2.8219742775
 3813.2001953 6.0000000000 0.3548300266 2.5959904194 126.31600189 89.356903076 3.2156608105 8.8789548874 2.8778207302
 3813.3527832 6.0000000000 0.3566299677 2.5890111923 125.71700287 89.364982605 3.2329728603 9.3981704712 2.9109470844
 3813.5051270 6.0000000000 0.3389899731 2.5939919949 129.56900024 89.165321350 3.1890704632 9.4299507141 2.9080047607
 3813.6574707 6.0000000000 0.3269900084 2.6059806347 129.56399536 89.033210754 3.1780176163 9.3641061783 2.9060029984
 3813.8098145 6.0000000000 0.3341799974 2.6329135895 128.57000732 89.020027161 3.2138848305 9.5942611694 2.9289262295
 3813.9624023 6.0000000000 0.3331100047 2.6359951496 126.08200073 88.932136536 3.2639198303 10.154102325 2.9739279747
 3814.1147461 6.0000000000 0.3349899948 2.6369984150 127.34600067 88.858123779 3.3229053020 10.685149193 3.0169310570
 3814.2670898 6.0000000000 0.3443099856 2.6370000839 129.83099365 88.790107727 3.4138541222 10.910639763 3.0609295368
 3814.4194336 6.0000000000 0.3315100074 2.6310095787 130.45599365 88.272834778 3.5328092575 11.096701622 3.1338829994
