# LAS format log file from PETREL
# Project units are specified as depth units
#==================================================================
~Version information
VERS.   2.0:
WRAP.   NO:
#==================================================================
~Well
STRT .m      1936.1920166 :
STOP .m      3906.2648926 :
STEP .m     0.00000000 :
NULL .        -999.250000 :
COMP.           : COMPANY
WELL.  33/6-1   : WELL
FLD.            : FIELD
LOC.            : LOCATION
SRVC.           : SERVICE COMPANY
DATE.  2018-09-11 14:48:41   : Log Export Date {yyyy-MM-dd HH:mm:ss}
PROV.           : PROVINCE
UWI.   33/6-1   : UNIQUE WELL ID
API.            : API NUMBER
#==================================================================
~Curve
DEPT .m                   : DEPTH
Lithology_geolink ._      : Lithology_geolink
CALI .in                  : CALI
BS .in                    : BS
DRHO .g/cm3               : DRHO
NPHI .m3/m3               : NPHI
RHOB .g/cm3               : RHOB
GR .gAPI                  : GR
DTC .us/ft                : DTC
RDEP .ohm.m               : RDEP
SP .mV                    : SP
RSHA .ohm.m               : RSHA
RMED .ohm.m               : RMED
~Parameter
#==================================================================
~Ascii
# ...
 2718.9174805  -999.250000 13.413999557  -999.250000 0.0300208330 0.3808608651 2.4060368538 62.516113281 104.48359680 1.4639663696 30.868059158 1.5110112429 1.5110112429
 2719.0700684  -999.250000 13.439000130  -999.250000 0.0430608019 0.3690038323 2.4290192127 60.678127289 103.73682404 1.4669711590 30.896730423 1.5110000372 1.5110000372
 2719.2224121  -999.250000 13.520000458  -999.250000 0.0620064102 0.3857930005 2.4349775314 59.040534973 103.50251770 1.4699711800 30.859365463 1.5110000372 1.5110000372
 2719.3747559  -999.250000 13.512000084  -999.250000 0.0659647435 0.4001440704 2.4209630489 57.494873047 105.27156830 1.4700000286 30.803537369 1.5110000372 1.5110000372
 2719.5270996  -999.250000 13.501000404  -999.250000 0.0440176278 0.4088888168 2.3980128765 58.085380554 106.38024139 1.4700000286 30.746547699 1.5110000372 1.5110000372
 2719.6796875  -999.250000 13.484000206  -999.250000 0.0550127998 0.4019663334 2.4060447216 60.705318451 106.14791870 1.4700000286 30.507312775 1.5110000372 1.5110000372
 2719.8320313  -999.250000 13.421999931  -999.250000 0.0589967966 0.4132829607 2.4200143814 63.464141846 106.54423523 1.4700000286 30.176193237 1.5110000372 1.5110000372
 2719.9843750  -999.250000 13.695000648  -999.250000 0.0570096150 0.4151257873 2.4290111065 63.904838562 106.38262177 1.4700000286 29.839241028 1.5110000372 1.5110000372
 2720.1367188  -999.250000 14.053000450  -999.250000 0.0629935935 0.4062823057 2.4359970093 62.923194885 105.32862091 1.4700000286 29.785490036 1.5110000372 1.5110000372
 2720.2890625  -999.250000 13.829999924  -999.250000 0.0589920022 0.4139392972 2.4339759350 63.610576630 104.27677155 1.4700000286 29.860149384 1.5100111961 1.5100111961
 2720.4416504  -999.250000 13.534998894  -999.250000 0.0540032052 0.4072485566 2.4189968109 65.341468811 103.89384460 1.4690096378 29.980836868 1.5099999905 1.5099999905
 2720.5939941  -999.250000 13.528000832  -999.250000 0.0560064130 0.4001011848 2.4170129299 64.602058411 103.85993195 1.4689999819 30.147394180 1.5119807720 1.5119807720
 2720.7463379  -999.250000 13.571000099  -999.250000 0.0600128174 0.4008279145 2.4250192642 62.438213348 102.90292358 1.4689999819 30.311422348 1.5308172703 1.5308172703
 2720.8986816  -999.250000 13.524998665  -999.250000 0.0680224374 0.3933050632 2.4371089935 60.629131317 102.25744629 1.4719663858 30.461318970 1.5517648458 1.5517648458
 2721.0512695  -999.250000 13.414999962  -999.250000 0.0819968060 0.3902535141 2.5050415993 57.856292725 102.08565521 1.4779423475 30.421403885 1.5658653975 1.5658653975
 2721.2036133  -999.250000 13.812999725  -999.250000 0.0809599385 0.4007079601 2.5179374218 54.808452606 102.23269653 1.4849326611 30.300172806 1.5659999847 1.5659999847
 2721.3559570  -999.250000 14.286999702  -999.250000 0.0559839755 0.4056766629 2.4789648056 54.077705383 104.24578857 1.4909423590 30.178173065 1.5659999847 1.5659999847
 2721.5083008  -999.250000 13.977000237  -999.250000 0.0459855758 0.4160414636 2.4569935799 55.546009064 105.11343384 1.4989230633 30.044288635 1.5659999847 1.5659999847
 2721.6608887  -999.250000 13.545001030  -999.250000 0.0370512009 0.4231714010 2.4530479908 57.418113708 104.62862396 1.5079135895 29.902362823 1.5650097132 1.5650097132
 2721.8132324  -999.250000 13.331000328  -999.250000 0.0530416667 0.4204823375 2.4680287838 58.265117645 104.75644684 1.5089902878 29.759374619 1.5650000572 1.5650000572
 2721.9655762  -999.250000 13.309000015  -999.250000 0.0790288523 0.4156828523 2.4860336781 57.459987640 104.43478394 1.5089999437 29.723335266 1.5560865402 1.5560865402
 2722.1179199  -999.250000 13.487999916  -999.250000 0.0969935954 0.3987610340 2.5069568157 57.460815430 104.67861938 1.5089999437 29.836893082 1.5391634703 1.5391634703
 2722.2705078  -999.250000 13.598999977  -999.250000 0.0929616019 0.3932094574 2.4798624516 58.656455994 104.24855804 1.5089999437 29.995473862 1.5211728811 1.5211728811
 2722.4228516  -999.250000 13.659999847  -999.250000 0.0809983984 0.3992750347 2.4370064735 60.624530792 104.37265778 1.5089999437 30.111885071 1.5101057291 1.5101057291
 2722.5751953  -999.250000 13.666000366  -999.250000 0.0799727514 0.4024400711 2.4409680367 62.811508179 106.17816925 1.5089999437 30.187278748 1.5090095997 1.5090095997
 2722.7275391  -999.250000 13.675999641  -999.250000 0.0629775673 0.4087210596 2.4209694862 63.901203156 109.34236908 1.5080096722 30.252374649 1.5080096722 1.5080096722
 2722.8798828  -999.250000 13.551999092  -999.250000 0.0489839725 0.4093542099 2.4020142555 63.342510223 109.45284271 1.5080000162 30.203559875 1.5080000162 1.5080000162
 2723.0324707  -999.250000 13.432000160  -999.250000 0.0389712006 0.3932538927 2.4110479355 63.499843597 108.14658356 1.5099807978 30.041568756 1.5119614601 1.5119614601
 2723.1848145  -999.250000 13.402000427  -999.250000 0.0300224349 0.3788817823 2.4260547161 63.057144165 105.55661011 1.5317883492 29.884508133 1.5347788334 1.5347788334
 2723.3371582  -999.250000 13.429000854  -999.250000 0.0440288447 0.3800176382 2.4600353241 63.707725525 101.32717896 1.5438846350 29.775047302 1.5607500076 1.5607500076
 2723.4895020  -999.250000 13.475999832  -999.250000 0.0620032027 0.3910110295 2.4819793701 63.303764343 101.08116150 1.5499422550 29.724481583 1.5867500305 1.5867500305
 2723.6420898  -999.250000 13.470999718  -999.250000 0.0639648065 0.3916229606 2.4689586163 60.730506897 103.93384552 1.5499999523 29.754701614 1.6147311926 1.6147311926
 2723.7944336  -999.250000 13.505000114  -999.250000 0.0529935881 0.3863240480 2.4560096264 58.345005035 104.31564331 1.5499999523 29.812442780 1.6219326258 1.6219326258
 2723.9467773  -999.250000 13.520000458  -999.250000 0.0489903837 0.3950874209 2.4619774818 57.099449158 104.23933411 1.5490096807 29.870443344 1.6051634550 1.6051634550
 2724.0991211  -999.250000 13.374999046  -999.250000 0.0429839753 0.4059574008 2.4480159283 56.307853699 103.71819305 1.5470192432 29.921510696 1.5713268518 1.5713268518
 2724.2517090  -999.250000 13.423000336  -999.250000 0.0329935998 0.4105916619 2.4579904079 56.890876770 102.52561188 1.5281823874 29.970529556 1.5442591906 1.5442591906
 2724.4040527  -999.250000 13.791000366  -999.250000 0.0310080126 0.4173488319 2.4549870491 58.108528137 100.79439545 1.5052211285 30.018537521 1.5212211609 1.5212211609
 2724.5563965  -999.250000 13.906001091  -999.250000 0.0360304490 0.4228353500 2.4469952583 58.213577271 101.29804230 1.4812307358 30.077432632 1.4952499866 1.4952499866
 2724.7087402  -999.250000 13.710000038  -999.250000 0.0550160259 0.4199348688 2.4439775944 56.835338593 103.49380493 1.4631731510 30.192884445 1.4692499638 1.4692499638
 2724.8610840  -999.250000 13.586999893  -999.250000 0.0649839714 0.4167293608 2.4299294949 56.009693146 105.61433411 1.4550896883 30.332431793 1.4531791210 1.4531791210
 2725.0136719  -999.250000 13.456999779  -999.250000 0.0549231991 0.4100695550 2.3859136105 56.854309082 106.96361542 1.4530191422 30.535049438 1.4529999495 1.4529999495
 2725.1660156  -999.250000 13.383000374  -999.250000 0.0310112182 0.4005779028 2.3590257168 58.372886658 107.08090210 1.4678558111 30.607316971 1.4638942480 1.4638942480
 2725.3183594  -999.250000 13.347998619  -999.250000 0.0380256400 0.3930610716 2.3750896454 59.591823578 104.77386475 1.4957308769 30.565414429 1.5115383863 1.5115383863
 2725.4707031  -999.250000 13.309000015  -999.250000 0.0540128201 0.3999463022 2.4310095310 59.225864410 103.17816162 1.5247211456 30.503597260 1.5565673113 1.5565673113
 2725.6232910  -999.250000 13.281000137  -999.250000 0.0620063990 0.3976618052 2.4369871616 58.873649597 103.22341156 1.5537216663 30.461402893 1.6015679836 1.6015679836
 2725.7756348  -999.250000 13.237999916  -999.250000 0.0639743656 0.4013446271 2.4329743385 59.214672089 102.48080444 1.5817308426 30.449115753 1.6396346092 1.6396346092
 2725.9279785  -999.250000 13.156998634  -999.250000 0.0480112173 0.4042383432 2.4169681072 59.142833710 102.43671417 1.6027981043 30.445037842 1.6617883444 1.6617883444
 2726.0803223  -999.250000 13.175000191  -999.250000 0.0550304502 0.3969797194 2.3969984055 57.842826843 102.03562927 1.6247884035 30.442028046 1.6738846302 1.6738846302
