# LAS format log file from PETREL
# Project units are specified as depth units
#==================================================================
~Version information
VERS.   2.0:
WRAP.   NO:
#==================================================================
~Well
STRT .m      1936.1920166 :
STOP .m      3906.2648926 :
STEP .m     0.00000000 :
NULL .        -999.250000 :
COMP.           : COMPANY
WELL.  33/6-1   : WELL
FLD.            : FIELD
LOC.            : LOCATION
SRVC.           : SERVICE COMPANY
DATE.  2018-09-11 14:48:41   : Log Export Date {yyyy-MM-dd HH:mm:ss}
PROV.           : PROVINCE
UWI.   33/6-1   : UNIQUE WELL ID
API.            : API NUMBER
#==================================================================
~Curve
DEPT .m                   : DEPTH
Lithology_geolink ._      : Lithology_geolink
CALI .in                  : CALI
BS .in                    : BS
DRHO .g/cm3               : DRHO
NPHI .m3/m3               : NPHI
RHOB .g/cm3               : RHOB
GR .gAPI                  : GR
DTC .us/ft                : DTC
RDEP .ohm.m               : RDEP
SP .mV                    : SP
RSHA .ohm.m               : RSHA
RMED .ohm.m               : RMED
~Parameter
#==================================================================
~Ascii
# ...
 3113.9379883  -999.250000 12.999999046 12.250000954 0.0949999988 0.3547150791 2.6459133625 62.919147491 88.823463440 1.6884464025 32.879413605 2.0720577240 2.0720577240
 3114.0903320  -999.250000 13.010999680 12.250000954 0.0790000036 0.3641351163 2.5919680595 60.520099640 90.367004395 1.6584327221 32.731121063 1.9497884512 1.9497884512
 3114.2426758  -999.250000 13.083000183 12.250000954 0.0750000030 0.3798217177 2.5719840527 61.829647064 94.741020203 1.6353317499 32.641284943 1.8159327507 1.8159327507
 3114.3952637  -999.250000 13.164999962 12.250000954 0.0759999976 0.3995917737 2.5619680882 62.857318878 98.496971130 1.6221666336 32.555103302 1.6827051640 1.6827051640
 3114.5476074  -999.250000 13.182999611 12.250000954 0.0750000030 0.4063400030 2.5519440174 62.960556030 99.733718872 1.6190384626 32.471076965 1.6069614887 1.6069614887
 3114.6999512  -999.250000 13.133999825 12.250000954 0.0350000001 0.3876123428 2.5170240402 65.179832458 99.557655334 1.6318128109 32.372425079 1.6276831627 1.6276831627
 3114.8522949  -999.250000 13.086000443 12.250000954 0.0359999985 0.3703643978 2.5320241451 68.193359375 98.721458435 1.6448124647 32.227104187 1.7088173628 1.7088173628
 3115.0048828  -999.250000 13.071001053 12.250000954 0.0270000007 0.3606207669 2.5470159054 70.906959534 97.754776001 1.6667180061 32.064090729 1.8304358721 1.8304358721
 3115.1572266  -999.250000 13.086999893 12.250000954 0.0160000008 0.3515082598 2.5520384312 71.205650330 96.124610901 1.6916794777 32.068908691 1.9465128183 1.9465128183
 3115.3095703  -999.250000 13.121000290 12.250000954 0.0230000000 0.3442006409 2.5759935379 70.363563538 94.636947632 1.7186112404 32.194171906 1.9933375120 1.9933375120
 3115.4619141  -999.250000 13.149000168 12.250000954 0.0340000018 0.3446023762 2.5719552040 69.467437744 95.227760315 1.7456105947 32.339893341 2.0048415661 2.0048415661
 3115.6145020  -999.250000 13.175000191 12.250000954 0.0280000009 0.3398392797 2.5439262390 69.113792419 95.078590393 1.7716666460 32.493038177 1.9773589373 1.9773589373
 3115.7668457  -999.250000 13.197999954 12.250000954 0.0160000008 0.3333982825 2.5209951401 69.047340393 94.635284424 1.7966794968 32.649002075 1.9513332844 1.9513332844
 3115.9191895  -999.250000 13.199999809 12.250000954 0.0060000001 0.3385533690 2.5180287361 68.010688782 94.188476563 1.8216400146 32.687465668 1.9381871223 1.9381871223
 3116.0715332  -999.250000 13.182000160 12.250000954 0.0179999992 0.3344254792 2.5360271931 66.568130493 93.859756470 1.8466393948 32.607181549 1.9458845854 1.9458845854
 3116.2238770  -999.250000 13.149000168 12.250000954 0.0480000004 0.3316250443 2.5530383587 65.400192261 94.332405090 1.8706538677 32.481815338 1.9785239697 1.9785239697
 3116.3764648  -999.250000 13.118000031 12.250000954 0.0640000030 0.3472643793 2.5769743919 64.268898010 94.582115173 1.8887692690 32.346733093 2.0135512352 2.0135512352
 3116.5288086  -999.250000 13.098999977 12.250000954 0.0529999994 0.3579647541 2.5690257549 63.304676056 94.306152344 1.9067691565 32.209754944 2.0495383739 2.0495383739
 3116.6811523  -999.250000 13.090000153 12.250000954 0.0649999976 0.3484455049 2.5850193501 64.977363586 93.777145386 1.9188271761 32.069030762 2.0844960213 2.0844960213
 3116.8334961  -999.250000 13.095001221 12.250000954 0.0579999983 0.3394215405 2.5969967842 67.698432922 93.247627258 1.9190000296 31.925077438 2.1155529022 2.1155529022
 3116.9860840  -999.250000 13.108999252 12.250000954 0.0560000017 0.3466290236 2.5950160027 69.218307495 93.017723083 1.9160385132 31.780845642 2.1219229698 2.1219229698
 3117.1384277  -999.250000 13.128999710 12.250000954 0.0649999976 0.3556823432 2.5999791622 69.936355591 93.243644714 1.8972434998 31.732603073 2.1101536751 2.1101536751
 3117.2907715  -999.250000 13.154999733 12.250000954 0.0570000000 0.3633748591 2.5869805813 70.787017822 93.647262573 1.8743311167 31.727073669 2.0528352261 2.0528352261
 3117.4431152  -999.250000 13.183999062 12.250000954 0.0480000004 0.3726411760 2.5750160217 73.295112610 93.809616089 1.8533029556 31.724046707 1.9790673256 1.9790673256
 3117.5957031  -999.250000 13.213000298 12.250000954 0.0560000017 0.3733997643 2.5849905014 75.857780457 93.575813293 1.8332563639 31.725975037 1.9296282530 1.9296282530
 3117.7480469  -999.250000 13.236000061 12.250000954 0.0500000007 0.3826491237 2.5819919109 76.723510742 92.893035889 1.8122692108 31.760549545 1.9724359512 1.9724359512
 3117.9003906  -999.250000 13.253999710 12.250000954 0.0430000015 0.3758463860 2.5769805908 76.417022705 92.292892456 1.7962304354 31.809295654 2.0449488163 2.0449488163
 3118.0527344  -999.250000 13.252000809 12.250000954 0.0270000007 0.3611007929 2.5649888515 75.807975769 92.228073120 1.7861442566 31.857309341 2.1071057320 2.1071057320
 3118.2050781  -999.250000 13.215000153 12.250000954 0.0309999995 0.3491434157 2.5580384731 75.170997620 92.283096313 1.7791010141 31.922061920 2.1040577888 2.1040577888
 3118.3576660  -999.250000 13.168999672 12.250000954 0.0520000011 0.3450729251 2.5820095539 74.548622131 92.972572327 1.7730768919 32.029613495 2.0220639706 2.0220639706
 3118.5100098  -999.250000 13.145000458 12.250000954 0.0540000014 0.3553351760 2.5849792957 74.743469238 94.396430969 1.7680641413 32.151435852 1.9272179604 1.9272179604
 3118.6623535  -999.250000 13.178000450 12.250000954 0.0419999994 0.3647943437 2.5719647408 74.412933350 95.288909912 1.7699711323 32.240718842 1.8392672539 1.8392672539
 3118.8146973  -999.250000 13.246000290 12.250000954 0.0419999994 0.3737202287 2.5500128269 74.996635437 95.230285645 1.7768989801 32.157238007 1.8074471951 1.8074471951
 3118.9672852  -999.250000 13.253999710 12.250000954 0.0509999990 0.3738284707 2.5579552650 76.013999939 94.782615662 1.7858846188 32.004959106 1.8682050705 1.8682050705
 3119.1196289  -999.250000 13.215999603 12.250000954 0.0469999984 0.3671185076 2.5439774990 75.391906738 94.352302551 1.8077179193 31.885524750 1.9756153822 1.9756153822
 3119.2719727  -999.250000 13.239000320 12.250000954 0.0329999998 0.3599484861 2.5300095081 75.336112976 93.919578552 1.8296831846 31.811067581 2.0844304562 2.0844304562
 3119.4243164  -999.250000 13.312000275 12.250000954 0.0370000005 0.3527726233 2.5360207558 74.786224365 93.658233643 1.8536537886 31.749877930 2.1569614410 2.1569614410
 3119.5769043  -999.250000 13.359999657 12.250000954 0.0340000018 0.3482082188 2.5489807129 75.551307678 93.806190491 1.8816410303 31.688783646 2.1194999218 2.1194999218
 3119.7292480  -999.250000 13.347000122 12.250000954 0.0329999998 0.3538829386 2.5430159569 77.208831787 93.864158630 1.9106281996 31.624820709 2.0627307892 2.0627307892
 3119.8815918  -999.250000 13.291999817 12.250000954 0.0419999994 0.3556899428 2.5530271530 78.971717834 93.339042664 1.9366255999 31.557962418 2.1339488029 2.1339488029
 3120.0339355  -999.250000 13.242000580 12.250000954 0.0520000011 0.3494131565 2.5700080395 79.414497375 92.117897034 1.9498125315 31.490964890 2.3035335541 2.3035335541
 3120.1862793  -999.250000 13.227000237 12.250000954 0.0509999990 0.3389186263 2.5749824047 76.607093811 92.057617188 1.9637980461 31.531394958 2.4252548218 2.4252548218
 3120.3388672  -999.250000 13.246999741 12.250000954 0.0439999998 0.3380864263 2.5639646053 74.795875549 93.065521240 1.9778205156 31.635650635 2.4121923447 2.4121923447
 3120.4912109  -999.250000 13.284999847 12.250000954 0.0370000005 0.3463160396 2.5529918671 74.758583069 93.227928162 1.9937947989 31.747562408 2.3103206158 2.3103206158
 3120.6435547  -999.250000 13.319000244 12.250000954 0.0289999992 0.3438469470 2.5479919910 74.498229980 93.185852051 2.0117409229 31.859386444 2.2015695572 2.2015695572
 3120.7958984  -999.250000 13.340998650 12.250000954 0.0230000000 0.3419536650 2.5429856777 74.019744873 93.092605591 2.0228414536 31.971385956 2.0955288410 2.0955288410
 3120.9484863  -999.250000 13.340000153 12.250000954 0.0179999992 0.3380478024 2.5339615345 73.858322144 91.594581604 2.0230000019 32.063819885 2.0476024151 2.0476024151
 3121.1008301  -999.250000 13.303999901 12.250000954 0.0140000004 0.3467307091 2.5220336914 73.019447327 89.595016479 2.0230000019 32.138050079 2.1476922035 2.1476922035
