# LAS format log file from PETREL
# Project units are specified as depth units
#==================================================================
~Version information
VERS.   2.0:
WRAP.   NO:
#==================================================================
~Well
STRT .m      2483.9675293 :
STOP .m      4422.1909180 :
STEP .m     0.00000000 :
NULL .        -999.250000 :
COMP.           : COMPANY
WELL.  33/6-3 S   : WELL
FLD.            : FIELD
LOC.            : LOCATION
SRVC.           : SERVICE COMPANY
DATE.  2018-09-11 14:48:41   : Log Export Date {yyyy-MM-dd HH:mm:ss}
PROV.           : PROVINCE
UWI.   33/6-3 S   : UNIQUE WELL ID
API.            : API NUMBER
#==================================================================
~Curve
DEPT .m                   : DEPTH
Lithology_geolink ._      : Lithology_geolink
CALI .in                  : CALI
BS .in                    : BS
ROP .m/h                  : ROP
DRHO .g/cm3               : DRHO
THOR .ppm                 : THOR
NPHI .m3/m3               : NPHI
RHOB .g/cm3               : RHOB
PEF .b/e                  : PEF
GR .gAPI                  : GR
URAN .ppm                 : URAN
DTC .us/ft                : DTC
DTS .us/ft                : DTS
RDEP .ohm.m               : RDEP
RMED .ohm.m               : RMED
~Parameter
#==================================================================
~Ascii
 2483.9675293  -999.250000 12.340700150 17.500000000 77.751754761  -999.250000 2.9885919094  -999.250000  -999.250000  -999.250000 73.900001526 1.6248750687 109.09177399 230.60523987 1.4520176649 1.4789935350
 2484.1198730  -999.250000 12.329000473 17.500000000 73.956230164  -999.250000 3.4159133434  -999.250000  -999.250000  -999.250000 72.760002136 1.7249399424 108.62973785 232.81546021 1.4270401001 1.4290801287
 2484.2722168  -999.250000 12.323399544 17.500000000 66.383537292  -999.250000 4.8042726517  -999.250000  -999.250000  -999.250000 76.190002441 1.5185315609 107.38899231 237.26884460 1.4220080376 1.4190160036
 2484.4248047  -999.250000 12.364299774 17.500000000 69.717849731  -999.250000 6.2007999420 0.3626999855  -999.250000  -999.250000 76.319999695 1.2755999565 106.30998993 240.45599365 1.4270000458 1.4299999475
 2484.5771484  -999.250000 12.433400154 17.500000000 71.391075134  -999.250000 7.1489000320 0.3490000069  -999.250000  -999.250000 73.080001831 1.2459000349 106.03399658 241.14100647 1.4409999847 1.4620000124
 2484.7294922  -999.250000 12.492600441 17.500000000 81.676429749  -999.250000 7.4733796120 0.3432092667  -999.250000  -999.250000 65.339996338 1.5604958534 105.88922882 241.23883057 1.4589711428 1.5169119835
 2484.8818359  -999.250000 12.532799721 17.500000000 86.802818298  -999.250000 7.2076272964 0.3445977569  -999.250000  -999.250000 62.250000000 2.0276508331 106.00382233 240.84461975 1.4599984884 1.5229903460
 2485.0344238  -999.250000 12.560199738 17.500000000 74.835960388  -999.250000 6.7760000229 0.3531000018  -999.250000  -999.250000 73.080001831 2.3348999023 106.41200256 240.18099976 1.4229999781 1.4379999638
 2485.1867676  -999.250000 12.579899788 17.500000000 68.832023621  -999.250000 6.3997001648 0.3585000038  -999.250000  -999.250000 72.849998474 2.4772999287 106.68800354 240.37800598 1.4119999409 1.4210000038
 2485.3391113  -999.250000 12.592000008 17.500000000 73.024772644  -999.250000 6.2850837708 0.3515112102  -999.250000  -999.250000 71.010002136 2.4041173458 107.30999756 242.25799561 1.3720639944 1.3660880327
 2485.4914551  -999.250000 12.599800110 17.500000000 75.127868652  -999.250000 6.5378937721 0.3439121842  -999.250000  -999.250000 70.970001221 2.0368893147 107.62348938 244.10902405 1.3570240736 1.3510240316
 2485.6437988  -999.250000 12.618900299 17.500000000 74.279579163  -999.250000 6.9529342651 0.3386085033  -999.250000  -999.250000 71.709999084 1.5084471703 108.18409729 221.73692322 1.3410255909 1.3529968262
 2485.7963867  -999.250000 12.673700333 17.500000000 73.851707458  -999.250000 7.2109999657 0.3375000060  -999.250000  -999.250000 71.319999695 1.0658999681 108.43400574 222.22302246 1.3289999962 1.3409999609
 2485.9487305  -999.250000 12.740300179 17.500000000 72.148399353  -999.250000 7.1005768776 0.3428913653  -999.250000  -999.250000 70.393997192 0.8526417613 108.95417023 222.84640503 1.3160207272 1.3230288029
 2486.1010742  -999.250000 12.766899109 17.500000000 71.294013977  -999.250000 6.7736244202 0.3503879905  -999.250000  -999.250000 69.468002319 0.8469086289 109.26450348 222.45562744 1.3140032291 1.3170096874
 2486.2534180  -999.250000 12.759499550 17.500000000 66.379280090  -999.250000 6.5478615761 0.3486028910  -999.250000  -999.250000 69.615997314 1.0182249546 109.97885895 222.52447510 1.3130015135 1.3409614563
 2486.4060059  -999.250000 12.763799667 17.500000000 63.943569183  -999.250000 6.6659002304 0.3359999955  -999.250000  -999.250000 68.935997009 1.2517999411 110.36598969 222.55639648 1.3070000410 1.3370000124
 2486.5583496  -999.250000 12.785099983 17.500000000 66.305770874  -999.250000 7.0299000740 0.3292999864  -999.250000  -999.250000 67.388000488 1.4034999609 111.14700317 221.37791443 1.2879999876 1.2999999523
 2486.7106934  -999.250000 12.824400902 17.500000000 67.517738342  -999.250000 7.4608097076 0.3327943981  -999.250000  -999.250000 68.860000610 1.5469700098 111.50942230 220.71795654 1.2800127268 1.2890176773
 2486.8630371  -999.250000 12.903200150 17.500000000 66.766304016  -999.250000 7.8162312508 0.3398886025  -999.250000  -999.250000 69.463996887 1.7576621771 112.05013275 221.44264221 1.2650240660 1.2720272541
 2487.0156250  -999.250000 12.971699715 17.500000000 66.404197693  -999.250000 7.9948005676 0.3472999930  -999.250000  -999.250000 69.524002075 1.9250999689 112.18599701 222.95030212 1.2599999905 1.2640000582
 2487.1679688  -999.250000 12.989899635 17.500000000 66.371391296  -999.250000 8.1773004532 0.3585999906  -999.250000  -999.250000 70.732002258 1.9588999748 112.15000153 223.97709656 1.2489999533 1.2339999676
 2487.3203125  -999.250000 13.008500099 17.500000000 66.338630676  -999.250000 8.4083299637 0.3669865727  -999.250000  -999.250000 70.903999329 1.9290478230 112.06314087 225.00685120 1.2470031977 1.2290079594
 2487.4726563  -999.250000 13.058899879 17.500000000 81.209724426  -999.250000 8.5788269043 0.3589130044  -999.250000  -999.250000 69.832000732 1.8826743364 111.88329315 223.17835999 1.2589807510 1.2359887362
 2487.6250000  -999.250000 13.091501236 17.500000000 82.740364075  -999.250000 8.8054370880 0.3472187519  -999.250000  -999.250000 68.959999084 1.7556037903 111.63439941 224.56336975 1.3089199066 1.3288509846
 2487.7775879  -999.250000 13.100000381 17.500000000 76.804458618  -999.250000 9.1324996948 0.3418999910  -999.250000  -999.250000 69.400001526 1.5721000433 111.41100311 225.58639526 1.3400000334 1.3609999418
 2487.9299316  -999.250000 13.103500366 17.500000000 71.694541931  -999.250000 9.1342973709 0.3383057415  -999.250000  -999.250000 68.444000244 1.5229786634 110.90381622 227.90557861 1.3519808054 1.3330447674
 2488.0822754  -999.250000 13.092800140 17.500000000 72.472496033  -999.250000 8.5356616974 0.3282161951  -999.250000  -999.250000 68.332000732 1.7360578775 110.75324249 228.32963562 1.4298748970 1.4438221455
 2488.2346191  -999.250000 13.078599930 17.500000000 71.556587219  -999.250000 7.6832661629 0.3220099211  -999.250000  -999.250000 69.251998901 2.1158907413 110.81390381 229.13520813 1.4609502554 1.4729535580
 2488.3872070  -999.250000 13.087200165 17.500000000 69.816276550  -999.250000 7.0237002373 0.3280999959  -999.250000  -999.250000 68.984001160 2.4574000835 111.03700256 229.37449646 1.4760999680 1.4600000381
 2488.5395508  -999.250000 13.119500160 17.500000000 67.650924683  -999.250000 6.4846000671 0.3461000025  -999.250000  -999.250000 69.283996582 2.7304000854 111.59500122 229.39680481 1.4783999920 1.4390000105
 2488.6918945  -999.250000 13.140800476 17.500000000 67.192329407  -999.250000 5.9871973991 0.3659681678  -999.250000  -999.250000 69.120002747 2.9447565079 111.80067444 228.58113098 1.4804966450 1.4599664211
 2488.8442383  -999.250000 13.128999710 17.500000000 67.191596985  -999.250000 5.7521758080 0.3658003211  -999.250000  -999.250000 69.220001221 2.9951195717 111.92779541 227.84527588 1.4920814037 1.4210624695
 2488.9968262  -999.250000 13.101099968 17.500000000 67.650924683  -999.250000 5.8706002235 0.3470999897  -999.250000  -999.250000 69.000000000 2.8067998886 111.91400146 227.89398193 1.5321999788 1.5030000210
 2489.1491699  -999.250000 13.084099770 17.500000000 68.438323975  -999.250000 6.2005000114 0.3271000087  -999.250000  -999.250000 67.931999207 2.4644999504 111.52600098 231.65159607 1.5766999722 1.5499999523
 2489.3015137  -999.250000 13.083100319 17.500000000 68.765876770  -999.250000 6.5777955055 0.3152190447  -999.250000  -999.250000 65.767997742 2.0980873108 111.10966492 233.65907288 1.5847870111 1.5629792213
 2489.4538574  -999.250000 13.085700035 17.500000000 68.668144226  -999.250000 6.9406185150 0.3118054569  -999.250000  -999.250000 64.344001770 1.7456647158 110.12358093 236.01512146 1.6170482635 1.5989422798
 2489.6062012  -999.250000 13.080100060 17.500000000 68.274909973  -999.250000 7.3164978027 0.3169916570  -999.250000  -999.250000 62.352001190 1.4280090332 109.63278961 236.77478027 1.6367684603 1.6149743795
 2489.7587891  -999.250000 13.062599182 17.500000000 67.749343872  -999.250000 7.7342000008 0.3271000087  -999.250000  -999.250000 63.652000427 1.1328999996 108.90699768 235.45260620 1.6603000164 1.6390000582
