# LAS format log file from PETREL
# Project units are specified as depth units
#==================================================================
~Version information
VERS.   2.0:
WRAP.   NO:
#==================================================================
~Well
STRT .m      1936.1920166 :
STOP .m      3906.2648926 :
STEP .m     0.00000000 :
NULL .        -999.250000 :
COMP.           : COMPANY
WELL.  33/6-1   : WELL
FLD.            : FIELD
LOC.            : LOCATION
SRVC.           : SERVICE COMPANY
DATE.  2018-09-11 14:48:41   : Log Export Date {yyyy-MM-dd HH:mm:ss}
PROV.           : PROVINCE
UWI.   33/6-1   : UNIQUE WELL ID
API.            : API NUMBER
#==================================================================
~Curve
DEPT .m                   : DEPTH
Lithology_geolink ._      : Lithology_geolink
CALI .in                  : CALI
BS .in                    : BS
DRHO .g/cm3               : DRHO
NPHI .m3/m3               : NPHI
RHOB .g/cm3               : RHOB
GR .gAPI                  : GR
DTC .us/ft                : DTC
RDEP .ohm.m               : RDEP
SP .mV                    : SP
RSHA .ohm.m               : RSHA
RMED .ohm.m               : RMED
~Parameter
#==================================================================
~Ascii
# ...
 3245.6115723  -999.250000 13.427000046 12.250000954 0.0820000023 0.4396343529 2.5249760151 69.716453552 104.50843811 1.1682559252 34.039600372 1.3919280767 1.3919280767
 3245.7639160  -999.250000 13.480999947 12.250000954 0.0759999976 0.4298971593 2.5099616051 68.750633240 103.53149414 1.1522563696 34.207305908 1.3418012857 1.3418012857
 3245.9162598  -999.250000 13.484000206 12.250000954 0.0680000037 0.4406237304 2.4859936237 68.523635864 103.21801758 1.1362564564 34.359561920 1.3183685541 1.3183685541
 3246.0688477  -999.250000 13.465000153 12.250000954 0.0719999969 0.4553999603 2.4819712639 70.171676636 103.85154724 1.1281154156 34.452671051 1.3278557062 1.3278557062
 3246.2211914  -999.250000 13.539999962 12.250000954 0.0659999996 0.4522510469 2.4729807377 72.253318787 104.33436584 1.1280000210 34.519927979 1.3358719349 1.3358719349
 3246.3735352  -999.250000 13.645000458 12.250000954 0.0579999983 0.4404323399 2.4609935284 73.698921204 104.56327057 1.1280000210 34.569213867 1.3094327450 1.3094327450
 3246.5258789  -999.250000 13.732001305 12.250000954 0.0500000007 0.4294385910 2.4570112228 74.272331238 104.72596741 1.1280000210 34.580825806 1.2932564020 1.2932564020
 3246.6784668  -999.250000 13.680999756 12.250000954 0.0430000015 0.4223071039 2.4640414715 73.855827332 103.45971680 1.1270143986 34.578041077 1.3008846045 1.3008846045
 3246.8308105  -999.250000 13.560000420 12.250000954 0.0410000011 0.4182970524 2.4770352840 74.112838745 100.87507629 1.1358702183 34.602638245 1.3423942327 1.3423942327
 3246.9831543  -999.250000 13.479000092 12.250000954 0.0489999987 0.4164389670 2.4990465641 74.009155273 99.055564880 1.1537120342 34.660072327 1.3990880251 1.3990880251
 3247.1354980  -999.250000 13.416999817 12.250000954 0.0710000023 0.4157770872 2.5280096531 71.611907959 98.787345886 1.1697435379 34.727909088 1.4383749962 1.4383749962
 3247.2878418  -999.250000 13.407999992 12.250000954 0.0790000036 0.4139664471 2.5339581966 69.685127258 99.626091003 1.1768878698 34.728015900 1.4399840832 1.4399840832
 3247.4404297  -999.250000 13.473999977 12.250000954 0.0619999990 0.4117550850 2.5079262257 68.516136169 101.55290222 1.1789711714 34.671825409 1.4005769491 1.4005769491
 3247.5927734  -999.250000 13.548999786 12.250000954 0.0489999987 0.4133497477 2.4850318432 67.625320435 102.45664978 1.1730959415 34.604087830 1.3517839909 1.3517839909
 3247.7451172  -999.250000 13.567999840 12.250000954 0.0659999996 0.4194270968 2.5050177574 67.199958801 102.23802185 1.1543045044 34.522312164 1.3283685446 1.3283685446
 3247.8974609  -999.250000 13.512999535 12.250000954 0.0729999989 0.4238561392 2.5159823895 67.175407410 102.87839508 1.1353044510 34.430473328 1.3142243624 1.3142243624
 3248.0500488  -999.250000 13.371001244 12.250000954 0.0670000017 0.4277194738 2.5049521923 67.429107666 103.74656677 1.1152884960 34.403373718 1.3011875153 1.3011875153
 3248.2023926  -999.250000 13.429000854 12.250000954 0.0570000000 0.4337826967 2.4899775982 68.088027954 103.92240906 1.0923680067 34.461059570 1.2891920805 1.2891920805
 3248.3547363  -999.250000 13.406999588 12.250000954 0.0480000004 0.4354573786 2.4759840965 69.356559753 103.55625916 1.0713365078 34.559413910 1.2811281681 1.2811281681
 3248.5070801  -999.250000 13.458999634 12.250000954 0.0469999984 0.4275802076 2.4660112858 70.957008362 103.09680939 1.0572243929 34.728275299 1.2731281519 1.2731281519
 3248.6596680  -999.250000 13.576999664 12.250000954 0.0549999997 0.4214928448 2.4730448723 72.209007263 102.97765350 1.0491154194 34.924171448 1.2710288763 1.2710288763
 3248.8120117  -999.250000 13.548999786 12.250000954 0.0640000030 0.4223628342 2.4870400429 72.209838867 103.18354797 1.0519520044 35.079521179 1.2788720131 1.2788720131
 3248.9643555  -999.250000 13.427000046 12.250000954 0.0869999975 0.4116580784 2.5120065212 71.484214783 103.52841187 1.0588878393 35.066257477 1.2878557444 1.2878557444
 3249.1166992  -999.250000 13.327000618 12.250000954 0.0850000009 0.4104612768 2.5159807205 70.370841980 103.78543091 1.0658878088 34.985313416 1.2988237143 1.2988237143
 3249.2690430  -999.250000 13.178000450 12.250000954 0.0640000030 0.4175104201 2.5040080547 69.026832581 104.05081940 1.0728877783 34.979080200 1.3108077049 1.3108077049
 3249.4216309  -999.250000 13.135999680 12.250000954 0.0509999990 0.4240144193 2.5090193748 68.300750732 103.93753052 1.0808845758 35.036163330 1.3090288639 1.3090288639
 3249.5739746  -999.250000 13.302999496 12.250000954 0.0520000011 0.4285044670 2.5150177479 68.846305847 103.79344177 1.0878880024 35.105876923 1.3011280298 1.3011280298
 3249.7263184  -999.250000 13.321000099 12.250000954 0.0590000004 0.4312873781 2.5260143280 70.284545898 104.06996918 1.0958718061 35.125694275 1.2901762724 1.2901762724
 3249.8786621  -999.250000 13.185999870 12.250000954 0.0649999976 0.4296345711 2.5349857807 72.499961853 104.04760742 1.1019037962 35.124031067 1.2781922817 1.2781922817
 3250.0312500  -999.250000 13.097000122 12.250000954 0.0640000030 0.4262726009 2.5259361267 75.600509644 103.17590332 1.1079134941 35.121040344 1.2701153755 1.2701153755
 3250.1835938  -999.250000 13.173000336 12.250000954 0.0529999994 0.4301954508 2.5059952736 78.876632690 102.52252960 1.1139039993 35.118049622 1.3044399023 1.3044399023
 3250.3359375  -999.250000 13.253000259 12.250000954 0.0610000007 0.4273502827 2.5030319691 79.269157410 102.22599030 1.1189198494 35.115051270 1.3345192671 1.3345192671
 3250.4882813  -999.250000 13.256999969 12.250000954 0.0710000023 0.4212708175 2.5230207443 77.494186401 101.59792328 1.1239198446 35.112049103 1.3645192385 1.3645192385
 3250.6408691  -999.250000 13.281000137 12.250000954 0.0680000037 0.4092835188 2.5359520912 76.360275269 100.93161011 1.1279423237 35.109043121 1.3827403784 1.3827403784
 3250.7932129  -999.250000 13.286999702 12.250000954 0.0649999976 0.4010426700 2.5209727287 76.134986877 102.36672974 1.1329200268 35.106048584 1.3849680424 1.3849680424
 3250.9455566  -999.250000 13.248998642 12.250000954 0.0570000000 0.4027281106 2.5040175915 76.122550964 102.82371521 1.1369358301 35.103050232 1.3594166040 1.3594166040
 3251.0979004  -999.250000 13.253000259 12.250000954 0.0549999997 0.4077770114 2.5150241852 75.217559814 103.27079773 1.1409358978 35.046913147 1.3294807673 1.3294807673
 3251.2502441  -999.250000 13.293999672 12.250000954 0.0649999976 0.4059050083 2.5299806595 73.068328857 104.39205170 1.1469037533 34.950553894 1.2975128889 1.2975128889
 3251.4028320  -999.250000 13.344000816 12.250000954 0.0500000007 0.3965564370 2.5179486275 70.774772644 103.79884338 1.1627691984 34.902679443 1.3127691746 1.3127691746
 3251.5551758  -999.250000 13.373000145 12.250000954 0.0329999998 0.3954683542 2.5019919872 69.146331787 102.81472015 1.1787440777 34.892158508 1.3494080305 1.3494080305
 3251.7075195  -999.250000 13.357000351 12.250000954 0.0489999987 0.4069205523 2.4970271587 68.731155396 102.64100647 1.1908077002 34.889049530 1.3864070177 1.3864070177
 3251.8598633  -999.250000 13.337000847 12.250000954 0.0680000037 0.4134715497 2.5139710903 70.079818726 102.64505005 1.1998558044 34.886051178 1.4214391708 1.4214391708
 3252.0124512  -999.250000 13.374999046 12.250000954 0.0560000017 0.4081708193 2.4960064888 73.093208313 102.68051147 1.2088701725 34.883041382 1.4367836714 1.4367836714
 3252.1647949  -999.250000 13.449000359 12.250000954 0.0340000018 0.3959740996 2.4980351925 75.650970459 102.83996582 1.2168719769 34.850524902 1.4251919985 1.4251919985
 3252.3171387  -999.250000 13.472000122 12.250000954 0.0460000001 0.3985455334 2.5200271606 75.629615784 102.82067871 1.2219198942 34.666980743 1.3915449381 1.3915449381
 3252.4694824  -999.250000 13.428000450 12.250000954 0.0540000014 0.4082105458 2.5369806290 74.767349243 102.61965179 1.2249519825 34.424896240 1.3614807129 1.3614807129
 3252.6220703  -999.250000 13.359000206 12.250000954 0.0630000010 0.4023082256 2.5249936581 74.985687256 102.39893341 1.2279567719 34.432826996 1.3422740698 1.3422740698
 3252.7744141  -999.250000 13.317999840 12.250000954 0.0769999996 0.3986491561 2.5230128765 75.509567261 101.75449371 1.2289839983 34.658336639 1.3459359407 1.3459359407
