# LAS format log file from PETREL
# Project units are specified as depth units
#==================================================================
~Version information
VERS.   2.0:
WRAP.   NO:
#==================================================================
~Well
STRT .m      1936.1920166 :
STOP .m      3906.2648926 :
STEP .m     0.00000000 :
NULL .        -999.250000 :
COMP.           : COMPANY
WELL.  33/6-1   : WELL
FLD.            : FIELD
LOC.            : LOCATION
SRVC.           : SERVICE COMPANY
DATE.  2018-09-11 14:48:41   : Log Export Date {yyyy-MM-dd HH:mm:ss}
PROV.           : PROVINCE
UWI.   33/6-1   : UNIQUE WELL ID
API.            : API NUMBER
#==================================================================
~Curve
DEPT .m                   : DEPTH
Lithology_geolink ._      : Lithology_geolink
CALI .in                  : CALI
BS .in                    : BS
DRHO .g/cm3               : DRHO
NPHI .m3/m3               : NPHI
RHOB .g/cm3               : RHOB
GR .gAPI                  : GR
DTC .us/ft                : DTC
RDEP .ohm.m               : RDEP
SP .mV                    : SP
RSHA .ohm.m               : RSHA
RMED .ohm.m               : RMED
~Parameter
#==================================================================
~Ascii
# ...
 3501.6430664 13.000000000 12.390000343 12.250000954 0.0460256003 0.3850600123 2.6119999886 74.835998535 95.434997559 1.4204583168 36.927982330 1.5547275543 1.5547275543
 3501.7956543 13.000000000 12.390000343 12.250000954 0.0450016037 0.3836600184 2.6070001125 76.292999268 94.667999268 1.3974047899 36.929965973 1.6168559790 1.6168559790
 3501.9479980 13.000000000 12.392999649 12.250000954 0.0689615384 0.3878499866 2.6140000820 76.146003723 94.372009277 1.3734230995 36.930980682 1.7781265974 1.7781265974
 3502.1003418 13.000000000 12.404999733 12.250000954 0.0829775631 0.3970199823 2.5969998837 75.107002258 94.764999390 1.3523701429 36.932964325 1.9116554260 1.9116554260
 3502.2526855 13.000000000 12.413000107 12.250000954 0.0600735992 0.3990300000 2.5789999962 75.900001526 96.409004211 1.3549470901 36.901565552 1.8688108921 1.8688108921
 3502.4052734 13.000000000 12.395999908 12.250000954 0.0440256409 0.3808999956 2.5720000267 77.333999634 98.167999268 1.3687535524 36.845005035 1.7776192427 1.7776192427
 3502.5576172 13.000000000 12.336999893 12.250000954 0.0380096138 0.3881800175 2.5820000172 77.343002319 98.955001831 1.4014182091 36.783096313 1.6856218576 1.6856218576
 3502.7099609 13.000000000 12.232000351 12.250000954 0.0469855741 0.3945899904 2.5929999352 76.458000183 97.781997681 1.4344182014 36.828170776 1.6407756805 1.6407756805
 3502.8623047 13.000000000 12.083999634 12.250000954 0.0559855774 0.3849000037 2.5729999542 76.274002075 95.514999390 1.4674183130 36.988143921 1.6871538162 1.6871538162
 3503.0146484 13.000000000 11.890999794 12.250000954 0.0579935983 0.3706600070 2.5299999714 77.474998474 94.014999390 1.4994359016 37.177650452 1.8255319595 1.8255319595
 3503.1672363 13.000000000 11.753999710 12.250000954 0.0550048091 0.3640300035 2.5439999104 78.841003418 92.805000305 1.5314368010 37.308712006 1.9822368622 1.9822368622
 3503.3195801 13.000000000 11.699999809 12.250000954 0.0420208313 0.3625400066 2.5490000248 79.440002441 91.809997559 1.5634359121 37.342433929 2.1716506481 2.1716506481
 3503.4719238 13.000000000 11.843000412 12.250000954 0.0290208329 0.3600500226 2.5559999943 78.944999695 91.828002930 1.5964182615 37.344966888 2.2535898685 2.2535898685
 3503.6242676 13.000000000 12.163999557 12.250000954 0.0160416011 0.3574300110 2.5529999733 77.611000061 93.494003296 1.6225416660 37.349910736 2.1371154785 2.1371154785
 3503.7768555 13.000000000 12.331000328 12.250000954 0.0169983990 0.3484999835 2.5669999123 77.138000488 94.382003784 1.6230000257 37.379474640 1.9896048307 1.9896048307
 3503.9291992 13.000000000 12.362001419 12.250000954 0.0309775639 0.3354700208 2.5889999866 78.355003357 94.847999573 1.6239823103 37.419292450 1.9064455032 1.9064455032
 3504.0815430 13.000000000 12.345001221 12.250000954 0.0519663468 0.3316600025 2.6159999371 79.786003113 95.428001404 1.6308766603 37.460277557 1.9118765593 1.9118765593
 3504.2338867 13.000000000 12.289999962 12.250000954 0.0719359964 0.3360699713 2.6389999390 80.291000366 95.120002747 1.6486827135 37.500293732 2.0043430328 2.0043430328
 3504.3864746 13.000000000 12.211999893 12.250000954 0.0700032040 0.3475799859 2.6329998970 79.301002502 94.124000549 1.6843663454 37.540294647 2.0148417950 2.0148417950
 3504.5388184 13.000000000 12.145000458 12.250000954 0.0959583372 0.3513700068 2.6419999599 76.819000244 92.916000366 1.7282242775 37.699161530 1.9874936342 1.9874936342
 3504.6911621 13.000000000 12.149999619 12.250000954 0.0760320500 0.3491699994 2.5959999561 72.385002136 91.339996338 1.7840127945 37.911247253 2.1707036495 2.1707036495
 3504.8435059 13.000000000 12.237999916 12.250000954 0.0520384610 0.3459700048 2.5659999847 67.244003296 89.569000244 1.8409951925 38.097721100 2.3783333302 2.3783333302
 3504.9960938 13.000000000 12.312999725 12.250000954 0.0520000011 0.3336800039 2.5720000267 62.428001404 88.393997192 1.8734871149 38.153148651 2.5217242241 2.5217242241
 3505.1484375 13.000000000 12.338998795 12.250000954 0.0549951904 0.3088200092 2.6270000935 59.167999268 88.100997925 1.8592640162 38.075408936 2.5888383389 2.5888383389
 3505.3007813 13.000000000 12.333999634 12.250000954 0.0590000004 0.2920899987 2.6429998875 57.791000366 87.835998535 1.8098814487 37.841178894 2.5615112782 2.5615112782
 3505.4531250 13.000000000 12.310999870 12.250000954 0.0560000017 0.2854200006 2.6359999180 59.020999908 88.572998047 1.7353221178 37.485309601 2.4539213181 2.4539213181
 3505.6054688 13.000000000 12.269000053 12.250000954 0.0500000007 0.2939800024 2.6319999695 62.075000763 91.039001465 1.6603221893 37.314945221 2.1906893253 2.1906893253
 3505.7580566 13.000000000 12.236000061 12.250000954 0.0329999998 0.3065699935 2.6150000095 66.184997559 93.913002014 1.5843375921 37.239299774 1.8981567621 1.8981567621
 3505.9104004 13.000000000 12.222000122 12.250000954 0.0149999997 0.3220899999 2.5969998837 70.376998901 96.277000427 1.5083397627 37.185935974 1.6916137934 1.6916137934
 3506.0627441 13.000000000 12.223000526 12.250000954 0.0010000000 0.3402099907 2.5989999771 73.754997253 97.791999817 1.4333221912 37.172229767 1.5622563362 1.5622563362
 3506.2150879 13.000000000 12.237999916 12.250000954 0.0270000007 0.3621500134 2.5999999046 76.477996826 98.058006287 1.3632339239 37.173965454 1.5315111876 1.5315111876
 3506.3676758 13.000000000 12.258000374 12.250000954 0.0630000010 0.3742499948 2.6140000820 79.785003662 98.056999207 1.3060030937 37.175964355 1.5673487186 1.5673487186
 3506.5200195 13.000000000 12.286999702 12.250000954 0.0590000004 0.3642699718 2.5699999332 82.963996887 98.244003296 1.2657051086 37.214313507 1.5866650343 1.5866650343
 3506.6723633 13.000000000 12.314000130 12.250000954 0.0500000007 0.3565900028 2.5539999008 84.180000305 98.447998047 1.2345464230 37.297519684 1.5968236923 1.5968236923
 3506.8247070 13.000000000 12.331998825 12.250000954 0.0520000011 0.3614699841 2.5639998913 84.836997986 98.360000610 1.2241762877 37.395271301 1.6058412790 1.6058412790
 3506.9772949 13.000000000 12.345001221 12.250000954 0.0579999983 0.3619699776 2.5820000172 85.445999146 98.206001282 1.2259678841 37.492446899 1.6158398390 1.6158398390
 3507.1296387 13.000000000 12.345001221 12.250000954 0.0579999983 0.3559199870 2.5859999657 85.486999512 98.065002441 1.2358239889 37.562767029 1.6258240938 1.6258240938
 3507.2819824 13.000000000 12.342000961 12.250000954 0.0640000030 0.3536500037 2.5739998817 84.934997559 98.036003113 1.2507356405 37.581684113 1.6358237267 1.6358237267
 3507.4343262 13.000000000 12.331998825 12.250000954 0.0680000037 0.3683800101 2.5659999847 83.704002380 98.032997131 1.2755593061 37.583965302 1.6350176334 1.6350176334
 3507.5866699 13.000000000 12.333000183 12.250000954 0.0549999997 0.3808000088 2.5490000248 81.908996582 98.029998779 1.3005592823 37.584980011 1.6251763105 1.6251763105
 3507.7392578 13.000000000 12.364999771 12.250000954 0.0610000007 0.3802799881 2.5610001087 81.820999146 98.027000427 1.3275247812 37.586967468 1.6151759624 1.6151759624
 3507.8916016 13.000000000 12.409000397 12.250000954 0.0529999994 0.3802999854 2.5559999943 82.176002502 98.024002075 1.3574712276 37.587982178 1.6022291183 1.6022291183
 3508.0439453 13.000000000 12.435000420 12.250000954 0.0529999994 0.3876599967 2.5710000992 81.220001221 97.286003113 1.3884536028 37.628280640 1.6236121655 1.6236121655
 3508.1962891 13.000000000 12.428999901 12.250000954 0.0619999990 0.3775299788 2.5799999237 79.680999756 95.039001465 1.4194535017 37.687942505 1.7310785055 1.7310785055
 3508.3488770 13.000000000 12.402000427 12.250000954 0.0549999997 0.3723500073 2.5629999638 77.351997375 93.069999695 1.4563487768 37.749908447 1.8725007772 1.8725007772
 3508.5012207 13.000000000 12.369999886 12.250000954 0.0469999984 0.3621500134 2.5480000973 73.510002136 92.823997498 1.4933477640 37.808959961 1.9938670397 1.9938670397
 3508.6535645 13.000000000 12.338998795 12.250000954 0.0480000004 0.3621399999 2.5590000153 68.850997925 93.100997925 1.5303478241 37.865013123 1.9910881519 1.9910881519
 3508.8059082 13.000000000 12.309000015 12.250000954 0.0520000011 0.3613199890 2.5690000057 68.450996399 94.309997559 1.5624358654 37.921012878 1.9006218910 1.9006218910
