# LAS format log file from PETREL
# Project units are specified as depth units
#==================================================================
~Version information
VERS.   2.0:
WRAP.   NO:
#==================================================================
~Well
STRT .m      1936.1920166 :
STOP .m      3906.2648926 :
STEP .m     0.00000000 :
NULL .        -999.250000 :
COMP.           : COMPANY
WELL.  33/6-1   : WELL
FLD.            : FIELD
LOC.            : LOCATION
SRVC.           : SERVICE COMPANY
DATE.  2018-09-11 14:48:41   : Log Export Date {yyyy-MM-dd HH:mm:ss}
PROV.           : PROVINCE
UWI.   33/6-1   : UNIQUE WELL ID
API.            : API NUMBER
#==================================================================
~Curve
DEPT .m                   : DEPTH
Lithology_geolink ._      : Lithology_geolink
CALI .in                  : CALI
BS .in                    : BS
DRHO .g/cm3               : DRHO
NPHI .m3/m3               : NPHI
RHOB .g/cm3               : RHOB
GR .gAPI                  : GR
DTC .us/ft                : DTC
RDEP .ohm.m               : RDEP
SP .mV                    : SP
RSHA .ohm.m               : RSHA
RMED .ohm.m               : RMED
~Parameter
#==================================================================
~Ascii
# ...
 2199.5390625  -999.250000 12.875000000  -999.250000 0.0659679472 0.4150234759 2.3869905472 46.564109802 111.98070526 1.8089808226 28.383539200 1.7781200409 1.7781200409
 2199.6914063  -999.250000 12.718999863  -999.250000 0.0559711568 0.4074817896 2.3849952221 46.739864349 110.94904327 1.8099951744 28.505413055 1.7571009398 1.7571009398
 2199.8437500  -999.250000 12.420998573  -999.250000 0.0469999984 0.4119770825 2.3839616776 47.344127655 110.32346344 1.8119903803 28.593576431 1.7500336170 1.7500336170
 2199.9960938  -999.250000 12.400000572  -999.250000 0.0470208302 0.4072216749 2.3760287762 48.144245148 108.53141022 1.8348894119 28.493486404 1.8107067347 1.8107067347
 2200.1486816  -999.250000 12.343999863  -999.250000 0.0601025634 0.4055791795 2.3819999695 49.030216217 107.81912231 1.8419663906 28.489019394 1.9135056734 1.9135056734
 2200.3010254  -999.250000 12.286999702  -999.250000 0.0919647440 0.4220329225 2.3818798065 50.157146454 107.59201813 1.8410047293 28.648231506 1.9627645016 1.9627645016
 2200.4533691  -999.250000 12.430998802  -999.250000 0.0809519216 0.4351029694 2.3568894863 51.427524567 108.53822327 1.8250769377 28.885854721 1.9411057234 1.9411057234
 2200.6057129  -999.250000 12.706000328  -999.250000 0.0659584031 0.4440355301 2.3340530396 52.598423004 110.75721741 1.7841972113 29.145750046 1.8514326811 1.8514326811
 2200.7583008  -999.250000 12.736000061  -999.250000 0.0530384593 0.4514402449 2.3449680805 53.104701996 112.96799469 1.7193119526 29.151975632 1.7504848242 1.7504848242
 2200.9106445  -999.250000 12.574999809  -999.250000 0.0650352538 0.4592370689 2.3400335312 53.844448090 113.84976959 1.6463509798 28.907182693 1.6524710655 1.6524710655
 2201.0629883  -999.250000 12.649999619  -999.250000 0.0760192275 0.4586933553 2.3468556404 55.476352692 115.82112122 1.5753413439 28.624359131 1.5564615726 1.5564615726
 2201.2153320  -999.250000 12.842999458  -999.250000 0.0819648057 0.4718020558 2.3169469833 57.402973175 118.32169342 1.5123028755 28.479692459 1.4664326906 1.4664326906
 2201.3676758  -999.250000 12.895999908  -999.250000 0.0710048079 0.4701411724 2.3060288429 59.264823914 118.58107758 1.4522885084 28.535724640 1.4212163687 1.4212163687
 2201.5202637  -999.250000 12.762000084  -999.250000 0.0740064085 0.4662588537 2.3120193481 60.268039703 118.09995270 1.3982591629 28.653432846 1.4170192480 1.4170192480
 2201.6726074  -999.250000 12.492000580  -999.250000 0.0759455115 0.4701954722 2.3158798218 60.901245117 114.62863159 1.3512259722 28.771432877 1.4209808111 1.4209808111
 2201.8249512  -999.250000 12.317000389  -999.250000 0.0590000004 0.4775252938 2.2909567356 62.039855957 115.82540894 1.3151731491 28.887443542 1.3971153498 1.3971153498
 2201.9772949  -999.250000 12.237000465  -999.250000 0.0590128191 0.4744551182 2.2820336819 64.512016296 118.06889343 1.2911154032 29.001453400 1.3621683121 1.3621683121
 2202.1298828  -999.250000 12.105999947  -999.250000 0.0669839755 0.4692774117 2.2889616489 66.595413208 119.61798859 1.2770671844 29.116449356 1.3251776695 1.3251776695
 2202.2822266  -999.250000 12.059000969  -999.250000 0.0620224364 0.4666801095 2.2810623646 68.220596313 121.46612549 1.2650576830 29.230453491 1.2961394787 1.2961394787
 2202.4345703  -999.250000 12.010000229  -999.250000 0.0689775646 0.4687564969 2.2940142155 69.868263245 119.76555634 1.2620143890 29.345447540 1.2940096855 1.2940096855
 2202.5869141  -999.250000 12.001001358  -999.250000 0.0619967990 0.4659010470 2.2971057892 70.675643921 117.36250305 1.2619999647 29.466417313 1.3248510361 1.3248510361
 2202.7395020  -999.250000 12.082999229  -999.250000 0.0610416681 0.4536612034 2.3191215992 68.512397766 115.88139343 1.2659808397 29.590404510 1.3568464518 1.3568464518
 2202.8918457  -999.250000 12.171998978  -999.250000 0.0740128234 0.4476608634 2.3380095959 65.300239563 114.81057739 1.2799326181 29.715398788 1.3818798065 1.3818798065
 2203.0441895  -999.250000 12.185999870  -999.250000 0.0780000016 0.4520495534 2.3399951458 62.230957031 114.14721680 1.2939326763 29.767749786 1.3819999695 1.3819999695
 2203.1965332  -999.250000 12.123000145  -999.250000 0.0779840052 0.4664508998 2.3390576839 61.295253754 115.58113861 1.3089278936 29.771980286 1.3810048103 1.3810048103
 2203.3488770  -999.250000 12.053000450  -999.250000 0.0729839727 0.4685930014 2.3510384560 61.765304565 116.34947968 1.3239278793 29.769014359 1.3810000420 1.3810000420
 2203.5014648  -999.250000 12.027000427  -999.250000 0.0629679486 0.4463644624 2.3589758873 62.448669434 111.75299072 1.3389279842 29.766016006 1.3969231844 1.3969231844
 2203.6538086  -999.250000 12.062998772  -999.250000 0.0529679470 0.4369089007 2.3540384769 62.390830994 109.16101837 1.3529326916 29.687379837 1.4358124733 1.4358124733
 2203.8061523  -999.250000 12.142999649  -999.250000 0.0430000015 0.4304881096 2.3619616032 61.432170868 111.18509674 1.3589711189 29.486967087 1.5186010599 1.5186010599
 2203.9584961  -999.250000 12.258000374  -999.250000 0.0430288464 0.4342400730 2.3540096283 60.995368958 112.30005646 1.3629808426 29.157587051 1.5896587372 1.5896587372
 2204.1110840  -999.250000 12.420000076  -999.250000 0.0610448718 0.4363028705 2.3558652401 61.490776062 114.68166351 1.3659856319 28.983829498 1.5820384026 1.5820384026
 2204.2634277  -999.250000 12.549999237  -999.250000 0.0750032067 0.4306795001 2.3279135227 62.236946106 120.74223328 1.3660000563 28.993946075 1.4785000086 1.4785000086
 2204.4157715  -999.250000 12.517000198  -999.250000 0.0759871751 0.4285575449 2.3100142479 63.165882111 124.76576996 1.3560479879 29.073614120 1.3685288429 1.3685288429
 2204.5681152  -999.250000 12.444999695  -999.250000 0.0719935969 0.4384863377 2.3130576611 64.238555908 118.20394135 1.3450529575 29.146648407 1.3371490240 1.3371490240
 2204.7207031  -999.250000 12.564000130  -999.250000 0.0700096190 0.4564290047 2.3250961304 65.183555603 115.70565796 1.3231055737 29.194768906 1.3738223314 1.3738223314
 2204.8730469  -999.250000 12.633000374  -999.250000 0.0730256364 0.4671142399 2.3399999142 65.587715149 114.58062744 1.2921490669 29.235803604 1.4028605223 1.4028605223
 2205.0253906  -999.250000 12.505000114  -999.250000 0.0810288489 0.4617924690 2.3399662971 66.794494629 118.41698456 1.2631394863 29.275806427 1.3850865364 1.3850865364
 2205.1777344  -999.250000 12.354000092  -999.250000 0.0900352001 0.4643496871 2.3329999447 68.586235046 124.32469177 1.2401106358 29.315807343 1.3183220625 1.3183220625
 2205.3300781  -999.250000 12.262999535  -999.250000 0.1010016054 0.4600673616 2.3330383301 69.876663208 127.35856628 1.2231088877 29.387538910 1.2404992580 1.2404992580
 2205.4826660  -999.250000 12.173999786  -999.250000 0.1019999981 0.4449427128 2.3411347866 69.794479370 124.46084595 1.2409135103 29.475576401 1.1972067356 1.1972067356
 2205.6350098  -999.250000 12.097000122  -999.250000 0.1019679457 0.4309478402 2.3690960407 67.837715149 119.44805145 1.2867788076 29.566562653 1.2417836189 1.2417836189
 2205.7873535  -999.250000 12.100999832  -999.250000 0.0919359997 0.4180407822 2.3890383244 65.306915283 114.16612244 1.3307883739 29.656566620 1.3693846464 1.3693846464
 2205.9396973  -999.250000 12.145999908  -999.250000 0.0719951913 0.4099358022 2.3969759941 64.207305908 111.08291626 1.3747884035 29.706760406 1.4973846674 1.4973846674
 2206.0922852  -999.250000 12.104000092  -999.250000 0.0689679459 0.4111843109 2.3919374943 64.480186462 110.46029663 1.4187887907 29.713966370 1.5348223448 1.5348223448
 2206.2446289  -999.250000 12.024999619  -999.250000 0.0589455143 0.4203815460 2.3789422512 64.819206238 111.72775269 1.4617933035 29.619455338 1.5399758816 1.5399758816
 2206.3969727  -999.250000 12.081999779  -999.250000 0.0419455133 0.4248290062 2.3669617176 64.691810608 110.29900360 1.5037980080 29.468727112 1.5997115374 1.5997115374
 2206.5493164  -999.250000 12.223999977  -999.250000 0.0250416007 0.4225719869 2.3590192795 64.034965515 110.93965149 1.5457980633 29.297822952 1.7462933064 1.7462933064
 2206.7019043  -999.250000 12.331000328  -999.250000 0.0380833335 0.4272369444 2.3630063534 62.563850403 114.00803375 1.5798368454 29.120849609 1.7768559456 1.7768559456
