# LAS format log file from PETREL
# Project units are specified as depth units
#==================================================================
~Version information
VERS.   2.0:
WRAP.   NO:
#==================================================================
~Well
STRT .m      1936.1920166 :
STOP .m      3906.2648926 :
STEP .m     0.00000000 :
NULL .        -999.250000 :
COMP.           : COMPANY
WELL.  33/6-1   : WELL
FLD.            : FIELD
LOC.            : LOCATION
SRVC.           : SERVICE COMPANY
DATE.  2018-09-11 14:48:41   : Log Export Date {yyyy-MM-dd HH:mm:ss}
PROV.           : PROVINCE
UWI.   33/6-1   : UNIQUE WELL ID
API.            : API NUMBER
#==================================================================
~Curve
DEPT .m                   : DEPTH
Lithology_geolink ._      : Lithology_geolink
CALI .in                  : CALI
BS .in                    : BS
DRHO .g/cm3               : DRHO
NPHI .m3/m3               : NPHI
RHOB .g/cm3               : RHOB
GR .gAPI                  : GR
DTC .us/ft                : DTC
RDEP .ohm.m               : RDEP
SP .mV                    : SP
RSHA .ohm.m               : RSHA
RMED .ohm.m               : RMED
~Parameter
#==================================================================
~Ascii
# ...
 2850.5910645  -999.250000 12.524999619  -999.250000 0.0180384610 0.3295825720 2.5050370693 62.397106171 93.318984985 2.2546014786 28.901630402 2.4136929512 2.4136929512
 2850.7436523  -999.250000 12.522000313  -999.250000 0.0420287997 0.3374295533 2.5280289650 65.560401917 93.628662109 2.2006058693 28.983100891 2.3546731472 2.3546731472
 2850.8959961  -999.250000 12.520999908  -999.250000 0.0510080121 0.3404065073 2.5370047092 69.805603027 94.391670227 2.1228749752 29.021574020 2.2946729660 2.2946729660
 2851.0483398  -999.250000 12.531000137  -999.250000 0.0560048111 0.3444692791 2.5399856567 74.497612000 95.571250916 2.0854151249 29.058584213 2.2178637981 2.2178637981
 2851.2006836  -999.250000 12.597000122  -999.250000 0.0589935891 0.3564915359 2.5309710503 75.927474976 96.896224976 2.0840129852 29.095527649 2.1232159138 2.1232159138
 2851.3530273  -999.250000 12.706000328  -999.250000 0.0549871996 0.3636990488 2.5129632950 73.890090942 98.213401794 2.0978205204 29.132524490 2.0262436867 2.0262436867
 2851.5056152  -999.250000 12.685000420  -999.250000 0.0469487160 0.3755656481 2.4899551868 71.420196533 98.958076477 2.1118428707 29.125089645 1.9399647713 1.9399647713
 2851.6579590  -999.250000 12.571000099  -999.250000 0.0150080128 0.3666215837 2.4620141983 69.590354919 98.552734375 2.1258428097 29.096326828 1.8935160637 1.8935160637
 2851.8103027  -999.250000 12.520000458  -999.250000 0.0199903846 0.3551494181 2.4710192680 68.142982483 96.287879944 2.1388335228 29.065397263 2.0094895363 2.0094895363
 2851.9626465  -999.250000 12.510000229  -999.250000 0.0139903855 0.3548078239 2.4830224514 67.201354980 94.383377075 2.1518332958 29.033411026 2.1541409492 2.1541409492
 2852.1152344  -999.250000 12.500000000  -999.250000 0.0080192005 0.3596761823 2.4969646931 66.374504089 93.561805725 2.1648540497 29.002347946 2.2924518585 2.2924518585
 2852.2675781  -999.250000 12.489999771  -999.250000 0.0140064107 0.3522353172 2.4860081673 65.437133789 92.695617676 2.1808204651 28.971347809 2.3671698570 2.3671698570
 2852.4199219  -999.250000 12.487999916  -999.250000 0.0179983974 0.3431030214 2.4909904003 64.009368896 93.242675781 2.1997869015 28.954191208 2.4213941097 2.4213941097
 2852.5722656  -999.250000 12.487000465  -999.250000 0.0170128215 0.3449910879 2.4849710464 62.569950104 94.698112488 2.2098720074 28.978679657 2.4052176476 2.4052176476
 2852.7248535  -999.250000 12.506999969  -999.250000 0.0251024012 0.3518975079 2.4670224190 62.863948822 95.049194336 2.2100000381 29.018550873 2.3535833359 2.3535833359
 2852.8771973  -999.250000 12.564000130  -999.250000 0.0570512824 0.3542655706 2.4739742279 62.648864746 96.132781982 2.1872580051 29.058551788 2.2491776943 2.2491776943
 2853.0295410  -999.250000 12.626999855  -999.250000 0.0890144259 0.3702407181 2.4579486847 63.241985321 97.959617615 2.1375610828 29.098552704 2.1501104832 2.1501104832
 2853.1818848  -999.250000 12.666999817  -999.250000 0.0979727507 0.3956226707 2.4259247780 62.926322937 99.708053589 2.0886273384 29.125654221 2.0789089203 2.0789089203
 2853.3344727  -999.250000 12.708000183  -999.250000 0.0809648037 0.4034858644 2.3790128231 63.020561218 100.33969879 2.0405383110 29.130945206 2.0048301220 2.0048301220
 2853.4868164  -999.250000 12.760000229  -999.250000 0.0700016022 0.3959543109 2.3830304146 61.685440063 98.819404602 1.9945160151 29.130010605 1.9506058693 1.9506058693
 2853.6391602  -999.250000 12.791000366  -999.250000 0.0710240379 0.3861935139 2.4020383358 61.153156281 97.031867981 1.9910336733 29.129011154 1.9183589220 1.9183589220
 2853.7915039  -999.250000 12.779000282  -999.250000 0.0859727561 0.3945871592 2.4259953499 60.576656342 95.434089661 2.0137054920 29.128013611 1.9199743271 1.9199743271
 2853.9438477  -999.250000 12.729000092  -999.250000 0.0689407066 0.3865413666 2.4230947495 59.533199310 95.150840759 2.0465767384 29.126024246 1.9614615440 1.9614615440
 2854.0964355  -999.250000 12.676000595  -999.250000 0.0320352018 0.3624143302 2.4821536541 58.667137146 94.783584595 2.0994052887 29.104246140 2.0628557205 2.0628557205
 2854.2487793  -999.250000 12.651000023  -999.250000 0.0429951921 0.3481919467 2.5300030708 59.734886169 93.445060730 2.1613044739 29.018964767 2.1806762218 2.1806762218
 2854.4011230  -999.250000 12.645001411  -999.250000 0.0400096141 0.3494131267 2.5320272446 60.538833618 91.174163818 2.2233045101 28.890447617 2.3164744377 2.3164744377
 2854.5534668  -999.250000 12.644000053  -999.250000 0.0459839739 0.3576114774 2.5489776134 59.861400604 90.604713440 2.2852063179 28.705379486 2.4433743954 2.4433743954
 2854.7060547  -999.250000 12.651000023  -999.250000 0.0360287987 0.3647410870 2.5350129604 58.737720490 91.142868042 2.3453269005 28.622907639 2.5072932243 2.5072932243
 2854.8583984  -999.250000 12.661999702  -999.250000 0.0450016037 0.3526033461 2.5389823914 57.851497650 92.157691956 2.3746747971 28.716922760 2.5307419300 2.5307419300
 2855.0107422  -999.250000 12.666999817  -999.250000 0.0459903851 0.3422459960 2.5280048847 57.750720978 93.340309143 2.3769776821 28.864339828 2.4904599190 2.4904599190
 2855.1630859  -999.250000 12.663999557  -999.250000 0.0399743579 0.3522291481 2.5309581757 58.912689209 93.438400269 2.3473839760 29.006181717 2.4159600735 2.4159600735
 2855.3156738  -999.250000 12.713000298  -999.250000 0.0240000002 0.3641959727 2.5049073696 60.689880371 93.566291809 2.2985498905 29.146430969 2.3388638496 2.3388638496
 2855.4680176  -999.250000 12.720001221  -999.250000 0.0240160264 0.3785204291 2.4759519100 62.535770416 94.668731689 2.2347178459 29.274562836 2.2579085827 2.2579085827
 2855.6203613  -999.250000 12.673000336  -999.250000 0.0340641029 0.3850145042 2.4459841251 64.146430969 95.861442566 2.1717066765 29.311595917 2.1719646454 2.1719646454
 2855.7727051  -999.250000 12.677000046  -999.250000 0.0740096197 0.3940953910 2.4359519482 63.963069916 97.247932434 2.1078193188 29.311014175 2.0811648369 2.0811648369
 2855.9250488  -999.250000 12.704999924  -999.250000 0.0799823701 0.4161756933 2.4059214592 62.113735199 98.785751343 2.0438203812 29.309024811 1.9625256062 1.9625256062
 2856.0776367  -999.250000 12.825999260  -999.250000 0.0689264014 0.4321696758 2.3570737839 60.787925720 99.949203491 1.9816954136 29.308012009 1.8640993834 1.8640993834
 2856.2299805  -999.250000 12.862000465  -999.250000 0.0460048094 0.4289407432 2.3800609112 60.978469849 99.373176575 1.9285944700 29.307010651 1.8274039030 1.8274039030
 2856.3823242  -999.250000 12.776000023  -999.250000 0.0490080118 0.4169005752 2.4180576801 60.662601471 99.822219849 1.8904262781 29.315898895 1.8279887438 1.8279887438
 2856.5346680  -999.250000 12.758000374  -999.250000 0.0540240407 0.3923316896 2.4540064335 61.164913177 99.269638062 1.8613711596 29.340679169 1.8536671400 1.8536671400
 2856.6872559  -999.250000 12.784000397  -999.250000 0.0689295977 0.3933962286 2.4578654766 62.379714966 98.533401489 1.8372691870 29.370664597 1.8569663763 1.8569663763
 2856.8395996  -999.250000 12.765999794  -999.250000 0.0469631404 0.4015674591 2.4159741402 61.909080505 98.420951843 1.8271121979 29.400663376 1.8401907682 1.8401907682
 2856.9919434  -999.250000 12.716999054  -999.250000 0.0239807703 0.4062187672 2.4000306129 62.338317871 100.69676971 1.8151346445 29.430664063 1.8053926229 1.8053926229
 2857.1442871  -999.250000 12.694000244  -999.250000 0.0120528843 0.3992322683 2.4190559387 61.816360474 102.49372101 1.8061151505 29.460617065 1.7635376453 1.7635376453
 2857.2968750  -999.250000 12.716999054  -999.250000 0.0450416021 0.4068735540 2.4540030956 62.251415253 103.33448792 1.8059999943 29.486707687 1.7333365679 1.7333365679
 2857.4492188  -999.250000 12.730999947  -999.250000 0.0580160245 0.4110630751 2.4550256729 64.626556396 101.97453308 1.8059999943 29.471179962 1.7250897884 1.7250897884
 2857.6015625  -999.250000 12.760999680  -999.250000 0.0679807737 0.3880108297 2.4710352421 67.236068726 99.593750000 1.8099551201 29.438369751 1.7358765602 1.7358765602
 2857.7539063  -999.250000 12.803999901  -999.250000 0.0560048111 0.3636159301 2.4930241108 68.807243347 98.267616272 1.8415904045 29.406410217 1.7685776949 1.7685776949
