# LAS format log file from PETREL
# Project units are specified as depth units
#==================================================================
~Version information
VERS.   2.0:
WRAP.   NO:
#==================================================================
~Well
STRT .m      2483.9675293 :
STOP .m      4422.1909180 :
STEP .m     0.00000000 :
NULL .        -999.250000 :
COMP.           : COMPANY
WELL.  33/6-3 S   : WELL
FLD.            : FIELD
LOC.            : LOCATION
SRVC.           : SERVICE COMPANY
DATE.  2018-09-11 14:48:41   : Log Export Date {yyyy-MM-dd HH:mm:ss}
PROV.           : PROVINCE
UWI.   33/6-3 S   : UNIQUE WELL ID
API.            : API NUMBER
#==================================================================
~Curve
DEPT .m                   : DEPTH
Lithology_geolink ._      : Lithology_geolink
CALI .in                  : CALI
BS .in                    : BS
ROP .m/h                  : ROP
DRHO .g/cm3               : DRHO
THOR .ppm                 : THOR
NPHI .m3/m3               : NPHI
RHOB .g/cm3               : RHOB
PEF .b/e                  : PEF
GR .gAPI                  : GR
URAN .ppm                 : URAN
DTC .us/ft                : DTC
DTS .us/ft                : DTS
RDEP .ohm.m               : RDEP
RMED .ohm.m               : RMED
~Parameter
#==================================================================
~Ascii
# ...
 2739.5422363  -999.250000 12.088500023 12.250000954 112.29683685  -999.250000 7.8596453667 0.3188408613  -999.250000  -999.250000 69.139999390 1.6426466703 103.51591492 212.66853333 1.4536949396 1.5049935579
 2739.6945801  -999.250000 12.082698822 12.250000954 114.66157532  -999.250000 7.8988370895 0.3308806121  -999.250000  -999.250000 69.610000610 1.4989303350 103.14859009 213.35589600 1.4544986486 1.4980112314
 2739.8469238  -999.250000 12.074399948 12.250000954 119.34194183  -999.250000 7.8548417091 0.3498392105  -999.250000  -999.250000 64.169998169 1.4082902670 102.77519989 216.95645142 1.4596832991 1.4980000257
 2739.9995117  -999.250000 12.068099976 12.250000954 119.45522308  -999.250000 7.7471728325 0.3424120247  -999.250000  -999.250000 63.750000000 1.4016102552 102.83889008 219.17146301 1.4603989124 1.4950047731
 2740.1518555  -999.250000 12.062399864 12.250000954 119.65191650  -999.250000 7.5194654465 0.3342131376  -999.250000  -999.250000 66.550003052 1.4644989967 103.34818268 222.09930420 1.4635949135 1.4959985018
 2740.3041992  -999.250000 12.054200172 12.250000954 117.71964264  -999.250000 7.2166852951 0.3374947309  -999.250000  -999.250000 67.949996948 1.5223073959 103.57863617 222.49636841 1.4639993906 1.4950015545
 2740.4565430  -999.250000 12.046899796 12.250000954 113.82483673  -999.250000 7.0826287270 0.3318182528  -999.250000  -999.250000 67.459999084 1.5048562288 103.53115082 221.52114868 1.4734696150 1.5079584122
 2740.6091309  -999.250000 12.045801163 12.250000954 112.46934509  -999.250000 7.0767087936 0.3168240488  -999.250000  -999.250000 67.540000916 1.4669606686 103.31034851 220.87503052 1.4793906212 1.5209791660
 2740.7614746  -999.250000 12.051300049 12.250000954 109.78121185  -999.250000 6.9753627777 0.3146035075  -999.250000  -999.250000 68.029998779 1.4941562414 102.86770630 220.74719238 1.4840924740 1.5229967833
 2740.9138184  -999.250000 12.057299614 12.250000954 110.69406891  -999.250000 6.8942303658 0.3260815740  -999.250000  -999.250000 67.910003662 1.5868512392 102.75418091 221.19528198 1.4940840006 1.5379759073
 2741.0661621  -999.250000 12.060299873 12.250000954 112.49712372  -999.250000 7.0146064758 0.3374817371  -999.250000  -999.250000 66.089996338 1.7353618145 102.87380981 222.14747620 1.5124706030 1.5719455481
 2741.2185059  -999.250000 12.062399864 12.250000954 112.92514801  -999.250000 7.3302869797 0.3489632010  -999.250000  -999.250000 63.880001068 1.9692499638 103.08232880 222.39720154 1.5321369171 1.6328048706
 2741.3710938  -999.250000 12.065500259 12.250000954 113.71265411  -999.250000 7.8123278618 0.3710646033  -999.250000  -999.250000 69.650001526 2.2852938175 103.57020569 222.65658569 1.5047440529 1.5691025257
 2741.5234375  -999.250000 12.067500114 12.250000954 112.10887146  -999.250000 8.3118991852 0.3934640884  -999.250000  -999.250000 68.930000305 2.6616966724 103.78665924 222.84269714 1.4841330051 1.5190801620
 2741.6757813  -999.250000 12.066599846 12.250000954 108.86347198  -999.250000 8.5084848404 0.3990910351  -999.250000  -999.250000 71.480003357 3.0609600544 104.03460693 223.32922363 1.4682254791 1.4900465012
 2741.8281250  -999.250000 12.065400124 12.250000954 103.46221161  -999.250000 8.3631677628 0.3927204609  -999.250000  -999.250000 71.660003662 3.3720033169 103.96521759 223.05387878 1.4539457560 1.4800319672
 2741.9807129  -999.250000 12.066799164 12.250000954 100.75890350  -999.250000 7.9593472481 0.3789221048  -999.250000  -999.250000 68.879997253 3.5280511379 103.87314606 222.49090576 1.4536005259 1.4879871607
 2742.1330566  -999.250000 12.071100235 12.250000954 104.52151489  -999.250000 7.2427492142 0.3591317534  -999.250000  -999.250000 64.569999695 3.5911991596 103.72822571 220.80171204 1.4513037205 1.4899967909
 2742.2854004  -999.250000 12.080100060 12.250000954 106.39463806  -999.250000 6.2369127274 0.3707812428  -999.250000  -999.250000 63.590000153 3.5364880562 103.70104218 220.13806152 1.4481050968 1.4919967651
 2742.4377441  -999.250000 12.086400032 12.250000954 106.92089844  -999.250000 6.0490980148 0.3774785697  -999.250000  -999.250000 73.419998169 3.2971680164 103.75083923 220.72810364 1.4279645681 1.4700704813
 2742.5903320  -999.250000 12.089599609 12.250000954 107.18461609  -999.250000 6.0673694611 0.3514418006  -999.250000  -999.250000 71.639999390 2.9862978458 103.78294373 221.58262634 1.4222091436 1.4650080204
 2742.7426758  -999.250000 12.089900017 12.250000954 111.21401215  -999.250000 6.1567564011 0.3344272375  -999.250000  -999.250000 72.650001526 2.6922712326 103.84889221 223.64369202 1.4082224369 1.4430352449
 2742.8950195  -999.250000 12.089099884 12.250000954 113.21857452  -999.250000 6.3893270493 0.3534694016  -999.250000  -999.250000 71.190002441 2.2646856308 103.89592743 224.45870972 1.4054045677 1.4370096922
 2743.0473633  -999.250000 12.088999748 12.250000954 114.95784760  -999.250000 6.7582087517 0.3788592815  -999.250000  -999.250000 67.760002136 1.7332518101 104.06373596 224.73155212 1.4008073807 1.4350031614
 2743.1999512  -999.250000 12.090600014 12.250000954 115.84503937  -999.250000 7.0827808380 0.3744072020  -999.250000  -999.250000 67.690002441 1.2718380690 104.17681122 224.27172852 1.4010995626 1.4369968176
 2743.3522949  -999.250000 12.094600677 12.250000954 114.20867920  -999.250000 7.3066415787 0.3637171388  -999.250000  -999.250000 66.760002136 0.9088813663 104.45655060 221.84988403 1.3830289841 1.3830865622
 2743.5046387  -999.250000 12.097999573 12.250000954 113.41989136  -999.250000 7.5741715431 0.3651975989  -999.250000  -999.250000 67.449996948 0.6428261399 104.59477997 220.31446838 1.3749129772 1.3740143776
 2743.6569824  -999.250000 12.100999832 12.250000954 113.87722778  -999.250000 7.9173498154 0.3618054390  -999.250000  -999.250000 68.089996338 0.5254876614 104.72777557 217.85794067 1.3722043037 1.3739999533
 2743.8093262  -999.250000 12.104399681 12.250000954 114.10687256  -999.250000 8.2561140060 0.3481438458  -999.250000  -999.250000 68.139999390 0.5030713677 104.70407867 217.10940552 1.3840619326 1.3969264030
 2743.9619141  -999.250000 12.102999687 12.250000954 103.62574768  -999.250000 8.5104932785 0.3390145600  -999.250000  -999.250000 69.830001831 0.4838307798 104.47536469 216.67068481 1.4162484407 1.4589006901
 2744.1142578  -999.250000 12.093199730 12.250000954 98.335235596  -999.250000 8.7103796005 0.3402979076  -999.250000  -999.250000 72.410003662 0.4442634583 104.29929352 216.97050476 1.4297784567 1.4789679050
 2744.2666016  -999.250000 12.082501411 12.250000954 98.392280579  -999.250000 8.6090631485 0.3455915153  -999.250000  -999.250000 74.180000305 0.4458972812 103.91661072 218.29588318 1.4467726946 1.4869871140
 2744.4189453  -999.250000 12.078400612 12.250000954 98.425094604  -999.250000 8.1542587280 0.3465968072  -999.250000  -999.250000 74.790000916 0.4921515286 103.73558044 219.09544373 1.4518836737 1.4929808378
 2744.5715332  -999.250000 12.081500053 12.250000954 95.182373047  -999.250000 7.4716935158 0.3412086368  -999.250000  -999.250000 76.349998474 0.6167003512 103.45145416 220.16229248 1.4596874714 1.4979920387
 2744.7238770  -999.250000 12.089099884 12.250000954 90.820648193  -999.250000 6.6346416473 0.3454931080  -999.250000  -999.250000 69.199996948 0.8990471363 103.28726196 220.07316589 1.4661896229 1.5079840422
 2744.8762207  -999.250000 12.094699860 12.250000954 88.094917297  -999.250000 6.2139735222 0.3603761196  -999.250000  -999.250000 71.720001221 1.1805489063 103.21611786 219.79045105 1.4853692055 1.5309631824
 2745.0285645  -999.250000 12.093799591 12.250000954 83.283149719  -999.250000 6.3633184433 0.3745545447  -999.250000  -999.250000 67.870002747 1.3576328754 102.92791748 219.08027649 1.4934741259 1.5499391556
 2745.1811523  -999.250000 12.096799850 12.250000954 81.204101563  -999.250000 6.6555318832 0.3847836554  -999.250000  -999.250000 65.769996643 1.5118533373 102.70336151 218.76651001 1.4940990210 1.5420129299
 2745.3334961  -999.250000 12.107399940 12.250000954 77.728668213  -999.250000 7.0089335442 0.3912895620  -999.250000  -999.250000 64.680000305 1.6538723707 101.88830566 218.58929443 1.4741320610 1.5400031805
