# LAS format log file from PETREL
# Project units are specified as depth units
#==================================================================
~Version information
VERS.   2.0:
WRAP.   NO:
#==================================================================
~Well
STRT .m      2483.9675293 :
STOP .m      4422.1909180 :
STEP .m     0.00000000 :
NULL .        -999.250000 :
COMP.           : COMPANY
WELL.  33/6-3 S   : WELL
FLD.            : FIELD
LOC.            : LOCATION
SRVC.           : SERVICE COMPANY
DATE.  2018-09-11 14:48:41   : Log Export Date {yyyy-MM-dd HH:mm:ss}
PROV.           : PROVINCE
UWI.   33/6-3 S   : UNIQUE WELL ID
API.            : API NUMBER
#==================================================================
~Curve
DEPT .m                   : DEPTH
Lithology_geolink ._      : Lithology_geolink
CALI .in                  : CALI
BS .in                    : BS
ROP .m/h                  : ROP
DRHO .g/cm3               : DRHO
THOR .ppm                 : THOR
NPHI .m3/m3               : NPHI
RHOB .g/cm3               : RHOB
PEF .b/e                  : PEF
GR .gAPI                  : GR
URAN .ppm                 : URAN
DTC .us/ft                : DTC
DTS .us/ft                : DTS
RDEP .ohm.m               : RDEP
RMED .ohm.m               : RMED
~Parameter
#==================================================================
~Ascii
# ...
 3387.3947754  -999.250000 12.159999847 12.250000954 84.645668030  -999.250000 3.6555371284 0.3237000108  -999.250000  -999.250000 79.349998474 5.4358711243 95.998626709 195.93539429 1.8221999407 1.8750000000
 3387.5471191  -999.250000 12.163499832 12.250000954 93.241470337  -999.250000 3.9852714539 0.3079000115  -999.250000  -999.250000 75.470001221 5.5557079315 96.372398376 196.81858826 1.8804999590 2.0780000687
 3387.6994629  -999.250000 12.163400650 12.250000954 91.830711365  -999.250000 4.2498760223 0.3018999994  -999.250000  -999.250000 74.900001526 5.6964745522 96.493812561 197.07359314 1.8690999746 1.9969999790
 3387.8520508  -999.250000 12.161801338 12.250000954 89.009185791  -999.250000 4.4641571045 0.3048000038  -999.250000  -999.250000 77.680000305 5.8595390320 96.598831177 196.90924072 1.7773000002 1.7710000277
 3388.0043945  -999.250000 12.160799980 12.250000954 81.692909241  -999.250000 4.7574300766 0.3086000085  -999.250000  -999.250000 83.180000305 6.1861758232 96.526115417 196.51164246 1.7448999882 1.7330000401
 3388.1567383  -999.250000 12.159999847 12.250000954 67.060371399  -999.250000 4.9722557068 0.3147000074  -999.250000  -999.250000 86.069999695 6.6572446823 96.074714661 195.56452942 1.7482999563 1.7369999886
 3388.3090820  -999.250000 12.161399841 12.250000954 67.290023804  -999.250000 4.9112982750 0.3246000111  -999.250000  -999.250000 90.269996643 7.0063405037 95.745529175 195.19459534 1.7533999681 1.7549999952
 3388.4614258  -999.250000 12.170299530 12.250000954 67.683723450  -999.250000 4.6300024986 0.3219000101  -999.250000  -999.250000 85.069999695 7.2283892632 95.101066589 194.73248291 1.7804000378 1.8120000362
 3388.6140137  -999.250000 12.186200142 12.250000954 71.062995911  -999.250000 4.2634868622 0.3059999943  -999.250000  -999.250000 86.019996643 7.3521027565 94.829437256 194.59420776 1.7960000038 1.8359999657
 3388.7663574  -999.250000 12.197100639 12.250000954 77.821517944  -999.250000 3.9275381565 0.3005000055  -999.250000  -999.250000 81.190002441 7.2030391693 94.356758118 194.49316406 1.8123999834 1.8589999676
 3388.9187012  -999.250000 12.196800232 12.250000954 81.233596802  -999.250000 3.7616653442 0.3107999861  -999.250000  -999.250000 78.569999695 6.8184170723 94.154319763 194.54290771 1.8266999722 1.8819999695
 3389.0710449  -999.250000 12.192700386 12.250000954 88.057746887  -999.250000 3.9419202805 0.3210999966  -999.250000  -999.250000 82.790000916 6.4060215950 94.007476807 194.80714417 1.8705999851 1.9359999895
 3389.2236328  -999.250000 12.190799713 12.250000954 94.291336060  -999.250000 4.4798374176 0.3287000060  -999.250000  -999.250000 79.069999695 6.0049419403 94.149772644 194.96574402 1.8997000456 1.9689999819
 3389.3759766  -999.250000 12.189900398 12.250000954 106.82415009  -999.250000 5.1624054909 0.3370000124  -999.250000  -999.250000 77.110000610 5.5973534584 94.979675293 195.25950623 1.9512000084 2.1070001125
 3389.5283203  -999.250000 12.187701225 12.250000954 108.36614227  -999.250000 5.6911530495 0.3434999883  -999.250000  -999.250000 83.540000916 5.3341217041 96.187065125 195.67034912 1.9296000004 2.0539999008
 3389.6806641  -999.250000 12.179300308 12.250000954 109.12072754  -999.250000 5.8579673767 0.3467999995  -999.250000  -999.250000 84.709999084 5.3073844910 96.704353333 196.00791931 1.9207999706 2.0179998875
 3389.8332520  -999.250000 12.168498993 12.250000954 104.00262451  -999.250000 5.6938643456 0.3409999907  -999.250000  -999.250000 83.019996643 5.4677424431 97.233154297 196.70288086 1.9112000465 1.9789999723
 3389.9855957  -999.250000 12.173000336 12.250000954 101.44357300  -999.250000 5.3317809105 0.3314000070  -999.250000  -999.250000 83.779998779 5.7729105949 97.038322449 196.88171387 1.9063999653 1.9520000219
 3390.1379395  -999.250000 12.193300247 12.250000954 98.293960571  -999.250000 4.8640499115 0.3307000101  -999.250000  -999.250000 84.709999084 6.2329621315 96.140441895 196.64038086 1.9055000544 1.9149999619
 3390.2902832  -999.250000 12.209899902 12.250000954 96.751968384  -999.250000 4.4475669861 0.3346999884  -999.250000  -999.250000 81.739997864 6.7575592995 95.639801025 196.09686279 1.9074000120 1.9099999666
 3390.4426270  -999.250000 12.213500023 12.250000954 93.864830017  -999.250000 4.1978993416 0.3337000012  -999.250000  -999.250000 84.449996948 7.1626024246 95.007026672 194.53302002 1.9189000130 1.8990000486
 3390.5952148  -999.250000 12.212699890 12.250000954 92.421257019  -999.250000 4.1139335632 0.3294999897  -999.250000  -999.250000 82.389999390 7.3214473724 94.944099426 193.69732666 1.9373999834 1.9090000391
 3390.7475586  -999.250000 12.208600044 12.250000954 94.127296448  -999.250000 4.2045545578 0.2689000070  -999.250000  -999.250000 75.019996643 7.1571640968 94.927032471 192.35914612 1.9903000593 1.9670000076
 3390.8999023  -999.250000 12.195899963 12.250000954 94.980316162  -999.250000 4.3980894089 0.2556000054  -999.250000  -999.250000 77.650001526 6.7475571632 94.731315613 191.98359680 2.0546000004 2.1050000191
 3391.0522461  -999.250000 12.175299644 12.250000954 100.88582611  -999.250000 4.5502128601 0.2545999885  -999.250000  -999.250000 73.739997864 6.2230815887 93.794006348 191.64109802 2.1115999222 2.2669999599
 3391.2048340  -999.250000 12.153800011 12.250000954 103.83858490  -999.250000 4.6258792877 0.2658999860  -999.250000  -999.250000 69.599998474 5.7062268257 93.102104187 191.49523926 2.1375000477 2.3169999123
 3391.3571777  -999.250000 12.134300232 12.250000954 107.15222931  -999.250000 4.6587476730 0.2784999907  -999.250000  -999.250000 76.309997559 5.3534650803 91.647338867 191.04872131 2.1558001041 2.3180000782
 3391.5095215  -999.250000 12.119699478 12.250000954 108.82545471  -999.250000 4.5560650826 0.2825999856  -999.250000  -999.250000 78.160003662 5.3152604103 90.986061096 190.80938721 2.1684999466 2.3289999962
 3391.6618652  -999.250000 12.114999771 12.250000954 107.05381012  -999.250000 4.2850694656 0.2845000029  -999.250000  -999.250000 77.209999084 5.5778570175 89.825721741 190.57276917 2.1895999908 2.3589999676
 3391.8144531  -999.250000 12.117400169 12.250000954 106.13516998  -999.250000 4.0408906937 0.2892999947  -999.250000  -999.250000 78.629997253 6.0281786919 89.357749939 190.63090515 2.1942999363 2.3389999866
 3391.9667969  -999.250000 12.118901253 12.250000954 102.98556519  -999.250000 4.0275211334 0.2908999920  -999.250000  -999.250000 76.900001526 6.5696320534 89.014541626 190.91554260 2.1649999619 2.2630000114
 3392.1191406  -999.250000 12.120100021 12.250000954 101.41075897  -999.250000 4.2353663445 0.2931999862  -999.250000  -999.250000 73.339996338 7.0375504494 89.321502686 191.02082825 2.1638998985 2.2639999390
 3392.2714844  -999.250000 12.125800133 12.250000954 98.589233398  -999.250000 4.5773515701 0.3003999889  -999.250000  -999.250000 75.930000305 7.2605433464 90.980339050 191.10987854 2.1500000954 2.2339999676
 3392.4238281  -999.250000 12.135101318 12.250000954 94.619422913  -999.250000 5.0108098984 0.3043000102  -999.250000  -999.250000 81.739997864 7.2013912201 93.038398743 191.28144836 2.1138000488 2.1919999123
 3392.5764160  -999.250000 12.142200470 12.250000954 92.060363770  -999.250000 5.4287314415 0.2942999899  -999.250000  -999.250000 80.309997559 6.9075713158 93.733894348 191.41078186 2.0982999802 2.1619999409
 3392.7287598  -999.250000 12.144100189 12.250000954 94.783462524  -999.250000 5.6993665695 0.2813999951  -999.250000  -999.250000 83.589996338 6.4953608513 94.486793518 191.48687744 2.0429000854 2.0840001106
 3392.8811035  -999.250000 12.140899658 12.250000954 100.09842682  -999.250000 5.8582458496 0.2766000032  -999.250000  -999.250000 80.589996338 6.0699820518 94.563880920 191.28332520 2.0046999454 2.0460000038
 3393.0334473  -999.250000 12.132499695 12.250000954 105.61022949  -999.250000 5.9711384773 0.2743000090  -999.250000  -999.250000 73.089996338 5.7587966919 94.508178711 190.77413940 2.0411999226 2.2079999447
 3393.1860352  -999.250000 12.124300003 12.250000954 105.83988953  -999.250000 6.0492749214 0.2696000040  -999.250000  -999.250000 74.059997559 5.6829199791 94.456085205 190.56134033 2.0657999516 2.2449998856
