# LAS format log file from PETREL
# Project units are specified as depth units
#==================================================================
~Version information
VERS.   2.0:
WRAP.   NO:
#==================================================================
~Well
STRT .m      2483.9675293 :
STOP .m      4422.1909180 :
STEP .m     0.00000000 :
NULL .        -999.250000 :
COMP.           : COMPANY
WELL.  33/6-3 S   : WELL
FLD.            : FIELD
LOC.            : LOCATION
SRVC.           : SERVICE COMPANY
DATE.  2018-09-11 14:48:41   : Log Export Date {yyyy-MM-dd HH:mm:ss}
PROV.           : PROVINCE
UWI.   33/6-3 S   : UNIQUE WELL ID
API.            : API NUMBER
#==================================================================
~Curve
DEPT .m                   : DEPTH
Lithology_geolink ._      : Lithology_geolink
CALI .in                  : CALI
BS .in                    : BS
ROP .m/h                  : ROP
DRHO .g/cm3               : DRHO
THOR .ppm                 : THOR
NPHI .m3/m3               : NPHI
RHOB .g/cm3               : RHOB
PEF .b/e                  : PEF
GR .gAPI                  : GR
URAN .ppm                 : URAN
DTC .us/ft                : DTC
DTS .us/ft                : DTS
RDEP .ohm.m               : RDEP
RMED .ohm.m               : RMED
~Parameter
#==================================================================
~Ascii
# ...
 3512.2102051  -999.250000 12.152899742 12.250000954 115.50765991  -999.250000 11.938210487 0.3316999972  -999.250000  -999.250000 79.370002747 1.5956201553 94.482070923 206.55575562 1.5651813745 1.6039519310
 3512.3627930  -999.250000 12.161100388 12.250000954 122.16780853  -999.250000 11.340357780 0.3204999864  -999.250000  -999.250000 81.309997559 1.6969386339 93.756156921 204.00408936 1.5752837658 1.6279615164
 3512.5151367  -999.250000 12.164999008 12.250000954 124.79895782  -999.250000 10.543776512 0.3102999926  -999.250000  -999.250000 81.349998474 1.6447839737 93.750007629 202.98760986 1.5752999783 1.6289983988
 3512.6674805  -999.250000 12.166000366 12.250000954 130.07684326  -999.250000 9.7762298584 0.3082999885  -999.250000  -999.250000 76.669998169 1.4966377020 94.069488525 202.03752136 1.5957671404 1.6569551229
 3512.8198242  -999.250000 12.162599564 12.250000954 131.75584412  -999.250000 9.1967277527 0.3201999962  -999.250000  -999.250000 76.370002747 1.3217802048 94.582176208 201.12446594 1.6174651384 1.6999311447
 3512.9721680  -999.250000 12.152899742 12.250000954 135.02886963  -999.250000 8.7073678970 0.3355000019  -999.250000  -999.250000 78.470001221 1.1100788116 95.543914795 199.58993530 1.6295613050 1.7179424763
 3513.1247559  -999.250000 12.140600204 12.250000954 119.28381348  -999.250000 8.3358945847 0.3452999890  -999.250000  -999.250000 76.690002441 0.9390733838 95.518043518 198.52569580 1.6213133335 1.6870497465
 3513.2770996  -999.250000 12.132300377 12.250000954 111.36437225  -999.250000 8.1020746231 0.3501999974  -999.250000  -999.250000 75.580001831 0.9455890656 95.047752380 198.06472778 1.6047265530 1.6370800734
 3513.4294434  -999.250000 12.128700256 12.250000954 106.79864502  -999.250000 7.8178553581 0.3441999853  -999.250000  -999.250000 77.330001831 1.2034860849 94.064590454 197.04965210 1.5966130495 1.6140367985
 3513.5817871  -999.250000 12.126399994 12.250000954 104.50209808  -999.250000 7.2960739136 0.3242000043  -999.250000  -999.250000 77.150001526 1.7106730938 93.854667664 196.52467346 1.6151405573 1.6648367643
 3513.7343750  -999.250000 12.124099731 12.250000954 97.485000610  -999.250000 6.5686650276 0.3046999872  -999.250000  -999.250000 80.029998779 2.3968014717 94.039695740 195.68635559 1.6107071638 1.6040977240
 3513.8867188  -999.250000 12.122699738 12.250000954 93.968879700  -999.250000 5.8737134933 0.2991999984  -999.250000  -999.250000 75.580001831 3.1164464951 94.305572510 195.49530029 1.6032119989 1.6289598942
 3514.0390625  -999.250000 12.120900154 12.250000954 118.69389343  -999.250000 5.4460849762 0.3082000017  -999.250000  -999.250000 77.019996643 3.6197938919 94.577568054 195.39414978 1.6341502666 1.7118669748
 3514.1914063  -999.250000 12.119899750 12.250000954 131.06277466  -999.250000 5.4630432129 0.3228999972  -999.250000  -999.250000 78.069999695 3.7614479065 94.518196106 195.52458191 1.6793550253 1.7738016844
 3514.3439941  -999.250000 12.124800682 12.250000954 138.30863953  -999.250000 6.1483001709 0.3345000148  -999.250000  -999.250000 78.989997864 3.5399560928 94.385215759 196.10008240 1.6707140207 1.7380577326
 3514.4963379  -999.250000 12.133700371 12.250000954 141.92333984  -999.250000 7.4841575623 0.3328999877  -999.250000  -999.250000 72.639999390 3.0578732491 94.353050232 196.54328918 1.6786870956 1.7549726963
 3514.6486816  -999.250000 12.138099670 12.250000954 154.37635803  -999.250000 8.8883495331 0.3242999911  -999.250000  -999.250000 78.910003662 2.6170065403 94.134353638 197.24287415 1.6894826889 1.7440176010
 3514.8010254  -999.250000 12.136799812 12.250000954 160.61991882  -999.250000 10.027075768 0.3183000088  -999.250000  -999.250000 79.360000610 2.3617086411 93.791549683 197.22602844 1.6779185534 1.6970753670
 3514.9533691  -999.250000 12.134599686 12.250000954 154.08923340  -999.250000 10.872392654 0.3188999891  -999.250000  -999.250000 76.930000305 2.2665042877 92.898864746 196.71064758 1.6613531113 1.6660991907
 3515.1059570  -999.250000 12.133199692 12.250000954 150.79266357  -999.250000 11.177714348 0.3235999942  -999.250000  -999.250000 76.040000916 2.3656404018 92.501632690 196.30563354 1.6612999439 1.6809759140
 3515.2583008  -999.250000 12.132200241 12.250000954 146.59465027  -999.250000 10.651246071 0.3217000067  -999.250000  -999.250000 70.139999390 2.5449125767 92.048721313 195.70196533 1.6786720753 1.7069582939
 3515.4106445  -999.250000 12.131199837 12.250000954 144.52430725  -999.250000 10.188941002 0.3246999979  -999.250000  -999.250000 73.580001831 2.4650287628 92.038024902 195.59416199 1.6986678839 1.7479343414
 3515.5629883  -999.250000 12.129199982 12.250000954 147.62782288  -999.250000 9.6018829346 0.3391000032  -999.250000  -999.250000 78.410003662 2.2444078922 92.175559998 195.52423096 1.7290027142 1.8088048697
 3515.7155762  -999.250000 12.130200386 12.250000954 149.21008301  -999.250000 9.0651578903 0.3438999951  -999.250000  -999.250000 75.330001831 1.9484736919 92.352722168 195.53898621 1.7060370445 1.7590800524
 3515.8679199  -999.250000 12.138601303 12.250000954 146.36285400  -999.250000 9.0374431610 0.3280999959  -999.250000  -999.250000 75.080001831 1.7147743702 92.921081543 195.78361511 1.7028051615 1.7420272827
 3516.0202637  -999.250000 12.152099609 12.250000954 144.94976807  -999.250000 9.4133958817 0.3160000145  -999.250000  -999.250000 75.180000305 1.5976873636 93.276428223 196.22828674 1.6963104010 1.7260255814
 3516.1726074  -999.250000 12.162899971 12.250000954 142.91990662  -999.250000 10.011182785 0.3147999942  -999.250000  -999.250000 79.180000305 1.5175566673 93.683692932 197.27015686 1.6986923218 1.7110480070
 3516.3251953  -999.250000 12.167599678 12.250000954 143.66677856  -999.250000 10.588576317 0.3201000094  -999.250000  -999.250000 79.540000916 1.4432188272 93.785842896 198.55993652 1.7113796473 1.7299696207
 3516.4775391  -999.250000 12.168198586 12.250000954 145.43679810  -999.250000 10.862361908 0.3292999864  -999.250000  -999.250000 81.930000305 1.4334155321 93.724098206 199.31777954 1.7190876007 1.7499679327
 3516.6298828  -999.250000 12.168001175 12.250000954 140.46075439  -999.250000 10.811082840 0.3239000142  -999.250000  -999.250000 83.430000305 1.5164667368 93.705024719 199.57458496 1.7440599203 1.8278748989
 3516.7822266  -999.250000 12.167799950 12.250000954 133.73780823  -999.250000 10.383985519 0.2984000146  -999.250000  -999.250000 80.559997559 1.7056964636 93.881721497 199.19360352 1.7175426483 1.8170176744
 3516.9345703  -999.250000 12.167799950 12.250000954 123.13113403  -999.250000 9.8419380188 0.2831999958  -999.250000  -999.250000 78.120002747 1.9275887012 94.689407349 197.73268127 1.6899883747 1.7312752008
 3517.0871582  -999.250000 12.169400215 12.250000954 119.19917297  -999.250000 9.5309963226 0.2881999910  -999.250000  -999.250000 75.290000916 2.0471093655 95.088371277 197.05708313 1.6641414165 1.6900657415
 3517.2395020  -999.250000 12.168999672 12.250000954 114.31230164  -999.250000 9.4822769165 0.2987000048  -999.250000  -999.250000 74.410003662 2.0102593899 95.168869019 196.97712708 1.6605057716 1.6710304022
 3517.3918457  -999.250000 12.159999847 12.250000954 113.35454559  -999.250000 9.6739921570 0.3118000031  -999.250000  -999.250000 74.190002441 1.8210037947 94.905418396 197.50714111 1.6802682877 1.7009519339
 3517.5441895  -999.250000 12.146100044 12.250000954 115.18441010  -999.250000 10.066740036 0.3271999955  -999.250000  -999.250000 74.110000610 1.5711013079 93.718803406 200.05380249 1.6850845814 1.7338943481
 3517.6967773  -999.250000 12.140099525 12.250000954 117.94178009  -999.250000 10.838763237 0.3370999992  -999.250000  -999.250000 74.599998474 1.3256926537 93.059059143 201.42181396 1.6771128178 1.7130336761
 3517.8491211  -999.250000 12.146800041 12.250000954 122.46651459  -999.250000 11.881728172 0.3368999958  -999.250000  -999.250000 77.349998474 1.1555724144 92.198379517 201.79640198 1.6442526579 1.6311314106
 3518.0014648  -999.250000 12.158599854 12.250000954 124.24256897  -999.250000 12.581978798 0.3339000046  -999.250000  -999.250000 76.919998169 1.1640859842 91.976348877 200.95135498 1.6503901482 1.6220144033
