# LAS format log file from PETREL
# Project units are specified as depth units
#==================================================================
~Version information
VERS.   2.0:
WRAP.   NO:
#==================================================================
~Well
STRT .m      1936.1920166 :
STOP .m      3906.2648926 :
STEP .m     0.00000000 :
NULL .        -999.250000 :
COMP.           : COMPANY
WELL.  33/6-1   : WELL
FLD.            : FIELD
LOC.            : LOCATION
SRVC.           : SERVICE COMPANY
DATE.  2018-09-11 14:48:41   : Log Export Date {yyyy-MM-dd HH:mm:ss}
PROV.           : PROVINCE
UWI.   33/6-1   : UNIQUE WELL ID
API.            : API NUMBER
#==================================================================
~Curve
DEPT .m                   : DEPTH
Lithology_geolink ._      : Lithology_geolink
CALI .in                  : CALI
BS .in                    : BS
DRHO .g/cm3               : DRHO
NPHI .m3/m3               : NPHI
RHOB .g/cm3               : RHOB
GR .gAPI                  : GR
DTC .us/ft                : DTC
RDEP .ohm.m               : RDEP
SP .mV                    : SP
RSHA .ohm.m               : RSHA
RMED .ohm.m               : RMED
~Parameter
#==================================================================
~Ascii
# ...
 2067.8654785  -999.250000 14.371999741  -999.250000 0.0569455139 0.4056382775 2.3891584873 67.325515747 113.41471100 1.3530480862 27.981006622 1.3750897646 1.3750897646
 2068.0178223  -999.250000 14.369998932  -999.250000 0.0399935879 0.3948816955 2.4220192432 69.430381775 108.16691589 1.3470191956 27.829486847 1.3640352488 1.3640352488
 2068.1701660  -999.250000 14.369000435  -999.250000 0.0380447991 0.3849004209 2.4259376526 70.881927490 107.54965210 1.3569519520 27.596122742 1.3918656111 1.3918656111
 2068.3225098  -999.250000 14.378999710  -999.250000 0.0520112179 0.3891531825 2.4128320217 69.823997498 109.99534607 1.3778990507 27.423828125 1.4208605289 1.4208605289
 2068.4750977  -999.250000 14.396999359  -999.250000 0.0590000004 0.3939586580 2.3778703213 68.159683228 112.86140442 1.3999294043 27.521682739 1.4469166994 1.4469166994
 2068.6274414  -999.250000 14.421999931  -999.250000 0.0589871816 0.3937155008 2.3510048389 66.863281250 115.64448547 1.4229263067 27.916730881 1.4589614868 1.4589614868
 2068.7797852  -999.250000 14.461000443  -999.250000 0.0549775995 0.4011156559 2.3520770073 65.653938293 116.32424927 1.4458895922 28.047376633 1.4729328156 1.4729328156
 2068.9321289  -999.250000 14.500000000  -999.250000 0.0479871817 0.4126620889 2.3680288792 63.629619598 113.86264801 1.4738653898 27.993265152 1.4958894253 1.4958894253
 2069.0847168  -999.250000 14.517999649  -999.250000 0.0400128178 0.4172000289 2.3740143776 64.397537231 110.71578217 1.5029070377 28.019914627 1.5169326067 1.5169326067
 2069.2370605  -999.250000 14.520000458  -999.250000 0.0440352559 0.4088805914 2.3770482540 67.291999817 111.68090057 1.5299134254 28.129646301 1.5379326344 1.5379326344
 2069.3894043  -999.250000 14.520000458  -999.250000 0.0550160259 0.3986249268 2.3870048523 70.555610657 111.67439270 1.5479422808 28.168874741 1.5609263182 1.5609263182
 2069.5417480  -999.250000 14.520999908  -999.250000 0.0599839985 0.3934410512 2.3879375458 72.048759460 112.98330688 1.5659135580 28.167009354 1.5809040070 1.5809040070
 2069.6943359  -999.250000 14.520999908  -999.250000 0.0549647436 0.3957155049 2.3748848438 72.203590393 114.26576996 1.5789582729 28.216838837 1.5829935074 1.5829935074
 2069.8466797  -999.250000 14.522000313  -999.250000 0.0439615399 0.3934042454 2.3569328785 71.830322266 113.61068726 1.5839840174 28.289766312 1.5790128708 1.5790128708
 2069.9990234  -999.250000 14.522000313  -999.250000 0.0319871828 0.3818388283 2.3429663181 71.890281677 112.70786285 1.5830031633 28.362766266 1.5730191469 1.5730191469
 2070.1513672  -999.250000 14.522000313  -999.250000 0.0280128010 0.3774717152 2.3360383511 73.498130798 113.31143188 1.5720528364 28.436645508 1.5620528460 1.5620528460
 2070.3037109  -999.250000 14.522000313  -999.250000 0.0320048109 0.3819984496 2.3440384865 75.805839539 114.15350342 1.5431394577 28.509649277 1.5381153822 1.5381153822
 2070.4562988  -999.250000 14.506999969  -999.250000 0.0350000001 0.3879215717 2.3519806862 76.597412109 114.08964539 1.5160865784 28.625627518 1.5061025620 1.5061025620
 2070.6086426  -999.250000 14.494999886  -999.250000 0.0349935889 0.3924555480 2.3479518890 76.189277649 115.65670776 1.4890865088 28.775518417 1.4790865183 1.4790865183
 2070.7609863  -999.250000 14.480999947  -999.250000 0.0329999998 0.4060798883 2.3379375935 75.140129089 115.61450958 1.4661103487 28.932247162 1.4571056366 1.4571056366
 2070.9133301  -999.250000 14.455000877  -999.250000 0.0330080129 0.4163997769 2.3249711990 73.916252136 116.01329803 1.4510720968 29.088251114 1.4351056814 1.4351056814
 2071.0659180  -999.250000 14.451998711  -999.250000 0.0380288437 0.4143078029 2.3190431595 73.553611755 117.44501495 1.4420288801 29.131862640 1.4170577526 1.4170577526
 2071.2182617  -999.250000 14.449000359  -999.250000 0.0470256396 0.4201268256 2.3280625343 73.482070923 116.31446838 1.4420000315 28.914697647 1.4199903011 1.4199903011
 2071.3706055  -999.250000 14.456000328  -999.250000 0.0550224371 0.4339683950 2.3410432339 71.771553040 113.76387024 1.4410032034 28.761489868 1.4229903221 1.4229903221
 2071.5229492  -999.250000 14.475999832  -999.250000 0.0619999990 0.4356542230 2.3500094414 69.063957214 115.60416412 1.4409999847 28.798816681 1.4259855747 1.4259855747
 2071.6755371  -999.250000 14.498999596  -999.250000 0.0619551279 0.4240630865 2.3518977165 69.267677307 115.62530518 1.4409999847 28.889707565 1.4299870729 1.4299870729
 2071.8278809  -999.250000 14.513999939  -999.250000 0.0479711555 0.4167909324 2.3359422684 70.310333252 115.05316925 1.4400032759 28.809259415 1.4349839687 1.4349839687
 2071.9802246  -999.250000 14.513999939  -999.250000 0.0390352570 0.4190805554 2.3240623474 71.612197876 116.18007660 1.4400000572 28.584720612 1.4379903078 1.4379903078
 2072.1325684  -999.250000 14.510999680  -999.250000 0.0500608012 0.4254391789 2.3370769024 73.202537537 114.63292694 1.4370144606 28.427753448 1.4310336113 1.4310336113
 2072.2849121  -999.250000 14.508000374  -999.250000 0.0690176263 0.4314797521 2.3529951572 74.556015015 113.23749542 1.4270480871 28.312553406 1.4210480452 1.4210480452
 2072.4375000  -999.250000 14.505000114  -999.250000 0.0800064057 0.4314206839 2.3519759178 74.555335999 114.88502502 1.4130448103 28.196371078 1.4100352526 1.4100352526
 2072.5898438  -999.250000 14.517000198  -999.250000 0.0819487199 0.4294399619 2.3470335007 73.987396240 117.38644409 1.3930641413 28.059438705 1.3980385065 1.3980385065
 2072.7421875  -999.250000 14.552000046  -999.250000 0.0659743994 0.4190365076 2.3540673256 73.885787964 120.25518036 1.3750864267 27.873891830 1.3850623369 1.3850623369
 2072.8945313  -999.250000 14.567999840  -999.250000 0.0580128171 0.4100537896 2.3680431843 72.599487305 121.66636658 1.3769903183 27.807315826 1.3591250181 1.3591250181
 2073.0471191  -999.250000 14.557001114  -999.250000 0.0659807697 0.4150222242 2.3769471645 70.202301025 119.83569336 1.3969358206 27.912660599 1.3480353355 1.3480353355
 2073.1994629  -999.250000 14.548000336  -999.250000 0.0599775612 0.4216996133 2.3659856319 67.919265747 116.42607880 1.4149422646 28.042583466 1.3679358959 1.3679358959
 2073.3518066  -999.250000 14.550998688  -999.250000 0.0530320518 0.4236794114 2.3630576134 67.194511414 112.71205902 1.4378895760 28.080816269 1.4147744179 1.4147744179
 2073.5041504  -999.250000 14.534000397  -999.250000 0.0630031973 0.4214878082 2.3749616146 68.674018860 111.50088501 1.4608893394 28.079010010 1.4617739916 1.4617739916
 2073.6567383  -999.250000 14.517999649  -999.250000 0.0639807731 0.4210253954 2.3669297695 69.077438354 114.74410248 1.4829294682 28.075014114 1.4958910942 1.4958910942
 2073.8090820  -999.250000 14.515000343  -999.250000 0.0580032021 0.4187353253 2.3560383320 66.647331238 115.50599670 1.5009423494 28.105901718 1.5019807816 1.5019807816
 2073.9614258  -999.250000 14.505000114  -999.250000 0.0590128191 0.4136146903 2.3640432358 63.904628754 116.28259277 1.5159519911 28.163814545 1.5029968023 1.5029968023
 2074.1137695  -999.250000 14.505000114  -999.250000 0.0629968047 0.4104612172 2.3729662895 63.222019196 116.51476288 1.5289376974 28.228687286 1.5079760551 1.5079760551
 2074.2661133  -999.250000 14.506999969  -999.250000 0.0619903840 0.4128140509 2.3659038544 62.400421143 113.99376678 1.5270096064 28.255870819 1.5159615278 1.5159615278
 2074.4187012  -999.250000 14.500000000  -999.250000 0.0559743606 0.4178035855 2.3459038734 62.922889709 113.35877228 1.5150384903 28.237060547 1.5249711275 1.5249711275
 2074.5710449  -999.250000 14.498000145  -999.250000 0.0479679480 0.4185670912 2.3259375095 66.180915833 116.06309509 1.5000480413 28.118381500 1.5090512037 1.5090512037
 2074.7233887  -999.250000 14.498000145  -999.250000 0.0379743986 0.4221837521 2.3129518032 69.279319763 116.69539642 1.4900480509 28.075206757 1.4841200113 1.4841200113
 2074.8757324  -999.250000 14.498999596  -999.250000 0.0300048068 0.4374874830 2.3029999733 70.798904419 116.29697418 1.4800480604 28.158596039 1.4551395178 1.4551395178
 2075.0283203  -999.250000 14.484999657  -999.250000 0.0330096148 0.4451990426 2.3030192852 71.820777893 117.09575653 1.4710288048 28.276622772 1.4201121330 1.4201121330
