# LAS format log file from PETREL
# Project units are specified as depth units
#==================================================================
~Version information
VERS.   2.0:
WRAP.   NO:
#==================================================================
~Well
STRT .m      1936.1920166 :
STOP .m      3906.2648926 :
STEP .m     0.00000000 :
NULL .        -999.250000 :
COMP.           : COMPANY
WELL.  33/6-1   : WELL
FLD.            : FIELD
LOC.            : LOCATION
SRVC.           : SERVICE COMPANY
DATE.  2018-09-11 14:48:41   : Log Export Date {yyyy-MM-dd HH:mm:ss}
PROV.           : PROVINCE
UWI.   33/6-1   : UNIQUE WELL ID
API.            : API NUMBER
#==================================================================
~Curve
DEPT .m                   : DEPTH
Lithology_geolink ._      : Lithology_geolink
CALI .in                  : CALI
BS .in                    : BS
DRHO .g/cm3               : DRHO
NPHI .m3/m3               : NPHI
RHOB .g/cm3               : RHOB
GR .gAPI                  : GR
DTC .us/ft                : DTC
RDEP .ohm.m               : RDEP
SP .mV                    : SP
RSHA .ohm.m               : RSHA
RMED .ohm.m               : RMED
~Parameter
#==================================================================
~Ascii
# ...
 3633.3166504 6.0000000000 9.6219997406 8.5000000000 0.0230000000 0.3873499930 2.5559999943 95.509002686 88.367004395 5.5008111000 36.487155914 6.6107439995 6.6107439995
 3633.4692383 6.0000000000 9.6210002899 8.5000000000 0.0179999992 0.3746300042 2.5690000057 95.313003540 85.777000427 5.4803848267 36.720554352 6.5383462906 6.5383462906
 3633.6215820 7.0000000000 9.6199998856 8.5000000000 0.0120000001 0.3541499972 2.5820000172 95.413002014 84.151000977 5.4289999008 36.825038910 6.6370382309 6.6370382309
 3633.7739258 7.0000000000 9.6190004349 8.5000000000 0.0040000002 0.3452000022 2.5929999352 95.885002136 83.971000671 5.4162306786 36.724018097 6.7910194397 6.7910194397
 3633.9262695 7.0000000000 9.6180000305 8.5000000000 0.0020000001 0.3444299996 2.5999999046 97.088996887 84.651000977 5.4365959167 36.562133789 6.9313077927 6.9313077927
 3634.0786133 7.0000000000 9.6169996262 8.5000000000 0.0040000002 0.3436200023 2.5950000286 97.964996338 85.549011230 5.4624590874 36.655941010 6.9721889496 6.9721889496
 3634.2312012 7.0000000000 9.6210002899 8.5000000000 0.0109999999 0.3477900028 2.5910000801 98.364997864 84.769996643 5.4884996414 36.862979889 6.9367113113 6.9367113113
 3634.3835449 7.0000000000 9.6210002899 8.5000000000 0.0230000000 0.3566400111 2.5989999771 99.295997620 83.809989929 5.5144996643 36.974884033 6.8094811440 6.8094811440
 3634.5358887 7.0000000000 9.6160001755 8.5000000000 0.0359999985 0.3684500158 2.6199998856 100.03199768 83.227996826 5.5365772247 36.718078613 6.6481151581 6.6481151581
 3634.6882324 7.0000000000 9.6180000305 8.5000000000 0.0469999984 0.3737599850 2.6429998875 99.820999146 83.335998535 5.5428752899 36.316421509 6.6146445274 6.6146445274
 3634.8408203 7.0000000000 9.6210002899 8.5000000000 0.0469999984 0.3720200062 2.6480000019 99.140998840 84.668998718 5.5420188904 35.910789490 6.6385192871 6.6385192871
 3634.9931641 7.0000000000 9.6199998856 8.5000000000 0.0399999991 0.3678500056 2.6459999084 98.382003784 85.496002197 5.5351343155 35.506771088 6.6694040298 6.6694040298
 3635.1455078 7.0000000000 9.6190004349 8.5000000000 0.0270000007 0.3658399880 2.6359999180 98.344001770 85.891998291 5.5242118835 35.211635590 6.7053074837 6.7053074837
 3635.2978516 7.0000000000 9.6169996262 8.5000000000 0.0219999999 0.3676399887 2.6250000000 98.115997314 85.588996887 5.5122494698 35.002326965 6.7422304153 6.7422304153
 3635.4504395 7.0000000000 9.6169996262 8.5000000000 0.0199999996 0.3696900308 2.6180000305 97.592002869 85.665992737 5.5002307892 34.807731628 6.7802691460 6.7802691460
 3635.6027832 7.0000000000 9.6169996262 8.5000000000 0.0280000009 0.3690299988 2.6219999790 97.294998169 86.069999695 5.4784231186 34.827537537 6.8172883987 6.8172883987
 3635.7551270 7.0000000000 9.6169996262 8.5000000000 0.0350000001 0.3637500107 2.6199998856 97.510002136 86.349998474 5.4201345444 35.074172974 6.8542885780 6.8542885780
 3635.9074707 7.0000000000 9.6160001755 8.5000000000 0.0250000004 0.3600600064 2.6070001125 98.252998352 86.120002747 5.3474040031 35.381076813 6.8697113991 6.8697113991
 3636.0598145 7.0000000000 9.6180000305 8.5000000000 0.0189999994 0.3601199985 2.5959999561 98.919998169 85.661003113 5.2745180130 35.688594818 6.7946019173 6.7946019173
 3636.2124023 7.0000000000 9.6180000305 8.5000000000 0.0170000009 0.3588600159 2.6019999981 98.181999207 85.433998108 5.2023849487 35.926460266 6.6468653679 6.6468653679
 3636.3647461 7.0000000000 9.6149997711 8.5000000000 0.0149999997 0.3543999791 2.6119999886 95.545997620 85.830001831 5.1294035912 35.714248657 6.4821729660 6.4821729660
 3636.5170898 6.0000000000 9.6099996567 8.5000000000 0.0149999997 0.3552800119 2.6199998856 93.577003479 86.086997986 5.0564036369 35.312789917 6.3171730042 6.3171730042
 3636.6694336 6.0000000000 9.6049995422 8.5000000000 0.0179999992 0.3588600159 2.6410000324 92.470001221 85.662994385 4.9835181236 35.192390442 6.1524319649 6.1524319649
 3636.8220215 6.0000000000 9.6000003815 8.5000000000 0.0099999998 0.3605300188 2.6340000629 92.304000854 84.537002563 4.9702305794 35.344959259 6.0440573692 6.0440573692
 3636.9743652 6.0000000000 9.5950002670 8.5000000000 0.0000000000 0.3586399853 2.6219999790 92.915000916 83.412002563 4.9896149635 35.563770294 6.0380768776 6.0380768776
 3637.1267090 6.0000000000 9.5900001526 8.5000000000 0.0000000000 0.3484799862 2.6180000305 93.582000732 83.172996521 5.0115771294 35.588596344 6.0899810791 6.0899810791
 3637.2790527 6.0000000000 9.5850000381 8.5000000000 0.0020000001 0.3391500115 2.6229999065 93.989997864 83.719001770 5.0335421562 35.527313232 6.1673779488 6.1673779488
 3637.4316406 6.0000000000 9.5799999237 8.5000000000 0.0040000002 0.3377299905 2.6319999695 94.023002625 84.597999573 5.0545959473 35.463233948 6.2513842583 6.2513842583
 3637.5839844 6.0000000000 9.5769996643 8.5000000000 0.0080000004 0.3423899710 2.6400001049 94.207000732 84.399002075 5.0765771866 35.140308380 6.3098845482 6.3098845482
 3637.7363281 6.0000000000 9.5749998093 8.5000000000 0.0120000001 0.3457599878 2.6429998875 94.875999451 83.527999878 5.0632696152 34.602420807 6.2943272591 6.2943272591
 3637.8886719 6.0000000000 9.5690002441 8.5000000000 0.0130000003 0.3499499857 2.6389999390 95.372001648 82.888000488 5.0257310867 34.338962555 6.1949419975 6.1949419975
 3638.0412598 6.0000000000 9.5679998398 8.5000000000 0.0120000001 0.3529999852 2.6340000629 94.970001221 82.638999939 4.9838061333 34.218265533 6.0694189072 6.0694189072
 3638.1936035 6.0000000000 9.5699996948 8.5000000000 0.0099999998 0.3539600074 2.6400001049 93.928001404 83.637001038 4.9418077469 34.100269318 5.9571537971 5.9571537971
 3638.3459473 6.0000000000 9.5699996948 8.5000000000 0.0049999999 0.3540399969 2.6410000324 93.001998901 85.046997070 4.8998079300 34.027385712 5.8863463402 5.8863463402
 3638.4982910 6.0000000000 9.5729999542 8.5000000000 0.0020000001 0.3553699851 2.6449999809 92.682998657 85.988998413 4.8578076363 34.127021790 5.8702883720 5.8702883720
 3638.6506348 6.0000000000 9.5769996643 8.5000000000 0.0030000000 0.3650099933 2.6500000954 92.736999512 85.837989807 4.8325200081 34.381633759 5.9512734413 5.9512734413
 3638.8032227 6.0000000000 9.5869998932 8.5000000000 0.0040000002 0.3804299831 2.6449999809 93.051002502 86.252998352 4.8879036903 34.678287506 6.1099228859 6.1099228859
 3638.9555664 6.0000000000 9.5880002975 8.5000000000 0.0060000001 0.3864099979 2.6329998970 93.177001953 87.544998169 4.9811921120 34.975288391 6.3248462677 6.3248462677
 3639.1079102 6.0000000000 9.5780000687 8.5000000000 0.0080000004 0.3839699924 2.6219999790 93.236999512 87.890998840 5.0957884789 35.272289276 6.5585002899 6.5585002899
 3639.2602539 6.0000000000 9.5740003586 8.5000000000 0.0140000004 0.3834199905 2.6229999065 93.277000427 87.485000610 5.2194209099 35.247646332 6.7461104393 6.7461104393
 3639.4128418 6.0000000000 9.5690002441 8.5000000000 0.0240000002 0.3853099942 2.6319999695 92.936996460 86.751998901 5.2700576782 35.056732178 6.8215961456 6.8215961456
 3639.5651855 6.0000000000 9.5679998398 8.5000000000 0.0329999998 0.3840700090 2.6410000324 92.878997803 85.761001587 5.3229808807 35.206981659 6.7612118721 6.7612118721
 3639.7175293 7.0000000000 9.5699996948 8.5000000000 0.0350000001 0.3837300241 2.6389999390 93.291999817 85.712997437 5.3073272705 35.534633636 6.6344614029 6.6344614029
 3639.8698730 7.0000000000 9.5729999542 8.5000000000 0.0230000000 0.3808100224 2.6289999485 94.866996765 87.396003723 5.2560000420 35.874462128 6.4740962982 6.4740962982
 3640.0224609 7.0000000000 9.5749998093 8.5000000000 0.0140000004 0.3758299947 2.6180000305 98.694999695 89.334999084 5.1745743752 36.061466217 6.3052449226 6.3052449226
 3640.1748047 7.0000000000 9.5719995499 8.5000000000 0.0120000001 0.3767299950 2.6070001125 99.219001770 91.025001526 5.0592308044 36.005172729 6.1431150436 6.1431150436
 3640.3271484 7.0000000000 9.5679998398 8.5000000000 0.0109999999 0.3866899908 2.5780000687 99.117996216 92.111007690 4.9344038963 35.690151215 6.0929231644 6.0929231644
 3640.4794922 7.0000000000 9.5640001297 8.5000000000 0.0120000001 0.3969699740 2.5599999428 98.620002747 91.541000366 4.8309807777 35.965480804 6.0910191536 6.0910191536
