# LAS format log file from PETREL
# Project units are specified as depth units
#==================================================================
~Version information
VERS.   2.0:
WRAP.   NO:
#==================================================================
~Well
STRT .m      2483.9675293 :
STOP .m      4422.1909180 :
STEP .m     0.00000000 :
NULL .        -999.250000 :
COMP.           : COMPANY
WELL.  33/6-3 S   : WELL
FLD.            : FIELD
LOC.            : LOCATION
SRVC.           : SERVICE COMPANY
DATE.  2018-09-11 14:48:41   : Log Export Date {yyyy-MM-dd HH:mm:ss}
PROV.           : PROVINCE
UWI.   33/6-3 S   : UNIQUE WELL ID
API.            : API NUMBER
#==================================================================
~Curve
DEPT .m                   : DEPTH
Lithology_geolink ._      : Lithology_geolink
CALI .in                  : CALI
BS .in                    : BS
ROP .m/h                  : ROP
DRHO .g/cm3               : DRHO
THOR .ppm                 : THOR
NPHI .m3/m3               : NPHI
RHOB .g/cm3               : RHOB
PEF .b/e                  : PEF
GR .gAPI                  : GR
URAN .ppm                 : URAN
DTC .us/ft                : DTC
DTS .us/ft                : DTS
RDEP .ohm.m               : RDEP
RMED .ohm.m               : RMED
~Parameter
#==================================================================
~Ascii
# ...
 2870.3017578  -999.250000 12.229700089 12.250000954 83.300521851  -999.250000 6.0521998405 0.2946000099  -999.250000  -999.250000 67.005332947 2.6558001041 102.78099823 219.58901978 1.4901000261 1.5329999924
 2870.4541016  -999.250000 12.234599113 12.250000954 82.119422913  -999.250000 6.0239000320 0.2851000130  -999.250000  -999.250000 65.547378540 3.0179998875 102.00599670 219.80000305 1.4967999458 1.5299999714
 2870.6064453  -999.250000 12.236801147 12.250000954 81.561683655  -999.250000 6.2355999947 0.2987999916  -999.250000  -999.250000 63.921024323 3.1070001125 101.70900726 219.81599426 1.5042999983 1.5540000200
 2870.7587891  -999.250000 12.223999977 12.250000954 81.102363586  -999.250000 6.5079998970 0.3161000013  -999.250000  -999.250000 70.788589478 2.9565000534 101.44200134 219.44000244 1.5410000086 1.6289999485
 2870.9113770  -999.250000 12.187299728 12.250000954 81.233596802  -999.250000 6.8470997810 0.3181999922  -999.250000  -999.250000 69.903312683 2.6833999157 101.37699127 219.06799316 1.5629999638 1.6569999456
 2871.0637207  -999.250000 12.135399818 12.250000954 81.233596802  -999.250000 7.2817001343 0.3122999966  -999.250000  -999.250000 67.821327209 2.3008999825 101.23899841 217.86700439 1.5795999765 1.6670000553
 2871.2160645  -999.250000 12.097200394 12.250000954 81.102363586  -999.250000 7.7097992897 0.3133000135  -999.250000  -999.250000 68.650192261 1.8724999428 101.12100220 217.28100586 1.5810999870 1.6660000086
 2871.3684082  -999.250000 12.089400291 12.250000954 81.463256836  -999.250000 8.1059999466 0.3260999918  -999.250000  -999.250000 68.767944336 1.5353000164 100.71399689 217.03300476 1.5877000093 1.6619999409
 2871.5209961  -999.250000 12.095800400 12.250000954 81.955383301  -999.250000 8.6302003860 0.3328999877  -999.250000  -999.250000 67.487632751 1.3568999767 100.49399567 217.31599426 1.5855000019 1.6560000181
 2871.6733398  -999.250000 12.097200394 12.250000954 84.809715271  -999.250000 9.3197002411 0.3264999986  -999.250000  -999.250000 66.753753662 1.3550000191 100.23999786 218.19000244 1.5936000347 1.6640000343
 2871.8256836  -999.250000 12.095499992 12.250000954 89.599739075  -999.250000 9.8010997772 0.3133000135  -999.250000  -999.250000 69.088539124 1.5312000513 100.19599915 217.99400330 1.6076999903 1.6890000105
 2871.9780273  -999.250000 12.099599838 12.250000954 95.013122559  -999.250000 9.8345003128 0.3000999987  -999.250000  -999.250000 68.173446655 1.7949999571 100.18399811 217.30799866 1.6069999933 1.6970000267
 2872.1303711  -999.250000 12.109000206 12.250000954 105.77428436  -999.250000 9.5237998962 0.2937000096  -999.250000  -999.250000 64.088043213 2.0134000778 100.07199860 215.15800476 1.5965000391 1.7000000477
 2872.2829590  -999.250000 12.119099617 12.250000954 108.82545471  -999.250000 8.9160995483 0.2962000072  -999.250000  -999.250000 62.874031067 2.1356000900 99.995002747 214.28300476 1.6024999619 1.7089999914
 2872.4353027  -999.250000 12.131500244 12.250000954 114.92781830  -999.250000 8.1175003052 0.2966000140  -999.250000  -999.250000 64.133888245 2.1305999756 99.931999207 214.28399658 1.5687999725 1.6909999847
 2872.5876465  -999.250000 12.146599770 12.250000954 116.17453003  -999.250000 7.3586001396 0.2946000099  -999.250000  -999.250000 66.559165955 1.9594999552 99.970001221 215.04100037 1.5522999763 1.6469999552
 2872.7399902  -999.250000 12.157299995 12.250000954 118.70078278  -999.250000 6.9194998741 0.3059000075  -999.250000  -999.250000 66.043159485 1.6871000528 100.25099945 217.57499695 1.5176999569 1.5939999819
 2872.8925781  -999.250000 12.158301353 12.250000954 117.65092468  -999.250000 7.0005002022 0.3292999864  -999.250000  -999.250000 68.012756348 1.4940999746 100.45600891 218.78300476 1.5073000193 1.5750000477
 2873.0449219  -999.250000 12.154200554 12.250000954 115.58399200  -999.250000 7.4177999496 0.3449000120  -999.250000  -999.250000 68.867698669 1.5105999708 101.03399658 220.25599670 1.4860999584 1.5379999876
 2873.1972656  -999.250000 12.155799866 12.250000954 114.66535950  -999.250000 7.9738001823 0.3416999876  -999.250000  -999.250000 67.435592651 1.6928000450 101.38999939 220.67100525 1.4790999889 1.5249999762
 2873.3496094  -999.250000 12.168799400 12.250000954 112.76246643  -999.250000 8.6912002563 0.3404000103  -999.250000  -999.250000 70.916793823 1.8889000416 102.26999664 220.98300171 1.4434000254 1.4670000076
 2873.5021973  -999.250000 12.187400818 12.250000954 111.71259308  -999.250000 9.2952995300 0.3537999988  -999.250000  -999.250000 68.907356262 2.0271000862 102.73699951 221.04800415 1.4254000187 1.4259999990
 2873.6545410  -999.250000 12.203800201 12.250000954 109.61286163  -999.250000 9.4505996704 0.3659999967  -999.250000  -999.250000 64.970512390 2.1045999527 103.53399658 221.02099609 1.4247000217 1.4299999475
 2873.8068848  -999.250000 12.218400002 12.250000954 109.21916199  -999.250000 9.3311996460 0.3612999916  -999.250000  -999.250000 65.297500610 2.0840001106 103.84500122 220.98500061 1.4304000139 1.4450000525
 2873.9592285  -999.250000 12.228300095 12.250000954 108.46456909  -999.250000 9.2582998276 0.3454999924  -999.250000  -999.250000 69.969039917 1.9402000904 104.09200287 220.96299744 1.4467999935 1.4730000496
 2874.1115723  -999.250000 12.225000381 12.250000954 109.28478241  -999.250000 9.1746997833 0.3226999938  -999.250000  -999.250000 69.366661072 1.7847000360 104.10299683 220.98599243 1.4493999481 1.4789999723
 2874.2641602  -999.250000 12.212699890 12.250000954 110.89238739  -999.250000 9.0186996460 0.2964999974  -999.250000  -999.250000 67.286155701 1.7265000343 103.83399963 221.11300659 1.4538999796 1.4789999723
 2874.4165039  -999.250000 12.203800201 12.250000954 111.64698029  -999.250000 8.8633003235 0.2890000045  -999.250000  -999.250000 71.119903564 1.7287000418 103.63199615 221.18800354 1.4544999599 1.4839999676
 2874.5688477  -999.250000 12.204999924 12.250000954 113.18898010  -999.250000 8.6585998535 0.3059999943  -999.250000  -999.250000 71.060417175 1.7578999996 103.17500305 221.28900146 1.4584000111 1.4769999981
 2874.7211914  -999.250000 12.215600014 12.250000954 116.01050568  -999.250000 8.2468004227 0.3350999951  -999.250000  -999.250000 71.313285828 1.8645000458 102.95999908 221.30099487 1.4513000250 1.4600000381
 2874.8737793  -999.250000 12.229800224 12.250000954 121.62072754  -999.250000 7.7067999840 0.3569999933  -999.250000  -999.250000 67.124588013 2.0460999012 102.66200256 221.13600159 1.4500000477 1.4720000029
 2875.0261230  -999.250000 12.239000320 12.250000954 123.45800781  -999.250000 7.3838000298 0.3621999919  -999.250000  -999.250000 65.445564270 2.2218999863 102.57399750 220.78500366 1.4821000099 1.5369999409
 2875.1784668  -999.250000 12.238800049 12.250000954 124.37663269  -999.250000 7.4341998100 0.3556999862  -999.250000  -999.250000 68.915740967 2.3510000706 102.58100128 220.60200500 1.4881000519 1.5399999619
 2875.3308105  -999.250000 12.227199554 12.250000954 122.14566803  -999.250000 7.8406000137 0.3486000001  -999.250000  -999.250000 72.483505249 2.4305999279 102.54799652 220.36000061 1.4954999685 1.5509999990
 2875.4833984  -999.250000 12.207200050 12.250000954 121.03017426  -999.250000 8.3345003128 0.3465000093  -999.250000  -999.250000 68.445922852 2.4568998814 102.44699860 220.30999756 1.4915000200 1.5390000343
 2875.6357422  -999.250000 12.194800377 12.250000954 115.71523285  -999.250000 8.5396995544 0.3434999883  -999.250000  -999.250000 70.288337708 2.4379000664 101.99400330 220.32499695 1.4747999907 1.5190000534
 2875.7880859  -999.250000 12.188799858 12.250000954 113.05773926  -999.250000 8.6136999130 0.3366000056  -999.250000  -999.250000 69.249214172 2.3826000690 101.71700287 220.34300232 1.4735000134 1.5399999619
 2875.9404297  -999.250000 12.188799858 12.250000954 109.15354919  -999.250000 8.4884996414 0.3222000003  -999.250000  -999.250000 68.760246277 2.2711999416 101.24300385 220.40501404 1.4740999937 1.5160000324
 2876.0930176  -999.250000 12.188300133 12.250000954 107.21784973  -999.250000 8.1934995651 0.3061999977  -999.250000  -999.250000 68.908309937 2.1828000546 101.11199951 220.49897766 1.4578000307 1.4850000143
