# LAS format log file from PETREL
# Project units are specified as depth units
#==================================================================
~Version information
VERS.   2.0:
WRAP.   NO:
#==================================================================
~Well
STRT .m      3400.0439453 :
STOP .m      3961.3330078 :
STEP .m     0.00000000 :
NULL .        -999.250000 :
COMP.           : COMPANY
WELL.  33/6-2   : WELL
FLD.            : FIELD
LOC.            : LOCATION
SRVC.           : SERVICE COMPANY
DATE.  2018-09-11 14:48:41   : Log Export Date {yyyy-MM-dd HH:mm:ss}
PROV.           : PROVINCE
UWI.   33/6-2   : UNIQUE WELL ID
API.            : API NUMBER
#==================================================================
~Curve
DEPT .m                   : DEPTH
Lithology_geolink ._      : Lithology_geolink
NPHI .m3/m3               : NPHI
RHOB .g/cm3               : RHOB
GR .gAPI                  : GR
DTC .us/ft                : DTC
RDEP .ohm.m               : RDEP
RSHA .ohm.m               : RSHA
RMED .ohm.m               : RMED
~Parameter
#==================================================================
~Ascii
# ...
 3659.1237793 1.0000000000 0.1659099907 2.3789391518 69.783996582 79.997032166 4.1821279526 0.9834169745 2.3173887730
 3659.2763672 1.0000000000 0.1628900021 2.3959727287 76.097000122 79.986015320 4.7970156670 1.0808439255 2.5835738182
 3659.4287109 1.0000000000 0.1565899998 2.4189629555 76.111000061 79.976013184 5.4429645538 1.1828365326 2.8365943432
 3659.5810547 1.0000000000 0.1699299961 2.4120111465 72.679000854 79.966018677 5.5827775002 1.2129520178 2.8260176182
 3659.7333984 1.0000000000 0.1795199960 2.3940577507 70.456001282 79.955032349 4.6021490097 1.1571791172 2.5299503803
 3659.8859863 1.0000000000 0.1782099903 2.3840160370 67.792999268 79.945014954 3.6804742813 1.1130706072 2.2734103203
 3660.0383301 1.0000000000 0.1713400036 2.3979775906 72.851997375 79.934013367 3.5741682053 1.1629198790 2.2739982605
 3660.1906738 1.0000000000 0.1599799991 2.4219615459 79.178001404 79.924018860 4.5065031052 1.3646762371 2.6474006176
 3660.3430176 1.0000000000 0.1599999964 2.4479582310 82.239997864 79.914024353 6.3859853745 1.7324103117 3.4057836533
 3660.4953613 2.0000000000 0.1640699953 2.4679360390 81.521003723 79.903038025 6.7827358246 2.0679247379 3.9462687969
 3660.6479492 2.0000000000 0.1687899977 2.4709951878 76.476997375 79.893013000 5.8704662323 2.0879695415 3.7563078403
 3660.8002930 2.0000000000 0.1703300029 2.4709999561 74.972999573 79.883018494 5.9378895760 1.9112836123 3.4245321751
 3660.9526367 2.0000000000 0.1667300016 2.4650094509 73.856002808 79.872016907 6.5120787621 1.6783733368 3.0835464001
 3661.1049805 2.0000000000 0.1689299941 2.4490511417 73.467002869 79.862030029 5.6786785126 1.4287999868 2.5945680141
 3661.2575684 2.0000000000 0.1737100035 2.4230418205 73.553001404 79.851013184 4.2952165604 1.2492867708 2.2036249638
 3661.4099121 1.0000000000 0.1768999994 2.4030320644 73.153999329 79.841026306 3.5661666393 1.1681298018 2.0292789936
 3661.5622559 1.0000000000 0.1700000018 2.4010031223 71.762001038 79.831016541 3.4601683617 1.1520255804 2.0110287666
 3661.7145996 1.0000000000 0.1657200009 2.3980095387 71.936996460 79.820037842 3.7749888897 1.1599743366 2.0618367195
 3661.8671875 1.0000000000 0.1705500036 2.4059870243 70.594001770 79.810012817 4.0535545349 1.1669888496 2.0799710751
 3662.0195313 1.0000000000 0.1777499914 2.4050016403 70.842002869 79.800018311 3.7484903336 1.1709935665 2.0250883102
 3662.1718750 1.0000000000 0.1766799986 2.4109904766 69.834999084 79.789016724 3.2817482948 1.1879726648 1.9810705185
 3662.3242188 1.0000000000 0.1800900102 2.4149935246 70.379997253 79.779014587 3.4567179680 1.2618813515 2.0818381310
 3662.4765625 1.0000000000 0.1764100045 2.4389231205 72.367996216 79.768035889 5.2193422318 1.5092064142 2.5106241703
 3662.6291504 1.0000000000 0.1810300052 2.4849262238 79.202003479 79.758018494 11.181439400 2.1469776630 3.5603172779
 3662.7814941 4.0000000000 0.1771599948 2.5239374638 85.575996399 79.748008728 14.656436920 3.3011491299 5.0785655975
 3662.9338379 4.0000000000 0.1865399927 2.5419712067 89.537002563 79.737014771 9.3734884262 4.1186904907 5.4813570976
 3663.0861816 4.0000000000 0.1991500109 2.5330288410 84.443000793 79.727027893 6.6875948906 3.8030176163 4.6287393570
 3663.2387695 4.0000000000 0.1896200031 2.5230159760 79.413002014 79.717018127 6.3844723701 3.2498862743 3.9990062714
 3663.3911133 4.0000000000 0.1800000072 2.5279920101 77.936996460 79.706016541 6.9081587791 2.8566298485 3.8222820759
 3663.5434570 4.0000000000 0.1627400070 2.5180158615 77.316001892 79.696014404 6.7692246437 2.4716169834 3.6612579823
 3663.6958008 2.0000000000 0.1777899861 2.5110223293 79.684997559 79.686027527 6.0742301941 1.9965232611 3.2602865696
 3663.8483887 2.0000000000 0.1795000136 2.4990193844 75.459999084 79.675025940 4.9657759666 1.5427260399 2.6699454784
 3664.0007324 2.0000000000 0.1870499998 2.4660530090 73.845001221 79.665016174 3.8408029079 1.2444775105 2.1907677650
 3664.1530762 2.0000000000 0.1808000058 2.4340512753 70.119003296 79.654014587 3.2798974514 1.1002308130 1.9493862391
 3664.3054199 1.0000000000 0.1797999889 2.4240159988 67.759002686 79.644012451 3.2879858017 1.0440897942 1.8861010075
 3664.4580078 1.0000000000 0.1757799983 2.4180095196 63.981998444 79.634017944 3.5296127796 1.0070592165 1.8899935484
 3664.6103516 1.0000000000 0.1665699929 2.4100129604 64.669998169 79.623016357 3.5799198151 0.9659578800 1.9009823799
 3664.7626953 1.0000000000 0.1601999998 2.4080030918 66.634002686 79.613014221 3.3913028240 0.9465211034 1.9379407167
 3664.9150391 1.0000000000 0.1585199982 2.4050047398 70.882003784 79.603012085 3.1803381443 0.9608898759 1.9889181852
 3665.0673828 1.0000000000 0.1644099951 2.4189550877 72.261001587 79.592041016 3.2697119713 1.0208077431 2.1036319733
 3665.2199707 1.0000000000 0.1708000004 2.4369711876 75.638999939 79.582008362 4.0866889954 1.1467980146 2.4564342499
 3665.3723145 2.0000000000 0.1715399921 2.4469840527 77.222000122 79.571014404 5.5336794853 1.2817835808 2.9601922035
 3665.5246582 2.0000000000 0.1729700118 2.4420080185 73.619003296 79.561012268 5.6208634377 1.3109534979 3.0418703556
 3665.6770020 2.0000000000 0.1729899943 2.4310352802 72.127998352 79.551033020 4.8155856133 1.2731215954 2.7898097038
 3665.8295898 2.0000000000 0.1807900071 2.4290030003 68.221000671 79.540016174 4.4995031357 1.2400529385 2.6032979488
 3665.9819336 2.0000000000 0.1888800114 2.4230096340 68.161003113 79.530014038 4.1715254784 1.1890817881 2.4252851009
 3666.1342773 2.0000000000 0.1956599951 2.4279918671 69.153999329 79.520011902 3.7187259197 1.1330897808 2.2612626553
 3666.2866211 2.0000000000 0.1920800060 2.4309904575 72.386001587 79.509033203 3.7469072342 1.1399775743 2.2699711323
 3666.4392090 2.0000000000 0.1903100014 2.4339952469 73.996002197 79.499015808 4.5197596550 1.2198718786 2.4576985836
 3666.5915527 2.0000000000 0.1884099990 2.4260129929 74.134002686 79.489006042 5.2288637161 1.2759102583 2.5808029175
 3666.7438965 2.0000000000 0.1867200136 2.4230048656 73.106002808 79.478012085 4.5980143547 1.2300736904 2.4532051086
 3666.8962402 1.0000000000 0.1808300018 2.4100208282 72.922996521 79.468017578 3.8382177353 1.1441378593 2.2513237000
 3667.0485840 1.0000000000 0.1743399948 2.4060127735 69.555000305 79.457038879 3.6147136688 1.0871824026 2.1234095097
 3667.2011719 1.0000000000 0.1714299917 2.3870306015 66.082000732 79.447013855 3.6968669891 1.0600432158 2.0491185188
 3667.3535156 1.0000000000 0.1688999981 2.3790128231 63.846000671 79.437011719 3.8886921406 1.0580031872 2.0100624561
 3667.5058594 1.0000000000 0.1687899977 2.3720111847 62.105998993 79.426017761 4.0617227554 1.0859551430 2.0139935017
 3667.6582031 1.0000000000 0.1745200008 2.3779807091 61.185001373 79.416023254 4.0101666451 1.1268687248 2.0389199257
 3667.8107910 1.0000000000 0.1789299995 2.3859870434 60.761001587 79.406013489 3.8023333549 1.1649390459 2.0539758205
 3667.9631348 1.0000000000 0.1804999858 2.3989791870 58.715000153 79.395011902 3.6632227898 1.2129231691 2.0599904060
 3668.1154785 1.0000000000 0.1771200001 2.4039919376 61.377998352 79.385017395 3.7738220692 1.3218253851 2.1338815689
 3668.2678223 1.0000000000 0.1605499983 2.4249327183 62.558998108 79.374038696 4.4179329872 1.5652191639 2.4091169834
 3668.4204102 1.0000000000 0.1530900002 2.4559504986 69.556999207 79.364013672 5.8766622543 1.9254230261 2.8482964039
 3668.5727539 1.0000000000 0.1437699944 2.4869503975 68.948997498 79.354011536 6.8883795738 2.1336667538 2.9887757301
 3668.7250977 1.0000000000 0.1470299959 2.4820082188 71.546997070 79.343009949 5.7418427467 2.0141923428 2.7084503174
 3668.8774414 1.0000000000 0.1439799964 2.4630305767 67.699996948 79.333015442 4.3242726326 1.7953509092 2.3905096054
 3669.0297852 1.0000000000 0.1502000093 2.4380800724 71.551002502 79.323028564 3.6700928211 1.6813647747 2.2384862900
 3669.1823730 1.0000000000 0.1551599950 2.4250206947 69.029998779 79.312011719 3.6799807549 1.7049615383 2.3158750534
 3669.3347168 1.0000000000 0.1542699933 2.4120206833 68.421997070 79.302024841 4.1552371979 1.8138253689 2.6105272770
