# LAS format log file from PETREL
# Project units are specified as depth units
#==================================================================
~Version information
VERS.   2.0:
WRAP.   NO:
#==================================================================
~Well
STRT .m      1936.1920166 :
STOP .m      3906.2648926 :
STEP .m     0.00000000 :
NULL .        -999.250000 :
COMP.           : COMPANY
WELL.  33/6-1   : WELL
FLD.            : FIELD
LOC.            : LOCATION
SRVC.           : SERVICE COMPANY
DATE.  2018-09-11 14:48:41   : Log Export Date {yyyy-MM-dd HH:mm:ss}
PROV.           : PROVINCE
UWI.   33/6-1   : UNIQUE WELL ID
API.            : API NUMBER
#==================================================================
~Curve
DEPT .m                   : DEPTH
Lithology_geolink ._      : Lithology_geolink
CALI .in                  : CALI
BS .in                    : BS
DRHO .g/cm3               : DRHO
NPHI .m3/m3               : NPHI
RHOB .g/cm3               : RHOB
GR .gAPI                  : GR
DTC .us/ft                : DTC
RDEP .ohm.m               : RDEP
SP .mV                    : SP
RSHA .ohm.m               : RSHA
RMED .ohm.m               : RMED
~Parameter
#==================================================================
~Ascii
# ...
 3764.9902344 6.0000000000 9.2229995728 8.5000000000 0.0209999997 0.3138200045 2.6960000992 88.138000488 84.931999207 3.0278270245 36.500308990 4.0054998398 4.0054998398
 3765.1425781 6.0000000000 9.2239999771 8.5000000000 0.0199999996 0.3128100038 2.6900000572 87.538002014 84.856002808 3.1259200573 36.133800507 4.0686688423 4.0686688423
 3765.2951660 6.0000000000 9.2290000916 8.5000000000 0.0209999997 0.3145900071 2.6840000153 86.693000793 84.780998230 3.2986538410 35.850406647 4.1729807854 4.1729807854
 3765.4475098 6.0000000000 9.2360000610 8.5000000000 0.0240000002 0.3204100132 2.6779999733 85.967002869 84.599998474 3.4883463383 35.844020844 4.3191733360 4.3191733360
 3765.5998535 5.0000000000 9.2379999161 8.5000000000 0.0260000005 0.3220299780 2.6760001183 85.857002258 84.341003418 3.6783461571 35.930305481 4.5377688408 4.5377688408
 3765.7521973 5.0000000000 9.2340002060 8.5000000000 0.0260000005 0.3183699846 2.6770000458 86.613998413 83.775001526 3.8680479527 36.431392670 4.8367390633 4.8367390633
 3765.9047852 5.0000000000 9.2250003815 8.5000000000 0.0230000000 0.3116999865 2.6840000153 86.830001831 82.569999695 4.0593271255 36.593040466 5.1460576057 5.1460576057
 3766.0571289 5.0000000000 9.2220001221 8.5000000000 0.0230000000 0.3052300215 2.6949999332 86.749000549 81.780998230 4.2307119370 35.984001160 5.4001350403 5.4001350403
 3766.2094727 5.0000000000 9.2290000916 8.5000000000 0.0199999996 0.2989999950 2.7090001106 87.267997742 80.625007629 4.2732310295 35.232498169 5.4942498207 5.4942498207
 3766.3618164 5.0000000000 9.2329998016 8.5000000000 0.0140000004 0.2953200042 2.7290000916 86.940002441 78.154998779 4.1378912926 35.102451324 5.3931837082 5.3931837082
 3766.5144043 5.0000000000 9.2119998932 8.5000000000 0.0049999999 0.2902700007 2.7500000000 86.221000671 75.831001282 3.9427690506 34.911693573 5.1507115364 5.1507115364
 3766.6667480 5.0000000000 9.1750001907 8.5000000000 0.0000000000 0.2854700089 2.7650001049 86.642997742 74.024002075 3.7506923676 34.578460693 4.8449039459 4.8449039459
 3766.8190918 5.0000000000 9.1569995880 8.5000000000 -0.002000000 0.2827500105 2.7690000534 86.318000793 72.450996399 3.6195001602 34.364078522 4.5271153450 4.5271153450
 3766.9714355 5.0000000000 9.1709995270 8.5000000000 -0.002000000 0.2813900113 2.7599999905 85.111999512 74.195999146 3.5150001049 34.251136780 4.2885575294 4.2885575294
 3767.1237793 5.0000000000 9.2019996643 8.5000000000 0.0020000001 0.2831400037 2.7430000305 84.791000366 77.260002136 3.4209551811 34.309711456 4.0910973549 4.0910973549
 3767.2763672 5.0000000000 9.2209997177 8.5000000000 0.0080000004 0.2921099961 2.7269999981 85.440002441 79.081001282 3.3581924438 34.666038513 4.0006923676 4.0006923676
 3767.4287109 5.0000000000 9.2250003815 8.5000000000 0.0140000004 0.2995299995 2.7100000381 85.598999023 81.083999634 3.3089423180 35.128078461 4.0421538353 4.0421538353
 3767.5810547 5.0000000000 9.2139997482 8.5000000000 0.0120000001 0.3066700101 2.6870000362 85.305999756 82.483001709 3.3187885284 35.591094971 4.1508846283 4.1508846283
 3767.7333984 5.0000000000 9.1969995499 8.5000000000 0.0089999996 0.3072200119 2.6700000763 85.607002258 82.656005859 3.3718767166 36.027908325 4.2822542191 4.2822542191
 3767.8859863 5.0000000000 9.1859998703 8.5000000000 0.0060000001 0.3031800091 2.6619999409 85.777999878 82.208000183 3.4445962906 36.067405701 4.4115190506 4.4115190506
 3768.0383301 5.0000000000 9.1820001602 8.5000000000 0.0030000000 0.2935999930 2.6559998989 85.041999817 80.978996277 3.5234808922 35.653133392 4.5003075600 4.5003075600
 3768.1906738 5.0000000000 9.1730003357 8.5000000000 0.0000000000 0.2823700011 2.6500000954 84.088996887 79.831001282 3.5436344147 35.271327972 4.4274616241 4.4274616241
 3768.3430176 5.0000000000 9.1639995575 8.5000000000 -0.003000000 0.2793399990 2.6419999599 83.953002930 79.391998291 3.5234367847 35.214061737 4.2800993919 4.2800993919
 3768.4956055 5.0000000000 9.1630001068 8.5000000000 0.0000000000 0.2821199894 2.6429998875 84.105003357 79.486999512 3.4729807377 35.322845459 4.1259617805 4.1259617805
 3768.6479492 5.0000000000 9.1630001068 8.5000000000 0.0049999999 0.2888599932 2.6589999199 84.598999023 80.205001831 3.3905961514 35.456420898 3.9719617367 3.9719617367
 3768.8002930 5.0000000000 9.1649999619 8.5000000000 0.0020000001 0.2930400074 2.6570000648 85.224998474 81.170005798 3.3007307053 35.483520508 3.8993654251 3.8993654251
 3768.9526367 5.0000000000 9.1660003662 8.5000000000 -0.002000000 0.2942599952 2.6440000534 84.890998840 82.044998169 3.2362306118 35.328060150 3.9117307663 3.9117307663
 3769.1052246 5.0000000000 9.1669998169 8.5000000000 -0.004000000 0.2953700125 2.6459999084 84.235000610 82.144996643 3.1820368767 34.949356079 3.9806561470 3.9806561470
 3769.2575684 5.0000000000 9.1680002213 8.5000000000 0.0020000001 0.2980099916 2.6640000343 84.642997742 81.988990784 3.1927692890 34.465347290 4.0663461685 4.0663461685
 3769.4099121 6.0000000000 9.1689996719 8.5000000000 0.0120000001 0.3088400066 2.6760001183 85.793998718 81.745002747 3.2332115173 34.125480652 4.1837306023 4.1837306023
 3769.5622559 6.0000000000 9.1700000763 8.5000000000 0.0130000003 0.3113600016 2.6760001183 86.900001526 82.035011292 3.3359999657 33.859096527 4.3134999275 4.3134999275
 3769.7145996 6.0000000000 9.1730003357 8.5000000000 0.0130000003 0.3086999953 2.6670000553 86.755996704 82.383003235 3.4623582363 33.593532562 4.4442753792 4.4442753792
 3769.8671875 6.0000000000 9.1780004501 8.5000000000 0.0140000004 0.3045800030 2.6640000343 85.768997192 82.236999512 3.5669999123 33.328098297 4.5754809380 4.5754809380
 3770.0195313 6.0000000000 9.1850004196 8.5000000000 0.0160000008 0.2999899983 2.6640000343 84.507003784 81.356002808 3.6621730328 33.359287262 4.7055001259 4.7055001259
 3770.1718750 5.0000000000 9.1879997253 8.5000000000 0.0199999996 0.2945899963 2.6770000458 84.149002075 80.345001221 3.7571730614 33.601268768 4.8296151161 4.8296151161
 3770.3242188 5.0000000000 9.1840000153 8.5000000000 0.0240000002 0.2881900072 2.6989998817 84.168998718 79.209999084 3.8520240784 33.894863129 4.8486461639 4.8486461639
 3770.4768066 5.0000000000 9.1750001907 8.5000000000 0.0240000002 0.2826400101 2.7190001011 84.128997803 78.343002319 3.8922498226 34.196212769 4.8087887764 4.8087887764
 3770.6291504 5.0000000000 9.1649999619 8.5000000000 0.0219999999 0.2817900181 2.7200000286 84.069999695 78.064002991 3.8066923618 34.497211456 4.7432694435 4.7432694435
 3770.7814941 5.0000000000 9.1569995880 8.5000000000 0.0189999994 0.2854500115 2.7170000076 84.246002197 78.971000671 3.6882886887 34.592250824 4.6684422493 4.6684422493
 3770.9338379 5.0000000000 9.1490001678 8.5000000000 0.0149999997 0.2900200188 2.7109999657 84.666999817 80.177001953 3.5790960789 34.318405151 4.6022691727 4.6022691727
 3771.0864258 5.0000000000 9.1429996490 8.5000000000 0.0099999998 0.2915000021 2.6849999428 84.555000305 81.472000122 3.4730350971 33.943237305 4.5392098427 4.5392098427
 3771.2387695 5.0000000000 9.1420001984 8.5000000000 0.0070000002 0.2911800146 2.6670000553 84.844001770 82.250000000 3.3719422817 33.925209045 4.4762115479 4.4762115479
 3771.3911133 6.0000000000 9.1490001678 8.5000000000 0.0049999999 0.2899700105 2.6610000134 85.438003540 82.180000305 3.3268461227 34.065250397 4.4524426460 4.4524426460
 3771.5434570 6.0000000000 9.1669998169 8.5000000000 0.0010000000 0.2893500030 2.6610000134 85.444000244 82.490997314 3.3044230938 34.172943115 4.4206156731 4.4206156731
 3771.6958008 6.0000000000 9.1840000153 8.5000000000 -0.001000000 0.2887700200 2.6600000858 86.001998901 82.892997742 3.3000831604 34.202415466 4.4386048317 4.4386048317
 3771.8483887 6.0000000000 9.1979999542 8.5000000000 -0.002000000 0.2872200012 2.6570000648 86.383003235 83.087997437 3.3460960388 34.203979492 4.5066728592 4.5066728592
 3772.0007324 6.0000000000 9.2080001831 8.5000000000 0.0000000000 0.2881200016 2.6559998989 85.652000427 82.973999023 3.4117307663 34.050998688 4.5854806900 4.5854806900
 3772.1530762 6.0000000000 9.2060003281 8.5000000000 0.0060000001 0.2917799950 2.6559998989 84.531997681 83.116996765 3.4865577221 33.598808289 4.6791925430 4.6791925430
