# LAS format log file from PETREL
# Project units are specified as depth units
#==================================================================
~Version information
VERS.   2.0:
WRAP.   NO:
#==================================================================
~Well
STRT .m      3400.0439453 :
STOP .m      3961.3330078 :
STEP .m     0.00000000 :
NULL .        -999.250000 :
COMP.           : COMPANY
WELL.  33/6-2   : WELL
FLD.            : FIELD
LOC.            : LOCATION
SRVC.           : SERVICE COMPANY
DATE.  2018-09-11 14:48:41   : Log Export Date {yyyy-MM-dd HH:mm:ss}
PROV.           : PROVINCE
UWI.   33/6-2   : UNIQUE WELL ID
API.            : API NUMBER
#==================================================================
~Curve
DEPT .m                   : DEPTH
Lithology_geolink ._      : Lithology_geolink
NPHI .m3/m3               : NPHI
RHOB .g/cm3               : RHOB
GR .gAPI                  : GR
DTC .us/ft                : DTC
RDEP .ohm.m               : RDEP
RSHA .ohm.m               : RSHA
RMED .ohm.m               : RMED
~Parameter
#==================================================================
~Ascii
# ...
 3472.5861816 7.0000000000 0.3484100103 2.3719823360 184.12500000 92.690017700 1.6869535446 3.4358942509 1.4759870768
 3472.7385254 7.0000000000 0.3361700177 2.3919360638 184.22300720 92.679039001 1.7328528166 3.4888305664 1.5098911524
 3472.8911133 7.0000000000 0.3144699931 2.4099712372 191.27999878 92.669013977 1.8058830500 3.6856844425 1.5778909922
 3473.0434570 7.0000000000 0.3050999939 2.4209823608 201.58900452 92.659019470 1.8539230824 3.9855194092 1.6359070539
 3473.1958008 7.0000000000 0.3185400069 2.4289870262 199.97200012 92.648017883 1.7731298208 3.9590432644 1.6060479879
 3473.3481445 7.0000000000 0.3147000074 2.4240081310 202.72999573 92.638015747 1.6551890373 3.6195447445 1.5241314173
 3473.5004883 7.0000000000 0.3319399953 2.4240000248 201.61000061 92.628028870 1.6430383921 3.4355888367 1.4881151915
 3473.6530762 7.0000000000 0.3184700012 2.4170112610 204.99299622 92.617012024 1.7058990002 3.5108780861 1.5039743185
 3473.8054199 7.0000000000 0.3053799868 2.4199953079 198.84300232 92.607017517 1.7329567671 3.6967020035 1.5319551229
 3473.9577637 7.0000000000 0.2911300063 2.4130113125 195.77200317 92.596015930 1.7050448656 3.8048269749 1.5389888287
 3474.1101074 7.0000000000 0.3079099953 2.4209744930 197.79299927 92.586036682 1.7020096779 3.8219456673 1.5370063782
 3474.2626953 7.0000000000 0.3222399950 2.4130129814 205.74000549 92.576011658 1.7369438410 3.9278302193 1.5529743433
 3474.4150391 7.0000000000 0.3350799978 2.4030160904 210.74400330 92.565017700 1.7539726496 4.1805949211 1.5849487782
 3474.5673828 7.0000000000 0.3288300037 2.3860270977 216.44599915 92.555015564 1.7360287905 4.4216136932 1.6069647074
 3474.7197266 7.0000000000 0.3160099983 2.3840065002 214.68800354 92.545028687 1.7429776192 4.6313281059 1.6229488850
 3474.8723145 7.0000000000 0.3114199936 2.3820030689 209.68299866 92.534004211 1.8198766708 5.0423417091 1.6689263582
 3475.0246582 7.0000000000 0.3088899851 2.3660256863 203.02600098 92.524017334 1.9557820559 5.9725079536 1.7788237333
 3475.1770020 7.0000000000 0.3092600107 2.3460319042 193.88800049 92.514015198 2.0967738628 7.9727916718 1.9497259855
 3475.3293457 7.0000000000 0.3125900030 2.3420064449 194.93899536 92.503013611 2.2048268318 11.882729530 2.1247196198
 3475.4816895 7.0000000000 0.3063400090 2.3439936638 192.27600098 92.493034363 2.3186352253 17.420242310 2.2555809021
 3475.6342773 7.0000000000 0.3159099817 2.3519871235 195.66299438 92.482017517 2.4577772617 20.095733643 2.3268861771
 3475.7866211 7.0000000000 0.3079800010 2.3709695339 188.01100159 92.472015381 2.5428638458 19.466018677 2.3419759274
 3475.9389648 7.0000000000 0.2902500033 2.4049453735 187.16000366 92.462013245 2.5180399418 21.360956192 2.3390047550
 3476.0913086 6.0000000000 0.3301199973 2.4010128975 184.72099304 92.451034546 2.4731440544 30.800704956 2.3559455872
 3476.2438965 6.0000000000 0.3060799837 2.4109840393 177.80999756 92.441017151 2.4680080414 62.599010468 2.3849534988
 3476.3962402 6.0000000000 0.2952499986 2.4299695492 165.58500671 92.431015015 2.4100930691 102.16957092 2.3800082207
 3476.5485840 6.0000000000 0.2489299923 2.4429793358 158.43299866 92.420021057 2.2242980003 60.072673798 2.2911424637
 3476.7009277 6.0000000000 0.2777700126 2.4150896072 163.52699280 92.410034180 1.9757968187 25.423017502 2.1036014557
 3476.8535156 6.0000000000 0.3081399798 2.3810546398 172.17700195 92.399017334 1.7603445053 9.8328456879 1.8663798571
 3477.0058594 6.0000000000 0.3247900009 2.3760080338 178.19799805 92.389015198 1.6441859007 5.7724771500 1.6852899790
 3477.1582031 7.0000000000 0.3136900067 2.3750016689 178.04400635 92.379013062 1.6340159178 4.5579395294 1.6131154299
 3477.3105469 7.0000000000 0.3270199895 2.3889775276 182.07099915 92.368011475 1.6399903297 4.0947403908 1.5970256329
 3477.4628906 7.0000000000 0.3353200257 2.3979711533 174.61399841 92.358032227 1.5841791630 3.6813249588 1.5531407595
 3477.6154785 7.0000000000 0.3442299962 2.4289503098 179.11799622 92.348014832 1.5041280985 3.3135881424 1.4791185856
 3477.7678223 7.0000000000 0.3751200140 2.4569551945 183.35499573 92.337013245 1.4660608768 3.1173141003 1.4250864983
 3477.9201660 7.0000000000 0.3771099746 2.4719758034 196.93600464 92.327018738 1.4699935913 3.0511059761 1.4060304165
 3478.0725098 7.0000000000 0.3814400136 2.4789776802 201.87500000 92.316040039 1.4819616079 3.0380415916 1.4060000181
 3478.2250977 7.0000000000 0.3192900121 2.4909806252 197.23800659 92.306015015 1.4919840097 3.0719454288 1.4179807901
 3478.3774414 7.0000000000 0.2702299953 2.5209517479 200.60499573 92.296012878 1.5189567804 3.1908092499 1.4519455433
 3478.5297852 7.0000000000 0.2380499989 2.5459599495 199.02400208 92.285018921 1.5828974247 3.4326121807 1.5069118738
 3478.6821289 7.0000000000 0.2430699915 2.5350353718 203.28500366 92.275032043 1.6776959896 3.7679247856 1.5468720198
 3478.8347168 7.0000000000 0.2686199844 2.5070447922 203.91499329 92.265014648 1.7428958416 3.9856522083 1.5479984283
 3478.9870605 7.0000000000 0.2939099967 2.4520881176 203.94799805 92.254020691 1.7180401087 4.0359196663 1.5470016003
 3479.1394043 7.0000000000 0.3127399981 2.4130625725 202.74899292 92.244018555 1.6790624857 4.2875962257 1.5949231386
 3479.2917480 7.0000000000 0.3256499767 2.3840465546 196.41299438 92.234016418 1.6969711781 4.8990192413 1.6748718023
 3479.4443359 7.0000000000 0.3142600060 2.3740160465 191.69000244 92.223014832 1.7289488316 5.4371395111 1.7229232788
 3479.5966797 7.0000000000 0.3202600181 2.3749983311 191.91999817 92.213012695 1.7240079641 5.4409952164 1.6990385056
 3479.7490234 7.0000000000 0.2986299992 2.3929710388 189.15499878 92.202018738 1.7100224495 5.3870863914 1.6500785351
 3479.9013672 7.0000000000 0.3144699931 2.4019856453 187.65699768 92.192016602 1.7319647074 6.0189857483 1.6490015984
 3480.0537109 7.0000000000 0.3202100098 2.4139616489 182.23399353 92.182029724 1.7728687525 7.2350988388 1.6938560009
 3480.2062988 7.0000000000 0.3230499923 2.3950304985 190.71400452 92.171012878 1.7739984989 7.7152357101 1.7189599276
 3480.3586426 7.0000000000 0.3081499934 2.3790256977 189.88200378 92.161018372 1.7670111656 7.4184780121 1.7309807539
 3480.5109863 7.0000000000 0.2947199941 2.3540401459 191.47999573 92.151016235 1.7979502678 7.2922015190 1.7599534988
 3480.6633301 7.0000000000 0.3153299987 2.3589839935 196.13400269 92.140037537 1.8348816633 7.3797183037 1.7829264402
 3480.8159180 7.0000000000 0.3203699887 2.3689839840 215.04800415 92.130012512 1.8449840546 7.6355900764 1.7919856310
 3480.9682617 7.0000000000 0.3156000078 2.3989517689 236.43899536 92.119018555 1.8689614534 7.9574842453 1.8179582357
 3481.1206055 7.0000000000 0.3277800083 2.4329454899 240.12600708 92.109016418 1.9358925819 7.9779682159 1.8659231663
 3481.2729492 7.0000000000 0.3182200193 2.4688849449 225.71400452 92.099029541 2.0775456429 8.4365272522 1.9616928101
 3481.4255371 7.0000000000 0.2954500020 2.5019471645 212.84399414 92.088005066 2.4024791718 12.186982155 2.1676697731
 3481.5778809 7.0000000000 0.2375900149 2.5209693909 202.32600403 92.078018188 2.9271585941 37.132968903 2.4735095501
 3481.7302246 7.0000000000 0.2061000019 2.5429646969 204.31300354 92.068016052 3.1706106663 45.044364929 2.6906521320
 3481.8825684 7.0000000000 0.1789399981 2.5629680157 198.50900269 92.057014465 2.6967613697 25.390565872 2.5612084866
 3482.0349121 7.0000000000 0.1673100144 2.5819392204 208.09599304 92.047035217 2.1019070148 13.196045876 2.1622800827
 3482.1875000 7.0000000000 0.1858000010 2.5879905224 216.91000366 92.036018372 1.7745225430 5.3914647102 1.7985817194
 3482.3398438 7.0000000000 0.2139900029 2.6059710979 220.26699829 92.026016235 1.7350624800 3.7695832253 1.6312676668
 3482.4921875 7.0000000000 0.2195599973 2.6000094414 194.14199829 92.016014099 1.9366762638 3.6631667614 1.6769263744
 3482.6445313 7.0000000000 0.2043499947 2.6019935608 172.68200684 92.005035400 2.2888703346 4.6857171059 1.9112479687
 3482.7971191 7.0000000000 0.1641599983 2.5840289593 145.81500244 91.995018005 2.6044952869 7.1490511894 2.1915512085
