# LAS format log file from PETREL
# Project units are specified as depth units
#==================================================================
~Version information
VERS.   2.0:
WRAP.   NO:
#==================================================================
~Well
STRT .m      2483.9675293 :
STOP .m      4422.1909180 :
STEP .m     0.00000000 :
NULL .        -999.250000 :
COMP.           : COMPANY
WELL.  33/6-3 S   : WELL
FLD.            : FIELD
LOC.            : LOCATION
SRVC.           : SERVICE COMPANY
DATE.  2018-09-11 14:48:41   : Log Export Date {yyyy-MM-dd HH:mm:ss}
PROV.           : PROVINCE
UWI.   33/6-3 S   : UNIQUE WELL ID
API.            : API NUMBER
#==================================================================
~Curve
DEPT .m                   : DEPTH
Lithology_geolink ._      : Lithology_geolink
CALI .in                  : CALI
BS .in                    : BS
ROP .m/h                  : ROP
DRHO .g/cm3               : DRHO
THOR .ppm                 : THOR
NPHI .m3/m3               : NPHI
RHOB .g/cm3               : RHOB
PEF .b/e                  : PEF
GR .gAPI                  : GR
URAN .ppm                 : URAN
DTC .us/ft                : DTC
DTS .us/ft                : DTS
RDEP .ohm.m               : RDEP
RMED .ohm.m               : RMED
~Parameter
#==================================================================
~Ascii
# ...
 3001.0607910  -999.250000 12.080400467 12.250000954 80.675857544  -999.250000 8.3963003159 0.3233000040  -999.250000  -999.250000 75.389419556 2.7335999012 88.862998962 188.23699951 2.2121999264 2.3359999657
 3001.2131348  -999.250000 12.079700470 12.250000954 83.038055420  -999.250000 9.9103002548 0.3231000006  -999.250000  -999.250000 75.022209167 2.1891000271 89.167999268 188.34599304 2.2170000076 2.3369998932
 3001.3657227  -999.250000 12.079600334 12.250000954 87.631233215  -999.250000 11.519700050 0.3160000145  -999.250000  -999.250000 70.178672791 1.5367000103 89.991996765 187.99000549 2.2302999496 2.3480000496
 3001.5180664  -999.250000 12.079998970 12.250000954 89.895011902  -999.250000 12.688099861 0.3165000081  -999.250000  -999.250000 72.875427246 0.9797000885 90.389007568 187.45700073 2.2309000492 2.3450000286
 3001.6704102  -999.250000 12.081500053 12.250000954 94.816268921  -999.250000 13.026100159 0.3276000023  -999.250000  -999.250000 70.030288696 0.6944000125 90.684997559 185.70300293 2.2321000099 2.3369998932
 3001.8227539  -999.250000 12.088199615 12.250000954 97.276901245  -999.250000 12.701899529 0.3296999931  -999.250000  -999.250000 70.217033386 0.6104000211 90.611000061 184.71200562 2.2342998981 2.3440001011
 3001.9753418  -999.250000 12.098699570 12.250000954 102.29659271  -999.250000 12.055500031 0.3197999895  -999.250000  -999.250000 74.588539124 0.6011999846 90.566001892 183.58099365 2.2658998966 2.4189999104
 3002.1276855  -999.250000 12.106599808 12.250000954 109.54724121  -999.250000 11.550700188 0.3138000071  -999.250000  -999.250000 71.017189026 0.5098999739 90.757003784 184.40298462 2.2985999584 2.5309998989
 3002.2800293  -999.250000 12.108300209 12.250000954 114.27166748  -999.250000 11.152000427 0.3131999969  -999.250000  -999.250000 69.274612427 0.3840999901 90.786003113 185.34199524 2.3139998913 2.5710000992
 3002.4323730  -999.250000 12.107099533 12.250000954 119.35695648  -999.250000 10.550900459 0.3070999980  -999.250000  -999.250000 72.147758484 0.3589999974 90.222000122 188.08399963 2.3217000961 2.5969998837
 3002.5849609  -999.250000 12.105401039 12.250000954 119.68503571  -999.250000 9.7360000610 0.2976999879  -999.250000  -999.250000 70.753234863 0.3955000043 89.808998108 189.60400391 2.2922999859 2.5360000134
 3002.7373047  -999.250000 12.103899956 12.250000954 120.50525665  -999.250000 8.8353004456 0.2921999991  -999.250000  -999.250000 71.754364014 0.5275999904 89.482994080 193.00900269 2.2683999538 2.4340000153
 3002.8896484  -999.250000 12.101699829 12.250000954 120.99738312  -999.250000 7.8541998863 0.2933000028  -999.250000  -999.250000 68.237083435 0.8158000112 89.640998840 194.71800232 2.2871999741 2.4890000820
 3003.0419922  -999.250000 12.101600647 12.250000954 119.42257690  -999.250000 6.9938001633 0.3046999872  -999.250000  -999.250000 66.419631958 1.1268999577 90.992996216 196.69799805 2.3512001038 2.7030000687
 3003.1943359  -999.250000 12.106399536 12.250000954 117.35564423  -999.250000 6.5992999077 0.3203000128  -999.250000  -999.250000 66.185722351 1.3064999580 91.858001709 196.94998169 2.3919000626 2.7939999104
 3003.3469238  -999.250000 12.115899086 12.250000954 107.21784973  -999.250000 6.6401000023 0.3160000145  -999.250000  -999.250000 63.532798767 1.3443000317 93.406997681 195.39997864 2.3152999878 2.5999999046
 3003.4992676  -999.250000 12.121601105 12.250000954 99.114173889  -999.250000 6.7529997826 0.3077999949  -999.250000  -999.250000 67.531517029 1.3246999979 93.979003906 194.28799438 2.2734000683 2.4639999866
 3003.6516113  -999.250000 12.130200386 12.250000954 86.056427002  -999.250000 6.9970002174 0.3028999865  -999.250000  -999.250000 74.711181641 1.2762000561 94.492996216 192.48300171 2.1954998970 2.2500000000
 3003.8039551  -999.250000 12.127900124 12.250000954 81.069549561  -999.250000 7.0178999901 0.3224000037  -999.250000  -999.250000 75.452819824 1.3621000051 94.555000305 191.81199646 2.1849000454 2.2339999676
 3003.9565430  -999.250000 12.114899635 12.250000954 79.888450623  -999.250000 6.8508000374 0.3404000103  -999.250000  -999.250000 77.205329895 1.6023000479 94.191001892 190.82099915 2.2804999352 2.4040000439
 3004.1088867  -999.250000 12.103899956 12.250000954 83.628608704  -999.250000 6.6560997963 0.3319000006  -999.250000  -999.250000 75.741653442 1.8379000425 93.807998657 190.65499878 2.1761000156 2.2300000191
 3004.2612305  -999.250000 12.109999657 12.250000954 92.979003906  -999.250000 6.5511999130 0.3043999970  -999.250000  -999.250000 70.543800354 1.9578999281 92.933998108 192.30599976 2.1907999516 2.2950000763
 3004.4135742  -999.250000 12.133600235 12.250000954 98.556434631  -999.250000 6.6584000587 0.2754000127  -999.250000  -999.250000 72.911811829 2.0039000511 92.656005859 194.09500122 2.1995999813 2.3269999027
 3004.5661621  -999.250000 12.155699730 12.250000954 99.671913147  -999.250000 7.0706000328 0.2646000087  -999.250000  -999.250000 74.034561157 2.0097999573 92.820999146 198.32299805 2.2074000835 2.3369998932
 3004.7185059  -999.250000 12.157500267 12.250000954 95.209976196  -999.250000 7.7193999290 0.2745000124  -999.250000  -999.250000 72.336326599 2.0016000271 93.165992737 200.10798645 2.2121999264 2.3429999352
 3004.8708496  -999.250000 12.141699791 12.250000954 94.553802490  -999.250000 8.3467998505 0.2867000103  -999.250000  -999.250000 70.053543091 2.0912001133 93.882003784 202.02600098 2.1849000454 2.3099999428
 3005.0231934  -999.250000 12.124600410 12.250000954 98.359580994  -999.250000 8.8893003464 0.2908000052  -999.250000  -999.250000 72.259010315 2.4019999504 94.188003540 202.19299316 2.1837000847 2.3059999943
 3005.1755371  -999.250000 12.115300179 12.250000954 98.720474243  -999.250000 9.4395999908 0.2867000103  -999.250000  -999.250000 71.642204285 2.8094999790 94.693000793 201.66799927 2.1784000397 2.3099999428
 3005.3281250  -999.250000 12.109100342 12.250000954 91.830711365  -999.250000 9.7966995239 0.2781000137  -999.250000  -999.250000 73.015411377 3.0736000538 94.976997375 200.42900085 2.1802000999 2.3210000992
 3005.4804688  -999.250000 12.101499557 12.250000954 90.715225220  -999.250000 9.7428998947 0.2786000073  -999.250000  -999.250000 70.158721924 3.1765000820 95.040000916 199.78701782 2.1789999008 2.3320000172
 3005.6328125  -999.250000 12.097800255 12.250000954 88.451438904  -999.250000 9.4388999939 0.2931999862  -999.250000  -999.250000 69.352897644 3.0866000652 95.162002563 199.01100159 2.1731998920 2.3329999447
 3005.7851563  -999.250000 12.099599838 12.250000954 91.732284546  -999.250000 9.1391000748 0.3068000078  -999.250000  -999.250000 64.936073303 2.8227999210 95.299003601 198.86000061 2.1461000443 2.2720000744
 3005.9377441  -999.250000 12.100899696 12.250000954 98.359580994  -999.250000 8.7777996063 0.3073000014  -999.250000  -999.250000 68.730148315 2.4827001095 95.806999207 199.02900696 2.0982999802 2.1949999332
 3006.0900879  -999.250000 12.098401070 12.250000954 98.884513855  -999.250000 8.2910995483 0.3136999905  -999.250000  -999.250000 71.897598267 2.1368999481 96.013999939 199.16900635 2.0711998940 2.1589999199
 3006.2424316  -999.250000 12.097200394 12.250000954 99.901580811  -999.250000 8.0097999573 0.3422999978  -999.250000  -999.250000 76.630844116 1.8343000412 95.765007019 198.52900696 2.0381000042 2.1129999161
 3006.3947754  -999.250000 12.108598709 12.250000954 98.523628235  -999.250000 8.4038000107 0.3749000132  -999.250000  -999.250000 77.152694702 1.3319000006 95.416999817 197.62699890 2.0118999481 2.0439999104
 3006.5473633  -999.250000 12.126199722 12.250000954 95.800529480  -999.250000 9.5040998459 0.3819999993  -999.250000  -999.250000 72.599426270 0.6139000058 94.024002075 193.49600220 1.9481999874 1.9589999914
 3006.6997070  -999.250000 12.131699562 12.250000954 96.850395203  -999.250000 10.565500259 0.3727000058  -999.250000  -999.250000 72.408653259 0.1565999985 93.121002197 190.89700317 1.9354000092 1.9450000525
 3006.8520508  -999.250000 12.128800392 12.250000954 98.950134277  -999.250000 11.373700142 0.3628999889  -999.250000  -999.250000 65.314598083 0.0388000011 91.121002197 186.54200745 1.9473999739 2.1240000725
