# LAS format log file from PETREL
# Project units are specified as depth units
#==================================================================
~Version information
VERS.   2.0:
WRAP.   NO:
#==================================================================
~Well
STRT .m      2483.9675293 :
STOP .m      4422.1909180 :
STEP .m     0.00000000 :
NULL .        -999.250000 :
COMP.           : COMPANY
WELL.  33/6-3 S   : WELL
FLD.            : FIELD
LOC.            : LOCATION
SRVC.           : SERVICE COMPANY
DATE.  2018-09-11 14:48:41   : Log Export Date {yyyy-MM-dd HH:mm:ss}
PROV.           : PROVINCE
UWI.   33/6-3 S   : UNIQUE WELL ID
API.            : API NUMBER
#==================================================================
~Curve
DEPT .m                   : DEPTH
Lithology_geolink ._      : Lithology_geolink
CALI .in                  : CALI
BS .in                    : BS
ROP .m/h                  : ROP
DRHO .g/cm3               : DRHO
THOR .ppm                 : THOR
NPHI .m3/m3               : NPHI
RHOB .g/cm3               : RHOB
PEF .b/e                  : PEF
GR .gAPI                  : GR
URAN .ppm                 : URAN
DTC .us/ft                : DTC
DTS .us/ft                : DTS
RDEP .ohm.m               : RDEP
RMED .ohm.m               : RMED
~Parameter
#==================================================================
~Ascii
# ...
 4160.0629883 5.0000000000 8.7370996475 8.5000000000 30.249345779 0.0054000001 7.1304998398 0.3064999878 2.6143000126 3.0757000446 92.690193176 2.7114000320 77.734703064 151.99800110 4.6199998856 4.0659999847
 4160.2153320 5.0000000000 8.7358999252 8.5000000000 30.708662033 0.0027000001 7.1477999687 0.2897999883 2.6173000336 3.1728999615 95.849456787 2.9277999401 77.450401306 153.71890259 4.5859999657 4.0590000153
 4160.3676758 5.0000000000 8.7381000519 8.5000000000 31.627298355 0.0003000000 7.2442002296 0.2809000015 2.6168000698 3.4507000446 92.562500000 3.0216999054 77.465896606 154.34370422 4.4609999657 4.0329999924
 4160.5200195 5.0000000000 8.7369003296 8.5000000000 32.644355774 -0.002000000 7.0629806519 0.2800000012 2.6098001003 3.8280999660 90.224617004 3.1867709160 77.725173950 154.68190002 4.4330000877 4.0069999695
 4160.6723633 5.0000000000 8.7356004715 8.5000000000 34.645671844 -0.004200000 6.8400154114 0.2766000032 2.6033999920 4.1556000710 88.537063599 3.0654916763 78.205955505 154.88276672 4.3200001717 3.8699998856
 4160.8247070 5.0000000000 8.7389001846 8.5000000000 31.561681747 -0.005900000 6.9792499542 0.2748999894 2.6119000912 4.2493000031 84.500000000 2.7901840210 79.116477966 157.74699402 4.3029999733 3.8789999485
 4160.9770508 5.0000000000 8.7445001602 8.5000000000 29.986879349 -0.009100000 7.2909989357 0.2856000066 2.6403999329 4.0500998497 84.599998474 2.5697062016 80.559867859 161.15736389 4.3060002327 3.8819999695
 4161.1293945 5.0000000000 8.7479000092 8.5000000000 36.712596893 -0.017899999 7.5868520737 0.2998999953 2.6745998859 3.8127999306 90.010002136 2.4691212177 82.289451599 166.45489502 4.2709999084 3.7449998856
 4161.2822266 5.0000000000 8.7488002777 8.5000000000 40.091865540 -0.032200001 7.9175996780 0.3098999858 2.6935999393 3.8175001144 91.931823730 2.4212999344 84.137100220 168.06428528 4.2919998169 3.7420001030
 4161.4345703 5.0000000000 8.7500000000 8.5000000000 53.313648224 -0.045299999 8.0179996490 0.3172000051 2.6916000843 4.0072999001 95.602722168 2.4161000252 86.210296631 169.80110168 4.4239997864 3.8800001144
 4161.5869141 5.0000000000 8.7495002747 8.5000000000 59.908138275 -0.050200000 8.0251998901 0.3213000000 2.6796998978 4.1290001869 93.338333130 2.4477000237 88.391197205 170.33030701 4.5079998970 3.9760000706
 4161.7392578 5.0000000000 8.7454004288 8.5000000000 47.276901245 -0.046799999 7.8758001328 0.3208999932 2.6742999554 4.0496997833 92.817596436 2.5504999161 89.949607849 170.66630554 4.7649998665 4.2490000725
 4161.8916016 5.0000000000 8.7435998917 8.5000000000 40.944881439 -0.041900001 7.4842548370 0.3142000139 2.6807000637 3.7788000107 92.083686829 2.5218918324 89.666801453 170.77655029 4.8579998016 4.3480000496
 4162.0439453 5.0000000000 8.7482995987 8.5000000000 39.763778687 -0.041999999 7.2898211479 0.3039999902 2.6891999245 3.4144001007 96.340728760 2.3627116680 86.869987488 169.69247437 4.9310002327 4.4380002022
 4162.1962891 5.0000000000 8.7550001144 8.5000000000 39.173225403 -0.047400001 7.5680036545 0.2982000113 2.6889998913 3.1293001175 96.569999695 2.2000215054 82.589332581 169.23536682 4.9730000496 4.4840002060
 4162.3486328 5.0000000000 8.7600002289 8.5000000000 35.203411102 -0.051300000 8.0211458206 0.2939000130 2.6800999641 3.0555000305 93.989997864 2.0403118134 79.049835205 166.44099426 5.0570001602 4.7379999161
 4162.5009766 5.0000000000 8.7665996552 8.5000000000 33.202098846 -0.048300002 8.4148387909 0.2838999927 2.6652998924 3.1317999363 93.760002136 1.8703448772 77.870254517 165.16735840 5.0260000229 4.7550001144
 4162.6538086 5.0000000000 8.7770004272 8.5000000000 33.628608704 -0.039500002 8.7848997116 0.2788000107 2.6482000351 3.1768000126 90.080543518 1.7151000500 78.918197632 165.92529297 4.7950000763 4.5659999847
 4162.8061523 5.0000000000 8.7854995728 8.5000000000 33.858268738 -0.029400000 9.2195997238 0.2879999876 2.6445000172 3.0668001175 90.249458313 1.5907000303 80.721611023 166.72079468 4.6490001678 4.4079999924
 4162.9584961 5.0000000000 8.7849998474 8.5000000000 35.104988098 -0.023399999 9.6725997925 0.2960000038 2.6721999645 2.7727000713 90.081794739 1.4032000303 81.806297302 168.91670227 4.2350001335 3.9040000439
 4163.1108398 5.0000000000 8.7799997330 8.5000000000 35.728347778 -0.028300000 9.9384479523 0.2935999930 2.7234001160 2.4474000931 90.659233093 1.2783002853 81.911163330 170.16630554 4.0749998093 3.7520000935
 4163.2631836 5.0000000000 8.7784996033 8.5000000000 39.009189606 -0.048700001 10.176137924 0.2915000021 2.7555000782 2.3445999622 96.652748108 1.1421365738 81.808830261 170.35171509 3.7990000248 3.4570000172
 4163.4155273 5.0000000000 8.7800998688 8.5000000000 40.649608612 -0.074400000 10.396793365 0.2987999916 2.7421998978 2.5706000328 100.62999725 0.7302231193 82.179901123 169.95518494 3.6129999161 3.2030000687
 4163.5678711 6.0000000000 8.7811002731 8.5000000000 39.206035614 -0.085299999 9.7157917023 0.3068000078 2.7012000084 2.9783000946 101.62000275 0.1425852478 83.169128418 168.26692200 3.3859999180 2.9979999065
 4163.7202148 6.0000000000 8.7804002762 8.5000000000 38.484249115 -0.074000001 9.0338859558 0.3055000007 2.6602001190 3.2920999527 102.69999695 0.1870509535 84.377716064 169.61384583 3.3689999580 2.9920001030
 4163.8725586 6.0000000000 8.7803001404 8.5000000000 36.122047424 -0.051899999 9.0985841751 0.2971999943 2.6324000359 3.3034999371 104.13999939 0.6482176185 85.252998352 170.33609009 3.2660000324 2.9289999008
 4164.0253906 6.0000000000 8.7806997299 8.5000000000 34.416011810 -0.032499999 9.0455999374 0.2919000089 2.6280000210 3.0438001156 103.89394379 1.1233999729 85.562599182 172.25439453 3.2369999886 2.9300000668
 4164.1777344 6.0000000000  -999.250000 8.5000000000 33.891075134 -0.023100000 8.9493999481 0.2912999988 2.6493999958 2.7181999683 105.11144257 1.7285000086 85.305496216 173.54389954 3.2290000916 2.9219999313
 4164.3300781 6.0000000000  -999.250000 8.5000000000 32.185039520 -0.025800001 8.7248001099 0.2872999907 2.6812996864 2.5302000046 102.44797516 1.8817000389 84.570800781 174.07620239 3.2260000706 2.9059998989
 4164.4824219 6.0000000000  -999.250000 8.5000000000 31.036745071 -0.036899999 8.4452953339 0.2831999958 2.6988999844 2.5936000347 101.82772064 1.9627404213 83.462745667 173.13790894 3.2449998856 2.9300000668
 4164.6347656 6.0000000000  -999.250000 8.5000000000 29.954069138 -0.046399999 8.0692062378 0.2847000062 2.6909999847 2.9019000530 104.24208069 2.0285890102 82.058303833 170.79551697 3.3059999943 2.9960000515
 4164.7871094 6.0000000000  -999.250000 8.5000000000 30.019681931 -0.045800000 7.7684626579 0.2917000055 2.6638998985 3.3275001049 108.01000214 2.1858947277 80.515251160 167.20033264 3.3429999352 3.0109999180
 4164.9394531 6.0000000000  -999.250000 8.5000000000 30.314960480 -0.035399999 7.8358802795 0.3030000031 2.6314001083 3.7388000488 109.98999786 2.4138684273 79.075424194 162.77996826 3.3980000019 3.0369999409
 4165.0917969 6.0000000000  -999.250000 8.5000000000 30.544620514 -0.020400001 8.3518419266 0.3084000051 2.6047000885 4.0781002045 111.33000183 2.5454792976 77.914115906 157.97190857 3.4440000057 3.0820000172
 4165.2446289 5.0000000000  -999.250000 8.5000000000 30.577426910 -0.005000000 8.9083003998 0.3007999957 2.5852999687 4.2876000404 103.87971497 2.7037999630 77.146797180 154.56250000 3.5829999447 3.2269999981
 4165.3969727 5.0000000000  -999.250000 8.5000000000 30.347770691 0.0137999998 9.2733001709 0.2926000059 2.5768001080 4.3839998245 94.419837952 2.7550001144 77.027801514 152.93159485 3.7200000286 3.4300000668
 4165.5493164 5.0000000000  -999.250000 8.5000000000 30.577426910 0.0344999991 9.5124998093 0.2944000065 2.5782999992 4.4885001183 81.925735474 2.6514000893 77.766403198 152.31370544 4.1469998360 4.2129998207
 4165.7016602 5.0000000000  -999.250000 8.5000000000 30.971124649 0.0527000017 9.2578001022 0.3054000139 2.5840001106 4.6173000336 80.610862732 2.6709001064 79.284500122 153.70140076 4.2430000305 4.3660001755
 4165.8540039 5.0000000000  -999.250000 8.5000000000 32.808399200 0.0654999986 8.4736137390 0.3237000108 2.5880999565 4.6795997620 83.999580383 2.9554877281 81.115837097 155.86546326 4.2789998055 4.3800001144
