# LAS format log file from PETREL
# Project units are specified as depth units
#==================================================================
~Version information
VERS.   2.0:
WRAP.   NO:
#==================================================================
~Well
STRT .m      1936.1920166 :
STOP .m      3906.2648926 :
STEP .m     0.00000000 :
NULL .        -999.250000 :
COMP.           : COMPANY
WELL.  33/6-1   : WELL
FLD.            : FIELD
LOC.            : LOCATION
SRVC.           : SERVICE COMPANY
DATE.  2018-09-11 14:48:41   : Log Export Date {yyyy-MM-dd HH:mm:ss}
PROV.           : PROVINCE
UWI.   33/6-1   : UNIQUE WELL ID
API.            : API NUMBER
#==================================================================
~Curve
DEPT .m                   : DEPTH
Lithology_geolink ._      : Lithology_geolink
CALI .in                  : CALI
BS .in                    : BS
DRHO .g/cm3               : DRHO
NPHI .m3/m3               : NPHI
RHOB .g/cm3               : RHOB
GR .gAPI                  : GR
DTC .us/ft                : DTC
RDEP .ohm.m               : RDEP
SP .mV                    : SP
RSHA .ohm.m               : RSHA
RMED .ohm.m               : RMED
~Parameter
#==================================================================
~Ascii
# ...
 2455.5708008  -999.250000 14.024999619  -999.250000 0.0729711503 0.3588498831 2.4729185104 68.758758545 101.38652039 2.0651538372 27.317985535 2.0653078556 2.0653078556
 2455.7231445  -999.250000 13.979999542  -999.250000 0.0639711544 0.3629893959 2.4559264183 67.881851196 102.40518188 2.0510897636 27.143409729 2.0232691765 2.0232691765
 2455.8754883  -999.250000 14.027000427  -999.250000 0.0549711995 0.3690317273 2.4329552650 68.066085815 103.36619568 2.0579440594 26.887060165 2.0140719414 2.0140719414
 2456.0278320  -999.250000 13.982000351  -999.250000 0.0460128188 0.3726441264 2.4190576077 69.743225098 103.61096191 2.0966873169 26.630060196 2.0338397026 2.0338397026
 2456.1804199  -999.250000 13.977000237  -999.250000 0.0540224388 0.3645242751 2.4370143414 70.409477234 102.97561646 2.1427049637 26.469026566 2.0816922188 2.0816922188
 2456.3327637  -999.250000 13.967000008  -999.250000 0.0610224381 0.3488151431 2.4400527477 69.671569824 101.97766876 2.1877114773 26.429250717 2.1346602440 2.1346602440
 2456.4851074  -999.250000 13.864999771  -999.250000 0.0680224001 0.3415917456 2.4510512352 67.911605835 100.68009949 2.2317180634 26.427013397 2.1876602173 2.1876602173
 2456.6374512  -999.250000 13.897000313  -999.250000 0.0750096217 0.3421328962 2.4670288563 64.919021606 99.669136047 2.2627520561 26.425014496 2.2366080284 2.2366080284
 2456.7900391  -999.250000 13.991998672  -999.250000 0.0809679478 0.3430429995 2.4758751392 62.221256256 100.32514191 2.2659807205 26.423013687 2.2598526478 2.2598526478
 2456.9423828  -999.250000 14.173999786  -999.250000 0.0709647462 0.3457553983 2.4498608112 60.616359711 101.43815613 2.2550706863 26.420019150 2.2282049656 2.2282049656
 2457.0947266  -999.250000 14.404999733  -999.250000 0.0599999987 0.3510341942 2.4209711552 60.274429321 102.39436340 2.1963782310 26.418012619 2.1693780422 2.1693780422
 2457.2470703  -999.250000 14.522999763  -999.250000 0.0599999987 0.3554615080 2.4119999409 59.744987488 102.60568237 2.1235837936 26.503311157 2.1045200825 2.1045200825
 2457.3996582  -999.250000 14.468998909  -999.250000 0.0599775612 0.3590434492 2.4119279385 60.370349884 102.53606415 2.0514616966 26.891498566 2.0394167900 2.0394167900
 2457.5520020  -999.250000 14.437000275  -999.250000 0.0529967956 0.3577120304 2.3970143795 61.690177917 101.91983795 2.0043013096 27.254673004 1.9883269072 1.9883269072
 2457.7043457  -999.250000 14.375000000  -999.250000 0.0520000011 0.3622684181 2.4000608921 62.765319824 100.96472931 1.9990320206 27.248056412 1.9691218138 1.9691218138
 2457.8566895  -999.250000 14.140999794  -999.250000 0.0520192012 0.3586509228 2.4190318584 63.463413239 101.08815765 2.0059440136 27.202367783 1.9680080414 1.9680080414
 2458.0090332  -999.250000 14.026000023  -999.250000 0.0580160245 0.3558338881 2.4290192127 65.838600159 102.98900604 1.9901281595 27.200016022 2.0056955814 2.0056955814
 2458.1616211  -999.250000 14.055000305  -999.250000 0.0679807737 0.3601654768 2.4349951744 68.468925476 104.23807526 1.9721153975 27.198013306 2.0397820473 2.0397820473
 2458.3139648  -999.250000 14.055000305  -999.250000 0.0619711541 0.3633836806 2.4339871407 71.985404968 105.17353821 1.9441795349 27.340082169 2.0479488373 2.0479488373
 2458.4663086  -999.250000 13.963999748  -999.250000 0.0530063994 0.3645391166 2.4300353527 74.973548889 104.31824493 1.9320769310 27.612249374 2.0440256596 2.0440256596
 2458.6186523  -999.250000 13.843999863  -999.250000 0.0550016016 0.3705068827 2.4410257339 76.323272705 102.71054840 1.9240640402 27.899696350 2.0082879066 2.0082879066
 2458.7712402  -999.250000 13.739999771  -999.250000 0.0560128205 0.3758087754 2.4489903450 75.334114075 102.21262360 1.9100897312 27.983472824 1.9682564735 1.9682564735
 2458.9235840  -999.250000 13.694000244  -999.250000 0.0599967949 0.3859584332 2.4469521046 73.486824036 103.70793915 1.8911218643 27.982013702 1.9054038525 1.9054038525
 2459.0759277  -999.250000 13.717000008  -999.250000 0.0589840002 0.3960191607 2.4369359016 71.994728088 104.31774902 1.8731154203 27.928344727 1.8652564287 1.8652564287
 2459.2282715  -999.250000 13.800998688  -999.250000 0.0539967977 0.4019657373 2.4170193672 70.692749023 104.28581238 1.8680400848 27.819871902 1.8570640087 1.8570640087
 2459.3808594  -999.250000 13.890000343  -999.250000 0.0520192310 0.3975096941 2.4230337143 69.808776855 105.69374084 1.8680000305 27.574577332 1.8669358492 1.8669358492
 2459.5332031  -999.250000 13.920999527  -999.250000 0.0580256395 0.3932781816 2.4300193787 69.346054077 105.49829865 1.8650192022 27.271942139 1.8640191555 1.8640191555
 2459.6855469  -999.250000 13.876000404  -999.250000 0.0660160258 0.3866707683 2.4340224266 68.738861084 105.54555511 1.8471153975 27.094135284 1.8451218605 1.8451218605
 2459.8378906  -999.250000 13.814001083  -999.250000 0.0710351989 0.3838062882 2.4410448074 69.336364746 105.78459167 1.8261679411 27.199144363 1.8380560875 1.8380560875
 2459.9902344  -999.250000 13.765000343  -999.250000 0.0820272490 0.3857979774 2.4551024437 70.446914673 105.28198242 1.8170721531 27.377565384 1.8637915850 1.8637915850
 2460.1428223  -999.250000 13.760999680  -999.250000 0.0990128219 0.3976386189 2.4870576859 70.425025940 104.65172577 1.8140192032 27.523071289 1.8938077688 1.8938077688
 2460.2951660  -999.250000 13.798000336  -999.250000 0.1029679477 0.4035655856 2.4989583492 69.602005005 103.99068451 1.8020769358 27.560764313 1.9426858425 1.9426858425
 2460.4475098  -999.250000 13.848999977  -999.250000 0.0929392055 0.4022005498 2.4859423637 69.401702881 104.09683990 1.8000128269 27.506353378 1.9489614964 1.9489614964
 2460.5998535  -999.250000 13.857999802  -999.250000 0.0739743635 0.4054618776 2.4679582119 70.372375488 104.06026459 1.8089280128 27.387950897 1.9192399979 1.9192399979
 2460.7524414  -999.250000 13.774999619  -999.250000 0.0579326898 0.4028630555 2.4550287724 70.027931213 103.27474976 1.8239037991 27.238956451 1.8812435865 1.8812435865
 2460.9047852  -999.250000 13.611000061  -999.250000 0.0369487181 0.3889559209 2.4611151218 68.360298157 101.35631561 1.8438718319 27.163480759 1.8561601639 1.8561601639
 2461.0571289  -999.250000 13.419000626  -999.250000 0.0210896004 0.3777188361 2.4851248264 69.042839050 98.305801392 1.8698333502 27.149089813 1.8699102402 1.8699102402
 2461.2094727  -999.250000 13.468999863  -999.250000 0.0490560867 0.3711208701 2.5239517689 69.212554932 98.441925049 1.8957920074 27.146024704 1.9067039490 1.9067039490
 2461.3620605  -999.250000 13.621000290  -999.250000 0.0839679465 0.3651608825 2.5087163448 68.493133545 100.92510223 1.9218333960 27.143018723 1.9447565079 1.9447565079
 2461.5144043  -999.250000 13.565999985  -999.250000 0.0739166662 0.3612171113 2.4498655796 67.689132690 103.26373291 1.9478332996 27.096302032 1.9777884483 1.9777884483
 2461.6667480  -999.250000 13.640999794  -999.250000 0.0479871817 0.3647871315 2.4219968319 66.891494751 103.05447388 1.9817820787 27.018499374 2.0107884407 2.0107884407
 2461.8190918  -999.250000 13.621000290  -999.250000 0.0440672003 0.3700737357 2.4210834503 67.412506104 101.25406647 2.0216801167 26.891023636 2.0407598019 2.0407598019
 2461.9716797  -999.250000 13.630001068  -999.250000 0.0650865361 0.3587928116 2.4471971989 68.351074219 98.978736877 2.0508141518 26.634647369 2.0539164543 2.0539164543
 2462.1240234  -999.250000 13.633000374  -999.250000 0.0920384601 0.3594113290 2.4882447720 69.149559021 97.109169006 2.0629229546 26.367710114 2.0629422665 2.0629422665
 2462.2763672  -999.250000 13.613000870  -999.250000 0.1039871797 0.3679910600 2.5390319824 71.348541260 101.91219330 2.0629999638 26.195102692 2.0560448170 2.0560448170
 2462.4287109  -999.250000 13.613000870  -999.250000 0.0999552011 0.3714168072 2.5489039421 74.162185669 97.604690552 2.0490896702 26.175121307 2.0440769196 2.0440769196
 2462.5810547  -999.250000 13.603000641  -999.250000 0.0859679505 0.3672991097 2.5188076496 76.475059509 99.622543335 2.0232079029 26.231544495 2.0241599083 2.0241599083
 2462.7336426  -999.250000 13.551999092  -999.250000 0.0659326911 0.3639283776 2.4587788582 76.054908752 102.22496796 2.0110769272 26.298570633 1.9941922426 1.9941922426
