# LAS format log file from PETREL
# Project units are specified as depth units
#==================================================================
~Version information
VERS.   2.0:
WRAP.   NO:
#==================================================================
~Well
STRT .m      457.60995483 :
STOP .m      3127.1992188 :
STEP .m     0.00000000 :
NULL .        -999.250000 :
COMP.           : COMPANY
WELL.  33/9-1   : WELL
FLD.            : FIELD
LOC.            : LOCATION
SRVC.           : SERVICE COMPANY
DATE.  2018-09-11 14:48:42   : Log Export Date {yyyy-MM-dd HH:mm:ss}
PROV.           : PROVINCE
UWI.   33/9-1   : UNIQUE WELL ID
API.            : API NUMBER
#==================================================================
~Curve
DEPT .m                   : DEPTH
Lithology_geolink ._      : Lithology_geolink
CALI .in                  : CALI
BS .in                    : BS
DRHO .g/cm3               : DRHO
NPHI .m3/m3               : NPHI
RHOB .g/cm3               : RHOB
GR .gAPI                  : GR
DTC .us/ft                : DTC
RDEP .ohm.m               : RDEP
SP .mV                    : SP
RSHA .ohm.m               : RSHA
RMED .ohm.m               : RMED
~Parameter
#==================================================================
~Ascii
# ...
 1174.4991455  -999.250000 17.242000580  -999.250000  -999.250000  -999.250000  -999.250000 46.764945984 154.97480774 0.8580160141 52.744392395 0.9080055952 0.9080055952
 1174.6514893  -999.250000 17.142999649  -999.250000  -999.250000  -999.250000  -999.250000 43.615322113 173.52777100 0.8630120158 51.743694305 0.9150056243 0.9150056243
 1174.8039551  -999.250000 17.044000626  -999.250000  -999.250000  -999.250000  -999.250000 45.269752502 146.88192749 0.8680288196 51.362518311 0.9220048189 0.9220048189
 1174.9562988  -999.250000 16.996000290  -999.250000  -999.250000  -999.250000  -999.250000 46.361118317 149.66065979 0.8770336509 51.062236786 0.9280048013 0.9280048013
 1175.1087646  -999.250000 16.983999252  -999.250000  -999.250000  -999.250000  -999.250000 45.255382538 150.35783386 0.8910447955 51.357841492 0.9340040088 0.9340040088
 1175.2611084  -999.250000 16.985000610  -999.250000  -999.250000  -999.250000  -999.250000 41.753032684 151.55294800 0.9050264359 51.259159088 0.9390048385 0.9390048385
 1175.4135742  -999.250000 16.951000214  -999.250000  -999.250000  -999.250000  -999.250000 41.147335052 152.77320862 0.9160320163 51.358196259 0.9449943900 0.9449943900
 1175.5659180  -999.250000 16.892000198  -999.250000  -999.250000  -999.250000  -999.250000 39.487655640 153.14773560 0.9259999990 50.855697632 0.9379944205 0.9379944205
 1175.7183838  -999.250000 16.986999512  -999.250000  -999.250000  -999.250000  -999.250000 39.900257111 153.04084778 0.9259904027 50.667312622 0.9309887886 0.9309887886
 1175.8707275  -999.250000 17.082000732  -999.250000  -999.250000  -999.250000  -999.250000 42.555614471 152.36976624 0.9229871631 50.862327576 0.9239944220 0.9239944220
 1176.0231934  -999.250000 17.084999084  -999.250000  -999.250000  -999.250000  -999.250000 44.187793732 151.67375183 0.9189776182 51.067981720 0.9169936180 0.9169936180
 1176.1755371  -999.250000 17.084999084  -999.250000  -999.250000  -999.250000  -999.250000 45.303665161 150.98008728 0.9119743705 51.055511475 0.9129959941 0.9129959941
 1176.3280029  -999.250000 17.138999939  -999.250000  -999.250000  -999.250000  -999.250000 44.466648102 150.69619751 0.9039775729 50.749691010 0.9079920053 0.9079920053
 1176.4803467  -999.250000 17.183000565  -999.250000  -999.250000  -999.250000  -999.250000 41.752887726 151.06988525 0.8969871998 50.556850433 0.9030048251 0.9030048251
 1176.6326904  -999.250000 17.167999268  -999.250000  -999.250000  -999.250000  -999.250000 40.434032440 151.65573120 0.8929951787 50.465087891 0.9090015888 0.9090015888
 1176.7851563  -999.250000 17.097999573  -999.250000  -999.250000  -999.250000  -999.250000 39.230117798 151.12490845 0.8909935951 50.573139191 0.9110000134 0.9110000134
 1176.9375000  -999.250000 17.017999649  -999.250000  -999.250000  -999.250000  -999.250000 40.549209595 150.47242737 0.8889951706 50.657596588 0.9109960198 0.9109960198
 1177.0899658  -999.250000 16.954999924  -999.250000  -999.250000  -999.250000  -999.250000 40.808078766 149.81890869 0.8869743943 50.150711060 0.9059944153 0.9059944153
 1177.2423096  -999.250000 16.923999786  -999.250000  -999.250000  -999.250000  -999.250000 38.361110687 149.16667175 0.8789807558 49.968841553 0.8989959955 0.8989959955
 1177.3947754  -999.250000 16.843999863  -999.250000  -999.250000  -999.250000  -999.250000 35.938591003 148.62034607 0.8709775805 49.870464325 0.8939983845 0.8939983845
 1177.5471191  -999.250000 16.795999527  -999.250000  -999.250000  -999.250000  -999.250000 37.553207397 149.35136414 0.8639976382 50.159854889 0.8919984102 0.8919984102
 1177.6995850  -999.250000 16.801000595  -999.250000  -999.250000  -999.250000  -999.250000 38.304462433 149.90762329 0.8629999757 50.070129395 0.8899967670 0.8899967670
 1177.8519287  -999.250000 16.826999664  -999.250000  -999.250000  -999.250000  -999.250000 36.727470398 150.10319519 0.8629999757 50.150161743 0.8880016208 0.8880016208
 1178.0043945  -999.250000 16.857999802  -999.250000  -999.250000  -999.250000  -999.250000 38.892189026 150.18353271 0.8629999757 50.248218536 0.8890064359 0.8890064359
 1178.1567383  -999.250000 16.912000656  -999.250000  -999.250000  -999.250000  -999.250000 39.631568909 150.03439331 0.8629999757 49.762001038 0.8930144310 0.8930144310
 1178.3092041  -999.250000 16.909999847  -999.250000  -999.250000  -999.250000  -999.250000 38.115398407 149.84483337 0.8629999757 49.762340546 0.9020160437 0.9020160437
 1178.4615479  -999.250000 16.861000061  -999.250000  -999.250000  -999.250000  -999.250000 37.738388062 150.10943604 0.8630191684 49.973640442 0.9120095968 0.9120095968
 1178.6138916  -999.250000 16.847000122  -999.250000  -999.250000  -999.250000  -999.250000 36.732894897 150.56036377 0.8690264821 50.372989655 0.9180048108 0.9180048108
 1178.7663574  -999.250000 16.867000580  -999.250000  -999.250000  -999.250000  -999.250000 36.599761963 150.70922852 0.8800320029 50.360340118 0.9240096211 0.9240096211
 1178.9187012  -999.250000 16.902000427  -999.250000  -999.250000  -999.250000  -999.250000 36.452384949 150.46638489 0.8900312185 49.949253082 0.9300040007 0.9300040007
 1179.0711670  -999.250000 16.944999695  -999.250000  -999.250000  -999.250000  -999.250000 35.681449890 150.21520996 0.9030544162 50.261161804 0.9350128174 0.9350128174
 1179.2235107  -999.250000 17.011999130  -999.250000  -999.250000  -999.250000  -999.250000 33.466121674 150.90318298 0.9200216532 50.361274719 0.9430088401 0.9430088401
 1179.3759766  -999.250000 17.101999283  -999.250000  -999.250000  -999.250000  -999.250000 33.619983673 152.22666931 0.9290192127 50.703273773 0.9539999962 0.9539999962
 1179.5283203  -999.250000 17.153999329  -999.250000  -999.250000  -999.250000  -999.250000 35.479194641 153.05781555 0.9349783659 50.875934601 0.9539903998 0.9539903998
 1179.6807861  -999.250000 17.113000870  -999.250000  -999.250000  -999.250000  -999.250000 35.600906372 153.81100464 0.9259711504 51.459182739 0.9479839802 0.9479839802
 1179.8331299  -999.250000 17.006000519  -999.250000  -999.250000  -999.250000  -999.250000 36.171417236 154.43492126 0.9169711471 51.574638367 0.9379792213 0.9379792213
 1179.9855957  -999.250000 16.902000427  -999.250000  -999.250000  -999.250000  -999.250000 39.556179047 156.07202148 0.9079719782 51.973690033 0.9249855876 0.9249855876
 1180.1379395  -999.250000 16.674999237  -999.250000  -999.250000  -999.250000  -999.250000 43.409595490 159.51261902 0.9009839892 52.405799866 0.9159855843 0.9159855843
 1180.2904053  -999.250000 16.357000351  -999.250000  -999.250000  -999.250000  -999.250000 45.030303955 164.38320923 0.8959800005 52.906036377 0.9069983959 0.9069983959
 1180.4427490  -999.250000 16.540000916  -999.250000  -999.250000  -999.250000  -999.250000 47.092357635 166.93002319 0.8909903765 53.553028107 0.9060096145 0.9060096145
 1180.5952148  -999.250000 16.701000214  -999.250000  -999.250000  -999.250000  -999.250000 49.184886932 165.68476868 0.8880320191 53.570159912 0.9120272398 0.9120272398
 1180.7475586  -999.250000 16.784000397  -999.250000  -999.250000  -999.250000  -999.250000 48.491836548 164.05589294 0.8960224390 53.669494629 0.9290208220 0.9290208220
 1180.8999023  -999.250000 16.829000473  -999.250000  -999.250000  -999.250000  -999.250000 48.389328003 163.09275818 0.9030320048 52.729385376 0.9420079589 0.9420079589
 1181.0523682  -999.250000 17.052000046  -999.250000  -999.250000  -999.250000  -999.250000 48.798957825 163.81526184 0.9130192399 53.210258484 0.9520160556 0.9520160556
 1181.2047119  -999.250000 17.492000580  -999.250000  -999.250000  -999.250000  -999.250000 48.148536682 162.02304077 0.9189904332 53.372920990 0.9620007873 0.9620007873
 1181.3571777  -999.250000 17.533000946  -999.250000  -999.250000  -999.250000  -999.250000 47.567401886 159.53796387 0.9159904122 53.273487091 0.9629999995 0.9629999995
 1181.5095215  -999.250000 17.357999802  -999.250000  -999.250000  -999.250000  -999.250000 44.699195862 157.65689087 0.9129839540 52.955066681 0.9629936218 0.9629936218
 1181.6619873  -999.250000 17.160999298  -999.250000  -999.250000  -999.250000  -999.250000 42.325038910 158.02807617 0.9079719782 52.996223450 0.9589903951 0.9589903951
