# LAS format log file from PETREL
# Project units are specified as depth units
#==================================================================
~Version information
VERS.   2.0:
WRAP.   NO:
#==================================================================
~Well
STRT .m      1740.8350830 :
STOP .m      3359.4750977 :
STEP .m     0.00000000 :
NULL .        -999.250000 :
COMP.           : COMPANY
WELL.  33/9-6   : WELL
FLD.            : FIELD
LOC.            : LOCATION
SRVC.           : SERVICE COMPANY
DATE.  2018-09-11 14:48:43   : Log Export Date {yyyy-MM-dd HH:mm:ss}
PROV.           : PROVINCE
UWI.   33/9-6   : UNIQUE WELL ID
API.            : API NUMBER
#==================================================================
~Curve
DEPT .m                   : DEPTH
Lithology_geolink ._      : Lithology_geolink
CALI .in                  : CALI
DRHO .g/cm3               : DRHO
NPHI .m3/m3               : NPHI
RHOB .g/cm3               : RHOB
GR .gAPI                  : GR
DTC .us/ft                : DTC
RDEP .ohm.m               : RDEP
SP .mV                    : SP
RSHA .ohm.m               : RSHA
RMED .ohm.m               : RMED
~Parameter
#==================================================================
~Ascii
# ...
 3132.0944824 4.0000000000 12.631999016 -0.041999999 0.3360200226 2.4769999981 51.806999207 78.050231934 4.3289999962 58.455001831 6.5320000648 6.5320000648
 3132.2468262 4.0000000000 12.845999718 -0.032000002 0.3374899924 2.5000000000 50.761001587 77.571495056 4.5869998932 59.421001434 7.3449997902 7.3449997902
 3132.3991699 4.0000000000 12.904001236 -0.039000001 0.3448500037 2.4969999790 50.236999512 78.505455017 4.8769998550 60.383998871 8.2040004730 8.2040004730
 3132.5517578 4.0000000000 12.727001190 -0.057000000 0.3512499928 2.4649999142 51.006999969 80.041824341 5.0819997787 61.123001099 8.3500003815 8.3500003815
 3132.7041016 4.0000000000 12.723999023 -0.057000000 0.3482400179 2.4560000896 51.703998566 81.543655396 5.3140001297 61.856998444 8.3489999771 8.3489999771
 3132.8564453 4.0000000000 12.711999893 -0.052999999 0.3545800149 2.4570000172 51.723999023 81.955528259 5.5079998970 62.590003967 8.3489999771 8.3489999771
 3133.0087891 4.0000000000 12.917999268 -0.035000000 0.3643600047 2.4760000706 52.157001495 81.660003662 5.6129999161 63.307003021 8.2700004578 8.2700004578
 3133.1611328 4.0000000000 13.128999710 -0.022000000 0.3710300028 2.4860000610 54.403999329 81.659713745 5.7189998627 63.946002960 7.6420001984 7.6420001984
 3133.3137207 5.0000000000 13.201999664 -0.026000001 0.3637099862 2.4979999065 56.352001190 82.107383728 5.8239998817 64.584999084 7.2480001450 7.2480001450
 3133.4660645 5.0000000000 13.187001228 -0.030999999 0.3608000278 2.5079998970 57.412998199 82.347244263 5.8140001297 65.025001526 6.9369997978 6.9369997978
 3133.6184082 5.0000000000 13.133999825 -0.027000001 0.3787599802 2.5139999390 57.381000519 82.495399475 5.7729997635 65.134002686 6.9949998856 6.9949998856
 3133.7707520 5.0000000000 13.046999931 -0.017999999 0.3850799799 2.5239999294 56.624000549 83.365997314 5.7069997787 64.969001770 7.1510000229 7.1510000229
 3133.9233398 5.0000000000 13.048000336 -0.020000000 0.3831600249 2.5139999390 56.091999054 83.367393494 5.5100002289 64.593002319 7.1079998016 7.1079998016
 3134.0756836 5.0000000000 13.043000221 -0.023000000 0.3689799905 2.4930000305 55.778999329 83.177856445 5.3130002022 64.193000793 6.8070001602 6.8070001602
 3134.2280273 5.0000000000 13.009999275 -0.028999999 0.3613399863 2.4839999676 56.632999420 82.466362000 5.1160001755 63.762001038 6.5130000114 6.5130000114
 3134.3803711 5.0000000000 12.934999466 -0.039000001 0.3649200201 2.4479999542 56.551998138 82.066925049 4.9190001488 63.331001282 6.3090000153 6.3090000153
 3134.5329590 5.0000000000 12.838000298 -0.050000001 0.3555699885 2.4200000763 54.923999786 82.643287659 4.7340002060 62.719001770 6.2069997787 6.2069997787
 3134.6853027 5.0000000000 12.706998825 -0.041999999 0.3422700167 2.4219999313 53.838001251 83.358459473 4.5910000801 62.006999969 6.1329998970 6.1329998970
 3134.8376465 5.0000000000 12.500000000 -0.041999999 0.3448599875 2.3819999695 53.226001740 84.267509460 4.4479999542 61.408000946 5.9770002365 5.9770002365
 3134.9899902 5.0000000000 12.392999649 -0.045000002 0.3474499881 2.3529999256 52.375000000 85.207611084 4.3049998283 60.995998383 5.8140001297 5.8140001297
 3135.1425781 5.0000000000 12.378000259 -0.037999999 0.3489499986 2.3670001030 50.356998444 85.587089539 4.1620001793 61.104000092 5.5219998360 5.5219998360
 3135.2949219 5.0000000000 12.375000000 -0.045000002 0.3400400281 2.3729999065 50.375000000 85.616615295 4.1339998245 61.326999664 5.5300002098 5.5300002098
 3135.4472656 4.0000000000 12.425000191 -0.035999998 0.3311299980 2.3989999294 51.159000397 86.001518250 4.1729998589 61.729000092 5.7030000687 5.7030000687
 3135.5996094 4.0000000000 12.550999641 -0.025000000 0.3356100023 2.4270000458 52.152999878 85.703079224 4.2899999619 63.543998718 5.8649997711 5.8649997711
 3135.7519531 4.0000000000 12.720001221 -0.016000001 0.3447400033 2.4609999657 53.551998138 85.750663757 4.4470000267 65.491996765 6.1630001068 6.1630001068
 3135.9045410 4.0000000000 12.890998840 -0.024000000 0.3547600210 2.4719998837 56.921001434 86.163795471 4.6040000916 67.227996826 6.2979998589 6.2979998589
 3136.0568848 4.0000000000 12.989998817 -0.027000001 0.3716000021 2.4719998837 57.553001404 86.411285400 4.7610001564 68.698997498 6.3790001869 6.3790001869
 3136.2092285 4.0000000000 12.928999901 -0.022000000 0.3903699815 2.4809999466 56.328998566 86.587615967 4.9180002213 69.984001160 6.4099998474 6.4099998474
 3136.3615723 4.0000000000 12.904999733 -0.025000000 0.3905500174 2.4830000401 55.353000641 86.350830078 5.0749998093 71.211997986 6.4019999504 6.4019999504
 3136.5141602 4.0000000000 12.904999733 -0.020000000 0.3917599916 2.4900000095 55.810001373 85.621696472 5.2319998741 71.954002380 6.3959999084 6.3959999084
 3136.6665039 5.0000000000 12.927999496 -0.015000000 0.4019399881 2.5060000420 57.671001434 85.214996338 5.3889999390 72.695999146 6.5060000420 6.5060000420
 3136.8188477 5.0000000000 12.959000587 -0.027000001 0.3970000148 2.4960000515 58.858001709 85.213485718 5.5460000038 73.129997253 6.6950001717 6.6950001717
 3136.9711914 5.0000000000 12.994999886 -0.027000001 0.3918099999 2.4860000610 59.138000488 85.517051697 5.7030000687 73.549003601 6.8530001640 6.8530001640
 3137.1237793 5.0000000000 13.009999275 -0.017999999 0.3904800117 2.4930000305 59.460998535 86.179641724 5.8600001335 73.969001770 7.3119997978 7.3119997978
 3137.2761230 5.0000000000 13.058000565 -0.009000000 0.4025700092 2.4930000305 60.332000732 87.936439514 5.9590001106 74.412002563 7.5149998665 7.5149998665
 3137.4284668 5.0000000000 13.126999855 -0.014000000 0.4214500189 2.4969999790 60.992000580 88.835174561 5.9949998856 74.975997925 7.7670001984 7.7670001984
 3137.5808105 5.0000000000 13.125000000 -0.021000000 0.4252699912 2.5079998970 62.060001373 88.943710327 6.0300002098 75.538002014 7.8410000801 7.8410000801
 3137.7331543 5.0000000000 13.114999771 -0.023000000 0.4202999771 2.5329999924 61.971000671 88.140876770 6.0650000572 76.100997925 7.8810000420 7.8810000420
 3137.8857422 5.0000000000 13.105999947 -0.020000000 0.4148400128 2.5199999809 60.979999542 87.440650940 6.1009998322 76.664001465 8.0600004196 8.0600004196
 3138.0380859 5.0000000000 13.105999947 -0.013000000 0.4086799920 2.5190000534 60.874000549 87.642997742 6.1360001564 77.185997009 8.0109996796 8.0109996796
 3138.1904297 5.0000000000 13.086000443 -0.013000000 0.4073199928 2.5130000114 60.568000793 87.645156860 6.1040000916 77.559997559 7.7150001526 7.7150001526
 3138.3427734 5.0000000000 13.114999771 -0.017999999 0.4225199819 2.5099999905 60.631000519 87.745353699 5.8420000076 77.933998108 7.3709998131 7.3709998131
 3138.4953613 5.0000000000 13.147000313 -0.030999999 0.4396300018 2.4969999790 61.353000641 87.970603943 5.5799999237 78.308998108 7.0669999123 7.0669999123
 3138.6477051 5.0000000000 13.107000351 -0.037999999 0.4285800159 2.4960000515 62.875999451 89.405364990 5.3179998398 78.682998657 6.8400001526 6.8400001526
 3138.8000488 5.0000000000 13.107999802 -0.039999999 0.4433299899 2.4960000515 63.960998535 90.883209229 5.0580000877 79.078002930 6.7119998932 6.7119998932
 3138.9523926 5.0000000000 13.068000793 -0.041000001 0.4628200233 2.5099999905 64.669998169 92.262084961 4.8010001183 79.500000000 6.5650000572 6.5650000572
 3139.1049805 5.0000000000 13.069000244 -0.041999999 0.4740200043 2.5079998970 64.700996399 93.566047668 4.5440001488 79.921997070 6.5240001678 6.5240001678
 3139.2573242 5.0000000000 13.048999786 -0.037999999 0.4820600152 2.5060000420 64.500000000 94.830245972 4.2870001793 80.306999207 6.3750000000 6.3750000000
 3139.4096680 5.0000000000 13.029000282 -0.033000000 0.4776800275 2.5050001144 64.853996277 95.608551025 4.0300002098 80.467002869 5.7630000114 5.7630000114
 3139.5620117 5.0000000000 13.031000137 -0.027000001 0.4781499803 2.5079998970 65.258003235 96.575004578 3.7929999828 80.625999451 5.0679998398 5.0679998398
 3139.7143555 5.0000000000 12.989998817 -0.026000001 0.4824399948 2.4960000515 67.647003174 97.825614929 3.5629999638 80.763999939 4.3020000458 4.3020000458
