# LAS format log file from PETREL
# Project units are specified as depth units
#==================================================================
~Version information
VERS.   2.0:
WRAP.   NO:
#==================================================================
~Well
STRT .m      457.60995483 :
STOP .m      3127.1992188 :
STEP .m     0.00000000 :
NULL .        -999.250000 :
COMP.           : COMPANY
WELL.  33/9-1   : WELL
FLD.            : FIELD
LOC.            : LOCATION
SRVC.           : SERVICE COMPANY
DATE.  2018-09-11 14:48:42   : Log Export Date {yyyy-MM-dd HH:mm:ss}
PROV.           : PROVINCE
UWI.   33/9-1   : UNIQUE WELL ID
API.            : API NUMBER
#==================================================================
~Curve
DEPT .m                   : DEPTH
Lithology_geolink ._      : Lithology_geolink
CALI .in                  : CALI
BS .in                    : BS
DRHO .g/cm3               : DRHO
NPHI .m3/m3               : NPHI
RHOB .g/cm3               : RHOB
GR .gAPI                  : GR
DTC .us/ft                : DTC
RDEP .ohm.m               : RDEP
SP .mV                    : SP
RSHA .ohm.m               : RSHA
RMED .ohm.m               : RMED
~Parameter
#==================================================================
~Ascii
# ...
 2235.2026367  -999.250000 12.590000153  -999.250000 0.0039823721 0.3986800015 2.2659857273 45.180786133 116.35218811 1.5119807720 56.447528839 1.4240000248 1.4240000248
 2235.3549805  -999.250000 12.616000175  -999.250000 -0.007008000 0.3842431307 2.2520225048 45.049259186 118.95999908 1.4999407530 56.150856018 1.4329999685 1.4329999685
 2235.5073242  -999.250000 12.678000450  -999.250000 -0.012000000 0.3948130012 2.2350270748 45.834999084 116.46148682 1.4628846645 54.812000275 1.4329999685 1.4329999685
 2235.6596680  -999.250000 12.770999908  -999.250000 -0.021000000 0.3986039460 2.2150638103 46.888000488 113.03936005 1.3909423351 55.064998627 1.4160000086 1.4160000086
 2235.8122559  -999.250000 12.881999969  -999.250000 -0.033987183 0.3974899948 2.1940336227 46.777191162 124.48728180 1.3550416231 55.609909058 1.3960000277 1.3960000277
 2235.9645996  -999.250000 13.012000084  -999.250000 -0.025979200 0.3973302841 2.2039840221 44.403442383 128.62388611 1.3680657148 56.176494598 1.3960000277 1.3960000277
 2236.1169434  -999.250000 13.180999756  -999.250000 -0.013000000 0.3998559415 2.2239680290 43.431999207 127.30206299 1.4090433121 56.486999512 1.3969999552 1.3969999552
 2236.2692871  -999.250000 13.003001213  -999.250000 -0.005000000 0.3945984244 2.2279870510 44.123001099 124.22032928 1.4360224009 56.981998444 1.3980000019 1.3980000019
 2236.4218750  -999.250000 12.652999878  -999.250000 -0.006995193 0.3866999745 2.2210111618 45.867530823 120.67881775 1.4500511885 56.583217621 1.4110000134 1.4110000134
 2236.5742188  -999.250000 12.529998779  -999.250000 -0.004019231 0.3784700036 2.2200016975 46.197078705 117.19165039 1.4660432339 56.095256805 1.4120335579 1.4120335579
 2236.7265625  -999.250000 12.542999268  -999.250000 -0.015984001 0.3747959137 2.2160065174 45.621574402 115.10774994 1.4930112362 55.630741119 1.4330111742 1.4330111742
 2236.8789063  -999.250000 12.626999855  -999.250000 -0.006000000 0.3710659742 2.2369327545 45.354000092 116.81621552 1.4999823570 55.470001221 1.4400000572 1.4400000572
 2237.0314941  -999.250000 12.785000801  -999.250000 0.0170016028 0.3742900193 2.2639999390 43.809997559 113.83670044 1.4889488220 55.888313293 1.4449936152 1.4449936152
 2237.1838379  -999.250000 12.861000061  -999.250000 0.0179855768 0.3731999993 2.2590000629 43.809612274 113.43624878 1.4730080366 56.705879211 1.4410015345 1.4410015345
 2237.3361816  -999.250000 12.762000084  -999.250000 0.0089855995 0.3808377385 2.2410287857 44.819572449 115.46260834 1.4780112505 56.629951477 1.4420000315 1.4420000315
 2237.4885254  -999.250000 12.671999931  -999.250000 0.0000000000 0.3869901299 2.2429969311 47.673999786 115.83316803 1.4850128889 55.974998474 1.4420000315 1.4420000315
 2237.6408691  -999.250000 12.678999901  -999.250000 -0.002000000 0.3679605424 2.2360112667 49.000000000 114.06828308 1.4930256605 54.860000610 1.4429999590 1.4429999590
 2237.7934570  -999.250000 12.687999725  -999.250000 -0.001001603 0.3580400050 2.2490000725 49.263690948 112.37633514 1.5090544224 54.294338226 1.4440224171 1.4440224171
 2237.9458008  -999.250000 12.696000099  -999.250000 -0.002004800 0.3504920900 2.2559888363 47.827987671 113.82848358 1.5430320501 53.882938385 1.4580014944 1.4580014944
 2238.0981445  -999.250000 12.715000153  -999.250000 -0.005000000 0.3555418551 2.2480127811 49.069000244 111.64081573 1.5629711151 53.846000671 1.4589999914 1.4589999914
 2238.2504883  -999.250000 12.743999481  -999.250000 -0.007000000 0.3713945746 2.2400128841 48.019001007 113.39490509 1.5449454784 55.748001099 1.4709999561 1.4709999561
 2238.4030762  -999.250000 12.777999878  -999.250000 -0.001987180 0.3833100200 2.2509999275 46.816337585 114.58150482 1.5109008551 55.692848206 1.4730015993 1.4730015993
 2238.5554199  -999.250000 12.765999794  -999.250000 0.0060128001 0.3768900037 2.2579998970 48.269695282 114.42797852 1.4799696207 54.976459503 1.4739823341 1.4739823341
 2238.7077637  -999.250000 12.718999863  -999.250000 0.0140000004 0.3690724969 2.2659871578 45.584999084 113.79325867 1.4609711170 55.262001038 1.4630000591 1.4630000591
 2238.8601074  -999.250000 12.881999969  -999.250000 0.0080000004 0.3989420235 2.2600095272 46.548000336 113.95807648 1.4430208206 54.650001526 1.4490000010 1.4490000010
 2239.0126953  -999.250000 13.071998596  -999.250000 -0.000009615 0.3900800049 2.2479999065 47.588741302 115.25388336 1.4560351372 53.296062469 1.4490015507 1.4490015507
 2239.1650391  -999.250000 13.109999657  -999.250000 -0.005991987 0.3767699897 2.2520000935 43.690563202 115.52711487 1.4669582844 53.337974548 1.4499808550 1.4499808550
 2239.3173828  -999.250000 12.991999626  -999.250000 -0.000990400 0.3857655525 2.2470080853 44.669162750 114.35237885 1.4409711361 55.195377350 1.4379792213 1.4379792213
 2239.4697266  -999.250000 12.819001198  -999.250000 0.0049999999 0.3976509273 2.2629742622 47.888999939 115.83644867 1.4230079651 57.300998688 1.4249999523 1.4249999523
 2239.6223145  -999.250000 12.666000366  -999.250000 0.0120240385 0.3992399871 2.2790000439 49.522090912 116.11101532 1.4280704260 57.544551849 1.4129807949 1.4129807949
 2239.7746582  -999.250000 12.645001411  -999.250000 0.0270048082 0.3843600154 2.2929999828 50.201919556 113.93517303 1.4500353336 57.265838623 1.4010015726 1.4010015726
 2239.9270020  -999.250000 12.755999565  -999.250000 0.0299839992 0.3901806772 2.2840142250 50.148540497 113.42546844 1.4720352888 56.542301178 1.4020206928 1.4020206928
 2240.0793457  -999.250000 12.798998833  -999.250000 0.0199999996 0.3871748149 2.2690241337 47.367000580 114.33865356 1.4940143824 55.483001709 1.4149999619 1.4149999619
 2240.2316895  -999.250000 12.798998833  -999.250000 0.0109999999 0.3827171624 2.2680015564 47.491001129 113.49941254 1.5030080080 55.506999969 1.4299999475 1.4299999475
 2240.3842773  -999.250000 12.788000107  -999.250000 0.0010112179 0.3456700146 2.2679998875 49.728710175 112.50413513 1.5080000162 57.044994354 1.4560191631 1.4560191631
 2240.5366211  -999.250000 12.748999596  -999.250000 0.0080256006 0.3497834206 2.2759871483 49.547832489 112.23531342 1.5080208778 59.530838013 1.4679824114 1.4679824114
 2240.6889648  -999.250000 12.668000221  -999.250000 0.0240000002 0.3650854528 2.2889792919 49.442001343 112.42725372 1.5210433006 58.181999207 1.4570000172 1.4570000172
 2240.8413086  -999.250000 12.602999687  -999.250000 0.0140000004 0.3781191111 2.2770192623 49.832000732 110.71559143 1.5480159521 57.840000153 1.4609999657 1.4609999657
 2240.9938965  -999.250000 12.607000351  -999.250000 0.0079935901 0.3742499948 2.2660000324 51.417793274 111.70645142 1.5579807758 57.466041565 1.4720448256 1.4720448256
 2241.1462402  -999.250000 12.621998787  -999.250000 0.0040032053 0.3831200004 2.2569999695 50.046665192 110.91105652 1.5519407988 56.244956970 1.5000015497 1.5000015497
 2241.2985840  -999.250000 12.607000351  -999.250000 0.0060160002 0.3748033345 2.2649872303 52.328838348 110.94816589 1.5149567127 54.970916748 1.5009793043 1.5009793043
 2241.4509277  -999.250000 12.565999985  -999.250000 0.0160000008 0.3785339892 2.2769806385 51.602001190 112.92196655 1.4880015850 54.917999268 1.4880000353 1.4880000353
 2241.6035156  -999.250000 12.508000374  -999.250000 0.0020128207 0.3756499887 2.2699999809 48.968036652 114.15237427 1.4890543222 56.499172211 1.4890015125 1.4890015125
 2241.7558594  -999.250000 12.440999031  -999.250000 0.0100096148 0.3644900024 2.2669999599 47.745445251 114.88571930 1.5060288906 57.851562500 1.4900000095 1.4900000095
 2241.9082031  -999.250000 12.395999908  -999.250000 0.0159792006 0.3583697975 2.2669999599 48.027046204 111.60515594 1.5240160227 58.201652527 1.4900015593 1.4900015593
 2242.0605469  -999.250000 12.409000397  -999.250000 0.0030000000 0.3696918190 2.2650032043 49.928001404 112.94524384 1.5339984894 58.609001160 1.4910000563 1.4910000563
 2242.2128906  -999.250000 12.450999260  -999.250000 0.0049999999 0.3820901215 2.2729871273 50.951000214 111.22731781 1.5329887867 57.590000153 1.5099999905 1.5099999905
 2242.3654785  -999.250000 12.486000061  -999.250000 0.0039951927 0.3758400083 2.2620000839 47.753295898 110.80895233 1.5259808302 56.225772858 1.5200015306 1.5200015306
