# LAS format log file from PETREL
# Project units are specified as depth units
#==================================================================
~Version information
VERS.   2.0:
WRAP.   NO:
#==================================================================
~Well
STRT .m      785.37786865 :
STOP .m      3526.7492676 :
STEP .m     0.00000000 :
NULL .        -999.250000 :
COMP.           : COMPANY
WELL.  33/9-11   : WELL
FLD.            : FIELD
LOC.            : LOCATION
SRVC.           : SERVICE COMPANY
DATE.  2018-09-11 14:48:42   : Log Export Date {yyyy-MM-dd HH:mm:ss}
PROV.           : PROVINCE
UWI.   33/9-11   : UNIQUE WELL ID
API.            : API NUMBER
#==================================================================
~Curve
DEPT .m                   : DEPTH
Lithology_geolink ._      : Lithology_geolink
CALI .in                  : CALI
DRHO .g/cm3               : DRHO
NPHI .m3/m3               : NPHI
RHOB .g/cm3               : RHOB
GR .gAPI                  : GR
DTC .us/ft                : DTC
RDEP .ohm.m               : RDEP
SP .mV                    : SP
RSHA .ohm.m               : RSHA
RMED .ohm.m               : RMED
~Parameter
#==================================================================
~Ascii
# ...
 2984.9670410  -999.250000 13.361001015 0.0309999995 0.3414500058 2.4189999104 60.758804321 96.957984924 1.5290000439 49.648998260 1.8120000362 1.8120000362
 2985.1196289  -999.250000 13.414999962 0.0250000004 0.3359299898 2.4230000973 62.895587921 96.468788147 1.5310000181 49.819728851 1.8170000315 1.8170000315
 2985.2719727  -999.250000 13.456001282 0.0240000002 0.3282099962 2.4449999332 63.146602631 96.615753174 1.5349999666 49.931819916 1.8719999790 1.8719999790
 2985.4243164  -999.250000 13.476999283 0.0260000005 0.3217699826 2.4609999657 62.555950165 96.593040466 1.5379999876 49.757282257 1.9639999866 1.9639999866
 2985.5766602  -999.250000 13.454999924 0.0209999997 0.3169899881 2.4670000076 60.933208466 95.401824951 1.5479999781 49.446994781 1.9910000563 1.9910000563
 2985.7292480  -999.250000 13.395999908 0.0170000009 0.3128400147 2.4730000496 59.760871887 95.096481323 1.5729999542 49.334178925 1.9409999847 1.9409999847
 2985.8815918  -999.250000 13.338000298 0.0170000009 0.3126299977 2.4730000496 59.490432739 94.771530151 1.6069999933 49.642505646 1.8969999552 1.8969999552
 2986.0339355  -999.250000 13.310000420 0.0170000009 0.3158499897 2.4839999676 59.496990204 94.567329407 1.6330000162 50.163166046 1.8609999418 1.8609999418
 2986.1862793  -999.250000 13.309000015 0.0070000002 0.3119599819 2.4890000820 59.914329529 94.993316650 1.6519999504 50.326740265 1.9029999971 1.9029999971
 2986.3386230  -999.250000 13.310999870 0.0020000001 0.3084999919 2.4869999886 60.127315521 94.160675049 1.6649999619 50.011013031 2.0139999390 2.0139999390
 2986.4912109  -999.250000 13.312000275 0.0070000002 0.3113999963 2.4969999790 59.862426758 93.477088928 1.6699999571 49.485843658 2.0829999447 2.0829999447
 2986.6435547  -999.250000  -999.250000 0.0160000008 0.3117699921 2.5079998970  -999.250000  -999.250000  -999.250000  -999.250000  -999.250000  -999.250000
 2986.7958984  -999.250000 13.312000275 0.0299999993 0.3083100021 2.5239999294  -999.250000  -999.250000 1.6929999590  -999.250000 2.1159999371 2.1159999371
 2986.9482422  -999.250000 13.312000275 0.0460000001 0.3066999912 2.5420000553 58.553577423 92.666290283 1.7410000563 49.332004547 2.1140000820 2.1140000820
 2987.1008301  -999.250000 13.312000275 0.0480000004 0.3081399798 2.5420000553 58.041816711 92.810760498 1.7710000277 49.332000732 2.0980000496 2.0980000496
 2987.2531738  -999.250000 13.309000015 0.0399999991 0.3062500060 2.5239999294 57.543796539 92.996696472 1.7710000277 49.332000732 2.0980000496 2.0980000496
 2987.4055176  -999.250000 13.302999496 0.0350000001 0.3009499907 2.5169999599 56.778228760 93.131790161 1.7710000277 49.418857574 2.1189999580 2.1189999580
 2987.5578613  -999.250000 13.270999908 0.0299999993 0.2974799871 2.5099999905 59.001857758 93.237663269 1.7840000391 49.645275116 2.1559998989 2.1559998989
 2987.7104492  -999.250000 13.248998642 0.0240000002 0.2981500030 2.5050001144 59.650970459 93.160118103 1.7960000038 49.448318481 2.1689999104 2.1689999104
 2987.8627930  -999.250000 13.235000610 0.0130000003 0.3000200093 2.5009999275 60.495647430 92.921379089 1.8300000429 49.505908966 2.1819999218 2.1819999218
 2988.0151367  -999.250000 13.232000351 0.0089999996 0.2978900075 2.4920001030 62.219234467 92.836135864 1.8780000210 49.990222931 2.1949999332 2.1949999332
 2988.1674805  -999.250000 13.232999802 0.0179999992 0.2986699939 2.4979999065 61.618968964 92.802055359 1.8999999762 49.887168884 2.2149999142 2.2149999142
 2988.3198242  -999.250000 13.236000061 0.0260000005 0.3023500144 2.5090000629 58.786090851 92.150093079 1.9079999924 49.331783295 2.2469999790 2.2469999790
 2988.4724121  -999.250000 13.237999916 0.0219999999 0.3016600013 2.4990000725 56.560558319 91.931350708 1.9140000343 49.328998566 2.2679998875 2.2679998875
 2988.6247559  -999.250000 13.241000175 0.0130000003 0.2978500128 2.4909999371 56.352329254 91.867095947 1.9190000296 49.503719330 2.2690000534 2.2690000534
 2988.7770996  -999.250000 13.243000031 0.0089999996 0.2968199849 2.4949998856 57.121765137 92.008781433 1.9279999733 49.725646973 2.2780001163 2.2780001163
 2988.9294434  -999.250000 13.246000290 0.0099999998 0.2998600006 2.4939999580 57.701141357 91.859481812 1.9450000525 49.639278412 2.3180000782 2.3180000782
 2989.0820313  -999.250000 13.248000145 0.0189999994 0.2970699966 2.4960000515 56.544857025 91.453651428 1.9520000219 49.527179718 2.3369998932 2.3369998932
 2989.2343750  -999.250000 13.251000404 0.0299999993 0.2923299968 2.5050001144 54.310581207 91.428039551 1.9400000572 49.526000977 2.3029999733 2.3029999733
 2989.3867188  -999.250000  -999.250000 0.0289999992 0.2895299792 2.5069999695  -999.250000  -999.250000  -999.250000  -999.250000  -999.250000  -999.250000
 2989.5390625  -999.250000 13.253999710 0.0340000018 0.2869899869 2.5160000324  -999.250000  -999.250000 1.9279999733  -999.250000 2.2839999199 2.2839999199
 2989.6916504  -999.250000 13.256999969 0.0520000011 0.2875200212 2.5409998894 52.881923676 91.761619568 1.9240000248 49.656848907 2.2760000229 2.2760000229
 2989.8439941  -999.250000 13.260000229 0.0570000000 0.2915900052 2.5580000877 53.398170471 92.047538757 1.9270000458 49.723892212 2.2709999084 2.2709999084
 2989.9963379  -999.250000 13.262999535 0.0469999984 0.2936699986 2.5559999943 53.731464386 92.050994873 1.9340000153 49.723999023 2.2690000534 2.2690000534
 2990.1486816  -999.250000 13.269001007 0.0329999998 0.2908099890 2.5420000553 55.051883698 91.777442932 1.9220000505 49.549282074 2.2579998970 2.2579998970
 2990.3012695  -999.250000 13.270999908 0.0230000000 0.2892099917 2.5280001163 55.115901947 92.214294434 1.9069999456 49.326358795 2.2500000000 2.2500000000
 2990.4536133  -999.250000 13.270999908 0.0170000009 0.2874799967 2.5199999809 54.752582550 92.228973389 1.8919999599 49.411861420 2.2239999771 2.2239999771
 2990.6059570  -999.250000 13.269001007 0.0099999998 0.2851199806 2.5090000629 54.982631683 92.228996277 1.8750000000 49.872261047 2.2219998837 2.2219998837
 2990.7583008  -999.250000 13.258998871 0.0080000004 0.2904199958 2.4960000515 56.906909943 92.227989197 1.8509999514 50.317287445 2.2139999866 2.2139999866
 2990.9106445  -999.250000 13.243000031 0.0130000003 0.3011599779 2.4849998951 59.707019806 92.283821106 1.8200000525 49.903331757 2.1589999199 2.1589999199
 2991.0632324  -999.250000 13.223999977 0.0230000000 0.3052600026 2.4860000610 60.136325836 92.632446289 1.7899999619 49.350883484 2.0729999542 2.0729999542
 2991.2155762  -999.250000 13.211999893 0.0359999985 0.3044300079 2.4990000725 60.615234375 93.183113098 1.7589999437 49.410900116 1.9670000076 1.9670000076
 2991.3679199  -999.250000 13.229999542 0.0480000004 0.3080900013 2.5130000114 62.062675476 93.954765320 1.7280000448 49.443946838 1.9029999971 1.9029999971
 2991.5202637  -999.250000 13.279001236 0.0469999984 0.3164699972 2.5090000629 63.261157990 94.471343994 1.6979999542 49.335346222 1.9179999828 1.9179999828
 2991.6728516  -999.250000 13.279999733 0.0309999995 0.3243299723 2.4969999790 64.337997437 94.845001221 1.6729999781 49.757320404 1.9370000362 1.9370000362
 2991.8251953  -999.250000 13.246999741 0.0240000002 0.3239300251 2.5009999275 64.783996582 94.867996216 1.6499999762 50.315109253 1.9559999704 1.9559999704
 2991.9775391  -999.250000  -999.250000 0.0250000004 0.3182300031 2.5069999695  -999.250000  -999.250000  -999.250000  -999.250000  -999.250000  -999.250000
 2992.1298828  -999.250000 13.298999786 0.0209999997 0.3172900081 2.5000000000 63.430999756 94.742996216 1.6349999905 50.049999237 1.9689999819 1.9689999819
 2992.2824707  -999.250000 13.369000435 0.0230000000 0.3226100206 2.5000000000 61.271999359 94.720001221 1.6280000210 49.626998901 1.9650000334 1.9650000334
 2992.4348145  -999.250000 13.352999687 0.0359999985 0.3285900056 2.5069999695 60.154998779 95.125999451 1.6089999676 49.520999908 1.9459999800 1.9459999800
 2992.5871582  -999.250000 13.298000336 0.0379999988 0.3324500024 2.5000000000 59.407001495 95.070999146 1.5770000219 49.868999481 1.9190000296 1.9190000296
