# LAS format log file from PETREL
# Project units are specified as depth units
#==================================================================
~Version information
VERS.   2.0:
WRAP.   NO:
#==================================================================
~Well
STRT .m      457.60995483 :
STOP .m      3127.1992188 :
STEP .m     0.00000000 :
NULL .        -999.250000 :
COMP.           : COMPANY
WELL.  33/9-1   : WELL
FLD.            : FIELD
LOC.            : LOCATION
SRVC.           : SERVICE COMPANY
DATE.  2018-09-11 14:48:42   : Log Export Date {yyyy-MM-dd HH:mm:ss}
PROV.           : PROVINCE
UWI.   33/9-1   : UNIQUE WELL ID
API.            : API NUMBER
#==================================================================
~Curve
DEPT .m                   : DEPTH
Lithology_geolink ._      : Lithology_geolink
CALI .in                  : CALI
BS .in                    : BS
DRHO .g/cm3               : DRHO
NPHI .m3/m3               : NPHI
RHOB .g/cm3               : RHOB
GR .gAPI                  : GR
DTC .us/ft                : DTC
RDEP .ohm.m               : RDEP
SP .mV                    : SP
RSHA .ohm.m               : RSHA
RMED .ohm.m               : RMED
~Parameter
#==================================================================
~Ascii
# ...
 2944.7766113 3.0000000000 7.8319997787 8.5000000000 -0.045987181 0.2364131659 2.2239999771 24.294000626 100.78399658 1.2180866003 62.363998413 1.8400000334 1.8400000334
 2944.9289551 3.0000000000 7.8319997787 8.5000000000 -0.037988782 0.2508838475 2.2339999676 25.937999725 100.20700073 1.2720848322 62.391998291 1.8519999981 1.8519999981
 2945.0812988 3.0000000000 7.8369998932 8.5000000000 -0.031001600 0.2720027268 2.2379999161 27.412000656 100.20800018 1.3252240419 63.983001709 1.8639999628 1.8639999628
 2945.2338867 3.0000000000 7.8569998741 8.5000000000 -0.031998400 0.2924920022 2.2420001030 29.441999435 99.687004089 1.4652323723 66.285003662 1.9320000410 1.9320000410
 2945.3862305 3.0000000000 7.8959999084 8.5000000000 -0.030988781 0.3374095857 2.2579998970 36.037998199 100.33399963 1.6102323532 70.047996521 2.0439999104 2.0439999104
 2945.5385742 3.0000000000 7.9819998741 8.5000000000 -0.023988781 0.3745141625 2.2999999523 41.782001495 103.34999847 1.7552323341 75.801002502 2.1830000877 2.1830000877
 2945.6909180 3.0000000000 8.1479997635 8.5000000000 -0.016988782 0.3646443784 2.3459999561 48.404998779 102.46700287 1.9002355337 80.339996338 2.3220000267 2.3220000267
 2945.8435059 3.0000000000 8.3699998856 8.5000000000 -0.010009600 0.3548920453 2.3900001049 55.202999115 99.379997253 2.0474832058 83.947998047 2.4639999866 2.4639999866
 2945.9958496 3.0000000000 8.4289999008 8.5000000000 -0.012987180 0.3461661935 2.4170000553 59.881000519 92.841003418 2.1982450485 84.614997864 2.5620000362 2.5620000362
 2946.1481934 3.0000000000 8.4289999008 8.5000000000 -0.004990384 0.3375754952 2.4409999847 60.515998840 87.416000366 2.3512244225 83.987998962 2.7049999237 2.7049999237
 2946.3005371 5.0000000000 8.4289999008 8.5000000000 0.0010064103 0.3409870863 2.4579999447 60.984001160 85.710998535 2.4911122322 84.718002319 2.8199999332 2.8199999332
 2946.4531250 5.0000000000 8.4379997253 8.5000000000 0.0050447998 0.3329481184 2.4719998837 65.482002258 84.479995728 2.5612304211 87.142997742 2.9389998913 2.9389998913
 2946.6054688 5.0000000000 8.4619998932 8.5000000000 0.0189951919 0.3354742229 2.4830000401 65.327003479 84.785003662 2.6330928802 87.667999268 3.0230000019 3.0230000019
 2946.7578125 5.0000000000 8.5069999695 8.5000000000 0.0159823727 0.3318749666 2.4860000610 60.423999786 85.661003113 2.6909263134 86.500000000 3.0929999352 3.0929999352
 2946.9101563 5.0000000000 8.5550003052 8.5000000000 0.0049887821 0.3287544250 2.4779999256 59.208999634 86.070991516 2.6449069977 86.502998352 3.1240000725 3.1240000725
 2947.0627441 5.0000000000 8.5869998932 8.5000000000 -0.002016000 0.3439485133 2.4730000496 61.738998413 85.180000305 2.5868175030 86.599998474 3.1240000725 3.1240000725
 2947.2150879 5.0000000000 8.6009998322 8.5000000000 -0.007008013 0.3403633833 2.4619998932 68.375000000 85.281997681 2.5299341679 86.487998962 3.0950000286 3.0950000286
 2947.3674316 5.0000000000 8.5869998932 8.5000000000 -0.012006410 0.3362601399 2.4590001106 72.678001404 86.060997009 2.4889600277 85.106002808 3.0130000114 3.0130000114
 2947.5197754 5.0000000000 8.5869998932 8.5000000000 -0.015996795 0.3425682187 2.4460000992 76.666999817 86.833000183 2.4639599323 85.320999146 2.9570000172 2.9570000172
 2947.6721191 5.0000000000 8.5869998932 8.5000000000 -0.013993590 0.3414507508 2.4389998913 80.058998108 88.613998413 2.4389598370 86.088996887 2.9289999008 2.9289999008
 2947.8247070 5.0000000000 8.5679998398 8.5000000000 -0.010003200 0.3356324136 2.4349999428 80.055000305 89.445999146 2.4139103889 81.998001099 2.9289999008 2.9289999008
 2947.9770508 5.0000000000 8.5430002213 8.5000000000 -0.011006410 0.3145355284 2.4300000668 76.917999268 91.366996765 2.3859245777 78.695999146 2.9289999008 2.9289999008
 2948.1293945 5.0000000000 8.5260000229 8.5000000000 -0.014998397 0.2868042886 2.3800001144 72.584999084 92.872001648 2.3389246464 76.023002625 2.9289999008 2.9289999008
 2948.2817383 5.0000000000 8.5080003738 8.5000000000 -0.014000000 0.2707913220 2.3580000401 75.391998291 90.175003052 2.2919263840 74.839996338 2.8770000935 2.8770000935
 2948.4343262 5.0000000000 8.4720001221 8.5000000000 -0.013996800 0.2778725624 2.3529999256 81.232002258 91.175003052 2.2458496094 75.179000854 2.7990000248 2.7990000248
 2948.5866699 6.0000000000 8.4219999313 8.5000000000 -0.012998397 0.2880508006 2.3570001125 88.387001038 93.361007690 2.1989245415 74.864997864 2.6849999428 2.6849999428
 2948.7390137 6.0000000000 8.4540004730 8.5000000000 -0.012000000 0.3135200739 2.3380000591 90.012001038 94.593002319 2.1519246101 76.461997986 2.5650000572 2.5650000572
 2948.8913574 6.0000000000 8.4020004272 8.5000000000 -0.012003205 0.3510103524 2.3220000267 90.121002197 98.115997314 2.1048414707 80.734001160 2.4609999657 2.4609999657
 2949.0439453 6.0000000000 8.3719997406 8.5000000000 -0.014022401 0.3887192309 2.3340001106 89.276000977 99.261001587 2.0056831837 83.654998779 2.3190000057 2.3190000057
 2949.1962891 6.0000000000 8.3850002289 8.5000000000 -0.021027243 0.4258831441 2.3340001106 87.807998657 99.384002686 1.9068412781 83.800003052 2.1860001087 2.1860001087
 2949.3486328 6.0000000000 8.4289999008 8.5000000000 -0.038014423 0.4403046072 2.3029999733 83.694999695 100.63100433 1.8078413010 84.000000000 2.0569999218 2.0569999218
 2949.5009766 6.0000000000 8.5799999237 8.5000000000 -0.046996795 0.4369533062 2.2660000324 75.397003174 108.52600098 1.7088733912 84.461997986 1.9859999418 1.9859999418
 2949.6533203 5.0000000000 8.5249996185 8.5000000000 -0.044998400 0.4327805936 2.2349998951 68.126998901 114.40399933 1.6299438477 84.405998230 1.9379999638 1.9379999638
 2949.8059082 5.0000000000 8.2880001068 8.5000000000 -0.044006400 0.4269459248 2.2160000801 65.628997803 118.29299927 1.5948879719 83.800003052 1.8890000582 1.8890000582
 2949.9582520 5.0000000000 8.2040004730 8.5000000000 -0.046009615 0.4287976921 2.2030000687 63.005001068 121.05400085 1.5600384474 83.792999268 1.8409999609 1.8409999609
 2950.1105957 5.0000000000 8.5950002670 8.5000000000 -0.052008014 0.4335965514 2.1830000877 64.294998169 119.54199982 1.5840592384 85.445999146 1.8329999447 1.8329999447
 2950.2629395 5.0000000000 8.6280002594 8.5000000000 -0.056982372 0.4376712441 2.1670000553 66.144996643 118.01300049 1.6210609674 83.528999329 1.8489999771 1.8489999771
 2950.4155273 5.0000000000 8.4759998322 8.5000000000 -0.045952000 0.4447133541 2.1949999332 65.553001404 118.76200104 1.6591184139 82.843002319 1.8969999552 1.8969999552
 2950.5678711 5.0000000000 8.1770000458 8.5000000000 -0.030975960 0.4519958794 2.2669999599 67.141998291 116.69252777 1.6960800886 85.680999756 1.9459999800 1.9459999800
 2950.7202148 5.0000000000 8.0450000763 8.5000000000 -0.015988782 0.4618711770 2.3350000381 67.746002197 117.01864624 1.7460833788 83.808998108 1.9830000401 1.9830000401
 2950.8725586 5.0000000000 8.0539999008 8.5000000000 -0.008995192 0.4625846744 2.3849999905 67.140998840 114.92565155 1.7980833054 82.912002563 2.0160000324 2.0160000324
 2951.0251465 5.0000000000 8.0629997253 8.5000000000 -0.006022400 0.4592508674 2.4149999619 68.986999512 113.45558929 1.8502432108 83.223999023 2.0659999847 2.0659999847
 2951.1774902 5.0000000000 8.1140003204 8.5000000000 -0.013009615 0.4501602054 2.4239952564 71.447998047 111.45278931 1.9261218309 82.761001587 2.1240000725 2.1240000725
 2951.3298340 5.0000000000 8.1639995575 8.5000000000 -0.018985577 0.4440542459 2.4209856987 74.882003784 106.95163727 2.0021171570 82.221000671 2.1659998894 2.1659998894
 2951.4821777 5.0000000000 8.1820001602 8.5000000000 -0.009995192 0.4342211485 2.4119806290 77.610000610 101.73783112 2.0750143528 81.299003601 2.2000000477 2.2000000477
 2951.6345215 5.0000000000 8.1820001602 8.5000000000 -0.007014423 0.4224712849 2.3999648094 79.904998779 98.518981934 2.0839600563 79.957000732 2.2590000629 2.2590000629
 2951.7871094 5.0000000000 8.1689996719 8.5000000000 -0.016012801 0.4107605815 2.3780159950 78.878997803 97.889106750 2.0587184429 79.177001953 2.3670001030 2.3670001030
 2951.9394531 5.0000000000 8.1370000839 8.5000000000 -0.020001601 0.3952929676 2.3830256462 79.365997314 97.912704468 1.9708188772 77.563003540 2.4830000401 2.4830000401
