# LAS format log file from PETREL
# Project units are specified as depth units
#==================================================================
~Version information
VERS.   2.0:
WRAP.   NO:
#==================================================================
~Well
STRT .m      1740.8350830 :
STOP .m      3359.4750977 :
STEP .m     0.00000000 :
NULL .        -999.250000 :
COMP.           : COMPANY
WELL.  33/9-6   : WELL
FLD.            : FIELD
LOC.            : LOCATION
SRVC.           : SERVICE COMPANY
DATE.  2018-09-11 14:48:43   : Log Export Date {yyyy-MM-dd HH:mm:ss}
PROV.           : PROVINCE
UWI.   33/9-6   : UNIQUE WELL ID
API.            : API NUMBER
#==================================================================
~Curve
DEPT .m                   : DEPTH
Lithology_geolink ._      : Lithology_geolink
CALI .in                  : CALI
DRHO .g/cm3               : DRHO
NPHI .m3/m3               : NPHI
RHOB .g/cm3               : RHOB
GR .gAPI                  : GR
DTC .us/ft                : DTC
RDEP .ohm.m               : RDEP
SP .mV                    : SP
RSHA .ohm.m               : RSHA
RMED .ohm.m               : RMED
~Parameter
#==================================================================
~Ascii
# ...
 2704.6125488  -999.250000 13.484999657 -0.013000000 0.4187300205 2.3559823036 55.381999969 106.45200348 1.3680000305 78.013999939 1.4529999495 1.4529999495
 2704.7648926  -999.250000 13.517000198 -0.011000000 0.4300999939 2.3520064354 56.300998688 105.57299805 1.3730000257 78.247001648 1.4739999771 1.4739999771
 2704.9172363  -999.250000 13.459999084 -0.011000000 0.4195999801 2.3649792671 54.951999664 104.48200226 1.3869999647 78.639999390 1.5190000534 1.5190000534
 2705.0695801  -999.250000 13.505000114 -0.013000000 0.4090900123 2.3859326839 52.450000763 104.10800171 1.4019999504 79.233001709 1.5549999475 1.5549999475
 2705.2221680  -999.250000 13.484999657 -0.012000000 0.3985899985 2.3909919262 51.196998596 103.82099915 1.4320000410 78.817001343 1.5720000267 1.5720000267
 2705.3745117  -999.250000 13.494999886 -0.009000000 0.3885900080 2.3949935436 50.686000824 103.11299896 1.4720000029 79.065002441 1.5889999866 1.5889999866
 2705.5268555  -999.250000 13.543999672 0.0010000000 0.3795799911 2.4129712582 50.398998260 101.44300079 1.5190000534 80.113998413 1.6189999580 1.6189999580
 2705.6791992  -999.250000 13.484999657 0.0080000004 0.3677200079 2.4179840088 50.889999390 99.993003845 1.5549999475 79.942001343 1.6779999733 1.6779999733
 2705.8317871  -999.250000 13.437999725 0.0030000000 0.3579499722 2.4219934940 50.786998749 99.693000793 1.5930000544 78.579002380 1.7710000277 1.7710000277
 2705.9841309  -999.250000 13.367999077 -0.007000000 0.3630599976 2.4379742146 49.550998688 99.708000183 1.6260000467 78.404998779 1.8300000429 1.8300000429
 2706.1364746  -999.250000 13.345000267 -0.018999999 0.3662799895 2.4100449085 49.229999542 100.23999786 1.6619999409 78.176002502 1.8339999914 1.8339999914
 2706.2888184  -999.250000 13.454999924 -0.020000000 0.3618800044 2.3920576572 48.805999756 100.69400024 1.6870000362 77.795997620 1.8200000525 1.8200000525
 2706.4414063  -999.250000 13.338999748 -0.018999999 0.3574700058 2.3850111961 48.571998596 100.03700256 1.6990000010 77.791999817 1.8350000381 1.8350000381
 2706.5937500  -999.250000 13.345000267 -0.020000000 0.3530600071 2.3840017319 49.023998260 99.857002258 1.7109999657 77.988998413 1.8489999771 1.8489999771
 2706.7460938  -999.250000 13.413999557 -0.021000000 0.3486600220 2.3840000629 51.192001343 99.991996765 1.7059999704 77.988998413 1.8400000334 1.8400000334
 2706.8984375  -999.250000 13.335000038 -0.025000000 0.3534100056 2.3849983215 52.242000580 100.03700256 1.6909999847 78.174003601 1.8480000496 1.8480000496
 2707.0507813  -999.250000 13.345000267 -0.034000002 0.3616000116 2.3820095062 51.681999207 99.892997742 1.6749999523 77.870002747 1.8539999723 1.8539999723
 2707.2033691  -999.250000 13.265000343 -0.034000002 0.3642200232 2.3780064583 50.637001038 100.00599670 1.6560000181 77.963996887 1.8539999723 1.8539999723
 2707.3557129  -999.250000 13.185000420 -0.024000000 0.3693000078 2.3839905262 52.186000824 100.28199768 1.6289999485 78.015998840 1.8470000029 1.8470000029
 2707.5080566  -999.250000 13.185000420 -0.014000000 0.3779799938 2.3859968185 53.208000183 100.59599304 1.5820000172 78.220001221 1.8140000105 1.8140000105
 2707.6604004  -999.250000 13.303999901 -0.011000000 0.3782700002 2.3929774761 54.005001068 100.67198944 1.5360000134 78.185997009 1.7790000439 1.7790000439
 2707.8129883  -999.250000 13.302999496 -0.007000000 0.3785499930 2.3989903927 54.701999664 101.61199951 1.4900000095 78.342002869 1.7460000515 1.7460000515
 2707.9653320  -999.250000 13.303999901 -0.010000000 0.3846300244 2.3810288906 55.993999481 102.76399231 1.4359999895 78.138000488 1.6809999943 1.6809999943
 2708.1176758  -999.250000 13.333000183 -0.016000001 0.3874399960 2.3720142841 57.182998657 103.89900208 1.4019999504 78.530998230 1.5650000572 1.5650000572
 2708.2700195  -999.250000 13.383999825 -0.020000000 0.3805600107 2.3620319366 57.176998138 105.13899994 1.3839999437 78.456001282 1.4550000429 1.4550000429
 2708.4226074  -999.250000 13.347000122 -0.022000000 0.3788299859 2.3610017300 57.172000885 105.64299774 1.3789999485 78.321998596 1.4270000458 1.4270000458
 2708.5749512  -999.250000 13.390999794 -0.026000001 0.3837400079 2.3580048084 57.132999420 105.02600098 1.3899999857 78.116996765 1.4290000200 1.4290000200
 2708.7272949  -999.250000 13.324999809 -0.028000001 0.3913199902 2.3649888039 56.716999054 103.81400299 1.4069999456 78.111999512 1.4609999657 1.4609999657
 2708.8796387  -999.250000 13.279999733 -0.033000000 0.3899800181 2.3659982681 55.368999481 102.01599884 1.4309999943 78.127998352 1.5329999924 1.5329999924
 2709.0319824  -999.250000 13.230999947 -0.028000001 0.3785499930 2.3699870110 52.235000610 100.21600342 1.4750000238 77.933998108 1.6740000248 1.6740000248
 2709.1845703  -999.250000 13.183999062 -0.017000001 0.3678099811 2.3849759102 52.276000977 99.526000977 1.5299999714 77.985000610 1.8200000525 1.8200000525
 2709.3369141  -999.250000 13.203000069 -0.006000000 0.3577999771 2.3999760151 53.404998779 99.669998169 1.5729999542 78.282997131 1.8750000000 1.8750000000
 2709.4892578  -999.250000 13.210999489 0.0000000000 0.3729700148 2.4069888592 53.388000488 100.18599701 1.6039999723 78.285003662 1.8710000515 1.8710000515
 2709.6416016  -999.250000 13.163000107 -0.007000000 0.3838499784 2.3960351944 53.664001465 100.29799652 1.6230000257 78.080001831 1.8569999933 1.8569999933
 2709.7941895  -999.250000 13.163998604 -0.016000001 0.3722900152 2.3880128860 54.132999420 99.997001648 1.6430000067 78.074996948 1.8559999466 1.8559999466
 2709.9465332  -999.250000 13.123000145 -0.024000000 0.3607199788 2.3899970055 53.957000732 99.858001709 1.6569999456 78.261001587 1.8470000029 1.8470000029
 2710.0988770  -999.250000 13.102999687 -0.033000000 0.3494499922 2.3800160885 54.270999908 99.596000671 1.6690000296 78.065002441 1.8420000076 1.8420000076
 2710.2512207  -999.250000 13.123000145 -0.037000000 0.3538600206 2.3570737839 54.992000580 99.668998718 1.6950000525 78.480003357 1.8550000191 1.8550000191
 2710.4038086  -999.250000 13.057000160 -0.037000000 0.3582800031 2.3609936237 54.659000397 99.754997253 1.6990000010 78.851997375 1.8710000515 1.8710000515
 2710.5561523  -999.250000 13.053000450 -0.035000000 0.3627600074 2.3719823360 54.294998169 99.851997375 1.7070000172 78.747001648 1.8799999952 1.8799999952
 2710.7084961  -999.250000 13.053000450 -0.026000001 0.3689899743 2.3779904842 55.341999054 99.878997803 1.7200000286 78.805999756 1.8910000324 1.8910000324
 2710.8608398  -999.250000 13.050000191 -0.017000001 0.3721300066 2.3809952736 55.983001709 99.209999084 1.7230000496 78.755996704 1.8960000277 1.8960000277
 2711.0131836  -999.250000 13.053000450 -0.009000000 0.3638399839 2.4059197903 56.013000488 98.893997192 1.7309999466 78.632003784 1.9149999619 1.9149999619
 2711.1657715  -999.250000 13.043000221 -0.007000000 0.3576699793 2.4139871597 55.374000549 98.573989868 1.7400000095 78.926002502 1.9509999752 1.9509999752
 2711.3181152  -999.250000 13.043000221 -0.009000000 0.3532100022 2.4239840508 55.494998932 98.516998291 1.7289999723 78.665000916 1.9570000172 1.9570000172
 2711.4704590  -999.250000 13.043000221 -0.013000000 0.3487600088 2.4180095196 58.018001556 99.069999695 1.7180000544 78.615997314 1.9600000381 1.9600000381
 2711.6228027  -999.250000 13.041999817 -0.018999999 0.3459400237 2.3920831680 58.999000549 99.802001953 1.6990000010 78.611000061 1.9379999638 1.9379999638
 2711.7753906  -999.250000 13.041999817 -0.025000000 0.3625199795 2.3640449047 57.898998260 100.29799652 1.6280000210 78.706001282 1.9029999971 1.9029999971
 2711.9277344  -999.250000 13.242000580 -0.023000000 0.3777299821 2.3640000820 57.298999786 101.30200195 1.5970000029 78.800003052 1.8509999514 1.8509999514
 2712.0800781  -999.250000 13.267999649 -0.020000000 0.3910599947 2.3659968376 56.312999725 101.80100250 1.5360000134 78.694999695 1.7649999857 1.7649999857
 2712.2324219  -999.250000 13.189000130 -0.022000000 0.4005099833 2.3620128632 55.664001465 102.68099976 1.4830000401 78.988998413 1.6909999847 1.6909999847
