# LAS format log file from PETREL
# Project units are specified as depth units
#==================================================================
~Version information
VERS.   2.0:
WRAP.   NO:
#==================================================================
~Well
STRT .m      457.60995483 :
STOP .m      3127.1992188 :
STEP .m     0.00000000 :
NULL .        -999.250000 :
COMP.           : COMPANY
WELL.  33/9-1   : WELL
FLD.            : FIELD
LOC.            : LOCATION
SRVC.           : SERVICE COMPANY
DATE.  2018-09-11 14:48:42   : Log Export Date {yyyy-MM-dd HH:mm:ss}
PROV.           : PROVINCE
UWI.   33/9-1   : UNIQUE WELL ID
API.            : API NUMBER
#==================================================================
~Curve
DEPT .m                   : DEPTH
Lithology_geolink ._      : Lithology_geolink
CALI .in                  : CALI
BS .in                    : BS
DRHO .g/cm3               : DRHO
NPHI .m3/m3               : NPHI
RHOB .g/cm3               : RHOB
GR .gAPI                  : GR
DTC .us/ft                : DTC
RDEP .ohm.m               : RDEP
SP .mV                    : SP
RSHA .ohm.m               : RSHA
RMED .ohm.m               : RMED
~Parameter
#==================================================================
~Ascii
# ...
 2410.7673340 13.000000000 13.310000420 12.250000954 0.0060032052 0.3838000000 2.3610000610 43.428840637 119.72737122 1.2030031681 49.169712067 1.2230000496 1.2230000496
 2410.9196777 13.000000000 13.269001007 12.250000954 0.0080032004 0.3805052638 2.3510160446 45.827350616 118.71155548 1.2050112486 51.482975006 1.2230000496 1.2230000496
 2411.0720215 13.000000000 13.230999947 12.250000954 0.0099999998 0.3751685321 2.3589870930 48.541000366 115.93400574 1.2120320797 52.091999054 1.2239999771 1.2239999771
 2411.2246094 13.000000000 13.180001259 12.250000954 0.0050128205 0.3683000207 2.3699998856 52.019256592 114.15085602 1.2320799828 51.577011108 1.2239999771 1.2239999771
 2411.3769531 13.000000000 13.135999680 12.250000954 0.0130128209 0.3627299964 2.3849999905 53.419158936 114.05847931 1.2570624352 51.583473206 1.2359999418 1.2359999418
 2411.5292969 13.000000000 13.100000381 12.250000954 0.0209999997 0.3664240837 2.3989775181 49.778255463 112.48490906 1.2960288525 50.632411957 1.2610000372 1.2610000372
 2411.6816406 13.000000000 13.086000443 12.250000954 0.0209999997 0.3583929241 2.4119791985 48.067001343 109.93499756 1.3140336275 49.640998840 1.2829999924 1.2829999924
 2411.8339844 13.000000000 13.131999969 12.250000954 0.0270000007 0.3517606258 2.4299712181 46.860000610 111.31700134 1.3351010084 50.771999359 1.3070000410 1.3070000410
 2411.9865723 13.000000000 13.164999962 12.250000954 0.0349775627 0.3511199951 2.4489998817 45.365394592 113.37407684 1.3981120586 53.108108521 1.3079999685 1.3079999685
 2412.1389160 13.000000000 13.197999954 12.250000954 0.0209871996 0.3555628657 2.4679694176 40.005966187 112.17507935 1.4330031872 54.421688080 1.3220000267 1.3220000267
 2412.2912598 13.000000000 13.291999817 12.250000954 0.0130000003 0.3645955026 2.4869694710 41.856998444 110.97699738 1.4348765612 54.227001190 1.3569999933 1.3569999933
 2412.4436035 13.000000000 13.213999748 12.250000954 0.0299999993 0.3827009499 2.4520559311 44.051998138 109.77700043 1.3578525782 53.633998871 1.3459999561 1.3459999561
 2412.5961914 13.000000000 13.223999977 12.250000954 0.0159807708 0.3918299973 2.3949999809 44.009544373 118.79566193 1.2660192251 53.143852234 1.3459999561 1.3459999561
 2412.7485352 13.000000000 13.128000259 12.250000954 0.0039743590 0.3815799952 2.3759999275 45.600963593 115.88088989 1.2720496655 53.054279327 1.3459999561 1.3459999561
 2412.9008789 13.000000000 13.187001228 12.250000954 -0.011996800 0.3735927939 2.3520383835 49.318126678 112.07537842 1.3030432463 54.477760315 1.3209999800 1.3209999800
 2413.0532227 13.000000000 13.104999542 12.250000954 -0.010000000 0.3802193105 2.3569920063 50.643001556 112.31474304 1.3300241232 55.576000214 1.2990000248 1.2990000248
 2413.2058105 13.000000000 13.168000221 12.250000954 -0.001988782 0.3900400102 2.3519999981 50.960983276 112.16280365 1.3449743986 55.457412720 1.2869999409 1.2869999409
 2413.3581543 13.000000000 13.182999611 12.250000954 0.0050080125 0.3878200054 2.3459999561 48.458507538 113.35117340 1.3369519711 54.469665527 1.2879999876 1.2879999876
 2413.5104980 13.000000000 13.159000397 12.250000954 0.0100015998 0.3932712674 2.3529887199 48.149562836 114.70238495 1.3069696426 54.882358551 1.2879999876 1.2879999876
 2413.6628418 13.000000000 13.180001259 12.250000954 0.0109999999 0.3796818256 2.3470094204 47.252998352 113.69929504 1.2879999876 54.483001709 1.2890000343 1.2890000343
 2413.8151855 13.000000000 13.248000145 12.250000954 0.0080000004 0.3712335527 2.3300271034 47.081001282 115.13056183 1.2880047560 53.389999390 1.2769999504 1.2769999504
 2413.9677734 13.000000000 13.538999557 12.250000954 0.0039951927 0.3759099841 2.3340001106 46.706481934 116.10150146 1.2910192013 52.698589325 1.2779999971 1.2779999971
 2414.1201172 13.000000000 13.871999741 12.250000954 0.0010112000 0.3616927862 2.3260128498 46.386230469 114.70015717 1.2970273495 52.443157196 1.2779999971 1.2779999971
 2414.2724609 13.000000000 14.206001282 12.250000954 0.0080000004 0.3605218232 2.3379807472 47.777999878 115.42134857 1.3140417337 53.164001465 1.2669999599 1.2669999599
 2414.4248047 13.000000000 14.254000664 12.250000954 0.0099999998 0.3659512699 2.3549728394 48.828998566 114.39111328 1.3400385380 54.428001404 1.2669999599 1.2669999599
 2414.5773926 13.000000000 14.229999542 12.250000954 0.0059967949 0.3657400012 2.3499999046 47.697357178 113.21601105 1.3640159369 53.844753265 1.2680000067 1.2680000067
 2414.7297363 13.000000000 14.005999565 12.250000954 0.0040032053 0.3594399989 2.3350000381 48.545597076 113.53068542 1.3690079451 53.069026947 1.2699999809 1.2699999809
 2414.8820801 13.000000000 13.782999992 12.250000954 0.0060032001 0.3723992407 2.3350000381 49.539230347 113.33389282 1.3740031719 54.333087921 1.2799999714 1.2799999714
 2415.0344238 13.000000000 13.666999817 12.250000954 0.0080000004 0.3867170513 2.3399918079 47.811000824 113.27110291 1.3760000467 55.636001587 1.2810000181 1.2810000181
 2415.1870117 13.000000000 13.402999878 12.250000954 0.0100032045 0.3889899850 2.3450000286 44.180389404 114.58493042 1.3759616613 54.458732605 1.2940000296 1.2940000296
 2415.3393555 13.000000000 13.449998856 12.250000954 0.0120000001 0.3788499832 2.3410000801 42.560523987 115.18627167 1.3639711142 54.916366577 1.3070000410 1.3070000410
 2415.4916992 13.000000000 13.142000198 12.250000954 0.0120064002 0.3847605288 2.3390030861 45.383647919 115.35765076 1.3459631205 55.769123077 1.3179999590 1.3179999590
 2415.6440430 13.000000000 12.979001045 12.250000954 0.0160000008 0.3964412510 2.3330094814 48.282001495 115.13716125 1.3229646683 56.470001221 1.2929999828 1.2929999828
 2415.7963867 13.000000000 13.069000244 12.250000954 0.0189999994 0.3978178501 2.3429839611 48.617000580 114.61293030 1.3009727001 55.993000031 1.2699999809 1.2699999809
 2415.9489746 13.000000000 13.305999756 12.250000954 0.0119855767 0.4002799988 2.3599998951 47.252918243 114.57160950 1.2839488983 56.807170868 1.2599999905 1.2599999905
 2416.1013184 13.000000000 13.607000351 12.250000954 0.0030191999 0.4071789682 2.3450241089 47.199409485 115.07309723 1.2679727077 56.290111542 1.2589999437 1.2589999437
 2416.2536621 13.000000000 13.928000450 12.250000954 0.0149999997 0.3934720457 2.3469967842 45.583000183 115.75890350 1.2509920597 55.736000061 1.2480000257 1.2480000257
 2416.4060059 13.000000000 14.138999939 12.250000954 0.0089999996 0.3809201121 2.3420081139 46.228000641 116.31751251 1.2460000515 55.626998901 1.2259999514 1.2259999514
 2416.5585938 13.000000000 13.885000229 12.250000954 0.0050112177 0.3683499992 2.3320000172 46.329917908 116.01239014 1.2460032701 55.227691650 1.2159999609 1.2159999609
 2416.7109375 13.000000000 14.008998871 12.250000954 0.0119919870 0.3756799996 2.3369998932 45.654418945 116.44558716 1.2469919920 55.034412384 1.2059999704 1.2059999704
 2416.8630371 13.000000000 14.003999710 12.250000954 0.0070000002 0.3842026591 2.3260352612 44.669998169 116.19000244 1.2419999838 54.667999268 1.1950176954 1.1950176954
 2417.0156250 13.000000000 14.031999588 12.250000954 0.0030000000 0.3893617690 2.3190112114 43.453998566 116.56922150 1.2219696045 55.082000732 1.1840000153 1.1840000153
 2417.1679688 13.000000000 13.899000168 12.250000954 0.0000000000 0.3972772956 2.3219952583 42.863998413 117.33070374 1.2029680014 54.458000183 1.1740159988 1.1740159988
 2417.3203125 13.000000000 13.911999702 12.250000954 0.0049999999 0.4030308127 2.3279905319 42.282001495 117.14299774 1.1829999685 54.205001831 1.1630176306 1.1630176306
 2417.4726563 13.000000000 13.916998863 12.250000954 0.0080000004 0.3936600983 2.3319871426 43.297000885 117.04799652 1.1649999619 54.299999237 1.1420335770 1.1420335770
 2417.6252441 13.000000000 13.779999733 12.250000954 0.0020000001 0.3913836181 2.3180224895 45.348999023 117.45513153 1.1479727030 54.307998657 1.1219999790 1.1219999790
 2417.7775879 13.000000000 13.628000259 12.250000954 -0.001000000 0.3847506344 2.2990305424 46.612998962 117.54273987 1.1309776306 54.886001587 1.1119999886 1.1119999886
 2417.9299316 13.000000000 13.512000084 12.250000954 -0.001000000 0.3683562875 2.3079857826 43.784999847 118.62641907 1.1169792414 54.263999939 1.1030144691 1.1030144691
