# LAS format log file from PETREL
# Project units are specified as depth units
#==================================================================
~Version information
VERS.   2.0:
WRAP.   NO:
#==================================================================
~Well
STRT .m      515.45703125 :
STOP .m      3237.9299316 :
STEP .m     0.00000000 :
NULL .        -999.250000 :
COMP.           : COMPANY
WELL.  33/9-17   : WELL
FLD.            : FIELD
LOC.            : LOCATION
SRVC.           : SERVICE COMPANY
DATE.  2018-09-11 14:48:42   : Log Export Date {yyyy-MM-dd HH:mm:ss}
PROV.           : PROVINCE
UWI.   33/9-17   : UNIQUE WELL ID
API.            : API NUMBER
#==================================================================
~Curve
DEPT .m                   : DEPTH
Lithology_geolink ._      : Lithology_geolink
CALI .in                  : CALI
BS .in                    : BS
DRHO .g/cm3               : DRHO
NPHI .m3/m3               : NPHI
RHOB .g/cm3               : RHOB
PEF .b/e                  : PEF
GR .gAPI                  : GR
DTC .us/ft                : DTC
RDEP .ohm.m               : RDEP
SP .mV                    : SP
RSHA .ohm.m               : RSHA
RMED .ohm.m               : RMED
~Parameter
#==================================================================
~Ascii
# ...
 2507.0197754  -999.250000 9.3979997635 8.5000000000 -0.017999999 0.3149999976 2.4049999714  -999.250000 103.69717407 105.69999695 1.5920336246 -328.5000000 1.7440159321 1.6579999924
 2507.1721191  -999.250000 9.3750000000 8.5000000000 -0.017000001 0.3109999895 2.4070000648  -999.250000 105.47638702 106.00000000 1.5709470510 -331.7500000 1.7214134932 1.6339999437
 2507.3247070  -999.250000 9.3669996262 8.5000000000 -0.017999999 0.2960000038 2.4130001068  -999.250000 105.23974609 105.40000153 1.5574879646 -338.5000000 1.7028000355 1.6160000563
 2507.4770508  -999.250000 9.3750000000 8.5000000000 -0.015000000 0.3000000119 2.4140000343  -999.250000 104.56938171 105.40000153 1.5459038019 -348.2500000 1.6864101887 1.6019999981
 2507.6293945  -999.250000 9.4919996262 8.5000000000 -0.012000000 0.3009999990 2.4170000553  -999.250000 105.97159576 105.09999847 1.5321298838 -329.7500000 1.6704102755 1.5889999866
 2507.7817383  -999.250000 9.5389995575 8.5000000000 -0.010000000 0.2989999950 2.4189999104  -999.250000 108.35785675 105.30000305 1.5159471035 -319.0000000 1.6526122093 1.5759999752
 2507.9343262  -999.250000 9.5229997635 8.5000000000 -0.013000000 0.3000000119 2.4189999104  -999.250000 109.85847473 105.69999695 1.4989198446 -318.0000000 1.6341999769 1.5559999943
 2508.0866699  -999.250000 9.4379997253 8.5000000000 -0.010000000 0.2960000038 2.4249999523  -999.250000 109.63631439 105.49999237 1.4843039513 -321.5000000 1.6186089516 1.5379999876
 2508.2390137  -999.250000 9.4060001373 8.5000000000 -0.010000000 0.3170000017 2.4179999828  -999.250000 108.15064240 106.50000000 1.4736778736 -328.5000000 1.6076058149 1.5269999504
 2508.3913574  -999.250000 9.4449996948 8.5000000000 -0.009000000 0.3289999962 2.4260001183  -999.250000 107.25004578 105.90000153 1.4682259560 -326.2500000 1.6022019386 1.5190000534
 2508.5439453  -999.250000 9.4530000687 8.5000000000 -0.010000000 0.3409999907 2.4319999218  -999.250000 107.35446930 104.69999695 1.4664070606 -320.2500000 1.6022000313 1.5119999647
 2508.6962891  -999.250000 9.3750000000 8.5000000000 -0.006000000 0.3129999936 2.4449999332  -999.250000 108.21292877 103.80000305 1.4654079676 -320.2500000 1.6059968472 1.5089999437
 2508.8486328  -999.250000 9.3669996262 8.5000000000 -0.007000000 0.3059999943 2.4340000153  -999.250000 108.09577942 103.80000305 1.4638173580 -323.7500000 1.6109968424 1.5269999504
 2509.0009766  -999.250000 9.3669996262 8.5000000000 -0.009000000 0.3100000024 2.4200000763  -999.250000 107.47461700 105.00000000 1.4630000591 -329.5000000 1.6153974533 1.5410000086
 2509.1535645  -999.250000 9.3669996262 8.5000000000 -0.007000000 0.3269999921 2.4219999313  -999.250000 107.68598938 105.69999695 1.4641859531 -321.0000000 1.6169999838 1.5260000229
 2509.3059082  -999.250000 9.3669996262 8.5000000000 -0.005000000 0.3269999921 2.4270000458  -999.250000 108.85784912 105.80000305 1.4661840200 -319.2500000 1.6158000231 1.5310000181
 2509.4582520  -999.250000 9.3669996262 8.5000000000 -0.005000000 0.3190000057 2.4270000458  -999.250000 108.64291382 105.69999695 1.4670000076 -319.7500000 1.6144006252 1.5340000391
 2509.6105957  -999.250000 9.3669996262 8.5000000000 -0.007000000 0.3190000057 2.4260001183  -999.250000 107.50382233 106.40000916 1.4628605843 -319.7500000 1.6134006977 1.5290000439
 2509.7629395  -999.250000 9.3669996262 8.5000000000 -0.008000000 0.3300000131 2.4219999313  -999.250000 106.68090057 106.40000916 1.4523125887 -319.5000000 1.6100032330 1.5290000439
 2509.9155273  -999.250000 9.3669996262 8.5000000000 -0.008000000 0.3289999962 2.4219999313  -999.250000 107.25689697 106.90000153 1.4357339144 -325.7500000 1.5995999575 1.5319999456
 2510.0678711  -999.250000 9.3669996262 8.5000000000 -0.007000000 0.3370000124 2.4170000553  -999.250000 109.61177063 107.80000305 1.4155679941 -331.0000000 1.5772179365 1.5230000019
 2510.2202148  -999.250000 9.3669996262 8.5000000000 -0.005000000 0.3389999866 2.4210000038  -999.250000 112.82048035 108.60000610 1.3963557482 -320.0000000 1.5462211370 1.4919999838
 2510.3725586  -999.250000 9.3669996262 8.5000000000 -0.004000000 0.3449999988 2.4230000973  -999.250000 115.18545532 108.80000305 1.3795385361 -321.2500000 1.5168173313 1.4559999704
 2510.5251465  -999.250000 9.3669996262 8.5000000000 -0.007000000 0.3310000002 2.4249999523  -999.250000 113.79301453 108.90000916 1.3658845425 -324.2500000 1.4970000982 1.4329999685
 2510.6774902  -999.250000 9.3669996262 8.5000000000 -0.010000000 0.3249999881 2.4210000038  -999.250000 110.63092804 108.40000153 1.3574479818 -317.0000000 1.4880031347 1.4190000296
 2510.8298340  -999.250000 9.3669996262 8.5000000000 -0.013000000 0.3210000098 2.4210000038  -999.250000 109.52265930 107.90000153 1.3550000191 -317.2500000 1.4883973598 1.4090000391
 2510.9821777  -999.250000 9.3669996262 8.5000000000 -0.017999999 0.3269999921 2.4179999828  -999.250000 110.68708801 107.69998932 1.3585480452 -319.0000000 1.4977916479 1.4140000343
 2511.1347656  -999.250000 9.3669996262 8.5000000000 -0.017000001 0.3160000145 2.4149999619  -999.250000 112.01485443 106.80000305 1.3704870939 -318.2500000 1.5162211657 1.4349999428
 2511.2871094  -999.250000 9.3669996262 8.5000000000 -0.015000000 0.3170000017 2.4110000134  -999.250000 112.32585907 106.00000000 1.3941680193 -318.2500000 1.5460000038 1.4520000219
 2511.4394531  -999.250000 9.3669996262 8.5000000000 -0.015000000 0.3190000057 2.4089999199  -999.250000 112.76991272 105.90000153 1.4290624857 -318.2500000 1.5923653841 1.4769999981
 2511.5917969  -999.250000 9.3669996262 8.5000000000 -0.013000000 0.3280000091 2.4130001068  -999.250000 112.86090088 104.90000153 1.4745672941 -319.0000000 1.6565544605 1.5219999552
 2511.7441406  -999.250000 9.3669996262 8.5000000000 -0.008000000 0.3350000083 2.4260001183  -999.250000 111.61329651 104.00000000 1.5287067890 -318.2500000 1.7293524742 1.6009999514
 2511.8967285  -999.250000 9.3669996262 8.5000000000 -0.009000000 0.3289999962 2.4200000763  -999.250000 109.67305756 102.90000153 1.5863910913 -319.0000000 1.7979999781 1.6710000038
 2512.0490723  -999.250000 9.3669996262 8.5000000000 -0.008000000 0.3120000064 2.4230000973  -999.250000 107.70743561 102.99999237 1.6437439919 -319.2500000 1.8575640917 1.7220000029
 2512.2014160  -999.250000 9.3669996262 8.5000000000 -0.010000000 0.2989999950 2.4170000553  -999.250000 105.13709259 102.59999847 1.7007067204 -318.0000000 1.9099678993 1.7719999552
 2512.3537598  -999.250000 9.3669996262 8.5000000000 -0.013000000 0.2910000086 2.4419999123  -999.250000 103.49282837 100.90000153 1.7571153641 -322.0000000 1.9581698179 1.8200000525
 2512.5063477  -999.250000 9.3669996262 8.5000000000 -0.013000000 0.2860000134 2.4719998837  -999.250000 104.13774109 99.900001526 1.8078685999 -211.6250000 2.0058000088 1.8519999981
 2512.6586914  -999.250000 9.3669996262 8.5000000000 -0.011000000 0.2860000134 2.4900000095  -999.250000 105.72793579 99.300003052 1.8465360403 50.062999725 2.0507724285 1.8930000067
 2512.8110352  -999.250000 9.3669996262 8.5000000000 -0.013000000 0.2870000005 2.4679999352  -999.250000 105.48693085 99.900001526 1.8747836351 -313.5000000 2.0847821236 1.9559999704
 2512.9633789  -999.250000 9.3669996262 8.5000000000 -0.013000000 0.3079999983 2.4409999847  -999.250000 103.73338318 100.59999847 1.8980095387 -315.7500000 2.1049904823 1.9839999676
 2513.1159668  -999.250000 9.3669996262 8.5000000000 -0.010000000 0.2910000086 2.4349999428  -999.250000 102.38788605 101.30000305 1.9200448990 -321.7500000 2.1218173504 1.9720000029
 2513.2683105  -999.250000 9.3669996262 8.5000000000 -0.007000000 0.3039999902 2.4330000877  -999.250000 101.45025635 101.19999695 1.9396560192 -333.0000000 2.1469998360 1.9769999981
 2513.4206543  -999.250000 9.3669996262 8.5000000000 -0.012000000 0.2960000038 2.4319999218  -999.250000 100.77433014 100.49999237 1.9535048008 -257.5000000 2.1793782711 2.0099999905
 2513.5729980  -999.250000 9.3669996262 8.5000000000 -0.007000000 0.3149999976 2.4409999847  -999.250000 102.28490448 100.49999237 1.9603654146 119.50000000 2.2043879032 2.0510001183
