# LAS format log file from PETREL
# Project units are specified as depth units
#==================================================================
~Version information
VERS.   2.0:
WRAP.   NO:
#==================================================================
~Well
STRT .m      785.37786865 :
STOP .m      3526.7492676 :
STEP .m     0.00000000 :
NULL .        -999.250000 :
COMP.           : COMPANY
WELL.  33/9-11   : WELL
FLD.            : FIELD
LOC.            : LOCATION
SRVC.           : SERVICE COMPANY
DATE.  2018-09-11 14:48:42   : Log Export Date {yyyy-MM-dd HH:mm:ss}
PROV.           : PROVINCE
UWI.   33/9-11   : UNIQUE WELL ID
API.            : API NUMBER
#==================================================================
~Curve
DEPT .m                   : DEPTH
Lithology_geolink ._      : Lithology_geolink
CALI .in                  : CALI
DRHO .g/cm3               : DRHO
NPHI .m3/m3               : NPHI
RHOB .g/cm3               : RHOB
GR .gAPI                  : GR
DTC .us/ft                : DTC
RDEP .ohm.m               : RDEP
SP .mV                    : SP
RSHA .ohm.m               : RSHA
RMED .ohm.m               : RMED
~Parameter
#==================================================================
~Ascii
# ...
 1920.1483154  -999.250000 16.573999405 0.0370192155 0.4030817151 2.3169903755 45.108211517 113.35508728 1.2300192118 34.520179749 1.4379670620 1.4379670620
 1920.3006592  -999.250000 16.778999329 0.0449935906 0.4037793279 2.3129999638 47.154079437 117.46609497 1.2540023327 34.747451782 1.3969687223 1.3969687223
 1920.4531250  -999.250000 16.672000885 0.0409519635 0.3908786774 2.3129470348 49.747844696 122.26531219  -999.250000 35.162334442  -999.250000  -999.250000
 1920.6054688  -999.250000  -999.250000 0.0209967941 0.3820148706 2.2909710407  -999.250000  -999.250000  -999.250000  -999.250000  -999.250000  -999.250000
 1920.7579346  -999.250000 16.555999756 0.0190024022 0.3788246810 2.2730071545  -999.250000  -999.250000 1.2399920225  -999.250000 1.3319903612 1.3319903612
 1920.9102783  -999.250000 16.490999222 0.0199951921 0.3807838559 2.2760081291 50.425949097 122.74908447 1.2350184917 36.414520264 1.3260111809 1.3260111809
 1921.0627441  -999.250000 16.357999802 0.0169951972 0.3894291818 2.2810142040 48.371295929 122.00120544 1.2580672503 36.169391632 1.3400256634 1.3400256634
 1921.2150879  -999.250000 16.295000076 0.0150064100 0.3973956406 2.2870175838 46.994205475 122.85462952 1.3000528812 36.218921661 1.3560664654 1.3560664654
 1921.3675537  -999.250000 16.142999649 0.0190168135 0.4009121954 2.2980384827 47.980411530 127.63533020 1.3660016060 35.992362976 1.4392865896 1.4392865896
 1921.5198975  -999.250000 16.118000031 0.0260112192 0.3934878409 2.3140368462 47.643543243 123.46470642 1.3669919968 36.317478180 1.6181946993 1.6181946993
 1921.6722412  -999.250000 16.048999786 0.0330112167 0.3734264672 2.3370287418 46.917747498 118.17073059 1.3569831848 36.434719086 1.8610320091 1.8610320091
 1921.8247070  -999.250000 16.027000427 0.0400192142 0.3587796092 2.3549952507 45.622074127 112.16661835  -999.250000 35.880889893  -999.250000  -999.250000
 1921.9770508  -999.250000  -999.250000 0.0480112173 0.3669532835 2.3529663086  -999.250000  -999.250000  -999.250000  -999.250000  -999.250000  -999.250000
 1922.1295166  -999.250000 16.343000412 0.0549951941 0.3877137303 2.3319470882  -999.250000  -999.250000 1.3109840155  -999.250000 1.6617788076 1.6617788076
 1922.2818604  -999.250000 16.697999954 0.0529855751 0.4017212093 2.3099741936 47.497402191 120.56903076 1.2909655571 35.136344910 1.3858494759 1.3858494759
 1922.4343262  -999.250000 16.743999481 0.0440072045 0.4087106586 2.2940022945 49.025554657 128.05001831 1.2478942871 35.390590668 1.1980103254 1.1980103254
 1922.5866699  -999.250000 16.975000381 0.0470160246 0.4089815021 2.2950193882 48.031398773 130.56996155 1.1159703732 35.958633423 1.2109799385 1.2109799385
 1922.7391357  -999.250000 16.839000702 0.0570072047 0.4036699533 2.3070023060 47.112472534 127.55084991 1.0789999962 35.854171753 1.1859616041 1.1859616041
 1922.8914795  -999.250000 16.559000015 0.0600064099 0.3953376412 2.3080031872 47.152900696 126.08352661 1.0790008307 35.525791168 1.1620119810 1.1620119810
 1923.0439453  -999.250000 16.629999161 0.0639711767 0.3876183331 2.3099951744 46.980278015 128.35833740  -999.250000 35.483070374  -999.250000  -999.250000
 1923.1962891  -999.250000  -999.250000 0.0519807711 0.3827549219 2.3079984188  -999.250000  -999.250000  -999.250000  -999.250000  -999.250000  -999.250000
 1923.3487549  -999.250000 16.902000427 0.0400096066 0.3795722127 2.3070454597  -999.250000  -999.250000 1.0870256424  -999.250000 1.2351297140 1.2351297140
 1923.5010986  -999.250000 16.934000015 0.0439951904 0.3763278127 2.3260223866 46.499420166 125.12634277 1.1030209064 35.752861023 1.3160376549 1.3160376549
 1923.6534424  -999.250000 16.788000107 0.0409855768 0.3687425256 2.3399918079 46.685550690 121.29319763 1.1290287971 36.036315918 1.3630080223 1.3630080223
 1923.8059082  -999.250000 16.599000931 0.0319807865 0.3703313470 2.3349759579 48.255481720 117.54300690 1.1650568247 36.687953949 1.3730056286 1.3730056286
 1923.9582520  -999.250000 16.110000610 0.0239967946 0.3750182092 2.3249888420 48.574237823 119.79556274 1.2360191345 36.998256683 1.3800183535 1.3800183535
 1924.1107178  -999.250000 15.892999649 0.0220096074 0.3676800132 2.3180000782 48.361343384 120.94116974 1.2600088120 36.541732788 1.4030408859 1.4030408859
 1924.2630615  -999.250000 15.689999580 0.0260128211 0.3676995933 2.3180065155 47.712558746 121.99646759 1.2710064650 36.251697540 1.4540159702 1.4540159702
 1924.4155273  -999.250000 15.642000198 0.0340144150 0.3799322248 2.3220095634 46.855373383 122.27954865  -999.250000 35.973445892  -999.250000  -999.250000
 1924.5678711  -999.250000  -999.250000 0.0400016010 0.3974900246 2.3260016441  -999.250000  -999.250000  -999.250000  -999.250000  -999.250000  -999.250000
 1924.7203369  -999.250000 15.618000031 0.0409951955 0.4099209607 2.3269927502  -999.250000  -999.250000 1.2920144796  -999.250000 1.4520032406 1.4520032406
 1924.8726807  -999.250000 15.604000092 0.0389887840 0.4019870460 2.3239774704 47.396434784 118.86088562 1.3009967804 36.066551208 1.4540128708 1.4540128708
 1925.0251465  -999.250000 15.680999756 0.0319903940 0.3877029121 2.3099734783 47.430946350 119.22740173 1.2969791889 36.318595886 1.4700272083 1.4700272083
 1925.1774902  -999.250000 15.729998589 0.0280160271 0.3930841982 2.2990047932 47.132717133 117.86528015 1.2839679718 36.421752930 1.4869366884 1.4869366884
 1925.3299561  -999.250000 15.815999985 0.0379927941 0.4081717134 2.3019905090 46.068706512 120.58362579 1.2439583540 35.381671906 1.4078847170 1.4078847170
 1925.4822998  -999.250000 15.994000435 0.0349775627 0.4130105972 2.2979872227 45.838184357 122.57340240 1.2179776430 35.015583038 1.3359783888 1.3359783888
 1925.6346436  -999.250000 16.018999100 0.0209951960 0.4008688033 2.2900080681 45.222988129 124.00170898 1.1899864674 35.003028870 1.3090040684 1.3090040684
 1925.7871094  -999.250000 15.832000732 0.0180208329 0.3814020157 2.2950272560 44.984191895 127.15047455  -999.250000 35.349441528  -999.250000  -999.250000
 1925.9394531  -999.250000  -999.250000 0.0310224351 0.3701954186 2.3120319843  -999.250000  -999.250000  -999.250000  -999.250000  -999.250000  -999.250000
 1926.0919189  -999.250000 15.685999870 0.0450120121 0.3673373163 2.3320217133  -999.250000  -999.250000 1.1669952869  -999.250000 1.3170047998 1.3170047998
 1926.2442627  -999.250000 15.637000084 0.0499919876 0.3662249446 2.3409984112 46.132621765 123.08246613 1.1610000134 35.901782990 1.3230063915 1.3230063915
 1926.3967285  -999.250000 15.567000389 0.0449783839 0.3693156838 2.3399686813 46.687557220 122.72029877 1.1610240936 35.846092224 1.3310184479 1.3310184479
 1926.5490723  -999.250000 15.463998795 0.0359919854 0.3800005019 2.3269839287 45.563899994 120.23599243 1.1910176277 36.177734375 1.3540127277 1.3540127277
 1926.7015381  -999.250000 15.527000427 0.0309783816 0.3927923143 2.3169927597 45.607967377 121.71181488 1.2130200863 36.256935120 1.3700184822 1.3700184822
 1926.8538818  -999.250000 15.553999901 0.0219887812 0.3978908062 2.3139967918 44.990497589 121.98477936 1.2380232811 36.096130371 1.3930312395 1.3930312395
 1927.0063477  -999.250000 15.512000084 0.0149879903 0.3921301663 2.3119976521 44.581329346 123.83351898  -999.250000 36.183929443  -999.250000  -999.250000
 1927.1586914  -999.250000  -999.250000 0.0099951923 0.3838886321 2.3109970093  -999.250000  -999.250000  -999.250000  -999.250000  -999.250000  -999.250000
 1927.3111572  -999.250000 15.411000252 0.0070096077 0.3830460012 2.3089928627  -999.250000  -999.250000 1.3050576448  -999.250000 1.4600672722 1.4600672722
 1927.4635010  -999.250000 15.326999664 0.0110112177 0.3855218291 2.3060176373 45.366512299 119.87648010 1.3410215378 36.563899994 1.5020368099 1.5020368099
 1927.6159668  -999.250000 15.288999557 0.0180168133 0.3803920448 2.3170359135 46.307247162 117.55685425 1.3680272102 36.573993683 1.5480464697 1.5480464697
 1927.7683105  -999.250000 15.177000046 0.0250096153 0.3729247451 2.3320224285 45.260837555 116.46487427 1.3850208521 36.707893372 1.5771530867 1.5771530867
