# LAS format log file from PETREL
# Project units are specified as depth units
#==================================================================
~Version information
VERS.   2.0:
WRAP.   NO:
#==================================================================
~Well
STRT .m      1740.8350830 :
STOP .m      3359.4750977 :
STEP .m     0.00000000 :
NULL .        -999.250000 :
COMP.           : COMPANY
WELL.  33/9-6   : WELL
FLD.            : FIELD
LOC.            : LOCATION
SRVC.           : SERVICE COMPANY
DATE.  2018-09-11 14:48:43   : Log Export Date {yyyy-MM-dd HH:mm:ss}
PROV.           : PROVINCE
UWI.   33/9-6   : UNIQUE WELL ID
API.            : API NUMBER
#==================================================================
~Curve
DEPT .m                   : DEPTH
Lithology_geolink ._      : Lithology_geolink
CALI .in                  : CALI
DRHO .g/cm3               : DRHO
NPHI .m3/m3               : NPHI
RHOB .g/cm3               : RHOB
GR .gAPI                  : GR
DTC .us/ft                : DTC
RDEP .ohm.m               : RDEP
SP .mV                    : SP
RSHA .ohm.m               : RSHA
RMED .ohm.m               : RMED
~Parameter
#==================================================================
~Ascii
# ...
 2813.4260254  -999.250000 13.995000839 -0.017000001 0.3486199975 2.3429839611 59.408000946 99.908996582 1.5829999447 81.325996399 1.6169999838 1.6169999838
 2813.5783691  -999.250000 14.034000397 -0.015000000 0.3501100242 2.3469934464 61.979999542 97.810997009 1.6180000305 81.317001343 1.7439999580 1.7439999580
 2813.7307129  -999.250000 14.028999329 -0.017999999 0.3622300029 2.3450064659 62.256999969 97.032997131 1.6540000439 81.150001526 1.8480000496 1.8480000496
 2813.8833008  -999.250000 14.063000679 -0.023000000 0.3713399768 2.3250319958 59.862998962 97.810997009 1.6790000200 81.047996521 1.8860000372 1.8860000372
 2814.0356445  -999.250000 14.072999954 -0.032000002 0.3738000095 2.3140175343 59.381000519 97.940002441 1.7239999771 81.150001526 1.8639999628 1.8639999628
 2814.1879883  -999.250000 14.279999733 -0.035000000 0.3521200120 2.3339681625 58.800998688 98.140998840 1.7280000448 80.981002808 1.8450000286 1.8450000286
 2814.3403320  -999.250000 14.270000458 -0.027000001 0.3309299946 2.3599166870 58.381999969 98.140998840 1.7280000448 80.861000061 1.8229999542 1.8229999542
 2814.4929199  -999.250000 14.071999550 -0.021000000 0.3110100031 2.3649919033 57.722000122 98.140998840 1.7039999962 80.707000732 1.8049999475 1.8049999475
 2814.6452637  -999.250000 14.281001091 -0.017000001 0.3202799857 2.3659982681 55.001998901 98.456001282 1.6499999762 80.553001404 1.7860000134 1.7860000134
 2814.7976074  -999.250000 14.309000015 -0.028000001 0.3295800090 2.3460319042 52.451999664 98.846000671 1.6380000114 80.750000000 1.7680000067 1.7680000067
 2814.9499512  -999.250000 14.229999542 -0.035999998 0.3388499916 2.3459999561 51.505001068 99.402999878 1.6150000095 80.722000122 1.7239999771 1.7239999771
 2815.1022949  -999.250000 14.229000092 -0.034000002 0.3441599905 2.3559679985 51.859001160 101.68800354 1.6119999886 80.527000427 1.6269999743 1.6269999743
 2815.2548828  -999.250000 14.155000687 -0.027000001 0.3420999944 2.3579969406 52.395000458 102.27500153 1.6050000191 80.551002502 1.5820000172 1.5820000172
 2815.4072266  -999.250000 14.149000168 -0.017000001 0.3336000144 2.3619935513 52.051998138 101.35600281 1.5989999771 80.593002319 1.6289999485 1.6289999485
 2815.5595703  -999.250000 14.128999710 -0.009000000 0.3265000284 2.3769760132 51.797000885 99.046997070 1.5900000334 80.750000000 1.7450000048 1.7450000048
 2815.7119141  -999.250000 14.204999924 -0.006000000 0.3369300067 2.3899586201 52.925998688 97.485000610 1.5800000429 80.910003662 1.8220000267 1.8220000267
 2815.8645020  -999.250000 14.227000237 -0.009000000 0.3473699987 2.3949918747 54.590999603 97.972000122 1.5770000219 80.949996948 1.8259999752 1.8259999752
 2816.0168457  -999.250000 14.168000221 -0.005000000 0.3578099906 2.3979952335 54.581001282 99.120002747 1.5770000219 80.949996948 1.8259999752 1.8259999752
 2816.1691895  -999.250000 14.166999817 -0.005000000 0.3503400087 2.3980000019 54.618000031 101.27499390 1.5839999914 80.849998474 1.7580000162 1.7580000162
 2816.3215332  -999.250000 14.326000214 -0.011000000 0.3404600024 2.3920192719 55.787998199 101.55300140 1.5909999609 80.750000000 1.6660000086 1.6660000086
 2816.4741211  -999.250000 14.147000313 -0.015000000 0.3300099969 2.3720319271 55.847999573 101.34100342 1.5920000076 80.949996948 1.6109999418 1.6109999418
 2816.6264648  -999.250000 14.145999908 -0.009000000 0.3306300044 2.3670082092 56.263999939 100.92700195 1.5939999819 80.637001038 1.6210000515 1.6210000515
 2816.7788086  -999.250000 14.166999817 -0.010000000 0.3316099942 2.3679983616 56.972000122 99.736000061 1.5920000076 80.551002502 1.6799999475 1.6799999475
 2816.9311523  -999.250000 14.204999924 -0.015000000 0.3299899995 2.3660030365 58.894001007 98.737998962 1.6030000448 81.080001831 1.7790000439 1.7790000439
 2817.0834961  -999.250000 14.204999924 -0.017000001 0.3297300041 2.3789584637 58.734001160 98.261001587 1.6160000563 81.168998718 1.8040000200 1.8040000200
 2817.2360840  -999.250000 14.284000397 -0.025000000 0.3324800134 2.3760046959 57.840000153 98.439002991 1.6219999790 81.248001099 1.8009999990 1.8009999990
 2817.3884277  -999.250000 14.264000893 -0.030999999 0.3346000016 2.3690111637 57.020999908 98.603004456 1.6260000467 81.820999146 1.7860000134 1.7860000134
 2817.5407715  -999.250000 14.223999977 -0.037000000 0.3394200206 2.3460369110 56.201999664 101.26699829 1.6339999437 81.748001099 1.7690000534 1.7690000534
 2817.6931152  -999.250000 14.243000031 -0.033000000 0.3502500057 2.3310480118 55.178001404 102.06600189 1.6419999599 81.549003601 1.6250000000 1.6250000000
 2817.8457031  -999.250000 14.192000389 -0.022000000 0.3493199944 2.3359918594 54.566001892 101.66600037 1.6369999647 81.564002991 1.5549999475 1.5549999475
 2817.9980469  -999.250000 14.168998718 -0.016000001 0.3421099782 2.3559679985 54.390998840 101.34200287 1.6349999905 81.749000549 1.5900000334 1.5900000334
 2818.1503906  -999.250000 14.156000137 -0.020000000 0.3352299929 2.3849534988 54.328998566 98.986000061 1.6299999952 81.549003601 1.7319999933 1.7319999933
 2818.3027344  -999.250000 14.083000183 -0.017000001 0.3296900094 2.3909807205 52.659000397 97.025001526 1.6380000114 81.549003601 1.8420000076 1.8420000076
 2818.4553223  -999.250000 14.100000381 -0.015000000 0.3305000067 2.4049775600 51.145000458 97.527000427 1.6519999504 81.749000549 1.8780000210 1.8780000210
 2818.6076660  -999.250000 14.170000076 -0.023000000 0.3313800097 2.3960142136 51.198001862 98.235000610 1.6599999666 81.749000549 1.8569999933 1.8569999933
 2818.7600098  -999.250000 14.220999718 -0.026000001 0.3313300014 2.3840193748 51.597000122 98.435997009 1.6670000553 81.749000549 1.8439999819 1.8439999819
 2818.9123535  -999.250000 14.201000214 -0.028999999 0.3287099898 2.3720192909 51.597000122 98.435997009 1.6640000343 81.549003601 1.8350000381 1.8350000381
 2819.0649414  -999.250000 14.250000000 -0.035000000 0.3154500127 2.3690047264 52.145999908 98.614997864 1.6579999924 81.491996765 1.8350000381 1.8350000381
 2819.2172852  -999.250000 14.246999741 -0.028000001 0.2987799942 2.3739919662 52.587001801 98.839004517 1.6460000277 81.549003601 1.8240000010 1.8240000010
 2819.3696289  -999.250000 14.199001312 -0.015000000 0.3046999872 2.4059486389 54.090999603 98.847999573 1.6360000372 81.473999023 1.8059999943 1.8059999943
 2819.5219727  -999.250000 14.199001312 -0.011000000 0.3110800087 2.3910241127 54.613998413 99.178001404 1.6260000467 81.448997498 1.7719999552 1.7719999552
 2819.6743164  -999.250000 14.145999908 -0.020000000 0.3191100061 2.3770449162 55.029998779 99.774009705 1.6260000467 81.541999817 1.7250000238 1.7250000238
 2819.8269043  -999.250000 14.172000885 -0.027000001 0.3256100118 2.3799953461 55.247001648 100.04900360 1.6230000257 81.549003601 1.7059999704 1.7059999704
 2819.9792480  -999.250000 14.197999954 -0.026000001 0.3315500021 2.3730111122 55.388999939 100.04799652 1.6239999533 81.348999023 1.7039999962 1.7039999962
 2820.1315918  -999.250000 14.079000473 -0.015000000 0.3319599926 2.3749969006 55.096000671 99.888999939 1.6299999952 81.448997498 1.7339999676 1.7339999676
 2820.2839355  -999.250000 14.055000305 -0.003000000 0.3246099949 2.3849680424 54.390998840 99.443000793 1.6360000372 81.448997498 1.7710000277 1.7710000277
 2820.4365234  -999.250000 14.038000107 -0.006000000 0.3206600249 2.3939857483 54.521999359 99.263999939 1.6449999809 81.411003113 1.7999999523 1.7999999523
 2820.5888672  -999.250000 14.057999611 -0.017999999 0.3188900054 2.3900065422 56.897998810 98.864997864 1.6590000391 81.448997498 1.8170000315 1.8170000315
 2820.7412109  -999.250000 13.998001099 -0.029999999 0.3201100230 2.3890016079 58.539001465 98.634994507 1.6679999828 81.504997253 1.8289999962 1.8289999962
 2820.8935547  -999.250000 14.076000214 -0.023000000 0.3232799768 2.3830192089 58.208000183 98.634002686 1.6749999523 81.549003601 1.8470000029 1.8470000029
 2821.0461426  -999.250000 14.076998711 -0.010000000 0.3290100098 2.3859951496 57.784000397 98.634002686 1.6820000410 81.549003601 1.8559999466 1.8559999466
