# LAS format log file from PETREL
# Project units are specified as depth units
#==================================================================
~Version information
VERS.   2.0:
WRAP.   NO:
#==================================================================
~Well
STRT .m      457.60995483 :
STOP .m      3127.1992188 :
STEP .m     0.00000000 :
NULL .        -999.250000 :
COMP.           : COMPANY
WELL.  33/9-1   : WELL
FLD.            : FIELD
LOC.            : LOCATION
SRVC.           : SERVICE COMPANY
DATE.  2018-09-11 14:48:42   : Log Export Date {yyyy-MM-dd HH:mm:ss}
PROV.           : PROVINCE
UWI.   33/9-1   : UNIQUE WELL ID
API.            : API NUMBER
#==================================================================
~Curve
DEPT .m                   : DEPTH
Lithology_geolink ._      : Lithology_geolink
CALI .in                  : CALI
BS .in                    : BS
DRHO .g/cm3               : DRHO
NPHI .m3/m3               : NPHI
RHOB .g/cm3               : RHOB
GR .gAPI                  : GR
DTC .us/ft                : DTC
RDEP .ohm.m               : RDEP
SP .mV                    : SP
RSHA .ohm.m               : RSHA
RMED .ohm.m               : RMED
~Parameter
#==================================================================
~Ascii
# ...
 2586.3320313 1.0000000000 11.925000191 12.250000954 -0.048999999 0.2968400121 2.0829999447 28.322000504 106.66440582 74.047660828 57.713001251 30.726999283 30.726999283
 2586.4843750 1.0000000000 11.928999901 12.250000954 -0.054000001 0.3011400104 2.0880000591 28.937000275 106.91540527 75.080932617 57.166999817 30.724000931 30.724000931
 2586.6367188 1.0000000000 11.939000130 12.250000954 -0.050000001 0.2919899821 2.0999999046 27.495000839 107.16767120 74.417678833 56.366001129 31.607999802 31.607999802
 2586.7893066 1.0000000000 11.961999893 12.250000954 -0.041999999 0.2885099947 2.1110000610 24.809999466 107.58708191 76.723991394 56.095001221 31.864000320 31.864000320
 2586.9416504 1.0000000000 11.994001389 12.250000954 -0.035999998 0.2925699949 2.1070001125 23.115999222 107.92169189 81.093330383 56.162998199 32.153999329 32.153999329
 2587.0939941 1.0000000000 12.020000458 12.250000954 -0.035999998 0.2967599928 2.0940001011 22.958000183 108.35427856 87.543144226 56.160999298 32.445999146 32.445999146
 2587.2463379 1.0000000000 12.038000107 12.250000954 -0.046016026 0.2995499969 2.0789999962 24.180999756 107.90036011 96.983932495 56.007999420 32.741001129 32.741001129
 2587.3986816 1.0000000000 12.045998573 12.250000954 -0.055991989 0.3008300066 2.0699999332 25.121999741 108.12631989 100.05029297 57.229000092 32.921001434 32.921001434
 2587.5512695 1.0000000000 12.046999931 12.250000954 -0.050999999 0.3017100096 2.0759999752 25.379999161 108.32346344 94.602691650 57.237998962 33.034999847 33.034999847
 2587.7036133 1.0000000000 12.045998573 12.250000954 -0.050999999 0.3034400046 2.0720000267 24.306999207 108.15655518 86.722366333 56.590999603 33.335998535 33.335998535
 2587.8559570 1.0000000000 12.042000771 12.250000954 -0.050990384 0.3060699999 2.0780000687 25.163000107 107.88248444 88.205886841 56.349998474 33.332000732 33.332000732
 2588.0083008 1.0000000000 12.038000107 12.250000954 -0.044990387 0.2976499796 2.0899999142 23.982999802 107.55319214 93.131378174 56.800998688 33.327999115 33.327999115
 2588.1608887 1.0000000000 12.032999992 12.250000954 -0.039016001 0.2878099978 2.1010000706 23.746999741 107.67092896 98.989967346 57.858001709 33.325000763 33.325000763
 2588.3132324 1.0000000000 12.029000282 12.250000954 -0.044012818 0.2781200111 2.0950000286 23.006000519 107.96202850 103.95999146 58.976001740 33.627998352 33.627998352
 2588.4655762 1.0000000000 12.026000023 12.250000954 -0.051998399 0.2850300074 2.0859999657 21.989000320 107.97591400 101.45338440 58.758998871 33.624000549 33.624000549
 2588.6179199 1.0000000000 12.022999763 12.250000954 -0.050993588 0.2879900038 2.0869998932 23.065000534 107.29874420 93.581001282 58.354000092 33.619998932 33.619998932
 2588.7705078 1.0000000000 12.020000458 12.250000954 -0.046983998 0.2798199952 2.0940001011 23.677000046 107.13852692 87.968971252 57.749000549 33.617000580 33.617000580
 2588.9228516 1.0000000000 12.017999649 12.250000954 -0.041991986 0.2758899927 2.1050000191 23.863000870 106.99120331 84.840347290 56.964000702 33.305999756 33.305999756
 2589.0751953 1.0000000000 12.015999794 12.250000954 -0.037001602 0.2768799961 2.1089999676 24.510000229 106.50241852 81.933692932 56.352001190 33.303001404 33.303001404
 2589.2275391 1.0000000000 12.012999535 12.250000954 -0.038009614 0.2860600054 2.0969998837 25.176000595 106.14181519 78.619827271 56.132999420 33.298999786 33.298999786
 2589.3798828 1.0000000000 12.010999680 12.250000954 -0.044006411 0.2788499892 2.0850000381 26.458999634 106.03024292 75.405616760 56.729999542 32.991001129 32.991001129
 2589.5324707 1.0000000000 12.008999825 12.250000954 -0.048009600 0.2733899951 2.0889999866 27.816999435 106.18186188 80.165321350 57.326000214 32.987998962 32.987998962
 2589.6848145 1.0000000000 12.007999420 12.250000954 -0.051003203 0.2832700014 2.0869998932 26.999000549 106.45054626 85.561477661 57.523998260 32.818000793 32.818000793
 2589.8371582 1.0000000000 12.005999565 12.250000954 -0.053004809 0.2931599915 2.0840001106 25.621999741 106.79682159 85.845214844 57.979000092 32.680000305 32.680000305
 2589.9895020 1.0000000000 12.003999710 12.250000954 -0.056004811 0.2935300171 2.0799999237 27.429000854 107.31171417 76.622123718 58.807998657 32.377998352 32.377998352
 2590.1420898 1.0000000000 12.003000259 12.250000954 -0.059012800 0.2881799936 2.0699999332 29.638999939 107.75801086 69.836868286 57.518001556 32.078998566 32.078998566
 2590.2944336 1.0000000000 12.001001358 12.250000954 -0.063000001 0.2896400094 2.0590000153 28.385999680 107.44742584 67.334556580 58.714000702 32.075000763 32.075000763
 2590.4467773 1.0000000000 12.000000000 12.250000954 -0.062990382 0.2808800042 2.0529999733 26.291000366 106.46703339 87.038894653 58.486000061 31.778999329 31.778999329
 2590.5991211 1.0000000000 11.997999191 12.250000954 -0.056996796 0.2700900137 2.0620000362 23.274000168 105.23703003 116.31980896 58.740001678 31.486000061 31.486000061
 2590.7517090 1.0000000000 11.996999741 12.250000954 -0.054987200 0.2697100043 2.0739998817 21.410999298 104.01136780 157.46609497 59.106998444 31.482000351 31.482000351
 2590.9040527 1.0000000000 11.997999191 12.250000954 -0.051004808 0.2734099925 2.0850000381 19.583999634 103.81508636 202.34165955 59.104999542 31.068000793 31.068000793
 2591.0563965 1.0000000000 12.001001358 12.250000954 -0.053982373 0.2616800070 2.0789999962 19.447999954 104.49245453 197.07681274 59.071998596 30.900999069 30.900999069
 2591.2087402 1.0000000000 12.003999710 12.250000954 -0.042990386 0.2550300062 2.0869998932 21.100999832 105.40145874 158.20570374 58.643001556 30.143999100 30.143999100
 2591.3610840 1.0000000000 12.007999420 12.250000954 -0.037014399 0.2587200105 2.1070001125 23.233999252 106.31034851 82.585937500 58.354000092 29.778999329 29.778999329
 2591.5136719 1.0000000000 12.010999680 12.250000954 -0.046024039 0.2710600197 2.1319999695 25.978000641 107.15190125 48.808856964 58.698001862 28.618999481 28.618999481
 2591.6660156 1.0000000000 12.013999939 12.250000954 -0.060987182 0.2896600068 2.1600000858 29.628000259 106.46685791 23.792573929 58.716999054 27.753999710 27.753999710
 2591.8183594 1.0000000000 12.017000198 12.250000954 -0.053003203 0.2895999849 2.1870000362 31.322000504 106.99669647 19.171697617 58.893001556 26.754999161 26.754999161
 2591.9707031 1.0000000000 12.005999565 12.250000954 -0.055016026 0.2793099880 2.1830000877 32.910999298 106.80377960 22.111267090 58.890998840 26.267000198 26.267000198
 2592.1232910 1.0000000000 11.989000320 12.250000954 -0.065009594 0.2690600157 2.1559998989 28.766000748 104.80133057 30.411582947 58.876998901 25.933000565 25.933000565
 2592.2756348 1.0000000000 11.998999596 12.250000954 -0.067998402 0.2588999867 2.1349999905 25.084999084 105.21256256 41.195384979 58.287998199 25.788999557 25.788999557
 2592.4279785 1.0000000000 12.116000175 12.250000954 -0.066996798 0.2564200163 2.1219999790 23.059999466 103.69436646 48.294410706 59.070999146 25.687999725 25.687999725
 2592.5803223 1.0000000000 12.135000229 12.250000954 -0.064999998 0.2603799999 2.1259999275 22.589000702 102.67790222 51.047260284 58.266998291 26.054000854 26.054000854
 2592.7329102 1.0000000000 12.079000473 12.250000954 -0.064996801 0.2567499876 2.1349999905 23.750999451 103.24013519 54.329101563 57.673999786 26.527999878 26.527999878
 2592.8852539 1.0000000000 12.012999535 12.250000954 -0.064000003 0.2600300014 2.1410000324 24.329999924 102.97157288 55.607631683 57.082000732 26.878999710 26.878999710
 2593.0375977 1.0000000000 11.996000290 12.250000954 -0.063995197 0.2639299929 2.1389999390 24.399000168 103.32952881 56.001804352 56.683998108 27.249000549 27.249000549
 2593.1899414 1.0000000000 11.970998764 12.250000954 -0.060988784 0.2598899901 2.1349999905 23.179000854 103.66263580 56.501426697 56.680000305 27.618999481 27.618999481
 2593.3425293 1.0000000000 11.958000183 12.250000954 -0.053977601 0.2530100048 2.1400001049 22.094999313 103.43411255 55.512603760 56.078998566 27.993000031 27.993000031
 2593.4948730 1.0000000000 11.944999695 12.250000954 -0.047012817 0.2536300123 2.1500000954 21.014999390 103.15561676 52.274353027 54.888000488 28.379999161 28.379999161
