# LAS format log file from PETREL
# Project units are specified as depth units
#==================================================================
~Version information
VERS.   2.0:
WRAP.   NO:
#==================================================================
~Well
STRT .m      785.37786865 :
STOP .m      3526.7492676 :
STEP .m     0.00000000 :
NULL .        -999.250000 :
COMP.           : COMPANY
WELL.  33/9-11   : WELL
FLD.            : FIELD
LOC.            : LOCATION
SRVC.           : SERVICE COMPANY
DATE.  2018-09-11 14:48:42   : Log Export Date {yyyy-MM-dd HH:mm:ss}
PROV.           : PROVINCE
UWI.   33/9-11   : UNIQUE WELL ID
API.            : API NUMBER
#==================================================================
~Curve
DEPT .m                   : DEPTH
Lithology_geolink ._      : Lithology_geolink
CALI .in                  : CALI
DRHO .g/cm3               : DRHO
NPHI .m3/m3               : NPHI
RHOB .g/cm3               : RHOB
GR .gAPI                  : GR
DTC .us/ft                : DTC
RDEP .ohm.m               : RDEP
SP .mV                    : SP
RSHA .ohm.m               : RSHA
RMED .ohm.m               : RMED
~Parameter
#==================================================================
~Ascii
# ...
 2852.8364258  -999.250000 13.095999718 0.0480000004 0.3002299964 2.5020000935 50.344001770 95.633003235 1.7589999437 46.581001282 2.0899999142 2.0899999142
 2852.9887695  -999.250000 13.079000473 0.0560000017 0.3016799986 2.5139999390 49.256999969 95.356994629 1.7790000439 46.500999451 2.1059999466 2.1059999466
 2853.1411133  -999.250000 13.062999725 0.0619999990 0.3075000048 2.5120000839 48.455001831 95.723999023 1.7899999619 46.777000427 2.1059999466 2.1059999466
 2853.2934570  -999.250000 13.048000336 0.0549999997 0.3107999861 2.4990000725 48.384998322 95.398002625 1.7910000086 47.437999725 2.0999999046 2.0999999046
 2853.4460449  -999.250000 13.036999702 0.0359999985 0.3110899925 2.4790000916 48.977001190 95.281997681 1.7879999876 47.783000946 2.0929999352 2.0929999352
 2853.5983887  -999.250000 13.029999733 0.0280000009 0.3127099872 2.4709999561 50.087001801 94.749000549 1.7819999456 47.715000153 2.0859999657 2.0859999657
 2853.7507324  -999.250000 13.016999245 0.0309999995 0.3167499900 2.4749999046 51.104999542 94.575996399 1.7749999762 47.514999390 2.0789999962 2.0789999962
 2853.9030762  -999.250000 12.996001244 0.0410000011 0.3238600194 2.4839999676 51.609001160 94.792999268 1.7669999599 47.313999176 2.0690000057 2.0690000057
 2854.0556641  -999.250000 12.977999687 0.0509999990 0.3294399977 2.4939999580 51.673000336 94.371002197 1.7619999647 47.112998962 2.0590000153 2.0590000153
 2854.2080078  -999.250000 12.972000122 0.0540000014 0.3279300034 2.5000000000 51.882999420 94.207000732 1.7640000582 46.831001282 2.0429999828 2.0429999828
 2854.3603516  -999.250000  -999.250000 0.0500000007 0.3217300177 2.4979999065  -999.250000  -999.250000  -999.250000  -999.250000  -999.250000  -999.250000
 2854.5126953  -999.250000 12.972998619 0.0430000015 0.3167800009 2.4920001030 51.726001740 93.706001282 1.7710000277 46.654998779 2.0179998875 2.0179998875
 2854.6652832  -999.250000 12.975000381 0.0410000011 0.3129700124 2.4969999790 51.331001282 93.640991211 1.7790000439 47.159999847 2.0030000210 2.0030000210
 2854.8176270  -999.250000 12.979001045 0.0410000011 0.3125199974 2.4990000725 51.764999390 93.916000366 1.7910000086 47.581001282 2.0490000248 2.0490000248
 2854.9699707  -999.250000 12.984000206 0.0350000001 0.3144000173 2.4900000095 52.452999115 93.080001831 1.8029999733 47.404998779 2.1500000954 2.1500000954
 2855.1223145  -999.250000 12.989000320 0.0299999993 0.3155499995 2.4800000191 52.023998260 93.015998840 1.8190000057 47.247001648 2.2039999962 2.2039999962
 2855.2746582  -999.250000 12.998999596 0.0299999993 0.3211299777 2.4790000916 50.618000031 93.324996948 1.8539999723 46.634998322 2.2119998932 2.2119998932
 2855.4272461  -999.250000 13.003999710 0.0370000005 0.3305400014 2.4890000820 51.178001404 93.452003479 1.8689999580 46.694999695 2.2039999962 2.2039999962
 2855.5795898  -999.250000 13.008999825 0.0340000018 0.3368600011 2.4869999886 52.535999298 93.137001038 1.8750000000 47.165000916 2.1840000153 2.1840000153
 2855.7319336  -999.250000 13.012999535 0.0270000007 0.3401900232 2.4779999256 53.354999542 93.044998169 1.8619999886 47.712001801 2.1619999409 2.1619999409
 2855.8842773  -999.250000 13.017999649 0.0209999997 0.3389400244 2.4709999561 53.425998688 93.400001526 1.8320000172 47.898998260 2.1589999199 2.1589999199
 2856.0368652  -999.250000 13.022999763 0.0149999997 0.3371500075 2.4690001011 53.508998871 94.012001038 1.7999999523 47.881000519 2.1579999924 2.1579999924
 2856.1892090  -999.250000 13.027999878 0.0189999994 0.3375999928 2.4860000610 53.775001526 94.608009338 1.7690000534 47.317001343 2.0940001011 2.0940001011
 2856.3415527  -999.250000 13.032999992 0.0299999993 0.3380399942 2.5069999695 54.307998657 95.238998413 1.7389999628 46.618000031 2.0030000210 2.0030000210
 2856.4938965  -999.250000 13.038000107 0.0320000015 0.3344800174 2.5020000935 53.183998108 96.088996887 1.7089999914 46.551998138 1.9500000477 1.9500000477
 2856.6464844  -999.250000 13.043000221 0.0170000009 0.3247199953 2.4760000706 50.981998444 96.678001404 1.6740000248 46.915000916 1.8869999647 1.8869999647
 2856.7988281  -999.250000 13.048000336 0.0130000003 0.3140600026 2.4660000801 50.485000610 96.686996460 1.6299999952 47.182998657 1.8320000172 1.8320000172
 2856.9511719  -999.250000 13.053000450 0.0170000009 0.3087700009 2.4600000381 51.034999847 97.679000854 1.5939999819 47.361999512 1.7929999828 1.7929999828
 2857.1035156  -999.250000  -999.250000 0.0170000009 0.3149600029 2.4579999447  -999.250000  -999.250000  -999.250000  -999.250000  -999.250000  -999.250000
 2857.2558594  -999.250000 13.058000565 0.0230000000 0.3277899921 2.4739999771 52.076999664 97.944999695 1.5729999542 47.148998260 1.7640000582 1.7640000582
 2857.4084473  -999.250000 13.062999725 0.0359999985 0.3352600038 2.4930000305 52.931999207 98.088996887 1.5490000248 46.798000336 1.7369999886 1.7369999886
 2857.5607910  -999.250000 13.067000389 0.0480000004 0.3369599879 2.5000000000 52.988998413 98.796997070 1.5199999809 46.909000397 1.7220000029 1.7220000029
 2857.7131348  -999.250000 13.069000244 0.0489999987 0.3379700184 2.4979999065 52.655998230 99.393997192 1.5069999695 47.356998444 1.7319999933 1.7319999933
 2857.8654785  -999.250000 13.071998596 0.0379999988 0.3403400183 2.4869999886 54.159999847 98.925003052 1.5260000229 47.907001495 1.7589999437 1.7589999437
 2858.0180664  -999.250000 13.074000359 0.0240000002 0.3432199955 2.4730000496 54.249000549 98.628997803 1.5470000505 47.645999908 1.7719999552 1.7719999552
 2858.1704102  -999.250000 13.074998856 0.0199999996 0.3481799960 2.4769999981 54.374000549 97.910003662 1.5729999542 47.089000702 1.8129999638 1.8129999638
 2858.3227539  -999.250000 13.076999664 0.0270000007 0.3501100242 2.4909999371 53.978000641 97.641998291 1.6059999466 46.713001251 1.8799999952 1.8799999952
 2858.4750977  -999.250000 13.078001022 0.0289999992 0.3454499841 2.4879999161 53.970001221 96.912994385 1.6490000486 46.595001221 1.9490000010 1.9490000010
 2858.6276855  -999.250000 13.079999924 0.0230000000 0.3375200033 2.4760000706 54.465999603 96.285003662 1.7089999914 46.632999420 2.0260000229 2.0260000229
 2858.7800293  -999.250000 13.081000328 0.0170000009 0.3284800053 2.4700000286 54.373001099 95.986999512 1.7500000000 46.818000793 2.0699999332 2.0699999332
 2858.9323730  -999.250000 13.083000183 0.0140000004 0.3231499791 2.4690001011 54.943000793 95.682998657 1.7589999437 46.990001678 2.0499999523 2.0499999523
 2859.0847168  -999.250000 13.074000359 0.0140000004 0.3204399943 2.4679999352 55.369998932 95.084999084 1.7690000534 47.194999695 2.0120000839 2.0120000839
 2859.2373047  -999.250000 13.038999557 0.0179999992 0.3174500167 2.4619998932 54.731998444 94.878997803 1.7749999762 47.108001709 1.9930000305 1.9930000305
 2859.3896484  -999.250000 12.980999947 0.0130000003 0.3149299920 2.4539999962 53.483001709 95.382003784 1.7749999762 46.673000336 1.9650000334 1.9650000334
 2859.5419922  -999.250000 12.939000130 0.0070000002 0.3156699836 2.4470000267 51.823001862 96.131996155 1.7749999762 46.937999725 1.9290000200 1.9290000200
 2859.6943359  -999.250000  -999.250000 0.0130000003 0.3186900020 2.4389998913  -999.250000  -999.250000  -999.250000  -999.250000  -999.250000  -999.250000
 2859.8466797  -999.250000 12.928999901 0.0289999992 0.3235599995 2.4379999638 51.342998505 95.927001953 1.7749999762 47.604000092 1.8990000486 1.8990000486
 2859.9992676  -999.250000 12.932999611 0.0299999993 0.3303099871 2.4470000267 53.152999878 95.849998474 1.7760000229 47.884998322 1.8589999676 1.8589999676
 2860.1516113  -999.250000 12.937000275 0.0170000009 0.3274700046 2.4470000267 53.868000031 97.676002502 1.7849999666 47.441001892 1.8190000057 1.8190000057
 2860.3039551  -999.250000 12.939999580 0.0170000009 0.3165900111 2.4570000172 53.597000122 97.670997620 1.8009999990 46.750000000 1.8700000048 1.8700000048
 2860.4562988  -999.250000 12.944000244 0.0230000000 0.3120299876 2.4719998837 52.587001801 97.904998779 1.8079999685 46.140998840 2.0309998989 2.0309998989
