# LAS format log file from PETREL
# Project units are specified as depth units
#==================================================================
~Version information
VERS.   2.0:
WRAP.   NO:
#==================================================================
~Well
STRT .m      1740.8350830 :
STOP .m      3359.4750977 :
STEP .m     0.00000000 :
NULL .        -999.250000 :
COMP.           : COMPANY
WELL.  33/9-6   : WELL
FLD.            : FIELD
LOC.            : LOCATION
SRVC.           : SERVICE COMPANY
DATE.  2018-09-11 14:48:43   : Log Export Date {yyyy-MM-dd HH:mm:ss}
PROV.           : PROVINCE
UWI.   33/9-6   : UNIQUE WELL ID
API.            : API NUMBER
#==================================================================
~Curve
DEPT .m                   : DEPTH
Lithology_geolink ._      : Lithology_geolink
CALI .in                  : CALI
DRHO .g/cm3               : DRHO
NPHI .m3/m3               : NPHI
RHOB .g/cm3               : RHOB
GR .gAPI                  : GR
DTC .us/ft                : DTC
RDEP .ohm.m               : RDEP
SP .mV                    : SP
RSHA .ohm.m               : RSHA
RMED .ohm.m               : RMED
~Parameter
#==================================================================
~Ascii
# ...
 2494.7578125  -999.250000 13.784000397 -0.034000002 0.3825899959 2.2999742031 52.755336761 101.82587433 1.9659999609 69.401000977 2.2269680500 2.2269680500
 2494.9101563  -999.250000 13.745999336 -0.034000002 0.3846900165 2.3049919605 49.847469330 101.74825287 2.0009999275 69.401351929 2.2069952488 2.2069952488
 2495.0625000  -999.250000 13.713999748 -0.028999999 0.3856000006 2.3020048141 48.271327972 99.413642883 2.0239999294 69.619384766 2.2040607929 2.2040607929
 2495.2148438  -999.250000 13.713000298 -0.030999999 0.3848899901 2.3189456463 48.476001740 98.567001343 2.0350000858 69.858001709 2.2420001030 2.2420001030
 2495.3674316  -999.250000 13.555999756 -0.043000001 0.3758599758 2.3439600468 49.205749512 98.202011108 2.0409998894 69.983833313 2.3900883198 2.3900883198
 2495.5197754  -999.250000 13.524000168 -0.046000000 0.3779600263 2.3549823761 49.673053741 98.207641602 2.0309998989 69.879829407 2.4449517727 2.4449517727
 2495.6721191  -999.250000 13.513999939 -0.035000000 0.3908100128 2.3300399780 50.327991486 98.612869263 2.0309998989 69.775672913 2.4148399830 2.4148399830
 2495.8244629  -999.250000 13.513999939 -0.039999999 0.4036799967 2.3030431271 50.323001862 101.64900208 2.0329999924 69.571998596 2.3150000572 2.3150000572
 2495.9768066  -999.250000 13.510000229 -0.035000000 0.4167400002 2.2980160713 50.250999451 101.84299469 2.0199999809 69.666999817 2.2500000000 2.2500000000
 2496.1293945  -999.250000 13.423999786 -0.024000000 0.4045599997 2.3119776249 50.214473724 101.88169861 2.0009999275 69.562835693 2.2219839096 2.2219839096
 2496.2817383  -999.250000 13.413999557 -0.020000000 0.3894200027 2.3279743195 50.509376526 102.31179047 1.9919999838 69.457832336 2.2120079994 2.2120079994
 2496.4340820  -999.250000 13.413999557 -0.017000001 0.3803900182 2.3349888325 50.744998932 101.55400085 1.9730000496 69.355003357 2.2170000076 2.2170000076
 2496.5864258  -999.250000 13.404000282 -0.016000001 0.3788299859 2.3290193081 50.102001190 102.26399994 1.9559999704 69.549003601 2.2219998837 2.2219998837
 2496.7390137  -999.250000 13.394000053 -0.016000001 0.3835699856 2.3299982548 50.434680939 102.27000427 1.9579999447 69.869110107 2.2280111313 2.2280111313
 2496.8913574  -999.250000 13.392999649 -0.020000000 0.3883300126 2.3220129013 51.485137939 102.27491760 1.9550000429 69.937835693 2.2350127697 2.2350127697
 2497.0434570  -999.250000 13.392999649 -0.029967999 0.3940300047 2.3090624809 52.814998627 102.22399902 1.9569935799 69.833999634 2.2430000305 2.2430000305
 2497.1960449  -999.250000 13.383000374 -0.042979170 0.4012300074 2.2930512428 54.546001434 102.38400269 1.9649871588 70.032997131 2.2430000305 2.2430000305
 2497.3483887  -999.250000 13.380000114 -0.043998398 0.4015800059 2.2800416946 54.958000183 102.49099731 1.9610064030 74.119003296 2.2090001106 2.2090001106
 2497.5007324  -999.250000 13.373000145 -0.033017628 0.3965300024 2.2799999714 54.638000488 102.17800903 1.9619984627 75.796997070 2.1930000782 2.1930000782
 2497.6530762  -999.250000 13.373000145 -0.022035200 0.3949599862 2.2949280739 53.854000092 102.06099701 1.9570159912 76.242996216 2.2090001106 2.2090001106
 2497.8056641  -999.250000 13.371999741 -0.026991988 0.3949000239 2.2969934940 53.152999878 101.93599701 1.9589967728 74.300003052 2.2249999046 2.2249999046
 2497.9580078  -999.250000 13.371999741 -0.029995192 0.3968099952 2.2969999313 52.404998779 101.90699768 1.9580014944 71.901000977 2.2170000076 2.2170000076
 2498.1103516  -999.250000 13.385999680 -0.029001601 0.3998500109 2.3109328747 52.601001740 101.93599701 1.9579999447 70.383003235 2.2070000172 2.2070000172
 2498.2626953  -999.250000 13.381999969 -0.027006401 0.4023799896 2.3179664612 53.814998627 101.55400085 1.9589967728 69.796997070 2.2390000820 2.2390000820
 2498.4152832  -999.250000 13.381999969 -0.027998399 0.3993399739 2.3199934959 54.728000641 100.54699707 1.9809646606 69.693000793 2.2839999199 2.2839999199
 2498.5676270  -999.250000 13.451000214 -0.035987180 0.3962900043 2.3190031052 54.495998383 100.34100342 1.9839951992 69.488998413 2.3229999542 2.3229999542
 2498.7199707  -999.250000 13.486000061 -0.040991988 0.3915899992 2.3070383072 52.951999664 100.13600159 1.9869952202 69.583999634 2.3420000076 2.3420000076
 2498.8723145  -999.250000 13.505999565 -0.029019229 0.3859499991 2.3239183426 50.902999878 100.52301025 1.9929903746 69.792999268 2.2899999619 2.2899999619
 2499.0246582  -999.250000 13.529000282 -0.023019200 0.3792900145 2.3259904385 50.027999878 100.83699799 2.0199136734 70.004997253 2.2520000935 2.2520000935
 2499.1772461  -999.250000 13.536000252 -0.028990384 0.3784999847 2.3160319328 49.693000793 100.82499695 2.0639293194 70.068000793 2.2290000916 2.2290000916
 2499.3295898  -999.250000 13.578999519 -0.034990385 0.3877100050 2.3090224266 49.520999908 100.41899872 2.0889599323 70.428001404 2.2620000839 2.2620000839
 2499.4819336  -999.250000 13.666999817 -0.037995189 0.3704700172 2.3090000153 49.369998932 97.972999573 2.1249423027 70.058998108 2.3589999676 2.3589999676
 2499.6342773  -999.250000 13.734000206 -0.028032001 0.3622600138 2.3408463001 48.318000793 94.681007385 2.1190192699 69.855003357 2.5889999866 2.5889999866
 2499.7868652  -999.250000 13.829999924 -0.022009615 0.3583800197 2.3619327545 46.998001099 93.569999695 2.1209969521 70.647003174 2.7179999352 2.7179999352
 2499.9392090  -999.250000 13.892000198 -0.022998398 0.3637399971 2.3719680309 48.464000702 93.014999390 2.1130127907 73.008003235 2.7720000744 2.7720000744
 2500.0915527  -999.250000 13.906001091 -0.026993591 0.3690899909 2.3511009216 50.762001038 96.047988892 2.1329679489 77.066001892 2.5599999428 2.5599999428
 2500.2438965  -999.250000 13.982999802 -0.031984001 0.3744400144 2.3241295815 53.129001617 100.95300293 2.1369872093 77.704002380 2.3050000668 2.3050000668
 2500.3964844  -999.250000 14.041999817 -0.038988784 0.3797999918 2.3100447655 53.681999207 102.12100220 2.1300113201 77.594001770 2.2539999485 2.2539999485
 2500.5488281  -999.250000 14.064999580 -0.033009615 0.3750299811 2.3060128689 51.933998108 102.39499664 2.0960545540 77.277000427 2.2869999409 2.2869999409
 2500.7011719  -999.250000 14.083998680 -0.030004807 0.3605300188 2.3119807243 50.673999786 101.84299469 2.0760319233 76.551002502 2.3269999027 2.3269999027
 2500.8535156  -999.250000 14.071000099 -0.028003206 0.3585100174 2.3169758320 51.189998627 101.95800018 2.0400576591 72.999000549 2.3659999371 2.3659999371
 2501.0058594  -999.250000 14.083000183 -0.027003201 0.3606000245 2.3209807873 51.702999115 102.04599762 2.0240511894 69.962997437 2.3859999180 2.3859999180
 2501.1584473  -999.250000 14.083998680 -0.027998399 0.3644699752 2.3130257130 51.171001434 102.14199829 2.0190081596 69.904998779 2.4059998989 2.4059998989
 2501.3107910  -999.250000 14.083000183 -0.030995192 0.3693799973 2.2920672894 51.157001495 102.01699829 2.0140080452 70.196998596 2.3670001030 2.3670001030
 2501.4631348  -999.250000 14.083000183 -0.036990386 0.3779100180 2.2750816345 53.485000610 101.99500275 2.0110046864 69.704002380 2.3029999733 2.3029999733
 2501.6154785  -999.250000 14.083000183 -0.040987201 0.3828999996 2.2690289021 53.430999756 102.58600616 2.0119969845 69.790000916 2.2330000401 2.2330000401
 2501.7680664  -999.250000 14.071999550 -0.035009615 0.3825100064 2.2809615135 53.952999115 102.47200012 2.0169918537 70.182998657 2.1700000763 2.1700000763
 2501.9204102  -999.250000 14.063000679 -0.033003204 0.3904699981 2.2760159969 54.388000488 101.95300293 2.0120081902 70.111999512 2.1600000858 2.1600000858
 2502.0727539  -999.250000 13.982999802 -0.032001603 0.3908399940 2.2750048637 56.051998138 102.22199249 2.0179903507 69.832000732 2.1600000858 2.1600000858
 2502.2250977  -999.250000 13.963000298 -0.021035200 0.3792400062 2.2909228802 55.817001343 101.85399628 2.0239806175 69.768997192 2.2160000801 2.2160000801
 2502.3776855  -999.250000 13.942999840 -0.017006410 0.3740200102 2.2979776859 54.005001068 100.73999786 2.0239999294 69.763999939 2.2699999809 2.2699999809
