# LAS format log file from PETREL
# Project units are specified as depth units
#==================================================================
~Version information
VERS.   2.0:
WRAP.   NO:
#==================================================================
~Well
STRT .m      785.37786865 :
STOP .m      3526.7492676 :
STEP .m     0.00000000 :
NULL .        -999.250000 :
COMP.           : COMPANY
WELL.  33/9-11   : WELL
FLD.            : FIELD
LOC.            : LOCATION
SRVC.           : SERVICE COMPANY
DATE.  2018-09-11 14:48:42   : Log Export Date {yyyy-MM-dd HH:mm:ss}
PROV.           : PROVINCE
UWI.   33/9-11   : UNIQUE WELL ID
API.            : API NUMBER
#==================================================================
~Curve
DEPT .m                   : DEPTH
Lithology_geolink ._      : Lithology_geolink
CALI .in                  : CALI
DRHO .g/cm3               : DRHO
NPHI .m3/m3               : NPHI
RHOB .g/cm3               : RHOB
GR .gAPI                  : GR
DTC .us/ft                : DTC
RDEP .ohm.m               : RDEP
SP .mV                    : SP
RSHA .ohm.m               : RSHA
RMED .ohm.m               : RMED
~Parameter
#==================================================================
~Ascii
# ...
 2316.5407715  -999.250000 13.826000214 0.0679871812 0.3679101765 2.4210000038 59.236999512 108.61699677 1.5219999552 39.369998932 1.5579999685 1.5579999685
 2316.6931152  -999.250000 13.765999794 0.0600031987 0.3617677391 2.4210367203 60.775535583 109.27693939 1.5559999943 39.381980896 1.6050000191 1.6050000191
 2316.8454590  -999.250000 13.812999725 0.0619999990 0.3478823602 2.4440000057 61.840293884 109.39381409 1.5750000477 39.307121277 1.6710000038 1.6710000038
 2316.9980469  -999.250000 14.116999626 0.0479615405 0.3368896246 2.4720416069 60.405998230 106.54399872 1.5839999914 39.303001404 1.7510000467 1.7510000467
 2317.1503906  -999.250000 14.386999130 0.0239983983 0.3336735070 2.4980399609 56.884998322 103.06800079 1.5950000286 39.299999237 1.8470000029 1.8470000029
 2317.3027344  -999.250000  -999.250000 0.0230224002 0.3421009779 2.5229647160  -999.250000  -999.250000  -999.250000  -999.250000  -999.250000  -999.250000
 2317.4550781  -999.250000 14.204000473 0.0370000005 0.3489124477 2.5009999275  -999.250000  -999.250000 1.6139999628  -999.250000 1.9320000410 1.9320000410
 2317.6074219  -999.250000 13.916998863 0.0410000011 0.3379590511 2.4319999218 51.401405334 93.967559814 1.6410000324 39.293006897 1.9129999876 1.9129999876
 2317.7600098  -999.250000 13.980999947 0.0440016016 0.3248766363 2.4070160389 51.450000763 96.881004333 1.6690000296 39.109001160 1.7990000248 1.7990000248
 2317.9123535  -999.250000 14.177000046 0.0449920036 0.3227853477 2.4169824123 53.742324829 99.559707642 1.6679999828 38.881366730 1.7339999676 1.7339999676
 2318.0646973  -999.250000 14.248000145 0.0399999991 0.3261054456 2.4059998989 54.953063965 105.35769653 1.6330000162 38.884990692 1.7319999933 1.7319999933
 2318.2170410  -999.250000 14.241000175 0.0419999994 0.3295106292 2.3949999809 54.340984344 102.11921692 1.5509999990 39.408161163 1.7020000219 1.7020000219
 2318.3696289  -999.250000 14.229999542 0.0469951890 0.3361486495 2.3969936371 55.140998840 103.65200043 1.4889999628 39.575000763 1.6319999695 1.6319999695
 2318.5219727  -999.250000 14.222999573 0.0439999998 0.3450745344 2.3929917812 56.375000000 104.33200073 1.4589999914 39.241001129 1.5579999685 1.5579999685
 2318.6743164  -999.250000 14.225000381 0.0439999998 0.3478939831 2.3880000114 57.917526245 105.73474884 1.4639999866 39.245990753 1.5169999599 1.5169999599
 2318.8266602  -999.250000 14.243000031 0.0469999984 0.3441301882 2.3870000839 56.863693237 107.99237823 1.4620000124 39.262973785 1.5000000000 1.5000000000
 2318.9792480  -999.250000 14.265999794 0.0399967954 0.3379945159 2.3860158920 55.261001587 107.47799683 1.4490000010 39.061000824 1.4850000143 1.4850000143
 2319.1315918  -999.250000 14.267000198 0.0380160250 0.3331794441 2.3960239887 55.702999115 106.57399750 1.4470000267 38.797000885 1.5230000019 1.5230000019
 2319.2839355  -999.250000 14.246000290 0.0479968004 0.3328367472 2.4109952450 57.913455963 106.08178711 1.4570000172 39.034618378 1.6030000448 1.6030000448
 2319.4362793  -999.250000 14.225999832 0.0460000001 0.3370400369 2.4079999924 60.022621155 104.20601654 1.4620000124 39.304569244 1.6499999762 1.6499999762
 2319.5888672  -999.250000 14.234999657 0.0289871786 0.3370779157 2.3969871998 60.294998169 103.00299072 1.4689999819 39.245998383 1.6799999475 1.6799999475
 2319.7412109  -999.250000 14.265999794 0.0210112184 0.3364392519 2.3889968395 59.113998413 102.77799988 1.4800000191 38.932998657 1.7250000238 1.7250000238
 2319.8935547  -999.250000  -999.250000 0.0280144010 0.3422158659 2.3870129585  -999.250000  -999.250000  -999.250000  -999.250000  -999.250000  -999.250000
 2320.0458984  -999.250000 14.293000221 0.0370000005 0.3521067500 2.3949999809  -999.250000  -999.250000 1.4950000048  -999.250000 1.7580000162 1.7580000162
 2320.1982422  -999.250000 14.303000450 0.0399999991 0.3563125432 2.4000000954 58.405311584 102.07872772 1.4989999533 38.848285675 1.7359999418 1.7359999418
 2320.3508301  -999.250000 14.277000427 0.0399871804 0.3516789377 2.3889727592 59.375000000 102.31400299 1.4889999628 39.453998566 1.6890000105 1.6890000105
 2320.5031738  -999.250000 14.236000061 0.0319920033 0.3513590395 2.3719904423 59.142372131 103.32937622 1.4800000191 39.145496368 1.6390000582 1.6390000582
 2320.6555176  -999.250000 14.239999771 0.0270000007 0.3570083678 2.3659999371 58.585891724 104.22656250 1.4700000286 39.026191711 1.5740000010 1.5740000010
 2320.8078613  -999.250000 14.260998726 0.0320000015 0.3622368574 2.3789999485 59.511512756 105.49096680 1.4520000219 39.019012451 1.5850000381 1.5850000381
 2320.9604492  -999.250000 14.303000450 0.0400112160 0.3664974570 2.3980176449 60.062999725 106.24400330 1.4420000315 39.015998840 1.6050000191 1.6050000191
 2321.1127930  -999.250000 14.380999565 0.0469999984 0.3656920195 2.4090015888 61.349998474 106.07099152 1.4240000248 39.099998474 1.5820000172 1.5820000172
 2321.2651367  -999.250000 14.438000679 0.0469920002 0.3607132435 2.4099807739 61.819248199 104.88490295 1.3930000067 39.207828522 1.5679999590 1.5679999590
 2321.4174805  -999.250000 14.446000099 0.0419999994 0.3565036058 2.3980000019 60.288455963 104.82508850 1.3639999628 39.560436249 1.5579999685 1.5579999685
 2321.5700684  -999.250000 14.442999840 0.0510192290 0.3525045216 2.4000177383 58.562999725 105.60299683 1.3500000238 39.988998413 1.5169999599 1.5169999599
 2321.7224121  -999.250000 14.458000183 0.0629919916 0.3476857841 2.4109952450 58.558998108 105.83300018 1.3539999723 39.349998474 1.4650000334 1.4650000334
 2321.8747559  -999.250000 14.486000061 0.0580031984 0.3450550437 2.4080047607 59.323776245 105.94781494 1.3590271473 38.826839447 1.4420319796 1.4420319796
 2322.0270996  -999.250000 14.532999992 0.0599999987 0.3482035697 2.4110000134 60.139690399 108.22834015 1.3760000467 39.251316071 1.4620000124 1.4620000124
 2322.1794434  -999.250000 14.569000244 0.0680000037 0.3566582203 2.4340000153 59.602863312 107.84062195 1.4049999714 39.386783600 1.5130000114 1.5130000114
 2322.3320313  -999.250000 14.545999527 0.0750016049 0.3617390990 2.4570112228 58.876998901 106.48500061 1.4350479841 39.382999420 1.5851137638 1.5851137638
 2322.4843750  -999.250000 14.506999969 0.0759871975 0.3489624560 2.4639935493 59.500000000 104.97242737  -999.250000 39.380004883  -999.250000  -999.250000
 2322.6367188  -999.250000  -999.250000 0.0680000037 0.3317836225 2.4600000381  -999.250000  -999.250000  -999.250000  -999.250000  -999.250000  -999.250000
 2322.7890625  -999.250000 14.498999596 0.0579999983 0.3215711713 2.4440000057  -999.250000  -999.250000 1.4950000048  -999.250000 1.7259999514 1.7259999514
 2322.9416504  -999.250000 14.501999855 0.0489967950 0.3160638511 2.4330048561 58.039001465 102.91200256 1.5300464630 39.409999847 1.8010705709 1.8010705709
 2323.0939941  -999.250000 14.496999741 0.0470048077 0.3203982413 2.4360048771 56.720001221 102.91699982 1.5590112209 39.356998444 1.8449631929 1.8449631929
 2323.2463379  -999.250000 14.491000175 0.0499904007 0.3318004608 2.4389774799 55.555866241 103.48808289 1.5659055710 38.940666199 1.8217583895 1.8217583895
 2323.3986816  -999.250000 14.468000412 0.0439999998 0.3445433974 2.4249999523 59.600502014 101.71684265 1.5069999695 39.360324860 1.6710000038 1.6710000038
 2323.5512695  -999.250000 14.439000130 0.0329967961 0.3529037535 2.3919615746 60.722999573 102.44100189 1.4659358263 39.202999115 1.6089006662 1.6089006662
 2323.7036133  -999.250000 14.423000336 0.0310208332 0.3571818471 2.3680160046 61.491001129 102.83100128 1.4259390831 39.415000916 1.5468990803 1.5468990803
 2323.8559570  -999.250000 14.435999870 0.0440191999 0.3583421111 2.3780336380 62.311683655 104.10994720 1.3879504204 40.295589447 1.4839295149 1.4839295149
 2324.0083008  -999.250000 14.449000359 0.0560000017 0.3596592844 2.3989999294 62.600540161 107.26893616 1.3569999933 40.340930939 1.4400000572 1.4400000572
 2324.1606445  -999.250000 14.463999748 0.0619999990 0.3592070937 2.4179999828 62.388339996 108.02679443 1.3400000334 39.813846588 1.4299999475 1.4299999475
