# LAS format log file from PETREL
# Project units are specified as depth units
#==================================================================
~Version information
VERS.   2.0:
WRAP.   NO:
#==================================================================
~Well
STRT .m      457.60995483 :
STOP .m      3127.1992188 :
STEP .m     0.00000000 :
NULL .        -999.250000 :
COMP.           : COMPANY
WELL.  33/9-1   : WELL
FLD.            : FIELD
LOC.            : LOCATION
SRVC.           : SERVICE COMPANY
DATE.  2018-09-11 14:48:42   : Log Export Date {yyyy-MM-dd HH:mm:ss}
PROV.           : PROVINCE
UWI.   33/9-1   : UNIQUE WELL ID
API.            : API NUMBER
#==================================================================
~Curve
DEPT .m                   : DEPTH
Lithology_geolink ._      : Lithology_geolink
CALI .in                  : CALI
BS .in                    : BS
DRHO .g/cm3               : DRHO
NPHI .m3/m3               : NPHI
RHOB .g/cm3               : RHOB
GR .gAPI                  : GR
DTC .us/ft                : DTC
RDEP .ohm.m               : RDEP
SP .mV                    : SP
RSHA .ohm.m               : RSHA
RMED .ohm.m               : RMED
~Parameter
#==================================================================
~Ascii
# ...
 464.92514038  -999.250000 19.023000717  -999.250000  -999.250000  -999.250000  -999.250000 36.698524475 45.820152283  -999.250000 76.805007935 1021.6797485 1021.6797485
 465.07754517  -999.250000 18.847000122  -999.250000  -999.250000  -999.250000  -999.250000 36.462654114 81.911132813 1.0099999905 76.809005737 1020.5577393 1020.5577393
 465.22994995  -999.250000 18.656999588  -999.250000  -999.250000  -999.250000  -999.250000 37.786689758 60.257099152 1.0099999905 76.813011169 1019.4347534 1019.4347534
 465.38235474  -999.250000 18.555999756  -999.250000  -999.250000  -999.250000  -999.250000 38.130451202 70.216575623 1.0099999905 76.817008972 1018.3127441 1018.3127441
 465.53475952  -999.250000 18.478000641  -999.250000  -999.250000  -999.250000  -999.250000 38.354606628 66.908401489 1.0099999905 76.821006775 1017.1897583 1017.1897583
 465.68713379  -999.250000 18.399999619  -999.250000  -999.250000  -999.250000  -999.250000 38.651699066 74.651451111 1.0099999905 76.825004578 1016.0669556 1016.0669556
 465.83953857  -999.250000 18.353000641  -999.250000  -999.250000  -999.250000  -999.250000 36.268039703 56.907249451 1.0099999905 76.829010010 1014.9450073 1014.9450073
 465.99194336  -999.250000 18.306999207  -999.250000  -999.250000  -999.250000  -999.250000 35.180461884 41.824623108 1.0099999905 76.833007813 1013.8217163 1013.8217163
 466.14434814  -999.250000 18.260999680  -999.250000  -999.250000  -999.250000  -999.250000 33.915790558 51.968688965 1.0099999905 76.837005615 1012.7002563 1012.7002563
 466.29675293  -999.250000 18.215000153  -999.250000  -999.250000  -999.250000  -999.250000 33.810745239 60.019664764 1.0099915266 76.841011047 1012.3380127 1012.3380127
 466.44915771  -999.250000 18.169000626  -999.250000  -999.250000  -999.250000  -999.250000 33.682979584 64.175033569 1.0079915524 76.845008850 1012.3380127 1012.3380127
 466.60156250  -999.250000 18.148000717  -999.250000  -999.250000  -999.250000  -999.250000 33.673095703 66.642082214 1.0059915781 76.849006653 1012.3380127 1012.3380127
 466.75393677  -999.250000 18.167999268  -999.250000  -999.250000  -999.250000  -999.250000 33.216972351 59.450767517 1.0039919615 76.853004456 1012.3380127 1012.3380127
 466.90634155  -999.250000 18.166000366  -999.250000  -999.250000  -999.250000  -999.250000 30.427734375 59.649208069 1.0020040274 76.857009888 1012.3380127 1012.3380127
 467.05874634  -999.250000 18.146999359  -999.250000  -999.250000  -999.250000  -999.250000 28.068010330 59.184661865 1.0030168295 76.861007690 1012.3380127 1012.3380127
 467.21115112  -999.250000 18.084999084  -999.250000  -999.250000  -999.250000  -999.250000 29.074453354 60.707534790 1.0069999695 76.865005493 1012.3380127 1012.3380127
 467.36355591  -999.250000 18.062999725  -999.250000  -999.250000  -999.250000  -999.250000 31.298698425 70.991142273 1.0055114031 76.868003845 1012.3366699 1012.3366699
 467.51596069  -999.250000 18.087999344  -999.250000  -999.250000  -999.250000  -999.250000 33.644699097 59.584880829 0.6511119604 76.872009277 1010.7186279 1010.7186279
 467.66836548  -999.250000 18.080999374  -999.250000  -999.250000  -999.250000  -999.250000 35.990276337 59.554409027 0.2039915919 76.876007080 532.47534180 532.47534180
 467.82073975  -999.250000 18.086999893  -999.250000  -999.250000  -999.250000  -999.250000 37.624431610 59.407199860 0.2020000070 76.880004883 2.8313431740 2.8313431740
 467.97314453  -999.250000 18.065999985  -999.250000  -999.250000  -999.250000  -999.250000 37.866756439 59.207721710 0.2020000070 76.884010315 0.2520072162 0.2520072162
 468.12554932  -999.250000 18.045999527  -999.250000  -999.250000  -999.250000  -999.250000 39.394203186 62.093540192 0.2020000070 76.888008118 0.2560100257 0.2560100257
 468.27795410  -999.250000 18.017999649  -999.250000  -999.250000  -999.250000  -999.250000 39.493881226 82.672370911 0.2020000070 76.892005920 0.2609980106 0.2609980106
 468.43035889  -999.250000 18.061000824  -999.250000  -999.250000  -999.250000  -999.250000 38.937587738 86.888259888 0.2020000070 76.896011353 0.2599979937 0.2599979937
 468.58276367  -999.250000 18.103000641  -999.250000  -999.250000  -999.250000  -999.250000 39.231063843 60.831016541 0.2020000070 76.900009155 0.2589980066 0.2589980066
 468.73516846  -999.250000 18.145000458  -999.250000  -999.250000  -999.250000  -999.250000 39.761104584 58.602771759 0.2020000070 76.904006958 0.2579979897 0.2579979897
 468.88754272  -999.250000 18.145000458  -999.250000  -999.250000  -999.250000  -999.250000 39.811985016 59.800296783 0.2020000070 76.908004761 0.2569963932 0.2569963932
 469.03994751  -999.250000 18.165000916  -999.250000  -999.250000  -999.250000  -999.250000 39.246627808 62.527774811 0.2020000070 76.912010193 0.2549979985 0.2549979985
 469.19235229  -999.250000 18.194000244  -999.250000  -999.250000  -999.250000  -999.250000 37.566116333 70.740058899 0.2020000070 76.916007996 0.2539980114 0.2539980114
 469.34475708  -999.250000 18.224000931  -999.250000  -999.250000  -999.250000  -999.250000 38.126693726 42.472812653 0.2020000070 76.920005798 0.2529979944 0.2529979944
 469.49716187  -999.250000 18.243999481  -999.250000  -999.250000  -999.250000  -999.250000 39.969688416 39.943183899 0.2020000070 76.924011230 0.2520160377 0.2520160377
 469.64956665  -999.250000 18.274999619  -999.250000  -999.250000  -999.250000  -999.250000 40.817283630 41.040096283 0.2020000070 76.928009033 0.2600160241 0.2600160241
 469.80197144  -999.250000 18.284000397  -999.250000  -999.250000  -999.250000  -999.250000 43.948528290 55.111423492 0.2020000070 76.932006836 0.2681101263 0.2681101263
 469.95434570  -999.250000 18.233999252  -999.250000  -999.250000  -999.250000  -999.250000 44.205749512 84.905723572 0.2020000070 76.936004639 0.4163292646 0.4163292646
 470.10675049  -999.250000 18.190999985  -999.250000  -999.250000  -999.250000  -999.250000 41.848281860 44.787544250 0.2020000070 76.940010071 56.028247833 56.028247833
 470.25915527  -999.250000 18.013999939  -999.250000  -999.250000  -999.250000  -999.250000 39.499462128 116.61572266 0.2020000070 76.944007874 2013.8392334 2013.8392334
 470.41156006  -999.250000 17.794000626  -999.250000  -999.250000  -999.250000  -999.250000 40.725959778 101.12371826 0.2020000070 76.948005676 2000.0000000 2000.0000000
 470.56396484  -999.250000 17.698999405  -999.250000  -999.250000  -999.250000  -999.250000 40.706134796 107.96212006 0.2020000070 76.952011108 2000.0000000 2000.0000000
 470.71636963  -999.250000 17.712999344  -999.250000  -999.250000  -999.250000  -999.250000 41.269268036 93.975387573 0.2020000070 76.956008911 2000.0000000 2000.0000000
 470.86874390  -999.250000 17.697999954  -999.250000  -999.250000  -999.250000  -999.250000 40.903045654 71.386047363 0.2020000070 76.960006714 2000.0000000 2000.0000000
 471.02114868  -999.250000 17.819999695  -999.250000  -999.250000  -999.250000  -999.250000 39.822307587 58.160850525 0.2020000070 76.964004517 2000.0000000 2000.0000000
 471.17355347  -999.250000 17.979999542  -999.250000  -999.250000  -999.250000  -999.250000 39.991016388 88.489204407 0.2020000070 76.967010498 2000.0000000 2000.0000000
 471.32595825  -999.250000 17.982000351  -999.250000  -999.250000  -999.250000  -999.250000 38.508613586 86.830207825 0.2020000070 76.971008301 2000.0000000 2000.0000000
 471.47836304  -999.250000 18.030000687  -999.250000  -999.250000  -999.250000  -999.250000 40.810562134 118.31149292 0.2020000070 76.975006104 2000.0000000 2000.0000000
 471.63076782  -999.250000 18.676000595  -999.250000  -999.250000  -999.250000  -999.250000 42.584835052 56.683963776 0.2020000070 76.979003906 2000.0000000 2000.0000000
 471.78317261  -999.250000 18.513000488  -999.250000  -999.250000  -999.250000  -999.250000 41.501949310 100.42530823 0.2020000070 76.983009338 1999.9908447 1999.9908447
 471.93554688  -999.250000 17.913000107  -999.250000  -999.250000  -999.250000  -999.250000 40.476306915 95.125312805 0.2020000070 76.987007141 1995.3886719 1995.3886719
 472.08795166  -999.250000 17.910999298  -999.250000  -999.250000  -999.250000  -999.250000 38.427906036 54.729507446 0.2020000070 76.991439819 1964.5487061 1964.5487061
