# LAS format log file from PETREL
# Project units are specified as depth units
#==================================================================
~Version information
VERS.   2.0:
WRAP.   NO:
#==================================================================
~Well
STRT .m      515.45703125 :
STOP .m      3237.9299316 :
STEP .m     0.00000000 :
NULL .        -999.250000 :
COMP.           : COMPANY
WELL.  33/9-17   : WELL
FLD.            : FIELD
LOC.            : LOCATION
SRVC.           : SERVICE COMPANY
DATE.  2018-09-11 14:48:42   : Log Export Date {yyyy-MM-dd HH:mm:ss}
PROV.           : PROVINCE
UWI.   33/9-17   : UNIQUE WELL ID
API.            : API NUMBER
#==================================================================
~Curve
DEPT .m                   : DEPTH
Lithology_geolink ._      : Lithology_geolink
CALI .in                  : CALI
BS .in                    : BS
DRHO .g/cm3               : DRHO
NPHI .m3/m3               : NPHI
RHOB .g/cm3               : RHOB
PEF .b/e                  : PEF
GR .gAPI                  : GR
DTC .us/ft                : DTC
RDEP .ohm.m               : RDEP
SP .mV                    : SP
RSHA .ohm.m               : RSHA
RMED .ohm.m               : RMED
~Parameter
#==================================================================
~Ascii
# ...
 1963.8662109  -999.250000 9.8830003738 8.5000000000 -0.001000000 0.4059999883 2.2400000095  -999.250000 115.49289703 131.19999695 1.3082236052 -349.0000000 1.3964030743 1.2860000134
 1964.0185547  -999.250000 9.9610004425 8.5000000000 0.0020000001 0.4189999998 2.2369999886  -999.250000 112.24382782 131.69999695 1.3034499884 -346.5000000 1.3936140537 1.2920000553
 1964.1710205  -999.250000 10.055001259 8.5000000000 -0.001000000 0.4359999895 2.2369999886  -999.250000 112.01674652 131.60000610 1.2956707478 -345.5000000 1.3872243166 1.2860000134
 1964.3233643  -999.250000 10.171999931 8.5000000000 -0.004000000 0.4160000086 2.2420001030  -999.250000 114.89447784 130.69999695 1.2872666121 -346.0000000 1.3792282343 1.2610000372
 1964.4758301  -999.250000 10.227000237 8.5000000000 -0.005000000 0.4339999855 2.2650001049  -999.250000 116.43778229 129.39999390 1.2810393572 -346.7500000 1.3748060465 1.2510000467
 1964.6281738  -999.250000 10.163999557 8.5000000000 0.0000000000 0.4189999998 2.2809998989  -999.250000 114.84408569 126.90000153 1.2790000439 -348.0000000 1.3745964766 1.2539999485
 1964.7806396  -999.250000 10.062999725 8.5000000000 -0.003000000 0.4169999957 2.2899999619  -999.250000 111.56302643 125.00000000 1.2795921564 -347.7500000 1.3755970001 1.2560000420
 1964.9329834  -999.250000 10.086000443 8.5000000000 -0.003000000 0.4000000060 2.2899999619  -999.250000 109.86595154 124.50000000 1.2835500240 -349.0000000 1.3795788288 1.2580000162
 1965.0854492  -999.250000 10.102000237 8.5000000000 -0.008000000 0.4009999931 2.2880001068  -999.250000 109.99220276 125.40000153 1.2948821783 -348.5000000 1.3915512562 1.2660000324
 1965.2377930  -999.250000 10.140999794 8.5000000000 -0.007000000 0.4079999924 2.2909998894  -999.250000 108.86607361 126.00000000 1.3175668716 -347.7500000 1.4117189646 1.2840000391
 1965.3902588  -999.250000 10.102000237 8.5000000000 -0.007000000 0.3980000019 2.2939999104  -999.250000 105.08985901 125.69999695 1.3485409021 -346.2500000 1.4377146959 1.3009999990
 1965.5426025  -999.250000 10.093999863 8.5000000000 -0.009000000 0.3889999986 2.2969999313  -999.250000 99.364158630 122.99999237 1.3779752254 -345.2500000 1.4686995745 1.3150000572
 1965.6949463  -999.250000 10.109000206 8.5000000000 -0.012000000 0.3849999905 2.2999999523  -999.250000 95.748649597 121.80000305 1.3966875076 -345.5000000 1.4981048107 1.3489999771
 1965.8474121  -999.250000 10.156000137 8.5000000000 -0.005000000 0.3919999897 2.3099999428  -999.250000 97.801704407 122.19999695 1.4043667316 -346.5000000 1.5155664682 1.3769999743
 1965.9997559  -999.250000 10.000000000 8.5000000000 -0.003000000 0.3849999905 2.2860000134  -999.250000 103.07553101 125.49999237 1.4071826935 -347.2500000 1.5164211988 1.3880000114
 1966.1522217  -999.250000 9.8830003738 8.5000000000 -0.003000000 0.3689999878 2.2620000839  -999.250000 107.74512482 127.09999847 1.4085922241 -347.0000000 1.5062396526 1.3899999857
 1966.3045654  -999.250000 9.8830003738 8.5000000000 -0.003000000 0.3729999959 2.2369999886  -999.250000 109.21581268 128.30000305 1.4101834297 -346.0000000 1.4980176687 1.3650000095
 1966.4570313  -999.250000 9.8830003738 8.5000000000 0.0049999999 0.3880000114 2.2509999275  -999.250000 108.55505371 130.00000000 1.4145529270 -343.2500000 1.5055513382 1.3190000057
 1966.6093750  -999.250000 9.8830003738 8.5000000000 0.0070000002 0.4099999964 2.2620000839  -999.250000 106.77105713 130.39999390 1.4223251343 -342.0000000 1.5298943520 1.3409999609
 1966.7618408  -999.250000 10.055001259 8.5000000000 0.0049999999 0.4149999917 2.2769999504  -999.250000 104.50782776 126.50000000 1.4313292503 -343.5000000 1.5563269854 1.4069999456
 1966.9141846  -999.250000 10.116998672 8.5000000000 0.0010000000 0.4140000045 2.2780001163  -999.250000 102.43971252 121.19999695 1.4403250217 -344.2500000 1.5731576681 1.4270000458
 1967.0666504  -999.250000 10.055001259 8.5000000000 0.0000000000 0.3899999857 2.2820000648  -999.250000 100.46228027 120.49999237 1.4511057138 -346.0000000 1.5821787119 1.4329999685
 1967.2189941  -999.250000 10.055001259 8.5000000000 -0.006000000 0.3849999905 2.2839999199  -999.250000 99.351509094 119.80000305 1.4696084261 -346.2500000 1.5915611982 1.4320000410
 1967.3714600  -999.250000 10.055001259 8.5000000000 -0.005000000 0.3970000148 2.3020000458  -999.250000 100.32015228 120.49999237 1.4985408783 -344.7500000 1.6031634808 1.4450000525
 1967.5238037  -999.250000 10.055001259 8.5000000000 -0.002000000 0.4189999998 2.3110001087  -999.250000 103.75885010 121.59999847 1.5273834467 -343.2500000 1.6097893715 1.4800000191
 1967.6761475  -999.250000 10.038999557 8.5000000000 0.0030000000 0.4169999957 2.3039999008  -999.250000 108.14631653 124.50000000 1.5456874371 -341.0000000 1.6026538610 1.4930000305
 1967.8286133  -999.250000 9.8909997940 8.5000000000 0.0060000001 0.3930000067 2.2809998989  -999.250000 111.96608734 129.80000305 1.5521833897 -342.5000000 1.5820761919 1.4550000429
 1967.9809570  -999.250000 9.7189998627 8.5000000000 0.0130000003 0.3880000114 2.2620000839  -999.250000 113.75009918 133.00000000 1.5518172979 -344.5000000 1.5630528927 1.4090000391
 1968.1334229  -999.250000 9.7110004425 8.5000000000 0.0130000003 0.4020000100 2.2500000000  -999.250000 113.33199310 131.60000610 1.5468549728 -347.0000000 1.5593878031 1.4019999504
 1968.2857666  -999.250000 9.7110004425 8.5000000000 0.0170000009 0.4339999855 2.2509999275  -999.250000 111.16748810 127.09999847 1.5357165337 -345.7500000 1.5735260248 1.4190000296
 1968.4382324  -999.250000 9.7340002060 8.5000000000 0.0209999997 0.4339999855 2.2630000114  -999.250000 108.83894348 126.50000000 1.5181570053 -343.2500000 1.5951329470 1.4780000448
 1968.5905762  -999.250000 9.8830003738 8.5000000000 0.0179999992 0.4379999936 2.2650001049  -999.250000 107.63433838 125.40000153 1.4952081442 -342.7500000 1.6022105217 1.5000000000
 1968.7430420  -999.250000 9.8830003738 8.5000000000 0.0179999992 0.3959999979 2.2739999294  -999.250000 108.06890106 124.50000000 1.4731570482 -343.0000000 1.5878670216 1.4620000124
 1968.8953857  -999.250000 9.8830003738 8.5000000000 0.0149999997 0.3869999945 2.2820000648  -999.250000 109.24242401 122.59999847 1.4602665901 -344.0000000 1.5664739609 1.4309999943
 1969.0478516  -999.250000 9.8830003738 8.5000000000 0.0109999999 0.3709999919 2.2920000553  -999.250000 108.96707916 123.29999542 1.4570000172 -344.5000000 1.5496426821 1.4140000343
 1969.2001953  -999.250000 9.8830003738 8.5000000000 0.0070000002 0.3910000026 2.2999999523  -999.250000 106.61212158 123.40000153 1.4587750435 -346.0000000 1.5392282009 1.4049999714
 1969.3526611  -999.250000 9.7340002060 8.5000000000 0.0040000002 0.4079999924 2.2960000038  -999.250000 104.46225739 122.30000305 1.4605921507 -344.5000000 1.5330152512 1.3969999552
 1969.5050049  -999.250000 9.7110004425 8.5000000000 0.0010000000 0.3770000041 2.2860000134  -999.250000 104.53210449 122.40000153 1.4604083300 -342.2500000 1.5292105675 1.3930000067
 1969.6573486  -999.250000 9.7110004425 8.5000000000 0.0010000000 0.3829999864 2.2690000534  -999.250000 106.58457947 121.40000916 1.4582259655 -343.0000000 1.5303845406 1.3910000324
 1969.8098145  -999.250000 9.7110004425 8.5000000000 0.0010000000 0.4160000086 2.2630000114  -999.250000 109.62642670 121.80000305 1.4534499645 -344.0000000 1.5367755890 1.4099999666
 1969.9621582  -999.250000 9.7110004425 8.5000000000 0.0040000002 0.4420000017 2.2620000839  -999.250000 112.15287781 122.50000000 1.4450864792 -346.2500000 1.5417894125 1.4320000410
 1970.1146240  -999.250000 9.7110004425 8.5000000000 0.0030000000 0.4469999969 2.2709999084  -999.250000 112.01409149 124.00000000 1.4344863892 -345.0000000 1.5406122208 1.4079999924
 1970.2669678  -999.250000 9.7110004425 8.5000000000 0.0040000002 0.4329999983 2.2790000439  -999.250000 109.70541382 123.60000610 1.4246748686 -346.0000000 1.5342282057 1.3980000019
 1970.4194336  -999.250000 9.7110004425 8.5000000000 0.0049999999 0.4709999859 2.2839999199  -999.250000 107.08722687 122.69998932 1.4174470901 -346.5000000 1.5238366127 1.3990000486
