# LAS format log file from PETREL
# Project units are specified as depth units
#==================================================================
~Version information
VERS.   2.0:
WRAP.   NO:
#==================================================================
~Well
STRT .m      1740.8350830 :
STOP .m      3359.4750977 :
STEP .m     0.00000000 :
NULL .        -999.250000 :
COMP.           : COMPANY
WELL.  33/9-6   : WELL
FLD.            : FIELD
LOC.            : LOCATION
SRVC.           : SERVICE COMPANY
DATE.  2018-09-11 14:48:43   : Log Export Date {yyyy-MM-dd HH:mm:ss}
PROV.           : PROVINCE
UWI.   33/9-6   : UNIQUE WELL ID
API.            : API NUMBER
#==================================================================
~Curve
DEPT .m                   : DEPTH
Lithology_geolink ._      : Lithology_geolink
CALI .in                  : CALI
DRHO .g/cm3               : DRHO
NPHI .m3/m3               : NPHI
RHOB .g/cm3               : RHOB
GR .gAPI                  : GR
DTC .us/ft                : DTC
RDEP .ohm.m               : RDEP
SP .mV                    : SP
RSHA .ohm.m               : RSHA
RMED .ohm.m               : RMED
~Parameter
#==================================================================
~Ascii
# ...
 2277.1306152  -999.250000 15.670000076 -0.003000000 0.3319300115 2.3579711914 49.550483704 101.05451965 1.5410000086 68.601478577 1.6249487400 1.6249487400
 2277.2829590  -999.250000 15.781999588 -0.011000000 0.3442200124 2.3629839420 50.477672577 102.00446320 1.5549999475 67.029960632 1.5929744244 1.5929744244
 2277.4353027  -999.250000 16.107999802 -0.018999999 0.3565000296 2.3639969826 52.768100739 104.16785431 1.5679999590 66.382461548 1.5769648552 1.5769648552
 2277.5876465  -999.250000 16.134000778 -0.027000001 0.3562799692 2.3630030155 53.457000732 106.56999969 1.5679999590 66.045997620 1.5549999475 1.5549999475
 2277.7402344  -999.250000 15.942000389 -0.020000000 0.3480199873 2.3200688362 53.126358032 106.59963989 1.5640000105 66.172271729 1.5490497351 1.5490497351
 2277.8925781  -999.250000 15.871999741 -0.015000000 0.3314899802 2.3130223751 52.723991394 106.99961090 1.5559999943 66.342102051 1.5800288916 1.5800288916
 2278.0449219  -999.250000 16.231000900 -0.013000000 0.3275500238 2.3259582520 51.468154907 108.00324249 1.5410000086 66.404991150 1.5979632139 1.5979632139
 2278.1972656  -999.250000 16.099000931 -0.022000000 0.3393700123 2.3200192451 49.692001343 107.53299713 1.5360000134 66.402000427 1.5750000477 1.5750000477
 2278.3496094  -999.250000 15.970999718 -0.032000002 0.3392900229 2.3180065155 49.463001251 108.02400208 1.5420000553 66.265998840 1.5269999504 1.5269999504
 2278.5021973  -999.250000 16.020999908 -0.028999999 0.3343899846 2.3259744644 49.317634583 106.51355743 1.5429999828 65.990554810 1.5210818052 1.5210818052
 2278.6545410  -999.250000 15.993000031 -0.026000001 0.3304499686 2.3788301945 49.711791992 91.908149719 1.5260000229 65.715538025 1.5722128153 1.5722128153
 2278.8068848  -999.250000 15.831000328 -0.035000000 0.3128300011 2.4507691860 49.582000732 88.883003235 1.4910000563 65.422996521 1.7050000429 1.7050000429
 2278.9592285  -999.250000 15.500000000 -0.052000001 0.2952100039 2.5656313896 49.404998779 92.423004150 1.4709999561 65.113998413 1.9019999504 1.9019999504
 2279.1118164  -999.250000 15.208001137 -0.016000001 0.3145500124 2.5849695206 49.916046143 95.521972656 1.4639999866 64.804542542 1.8215833902 1.8215833902
 2279.2641602  -999.250000 16.207000732 -0.007000000 0.3354499936 2.4344832897 51.189640045 112.33766937 1.4579999447 64.518638611 1.5617408752 1.5617408752
 2279.4165039  -999.250000 15.939999580 -0.018999999 0.3447400033 2.3183717728 51.590000153 122.11700439 1.4689999819 64.293998718 1.3999999762 1.3999999762
 2279.5688477  -999.250000 15.807000160 -0.020000000 0.3466999829 2.3130159378 50.946998596 116.75800323 1.4759999514 64.172996521 1.3780000210 1.3780000210
 2279.7214355  -999.250000 16.106000900 -0.021000000 0.3486500084 2.3090064526 50.302036285 111.12676239 1.4609999657 64.169990540 1.4200832844 1.4200832844
 2279.8737793  -999.250000 16.277000427 -0.023000000 0.3342100084 2.2950448990 50.326805115 108.48521423 1.4450000525 64.166587830 1.4720432758 1.4720432758
 2280.0261230  -999.250000 16.107999802 -0.026000001 0.3346399963 2.2890193462 50.827999115 106.12802887 1.4409999847 64.533683777 1.4990143776 1.4990143776
 2280.1784668  -999.250000 16.031000137 -0.022000000 0.3458299935 2.2989680767 50.828998566 106.76999664 1.4370000362 64.962997437 1.5080000162 1.5080000162
 2280.3310547  -999.250000 16.000999451 -0.018999999 0.3563399911 2.3009970188 50.282360077 111.87368011 1.4349999428 65.266319275 1.4939711094 1.4939711094
 2280.4833984  -999.250000 15.961999893 -0.025000000 0.3674100041 2.2880415916 51.132614136 115.41800690 1.4400000572 65.465126038 1.4759293795 1.4759293795
 2280.6357422  -999.250000 16.597000122 -0.025000000 0.3799100220 2.2790288925 52.141319275 116.03961182 1.4390000105 65.545135498 1.4319744110 1.4319744110
 2280.7880859  -999.250000 15.977999687 -0.009000000 0.3870899975 2.3198685646 54.213001251 113.30299377 1.4229999781 65.629997253 1.4160000086 1.4160000086
 2280.9404297  -999.250000 15.661001205 -0.009000000 0.3605599999 2.3219935894 56.030998230 110.51599884 1.4029999971 65.829002380 1.4340000153 1.4340000153
 2281.0930176  -999.250000 15.734999657 -0.012000000 0.3506600261 2.3090207577 56.637836456 109.00386047 1.3760000467 66.503570557 1.4459952116 1.4459952116
 2281.2453613  -999.250000 15.833000183 -0.013000000 0.3412500024 2.3000288010 56.536346436 108.91856384 1.3689999580 67.480506897 1.4429663420 1.4429663420
 2281.3977051  -999.250000 16.153999329 -0.010000000 0.3537200093 2.3069775105 56.754001617 109.89398956 1.3609999418 67.171997070 1.4220000505 1.4220000505
 2281.5500488  -999.250000 16.287000656 -0.015000000 0.3663000166 2.3010194302 57.529998779 112.19200134 1.3630000353 66.180999756 1.3969999552 1.3969999552
 2281.7026367  -999.250000 16.003999710 -0.018999999 0.3794100285 2.2970063686 58.065837860 113.95954132 1.3700000048 65.097343445 1.3599984646 1.3599984646
 2281.8549805  -999.250000 15.574999809 -0.018999999 0.3754700124 2.2920160294 57.337886810 114.29595184 1.3819999695 64.686340332 1.3590528965 1.3590528965
 2282.0073242  -999.250000 16.225000381 -0.016000001 0.3687599897 2.3039615154 54.776268005 113.63834381 1.3930000067 64.276901245 1.3920623064 1.3920623064
 2282.1596680  -999.250000 16.125000000 -0.011000000 0.3597000241 2.3059935570 54.319000244 109.48599243 1.4069999456 64.216003418 1.4309999943 1.4309999943
 2282.3122559  -999.250000 16.079999924 -0.009000000 0.3511600196 2.3069982529 54.120639801 106.01218414 1.4309999943 64.386276245 1.4770705700 1.4770705700
 2282.4645996  -999.250000 15.673000336 -0.012000000 0.3438200057 2.3050065041 54.523567200 103.63657379 1.4559999704 64.556266785 1.5210385323 1.5210385323
 2282.6169434  -999.250000 15.880999565 -0.016000001 0.3471300006 2.2990193367 56.122230530 103.99512482 1.4809999466 64.724243164 1.5450288057 1.5450288057
 2282.7692871  -999.250000 15.769000053 -0.017999999 0.3499299884 2.2960095406 56.263999939 106.57299805 1.4960000515 64.876998901 1.5629999638 1.5629999638
 2282.9216309  -999.250000 15.869999886 -0.015000000 0.3481200039 2.3129453659 54.212001801 107.67299652 1.5049999952 65.030998230 1.5670000315 1.5670000315
 2283.0742188  -999.250000 15.862001419 -0.010000000 0.3422900140 2.3120031357 52.281780243 108.88060760 1.4919999838 65.184242249 1.5489391088 1.5489391088
 2283.2265625  -999.250000 15.725999832 -0.013000000 0.3353399932 2.2791059017 51.522594452 110.50565338 1.4789999723 65.338226318 1.5109536648 1.5109536648
 2283.3789063  -999.250000 15.371000290 -0.022000000 0.3307500184 2.2720224857 51.894001007 109.66500092 1.4550000429 65.478996277 1.4819999933 1.4819999933
 2283.5312500  -999.250000 15.656999588 -0.023000000 0.3349300027 2.2879488468 51.890998840 109.09600067 1.4199999571 65.475997925 1.4400000572 1.4400000572
 2283.6838379  -999.250000 15.855998993 -0.015000000 0.3528300226 2.2889983654 52.482242584 109.93905640 1.3930000067 65.471992493 1.3999375105 1.3999375105
 2283.8361816  -999.250000 16.260999680 -0.005000000 0.3510400057 2.2929871082 53.880027771 109.97814941 1.3760000467 65.467994690 1.3609614372 1.3609614372
 2283.9885254  -999.250000 15.980999947 -0.012000000 0.3492400050 2.2880160809 53.893726349 113.18860626 1.3680000305 65.464988708 1.3370079994 1.3370079994
 2284.1408691  -999.250000 16.281000137 -0.020000000 0.3464099765 2.2850096226 52.473999023 114.81900024 1.3750000000 65.460998535 1.3420000076 1.3420000076
 2284.2934570  -999.250000 16.205999374 -0.028000001 0.3372099996 2.2760143280 50.617557526 114.11179352 1.3839999437 65.427902222 1.3860625029 1.3860625029
 2284.4458008  -999.250000 16.337999344 -0.035000000 0.3268800080 2.2700192928 49.720722198 111.49498749 1.3960000277 65.365898132 1.4250528812 1.4250528812
 2284.5981445  -999.250000 16.770999908 -0.026000001 0.3147699833 2.2749841213 50.170894623 109.61613464 1.4149999619 65.305007935 1.4580430984 1.4580430984
 2284.7504883  -999.250000 17.027999878 -0.011000000 0.3142800033 2.3009166718 50.104999542 107.82599640 1.4420000315 65.307998657 1.4850000143 1.4850000143
