# LAS format log file from PETREL
# Project units are specified as depth units
#==================================================================
~Version information
VERS.   2.0:
WRAP.   NO:
#==================================================================
~Well
STRT .m      457.60995483 :
STOP .m      3127.1992188 :
STEP .m     0.00000000 :
NULL .        -999.250000 :
COMP.           : COMPANY
WELL.  33/9-1   : WELL
FLD.            : FIELD
LOC.            : LOCATION
SRVC.           : SERVICE COMPANY
DATE.  2018-09-11 14:48:42   : Log Export Date {yyyy-MM-dd HH:mm:ss}
PROV.           : PROVINCE
UWI.   33/9-1   : UNIQUE WELL ID
API.            : API NUMBER
#==================================================================
~Curve
DEPT .m                   : DEPTH
Lithology_geolink ._      : Lithology_geolink
CALI .in                  : CALI
BS .in                    : BS
DRHO .g/cm3               : DRHO
NPHI .m3/m3               : NPHI
RHOB .g/cm3               : RHOB
GR .gAPI                  : GR
DTC .us/ft                : DTC
RDEP .ohm.m               : RDEP
SP .mV                    : SP
RSHA .ohm.m               : RSHA
RMED .ohm.m               : RMED
~Parameter
#==================================================================
~Ascii
# ...
 640.48980713  -999.250000 19.104000092  -999.250000  -999.250000  -999.250000  -999.250000 61.326755524 149.32116699 2.2490000725 52.314323425 1.8030143976 1.8030143976
 640.64221191  -999.250000 19.427999496  -999.250000  -999.250000  -999.250000  -999.250000 66.159606934 149.99391174 2.2490000725 52.515869141 1.8120129108 1.8120129108
 640.79461670  -999.250000 19.639999390  -999.250000  -999.250000  -999.250000  -999.250000 65.909851074 149.96603394 2.2490000725 52.436138153 1.8200000525 1.8200000525
 640.94702148  -999.250000 19.753000259  -999.250000  -999.250000  -999.250000  -999.250000 65.815216064 149.97538757 2.2490000725 52.520759583 1.8200000525 1.8200000525
 641.09942627  -999.250000 19.621000290  -999.250000  -999.250000  -999.250000  -999.250000 67.193603516 150.63581848 2.2489569187 52.370800018 1.8200000525 1.8200000525
 641.25183105  -999.250000 19.586000443  -999.250000  -999.250000  -999.250000  -999.250000 66.322280884 151.42074585 2.2369422913 52.246871948 1.8199728727 1.8199728727
 641.40423584  -999.250000 19.343999863  -999.250000  -999.250000  -999.250000  -999.250000 64.628677368 151.07362366 2.2209529877 52.165695190 1.8029999733 1.8029999733
 641.55664063  -999.250000 18.614999771  -999.250000  -999.250000  -999.250000  -999.250000 63.802169800 150.70527649 2.2079999447 52.599372864 1.8029999733 1.8029999733
 641.70904541  -999.250000 18.693000793  -999.250000  -999.250000  -999.250000  -999.250000 61.413593292 153.54409790 2.2079999447 52.831554413 1.8029999733 1.8029999733
 641.86138916  -999.250000 19.427000046  -999.250000  -999.250000  -999.250000  -999.250000 59.915676117 153.55650330 2.2080512047 52.553867340 1.8029999733 1.8029999733
 642.01379395  -999.250000 19.879997253  -999.250000  -999.250000  -999.250000  -999.250000 62.145713806 149.98199463 2.2240607738 52.443874359 1.8030084372 1.8030084372
 642.16619873  -999.250000 19.798999786  -999.250000  -999.250000  -999.250000  -999.250000 64.398689270 149.98199463 2.2430193424 52.339004517 1.8100119829 1.8100119829
 642.31860352  -999.250000 19.131000519  -999.250000  -999.250000  -999.250000  -999.250000 63.313381195 149.98179626 2.2490000725 52.341121674 1.8200000525 1.8200000525
 642.47100830  -999.250000 18.593000412  -999.250000  -999.250000  -999.250000  -999.250000 66.124450684 149.92024231 2.2489743233 52.443004608 1.8200000525 1.8200000525
 642.62341309  -999.250000 18.290000916  -999.250000  -999.250000  -999.250000  -999.250000 67.334167480 150.62124634 2.2409679890 52.445949554 1.8199728727 1.8199728727
 642.77581787  -999.250000 18.245000839  -999.250000  -999.250000  -999.250000  -999.250000 69.936126709 151.31945801 2.2309315205 52.415241241 1.8030143976 1.8030143976
 642.92822266  -999.250000 18.270000458  -999.250000  -999.250000  -999.250000  -999.250000 73.136169434 151.16955566 2.2119169235 51.941841125 1.8120192289 1.8120192289
 643.08062744  -999.250000 18.329000473  -999.250000  -999.250000  -999.250000  -999.250000 75.108085632 150.76554871 2.1889781952 51.841526031 1.8239935637 1.8239935637
 643.23303223  -999.250000 18.357000351  -999.250000  -999.250000  -999.250000  -999.250000 73.913299561 150.37040710 2.1829857826 52.170269012 1.8200000525 1.8200000525
 643.38543701  -999.250000 18.145999908  -999.250000  -999.250000  -999.250000  -999.250000 72.228805542 150.20597839 2.1789817810 52.340061188 1.8200000525 1.8200000525
 643.53784180  -999.250000 18.024000168  -999.250000  -999.250000  -999.250000  -999.250000 71.478553772 150.47692871 2.1739857197 52.379096985 1.8200000525 1.8200000525
 643.69024658  -999.250000 17.878000259  -999.250000  -999.250000  -999.250000  -999.250000 70.576370239 150.18113708 2.1699748039 52.437957764 1.8200000525 1.8200000525
 643.84265137  -999.250000 18.107000351  -999.250000  -999.250000  -999.250000  -999.250000 70.181831360 150.22015381 2.1629605293 52.412086487 1.8200000525 1.8200000525
 643.99499512  -999.250000 18.232000351  -999.250000  -999.250000  -999.250000  -999.250000 70.077926636 150.25904846 2.1519680023 52.466243744 1.8200000525 1.8200000525
 644.14739990  -999.250000 18.143999100  -999.250000  -999.250000  -999.250000  -999.250000 70.847694397 149.65208435 2.1419646740 52.668201447 1.8199796677 1.8199796677
 644.29980469  -999.250000 18.298999786  -999.250000  -999.250000  -999.250000  -999.250000 71.421272278 149.36721802 2.1310193539 52.836074829 1.8030155897 1.8030155897
 644.45220947  -999.250000 18.222000122  -999.250000  -999.250000  -999.250000  -999.250000 68.319000244 149.11712646 2.1370384693 52.898540497 1.8160047531 1.8160047531
 644.60461426  -999.250000 18.024999619  -999.250000  -999.250000  -999.250000  -999.250000 68.324310303 148.84631348 2.1490416527 52.516773224 1.8200000525 1.8200000525
 644.75701904  -999.250000 17.940999985  -999.250000  -999.250000  -999.250000  -999.250000 71.007942200 148.31886292 2.1620383263 52.377323151 1.8200000525 1.8200000525
 644.90942383  -999.250000 17.955999374  -999.250000  -999.250000  -999.250000  -999.250000 69.717971802 148.59408569 2.1740469933 52.579086304 1.8200000525 1.8200000525
 645.06182861  -999.250000 18.045999527  -999.250000  -999.250000  -999.250000  -999.250000 66.584548950 149.44897461 2.1870431900 52.633758545 1.8200000525 1.8200000525
 645.21423340  -999.250000 18.040000916  -999.250000  -999.250000  -999.250000  -999.250000 65.685325623 150.55024719 2.1989998817 52.482761383 1.8200000525 1.8200000525
 645.36663818  -999.250000 18.247999191  -999.250000  -999.250000  -999.250000  -999.250000 68.382545471 152.00579834 2.1988809109 52.332588196 1.8200032711 1.8200032711
 645.51904297  -999.250000 18.471000671  -999.250000  -999.250000  -999.250000  -999.250000 69.966430664 153.89666748 2.1658809185 52.076515198 1.8219968081 1.8219968081
 645.67144775  -999.250000 18.492000580  -999.250000  -999.250000  -999.250000  -999.250000 67.737640381 156.29304504 2.1328845024 51.774066925 1.8200000525 1.8200000525
 645.82385254  -999.250000 18.100999832  -999.250000  -999.250000  -999.250000  -999.250000 64.404144287 156.86506653 2.1009280682 51.816390991 1.8200000525 1.8200000525
 645.97619629  -999.250000 17.871999741  -999.250000  -999.250000  -999.250000  -999.250000 66.987457275 157.43595886 2.0809583664 52.060405731 1.8200000525 1.8200000525
 646.12860107  -999.250000 18.069999695  -999.250000  -999.250000  -999.250000  -999.250000 68.197418213 157.73129272 2.0679583549 52.397193909 1.8199603558 1.8199603558
 646.28100586  -999.250000 18.156999588  -999.250000  -999.250000  -999.250000  -999.250000 66.053634644 157.19805908 2.0549170971 52.560085297 1.7869987488 1.7869987488
 646.43341064  -999.250000 18.365999222  -999.250000  -999.250000  -999.250000  -999.250000 64.085243225 156.28038025 2.0318880081 52.628730774 1.7859808207 1.7859808207
 646.58581543  -999.250000 18.139999390  -999.250000  -999.250000  -999.250000  -999.250000 64.288818359 156.39646912 2.0038917065 52.403057098 1.7699999809 1.7699999809
 646.73822021  -999.250000 18.101999283  -999.250000  -999.250000  -999.250000  -999.250000 65.801277161 156.22999573 1.9769759178 52.450351715 1.7699984312 1.7699984312
 646.89062500  -999.250000 18.284999847  -999.250000  -999.250000  -999.250000  -999.250000 66.591926575 155.91813660 1.9709758759 52.670837402 1.7689759731 1.7689759731
 647.04302979  -999.250000 18.138000488  -999.250000  -999.250000  -999.250000  -999.250000 65.918296814 155.68099976 1.9649840593 53.193592072 1.7539999485 1.7539999485
 647.19543457  -999.250000 17.964000702  -999.250000  -999.250000  -999.250000  -999.250000 64.857124329 156.51312256 1.9610840082 52.939529419 1.7539999485 1.7539999485
 647.34783936  -999.250000 18.288000107  -999.250000  -999.250000  -999.250000  -999.250000 63.686904907 156.54255676 1.9820801020 52.647644043 1.7540255785 1.7540255785
 647.50024414  -999.250000 18.283000946  -999.250000  -999.250000  -999.250000  -999.250000 63.630195618 155.58763123 2.0020921230 52.425998688 1.7699999809 1.7699999809
 647.65264893  -999.250000 18.146999359  -999.250000  -999.250000  -999.250000  -999.250000 64.999237061 155.20573425 2.0250961781 52.425319672 1.7699999809 1.7699999809
