# LAS format log file from PETREL
# Project units are specified as depth units
#==================================================================
~Version information
VERS.   2.0:
WRAP.   NO:
#==================================================================
~Well
STRT .m      1740.8350830 :
STOP .m      3359.4750977 :
STEP .m     0.00000000 :
NULL .        -999.250000 :
COMP.           : COMPANY
WELL.  33/9-6   : WELL
FLD.            : FIELD
LOC.            : LOCATION
SRVC.           : SERVICE COMPANY
DATE.  2018-09-11 14:48:43   : Log Export Date {yyyy-MM-dd HH:mm:ss}
PROV.           : PROVINCE
UWI.   33/9-6   : UNIQUE WELL ID
API.            : API NUMBER
#==================================================================
~Curve
DEPT .m                   : DEPTH
Lithology_geolink ._      : Lithology_geolink
CALI .in                  : CALI
DRHO .g/cm3               : DRHO
NPHI .m3/m3               : NPHI
RHOB .g/cm3               : RHOB
GR .gAPI                  : GR
DTC .us/ft                : DTC
RDEP .ohm.m               : RDEP
SP .mV                    : SP
RSHA .ohm.m               : RSHA
RMED .ohm.m               : RMED
~Parameter
#==================================================================
~Ascii
# ...
 2595.7990723  -999.250000 13.508000374 -0.028999999 0.4417499900 2.2959935665 52.387001038 108.12113190 1.2419999838 75.592323303 1.4190160036 1.4190160036
 2595.9514160  -999.250000 13.605999947 -0.032000002 0.4250999689 2.3109760284 53.567001343 107.85012054 1.2460000515 75.691925049 1.4240208864 1.4240208864
 2596.1037598  -999.250000 13.163998604 -0.044000000 0.4250199795 2.3319664001 54.951000214 108.54724884 1.2500000000 75.643920898 1.4370000362 1.4370000362
 2596.2561035  -999.250000 13.334000587 -0.055000000 0.4340900183 2.3719358444 55.328998566 108.08762360 1.2500000000 75.595924377 1.4369920492 1.4369920492
 2596.4086914  -999.250000 13.310000420 -0.029999999 0.4337900281 2.4089407921 54.342998505 107.85545349 1.2500000000 75.547843933 1.4319744110 1.4319744110
 2596.5610352  -999.250000 13.637999535 -0.027000001 0.4193899930 2.3890318871 52.498001099 107.99436188 1.2569999695 75.499908447 1.4239776134 1.4239776134
 2596.7133789  -999.250000 13.524000168 -0.029999999 0.4031499922 2.3041360378 52.568000793 107.59603882 1.2669999599 75.443870544 1.4100288153 1.4100288153
 2596.8657227  -999.250000 13.352999687 -0.018999999 0.4066799879 2.3059968948 53.755001068 106.99848175 1.2760000229 75.361869812 1.4280303717 1.4280303717
 2597.0180664  -999.250000 13.486000061 -0.018999999 0.4122200012 2.3139743805 54.943000793 106.67396545 1.2849999666 75.279861450 1.4470304251 1.4470304251
 2597.1706543  -999.250000 13.571999550 -0.022000000 0.4156399965 2.3209888935 55.395999908 106.65496063 1.2910000086 75.194725037 1.4660639763 1.4660639763
 2597.3229980  -999.250000 13.541000366 -0.022000000 0.4189300239 2.3349776268 55.535999298 106.33119202 1.2990000248 75.107933044 1.4860175848 1.4860175848
 2597.4753418  -999.250000 13.296999931 -0.013000000 0.4211500287 2.3599598408 55.331001282 106.45240021 1.2929999828 75.064445496 1.4969871044 1.4969871044
 2597.6276855  -999.250000 13.437000275 -0.006000000 0.4093900025 2.3659806252 56.477001190 106.69968414 1.2869999409 75.341445923 1.4889743328 1.4889743328
 2597.7802734  -999.250000 13.491999626 -0.007000000 0.3976200223 2.3640031815 56.865001678 106.50859070 1.2869999409 75.618606567 1.4729168415 1.4729168415
 2597.9326172  -999.250000 13.798999786 -0.010000000 0.3894499838 2.3530175686 56.062000275 107.31538391 1.2799999714 75.807991028 1.4469984770 1.4469984770
 2598.0849609  -999.250000 13.588999748 -0.015000000 0.3922699988 2.3420176506 55.430999756 106.30388641 1.2790000439 75.800994873 1.4460303783 1.4460303783
 2598.2373047  -999.250000 13.868000031 -0.021000000 0.4124200046 2.3380129337 54.569000244 104.36549377 1.2799999714 75.794990540 1.4649791718 1.4649791718
 2598.3898926  -999.250000 13.526000023 -0.020000000 0.4172499776 2.3370015621 53.941001892 102.78705597 1.2890000343 75.787979126 1.4519743919 1.4519743919
 2598.5422363  -999.250000 13.206000328 -0.008000000 0.4206499755 2.3609616756 54.640998840 97.186767578 1.2960000038 75.781990051 1.4441250563 1.4441250563
 2598.6945801  -999.250000 13.337000847 -0.029999999 0.4041199982 2.3889551163 54.631000519 90.816192627 1.2929999828 75.774993896 1.5222691298 1.5222691298
 2598.8469238  -999.250000 13.251000404 -0.052000001 0.3952000141 2.4399182796 53.536998749 91.560615540 1.2869999409 75.768913269 1.6900898218 1.6900898218
 2598.9992676  -999.250000 13.605999947 -0.052999999 0.3906499743 2.4848558903 50.192001343 93.821739197 1.2920000553 75.714881897 1.7457821369 1.7457821369
 2599.1518555  -999.250000 13.166998863 0.0080000004 0.4082300067 2.4760143757 49.167999268 99.925376892 1.2899999619 75.641761780 1.6093983650 1.6093983650
 2599.3041992  -999.250000 13.279999733 -0.004000000 0.4174000025 2.3312325478 50.389621735 110.31898499 1.2970000505 75.568099976 1.4219632149 1.4219632149
 2599.4565430  -999.250000 13.185999870 -0.017000001 0.4026599824 2.3020465374 52.645446777 107.19730377 1.2970000505 75.628173828 1.3990080357 1.3990080357
 2599.6088867  -999.250000 13.220000267 -0.021000000 0.3885900080 2.3139615059 53.544109344 107.38913727 1.2899999619 75.736175537 1.4040064812 1.4040064812
 2599.7614746  -999.250000 13.272999763 -0.033000000 0.3745799959 2.3139998913 52.984992981 107.47373962 1.2760000229 75.844070435 1.4080256224 1.4080256224
 2599.9138184  -999.250000 13.255998611 -0.032000002 0.3749200106 2.3379616737 51.423362732 107.39244080 1.2680000067 75.865646362 1.4160192013 1.4160192013
 2600.0661621  -999.250000 13.387999535 -0.028999999 0.3765599728 2.3419935703 50.406261444 107.66705322 1.2649999857 75.644638062 1.4280240536 1.4280240536
 2600.2185059  -999.250000 13.281000137 -0.025000000 0.3781900108 2.3270478249 51.193511963 108.32405853 1.2719999552 75.422828674 1.4430176020 1.4430176020
 2600.3710938  -999.250000 13.256999969 -0.023000000 0.3753699958 2.3140206337 51.510574341 108.36144257 1.2849999666 75.317092896 1.4540864229 1.4540864229
 2600.5234375  -999.250000 13.647001266 -0.021000000 0.3696799874 2.2990241051 51.066787720 107.56275940 1.2960000038 75.345046997 1.4810496569 1.4810496569
 2600.6757813  -999.250000 13.432000160 -0.020000000 0.3640000224 2.3059887886 51.558414459 106.78498077 1.3040000200 75.373046875 1.5120143890 1.5120143890
 2600.8281250  -999.250000 13.193999290 -0.025000000 0.3684500158 2.3079969883 52.440288544 105.52487946 1.3109999895 75.401046753 1.5210336447 1.5210336447
 2600.9804688  -999.250000 13.241000175 -0.034000002 0.3848799765 2.3089969158 51.992652893 105.45228577 1.3179999590 75.429039001 1.5420064926 1.5420064926
 2601.1330566  -999.250000 13.178000450 -0.018999999 0.3932500184 2.3259727955 50.530735016 106.25640869 1.3250000477 75.453804016 1.5459648371 1.5459648371
 2601.2854004  -999.250000 13.189000130 -0.009000000 0.3950299919 2.3279969692 50.447269440 106.07112122 1.3320000172 75.390899658 1.5349743366 1.5349743366
 2601.4377441  -999.250000 13.526000023 -0.010000000 0.4056000113 2.3389823437 49.367053986 105.52461243 1.3370000124 75.326904297 1.5189727545 1.5189727545
 2601.5900879  -999.250000 13.305000305 -0.017000001 0.4113900065 2.3340160847 48.778461456 105.28369141 1.3420000076 75.262977600 1.5020303726 1.5020303726
 2601.7426758  -999.250000 13.401000023 -0.022000000 0.4128499925 2.3320031166 49.063114166 105.09307098 1.3459999561 75.247177124 1.5210992098 1.5210992098
 2601.8950195  -999.250000 13.498000145 -0.020000000 0.4216099977 2.3399870396 48.162136078 105.42613983 1.3480000496 75.302093506 1.5520000458 1.5520000458
 2602.0473633  -999.250000 13.392000198 -0.027000001 0.4282400012 2.3360064030 46.999969482 105.51223755 1.3509999514 75.357093811 1.5519744158 1.5519744158
 2602.1997070  -999.250000 13.111999512 -0.034000002 0.4239899814 2.3359999657 46.983100891 105.65876007 1.3519999981 75.412094116 1.5359855890 1.5359855890
 2602.3522949  -999.250000 13.337000847 -0.028000001 0.4239500165 2.3369982243 47.676963806 106.13190460 1.3530000448 75.467178345 1.5270351171 1.5270351171
 2602.5046387  -999.250000 13.305000305 -0.022000000 0.4301200211 2.3389968872 49.536708832 105.78815460 1.3559999466 75.521980286 1.5380417109 1.5380417109
 2602.6569824  -999.250000 13.307999611 -0.020000000 0.4184400141 2.3549742699 51.225536346 104.63831329 1.3650000095 75.507293701 1.5640064478 1.5640064478
 2602.8093262  -999.250000 13.369000435 -0.021000000 0.4083300233 2.3420207500 52.805175781 104.83187866 1.3750000000 75.065292358 1.5680031776 1.5680031776
 2602.9616699  -999.250000 13.397999763 -0.023000000 0.4083284736 2.3469839096 52.915145874 105.37952423 1.3849999905 74.624198914 1.5700480938 1.5700480938
 2603.1142578  -999.250000 13.564000130 -0.026000001 0.4011322558 2.3310258389 53.004978180 105.08267212 1.3960000277 74.749755859 1.6000992060 1.6000992060
 2603.2666016  -999.250000 13.395999908 -0.027000001 0.3987362683 2.3280048370 52.684986115 104.97832489 1.4060000181 74.984405518 1.6310129166 1.6310129166
 2603.4189453  -999.250000 13.336000443 -0.028000001 0.4026333988 2.3309953213 51.426139832 105.18138123 1.4160000086 75.234405518 1.6389985085 1.6389985085
