# LAS format log file from PETREL
# Project units are specified as depth units
#==================================================================
~Version information
VERS.   2.0:
WRAP.   NO:
#==================================================================
~Well
STRT .m      1740.8350830 :
STOP .m      3359.4750977 :
STEP .m     0.00000000 :
NULL .        -999.250000 :
COMP.           : COMPANY
WELL.  33/9-6   : WELL
FLD.            : FIELD
LOC.            : LOCATION
SRVC.           : SERVICE COMPANY
DATE.  2018-09-11 14:48:43   : Log Export Date {yyyy-MM-dd HH:mm:ss}
PROV.           : PROVINCE
UWI.   33/9-6   : UNIQUE WELL ID
API.            : API NUMBER
#==================================================================
~Curve
DEPT .m                   : DEPTH
Lithology_geolink ._      : Lithology_geolink
CALI .in                  : CALI
DRHO .g/cm3               : DRHO
NPHI .m3/m3               : NPHI
RHOB .g/cm3               : RHOB
GR .gAPI                  : GR
DTC .us/ft                : DTC
RDEP .ohm.m               : RDEP
SP .mV                    : SP
RSHA .ohm.m               : RSHA
RMED .ohm.m               : RMED
~Parameter
#==================================================================
~Ascii
# ...
 2168.3168945  -999.250000 14.246000290 -0.039999999 0.4325000048 2.1829807758 57.708999634 131.14300537 1.0019999743 65.794998169 1.1119999886 1.1119999886
 2168.4694824  -999.250000 14.304999352 -0.028000001 0.4168093801 2.2059264183 58.438556671 131.95867920 1.0049999952 65.981704712 1.1120079756 1.1120079756
 2168.6218262  -999.250000 14.236000061 -0.015000000 0.4039619267 2.2229454517 58.784561157 132.38676453 1.0060000420 65.794868469 1.1169999838 1.1169999838
 2168.7741699  -999.250000 14.184000015 -0.009000000 0.3927000165 2.2220029831 58.509998322 132.86700439 1.0069999695 65.711997986 1.1169999838 1.1169999838
 2168.9265137  -999.250000 14.130000114 -0.017999999 0.4023199975 2.2170159817 58.095001221 134.56300354 1.0069999695 65.980003357 1.1160000563 1.1160000563
 2169.0791016  -999.250000 14.086000443 -0.025000000 0.4122866988 2.2179982662 58.200134277 135.21308899 1.0080000162 66.168884277 1.0929632187 1.0929632187
 2169.2314453  -999.250000 14.095999718 -0.025000000 0.4226971269 2.2229840755 57.661090851 137.76310730 1.0110000372 66.718208313 1.0699871778 1.0699871778
 2169.3837891  -999.250000 14.105999947 -0.020000000 0.4271419048 2.2130320072 58.341732025 139.07476807 1.0199999809 66.848213196 1.0620384216 1.0620384216
 2169.5361328  -999.250000 14.133999825 -0.013000000 0.4283300042 2.2259583473 58.798999786 136.43699646 1.0269999504 66.982002258 1.0859999657 1.0859999657
 2169.6887207  -999.250000 14.194999695 -0.012000000 0.4097512662 2.2449693680 58.392871857 135.97587585 1.0399999619 67.045867920 1.1090352535 1.1090352535
 2169.8410645  -999.250000 14.185000420 -0.021000000 0.3918409646 2.2549681664 57.687152863 135.89944458 1.0440000296 66.340576172 1.1310321093 1.1310321093
 2169.9934082  -999.250000 14.204999924 -0.023000000 0.3862025142 2.2460289001 56.534061432 134.93264771 1.0440000296 65.452613831 1.1510431767 1.1510431767
 2170.1457520  -999.250000 14.097001076 -0.026000001 0.3877800107 2.2729134560 54.701999664 135.33700562 1.0449999571 64.584999084 1.1779999733 1.1779999733
 2170.2980957  -999.250000 13.864000320 -0.030999999 0.3955300152 2.3417787552 52.766998291 139.81799316 1.0529999733 64.552001953 1.1859999895 1.1859999895
 2170.4506836  -999.250000 13.807000160 -0.057000000 0.4109246731 2.4038016796 52.158054352 142.42430115 1.0559999943 64.649002075 1.1588926315 1.1588926315
 2170.6030273  -999.250000 13.836000443 -0.025000000 0.4263050258 2.4069905281 53.440898895 142.61634827 1.0549999475 64.649002075 1.0919439793 1.0919439793
 2170.7553711  -999.250000 13.845999718 -0.002000000 0.4356800020 2.3013398647 54.001998901 142.83399963 1.0570000410 64.648002625 1.0570000410 1.0570000410
 2170.9077148  -999.250000 13.866000175 -0.004000000 0.4320399761 2.2411923409 54.306999207 143.47599792 1.0509999990 64.867996216 1.0740000010 1.0740000010
 2171.0603027  -999.250000 13.897000313 -0.016000001 0.4122879207 2.2290194035 55.483692169 140.72685242 1.0390000343 65.170433044 1.0920448303 1.0920448303
 2171.2126465  -999.250000 13.909000397 -0.026000001 0.3985226452 2.2170383930 56.540283203 136.28288269 1.0329999924 65.438865662 1.1200288534 1.1200288534
 2171.3649902  -999.250000 13.946000099 -0.029999999 0.3939400017 2.2219839096 56.717208862 136.83992004 1.0290000439 65.351860046 1.1379952431 1.1379952431
 2171.5173340  -999.250000 13.772000313 -0.027000001 0.3939400017 2.2289776802 56.848999023 138.03900146 1.0379999876 65.264999390 1.1349999905 1.1349999905
 2171.6699219  -999.250000 13.755000114 -0.022000000 0.4058602154 2.2270030975 56.461448669 138.20744324 1.0520000458 65.128318787 1.1109342575 1.1109342575
 2171.8222656  -999.250000 13.935000420 -0.018999999 0.4247075617 2.2080607414 55.490180969 137.86537170 1.0679999590 65.329696655 1.0700112581 1.0700112581
 2171.9746094  -999.250000 14.105999947 -0.018999999 0.4356641471 2.2089970112 53.730434418 136.22497559 1.0729999542 65.759124756 1.0770672560 1.0770672560
 2172.1269531  -999.250000 13.732999802 -0.016000001 0.4444900155 2.2229552269 51.504001617 133.71600342 1.0670000315 65.210998535 1.1189999580 1.1189999580
 2172.2792969  -999.250000 13.706000328 -0.012000000 0.4325599968 2.2389488220 50.743999481 132.66999817 1.0650000572 65.025001526 1.1829999685 1.1829999685
 2172.4318848  -999.250000 13.913999557 -0.011000000 0.4244609475 2.2330193520 52.176540375 132.62896729 1.0570000410 64.902801514 1.1759711504 1.1759711504
 2172.5842285  -999.250000 14.060999870 -0.020000000 0.4188386500 2.2310063839 54.385604858 133.85566711 1.0520000458 64.780807495 1.1579663754 1.1579663754
 2172.7365723  -999.250000 13.873999596 -0.032000002 0.4179999828 2.2020928860 56.636001587 136.14500427 1.0410000086 64.660003662 1.1369999647 1.1369999647
 2172.8889160  -999.250000 13.782999992 -0.039000001 0.4144400060 2.1810672283 57.744998932 138.11300659 1.0290000439 64.741996765 1.1200000048 1.1200000048
 2173.0415039  -999.250000 13.786000252 -0.037999999 0.3983913660 2.1750094891 57.873703003 138.69755554 1.0199999809 64.865486145 1.0889438391 1.0889438391
 2173.1938477  -999.250000 13.744000435 -0.032000002 0.3867813647 2.1749999523 57.687442780 138.42028809 0.9980000257 65.168464661 1.0539616346 1.0539616346
 2173.3461914  -999.250000 13.777000427 -0.025000000 0.3876100183 2.1829743385 57.339000702 137.35699463 0.9829999804 65.460998535 1.0299999714 1.0299999714
 2173.4985352  -999.250000 13.675999641 -0.016000001 0.3891800046 2.1979517937 57.179000854 136.00399780 0.9710000157 65.663002014 1.0099999905 1.0099999905
 2173.6511230  -999.250000 13.755000114 -0.016000001 0.3949252963 2.2129759789 57.854202271 135.84248352 0.9660000205 65.842002869 1.0150176287 1.0150176287
 2173.8034668  -999.250000 13.795000076 -0.017000001 0.4106768966 2.2239646912 58.600898743 135.51498413 0.9589999914 65.842460632 1.0260385275 1.0260385275
 2173.9558105  -999.250000 13.866000175 -0.017000001 0.4149630070 2.2230031490 57.288368225 134.87318420 0.9649999738 66.127647400 1.0500303507 1.0500303507
 2174.1081543  -999.250000 13.925000191 -0.020000000 0.4106000066 2.2190129757 55.645000458 134.37199402 0.9710000157 66.533996582 1.0690000057 1.0690000057
 2174.2607422  -999.250000 13.951999664 -0.021000000 0.4043941498 2.2120110989 55.971611023 135.48637390 0.9789999723 65.982452393 1.0739855766 1.0739855766
 2174.4130859  -999.250000 13.904999733 -0.020000000 0.4132289886 2.2110030651 57.598510742 136.97080994 0.9950000048 65.640914917 1.0649744272 1.0649744272
 2174.5654297  -999.250000 14.057000160 -0.016000001 0.4188351333 2.2349228859 58.541294098 138.71687317 1.0110000372 65.588760376 1.0490000248 1.0490000248
 2174.7177734  -999.250000 14.053999901 -0.014000000 0.4158000052 2.2300159931 59.972999573 139.25900269 1.0210000277 65.441001892 1.0490000248 1.0490000248
 2174.8701172  -999.250000 13.826000214 -0.027000001 0.4143199921 2.2120575905 60.979999542 138.82699585 1.0260000229 65.431999207 1.0609999895 1.0609999895
 2175.0227051  -999.250000 13.605999947 -0.033000000 0.4128476083 2.2010176182 62.185523987 139.14683533 1.0310000181 65.210670471 1.1090208292 1.1090208292
 2175.1750488  -999.250000 13.883999825 -0.026000001 0.4113621712 2.2209360600 63.134860992 140.91624451 1.0470000505 65.005752563 1.1219631433 1.1219631433
 2175.3273926  -999.250000 13.913999557 -0.021000000 0.4064799845 2.2289743423 62.423999786 143.55999756 1.0679999590 64.852996826 1.0989999771 1.0989999771
 2175.4797363  -999.250000 13.904000282 -0.018999999 0.3995899856 2.2299969196 60.449001312 144.64700317 1.1089999676 64.593002319 1.0820000172 1.0820000172
 2175.6323242  -999.250000 13.963999748 -0.018999999 0.4039072394 2.2170207500 58.587375641 145.22271729 1.1469999552 64.440002441 1.0860159397 1.0860159397
 2175.7846680  -999.250000 13.984000206 -0.011000000 0.4084084928 2.2269680500 55.702278137 142.54814148 1.1859999895 64.440002441 1.0960832834 1.0960832834
 2175.9370117  -999.250000 14.034999847 -0.010000000 0.4012326598 2.2269999981 52.755302429 139.51887512 1.2280000448 64.440147400 1.1481599808 1.1481599808
