# LAS format log file from PETREL
# Project units are specified as depth units
#==================================================================
~Version information
VERS.   2.0:
WRAP.   NO:
#==================================================================
~Well
STRT .m      515.45703125 :
STOP .m      3237.9299316 :
STEP .m     0.00000000 :
NULL .        -999.250000 :
COMP.           : COMPANY
WELL.  33/9-17   : WELL
FLD.            : FIELD
LOC.            : LOCATION
SRVC.           : SERVICE COMPANY
DATE.  2018-09-11 14:48:42   : Log Export Date {yyyy-MM-dd HH:mm:ss}
PROV.           : PROVINCE
UWI.   33/9-17   : UNIQUE WELL ID
API.            : API NUMBER
#==================================================================
~Curve
DEPT .m                   : DEPTH
Lithology_geolink ._      : Lithology_geolink
CALI .in                  : CALI
BS .in                    : BS
DRHO .g/cm3               : DRHO
NPHI .m3/m3               : NPHI
RHOB .g/cm3               : RHOB
PEF .b/e                  : PEF
GR .gAPI                  : GR
DTC .us/ft                : DTC
RDEP .ohm.m               : RDEP
SP .mV                    : SP
RSHA .ohm.m               : RSHA
RMED .ohm.m               : RMED
~Parameter
#==================================================================
~Ascii
# ...
 2688.0708008  -999.250000 8.6800003052 8.5000000000 -0.009000000 0.3219999969 2.4260001183  -999.250000 101.41772461 111.00000000 1.3948974609 -368.2500000 1.5171730518 1.4490000010
 2688.2231445  -999.250000 8.6800003052 8.5000000000 -0.009000000 0.3289999962 2.4309999943  -999.250000 100.46954346 110.90000153 1.4019488096 -368.7500000 1.5249887705 1.4589999914
 2688.3754883  -999.250000 8.6800003052 8.5000000000 -0.005000000 0.3350000083 2.4300000668  -999.250000 99.040603638 110.30000305 1.4040000439 -367.5000000 1.5275968313 1.4620000124
 2688.5280762  -999.250000 8.6800003052 8.5000000000 -0.008000000 0.3400000036 2.4219999313  -999.250000 98.324897766 110.79999542 1.4022308588 -368.0000000 1.5279999971 1.4659999609
 2688.6804199  -999.250000 8.6800003052 8.5000000000 -0.008000000 0.3300000131 2.4200000763  -999.250000 98.535255432 111.00000000 1.3974615335 -369.2500000 1.5256090164 1.4670000076
 2688.8327637  -999.250000 8.6800003052 8.5000000000 -0.010000000 0.3230000138 2.4270000458  -999.250000 99.421073914 111.19999695 1.3902820349 -369.7500000 1.5198156834 1.4609999657
 2688.9851074  -999.250000 8.6800003052 8.5000000000 -0.004000000 0.3370000124 2.4379999638  -999.250000 100.39320374 111.30000305 1.3805128336 -369.5000000 1.5098383427 1.4529999495
 2689.1376953  -999.250000 8.6800003052 8.5000000000 -0.007000000 0.3359999955 2.4300000668  -999.250000 100.88690186 111.30000305 1.3677344322 -369.0000000 1.4960336685 1.4429999590
 2689.2900391  -999.250000 8.6800003052 8.5000000000 -0.004000000 0.3350000083 2.4330000877  -999.250000 100.58269501 111.59999847 1.3525640965 -368.0000000 1.4792404175 1.4290000200
 2689.4423828  -999.250000 8.6800003052 8.5000000000 -0.001000000 0.3269999921 2.4379999638  -999.250000 97.919052124 111.30000305 1.3371537924 -367.2500000 1.4600448608 1.4140000343
 2689.5947266  -999.250000 8.6800003052 8.5000000000 0.0020000001 0.3190000057 2.4519999027  -999.250000 93.787353516 111.40000916 1.3227436543 -368.0000000 1.4400448799 1.3940000534
 2689.7473145  -999.250000 8.6800003052 8.5000000000 0.0000000000 0.3330000043 2.4549999237  -999.250000 91.513702393 111.40000916 1.3105056286 -370.0000000 1.4224256277 1.3730000257
 2689.8996582  -999.250000 8.6800003052 8.5000000000 0.0000000000 0.3409999907 2.4579999447  -999.250000 94.259048462 112.40000153 1.3012820482 -370.5000000 1.4112179279 1.3580000401
 2690.0520020  -999.250000 8.6800003052 8.5000000000 -0.002000000 0.3470000029 2.4489998817  -999.250000 100.64494324 111.90000153 1.2962307930 -372.2500000 1.4068044424 1.3519999981
 2690.2043457  -999.250000 8.6800003052 8.5000000000 -0.004000000 0.3310000002 2.4419999123  -999.250000 104.90486908 110.19998932 1.2961795330 -372.2500000 1.4071955681 1.3500000238
 2690.3566895  -999.250000 8.6800003052 8.5000000000 -0.008000000 0.3379999995 2.4260001183  -999.250000 103.83043671 109.90000153 1.3011215925 -371.5000000 1.4145648479 1.3430000544
 2690.5092773  -999.250000 8.6800003052 8.5000000000 -0.010000000 0.3249999881 2.4279999733  -999.250000 100.29676819 109.00000000 1.3098974228 -370.7500000 1.4291619062 1.3550000191
 2690.6616211  -999.250000 8.6800003052 8.5000000000 -0.012000000 0.3370000124 2.4289999008  -999.250000 98.509231567 109.00000000 1.3187179565 -369.2500000 1.4449663162 1.3849999905
 2690.8139648  -999.250000 8.6800003052 8.5000000000 -0.011000000 0.3260000050 2.4389998913  -999.250000 99.017715454 109.30000305 1.3249487877 -369.2500000 1.4551842213 1.3990000486
 2690.9663086  -999.250000 8.6800003052 8.5000000000 -0.012000000 0.3359999955 2.4419999123  -999.250000 99.794181824 110.40000153 1.3287692070 -370.2500000 1.4579999447 1.3990000486
 2691.1188965  -999.250000 8.6800003052 8.5000000000 -0.009000000 0.3409999907 2.4500000477  -999.250000 100.60455322 110.90000153 1.3294095993 -371.2500000 1.4550111294 1.3980000019
 2691.2712402  -999.250000 8.6800003052 8.5000000000 -0.008000000 0.3580000103 2.4530000687  -999.250000 102.24491882 111.19999695 1.3248717785 -371.5000000 1.4464247227 1.3960000277
 2691.4235840  -999.250000 8.6800003052 8.5000000000 -0.007000000 0.3549999893 2.4409999847  -999.250000 104.33353424 111.59999847 1.3149230480 -372.5000000 1.4294471741 1.3890000582
 2691.5759277  -999.250000 8.6800003052 8.5000000000 -0.006000000 0.3639999926 2.4379999638  -999.250000 104.84438324 112.40000153 1.3017436266 -372.0000000 1.4078704119 1.3669999838
 2691.7285156  -999.250000 8.6800003052 8.5000000000 -0.006000000 0.3630000055 2.4289999008  -999.250000 104.01427460 112.30000305 1.2906863689 -370.7500000 1.3912291527 1.3400000334
 2691.8808594  -999.250000 8.6800003052 8.5000000000 -0.003000000 0.3619999886 2.4389998913  -999.250000 104.80776978 112.19999695 1.2852307558 -372.0000000 1.3842067719 1.3159999847
 2692.0332031  -999.250000 8.6800003052 8.5000000000 -0.004000000 0.3400000036 2.4389998913  -999.250000 107.82305145 110.79999542 1.2840000391 -370.7500000 1.3853909969 1.3170000315
 2692.1855469  -999.250000 8.6800003052 8.5000000000 -0.008000000 0.3370000124 2.4349999428  -999.250000 109.49374390 110.19998932 1.2851794958 -371.2500000 1.3935753107 1.3320000172
 2692.3381348  -999.250000 8.6800003052 8.5000000000 -0.008000000 0.3350000083 2.4389998913  -999.250000 109.10288239 110.19998932 1.2901327610 -372.7500000 1.4051808119 1.3430000544
 2692.4904785  -999.250000 8.6800003052 8.5000000000 -0.010000000 0.3359999955 2.4419999123  -999.250000 107.69292450 110.59999847 1.3000768423 -373.2500000 1.4177708626 1.3559999466
 2692.6428223  -999.250000 8.6800003052 8.5000000000 -0.013000000 0.3249999881 2.4449999332  -999.250000 105.83207703 110.19998932 1.3167948723 -374.2500000 1.4313685894 1.3660000563
 2692.7951660  -999.250000 8.6800003052 8.5000000000 -0.013000000 0.3499999940 2.4389998913  -999.250000 103.09622955 110.00000000 1.3379744291 -375.0000000 1.4471619129 1.3769999743
 2692.9475098  -999.250000 8.6800003052 8.5000000000 -0.010000000 0.3510000110 2.4419999123  -999.250000 100.99723053 110.49999237 1.3593846560 -374.2500000 1.4647424221 1.3940000534
 2693.1000977  -999.250000 8.6800003052 8.5000000000 -0.011000000 0.3560000062 2.4379999638  -999.250000 101.78996277 110.69999695 1.3768559694 -373.0000000 1.4803686142 1.4149999619
 2693.2524414  -999.250000 8.6800003052 8.5000000000 -0.011000000 0.3429999948 2.4300000668  -999.250000 103.36064148 111.19999695 1.3883076906 -371.5000000 1.4913797379 1.4279999733
 2693.4047852  -999.250000 8.6800003052 8.5000000000 -0.011000000 0.3549999893 2.4279999733  -999.250000 103.08405304 112.00000000 1.3943589926 -371.7500000 1.4991842508 1.4329999685
 2693.5571289  -999.250000 8.6800003052 8.5000000000 -0.011000000 0.3499999940 2.4260001183  -999.250000 102.33174133 112.80000305 1.3960000277 -373.5000000 1.5049840212 1.4379999638
 2693.7097168  -999.250000 8.6800003052 8.5000000000 -0.013000000 0.3630000055 2.4370000362  -999.250000 102.47418976 112.59999847 1.3936383724 -374.5000000 1.5075978041 1.4429999590
 2693.8620605  -999.250000 8.6800003052 8.5000000000 -0.014000000 0.3930000067 2.4409999847  -999.250000 104.79869080 112.90000153 1.3855128288 -373.5000000 1.5038157701 1.4539999962
 2694.0144043  -999.250000 8.7500000000 8.5000000000 -0.013000000 0.4059999883 2.4440000057  -999.250000 107.80622864 113.50000000 1.3721538782 -373.5000000 1.4902404547 1.4490000010
 2694.1667480  -999.250000 8.7969999313 8.5000000000 -0.014000000 0.3989999890 2.4360001087  -999.250000 109.88899994 114.40000153 1.3559743166 -372.7500000 1.4668605328 1.4249999523
 2694.3193359  -999.250000 8.7500000000 8.5000000000 -0.017999999 0.3659999967 2.4270000458  -999.250000 110.31019592 115.49999237 1.3389631510 -372.0000000 1.4410400391 1.3940000534
 2694.4716797  -999.250000 8.6800003052 8.5000000000 -0.013000000 0.3529999852 2.4309999943  -999.250000 108.97637939 115.49999237 1.3213846684 -370.7500000 1.4208381176 1.3710000515
 2694.6240234  -999.250000 8.7030000687 8.5000000000 -0.012000000 0.3499999940 2.4289999008  -999.250000 107.08866119 115.30000305 1.3051538467 -370.5000000 1.4074246883 1.3550000191
