# LAS format log file from PETREL
# Project units are specified as depth units
#==================================================================
~Version information
VERS.   2.0:
WRAP.   NO:
#==================================================================
~Well
STRT .m      457.60995483 :
STOP .m      3127.1992188 :
STEP .m     0.00000000 :
NULL .        -999.250000 :
COMP.           : COMPANY
WELL.  33/9-1   : WELL
FLD.            : FIELD
LOC.            : LOCATION
SRVC.           : SERVICE COMPANY
DATE.  2018-09-11 14:48:42   : Log Export Date {yyyy-MM-dd HH:mm:ss}
PROV.           : PROVINCE
UWI.   33/9-1   : UNIQUE WELL ID
API.            : API NUMBER
#==================================================================
~Curve
DEPT .m                   : DEPTH
Lithology_geolink ._      : Lithology_geolink
CALI .in                  : CALI
BS .in                    : BS
DRHO .g/cm3               : DRHO
NPHI .m3/m3               : NPHI
RHOB .g/cm3               : RHOB
GR .gAPI                  : GR
DTC .us/ft                : DTC
RDEP .ohm.m               : RDEP
SP .mV                    : SP
RSHA .ohm.m               : RSHA
RMED .ohm.m               : RMED
~Parameter
#==================================================================
~Ascii
# ...
 998.93444824  -999.250000 16.895999908  -999.250000  -999.250000  -999.250000  -999.250000 59.807483673 141.85638428 1.3199747801 52.022335052 1.3509839773 1.3509839773
 999.08685303  -999.250000 16.944999695  -999.250000  -999.250000  -999.250000  -999.250000 59.485591888 144.12649536 1.3129746914 51.609302521 1.3409870863 1.3409870863
 999.23925781  -999.250000 16.993000031  -999.250000  -999.250000  -999.250000  -999.250000 59.230476379 145.52281189 1.3059747219 51.796997070 1.3329935074 1.3329935074
 999.39166260  -999.250000 17.038000107  -999.250000  -999.250000  -999.250000  -999.250000 58.286308289 144.21455383 1.2990216017 52.416316986 1.3289935589 1.3289935589
 999.54406738  -999.250000 17.077999115  -999.250000  -999.250000  -999.250000  -999.250000 60.351890564 141.89250183 1.3050287962 51.991222382 1.3249952793 1.3249952793
 999.69641113  -999.250000 17.073999405  -999.250000  -999.250000  -999.250000  -999.250000 62.775184631 139.55969238 1.3130255938 52.128101349 1.3220000267 1.3220000267
 999.84881592  -999.250000 17.034000397  -999.250000  -999.250000  -999.250000  -999.250000 60.434944153 138.38450623 1.3210736513 52.214981079 1.3220000267 1.3220000267
 1000.0012207  -999.250000 16.993999481  -999.250000  -999.250000  -999.250000  -999.250000 59.555831909 138.56710815 1.3440800905 52.199501038 1.3220000267 1.3220000267
 1000.1536255  -999.250000 16.959999084  -999.250000  -999.250000  -999.250000  -999.250000 57.750446320 140.02435303 1.3690415621 51.784729004 1.3220012188 1.3220012188
 1000.3060303  -999.250000 16.924999237  -999.250000  -999.250000  -999.250000  -999.250000 55.627674103 139.79783630 1.3819775581 51.561405182 1.3229999542 1.3229999542
 1000.4584351  -999.250000 16.926000595  -999.250000  -999.250000  -999.250000  -999.250000 55.360275269 140.09753418 1.3749808073 51.895088196 1.3229919672 1.3229919672
 1000.6108398  -999.250000 16.937000275  -999.250000  -999.250000  -999.250000  -999.250000 56.778556824 139.57545471 1.3689746857 51.327728271 1.3179823160 1.3179823160
 1000.7632446  -999.250000 16.968999863  -999.250000  -999.250000  -999.250000  -999.250000 57.122798920 139.02894592 1.3619784117 51.782611847 1.3069903851 1.3069903851
 1000.9156494  -999.250000 16.997999191  -999.250000  -999.250000  -999.250000  -999.250000 55.749187469 139.00831604 1.3559746742 51.539459229 1.3010144234 1.3010144234
 1001.0680542  -999.250000 17.006999969  -999.250000  -999.250000  -999.250000  -999.250000 55.245361328 139.47795105 1.3489747047 51.200641632 1.3100128174 1.3100128174
 1001.2204590  -999.250000 17.016000748  -999.250000  -999.250000  -999.250000  -999.250000 57.341308594 139.77102661 1.3419784307 50.978610992 1.3180031776 1.3180031776
 1001.3728638  -999.250000 17.009000778  -999.250000  -999.250000  -999.250000  -999.250000 58.154205322 140.08940125 1.3359999657 51.360969543 1.3199871778 1.3199871778
 1001.5252686  -999.250000 16.999000549  -999.250000  -999.250000  -999.250000  -999.250000 57.038177490 140.83538818 1.3359999657 51.966259003 1.3119888306 1.3119888306
 1001.6776733  -999.250000 16.982000351  -999.250000  -999.250000  -999.250000  -999.250000 57.774486542 140.33174133 1.3359999657 52.127693176 1.3049902916 1.3049902916
 1001.8300171  -999.250000 16.903999329  -999.250000  -999.250000  -999.250000  -999.250000 58.701873779 140.24978638 1.3359999657 52.559989929 1.2990012169 1.2990012169
 1001.9824219  -999.250000 16.878000259  -999.250000  -999.250000  -999.250000  -999.250000 58.595088959 139.45907593 1.3359999657 51.720298767 1.2999999523 1.2999999523
 1002.1348267  -999.250000 16.885000229  -999.250000  -999.250000  -999.250000  -999.250000 57.837200165 138.06933594 1.3359839916 51.967826843 1.2999999523 1.2999999523
 1002.2872314  -999.250000 16.892999649  -999.250000  -999.250000  -999.250000  -999.250000 57.165538788 139.26008606 1.3309775591 51.825748444 1.2999999523 1.2999999523
 1002.4396362  -999.250000 16.895000458  -999.250000  -999.250000  -999.250000  -999.250000 53.454956055 139.64735413 1.3239808083 51.615383148 1.2999951839 1.2999951839
 1002.5920410  -999.250000 16.888000488  -999.250000  -999.250000  -999.250000  -999.250000 50.311618805 140.48196411 1.3179743290 51.854843140 1.2969888449 1.2969888449
 1002.7444458  -999.250000 16.881000519  -999.250000  -999.250000  -999.250000  -999.250000 49.449535370 140.82730103 1.3099710941 52.380470276 1.2899887562 1.2899887562
 1002.8968506  -999.250000 16.929000854  -999.250000  -999.250000  -999.250000  -999.250000 48.535099030 142.00320435 1.3019711971 52.049980164 1.2829871178 1.2829871178
 1003.0492554  -999.250000 17.013000488  -999.250000  -999.250000  -999.250000  -999.250000 47.976734161 142.78637695 1.2939711809 52.038810730 1.2749887705 1.2749887705
 1003.2016602  -999.250000 17.096000671  -999.250000  -999.250000  -999.250000  -999.250000 49.679386139 142.92881775 1.2859711647 51.921131134 1.2679920197 1.2679920197
 1003.3540649  -999.250000 17.099000931  -999.250000  -999.250000  -999.250000  -999.250000 48.674491882 145.67251587 1.2779964209 52.627517700 1.2629920244 1.2629920244
 1003.5064697  -999.250000 17.125000000  -999.250000  -999.250000  -999.250000  -999.250000 49.603454590 145.52162170 1.2769999504 52.327980042 1.2579935789 1.2579935789
 1003.6588745  -999.250000 17.136999130  -999.250000  -999.250000  -999.250000  -999.250000 49.257137299 145.40684509 1.2769999504 52.315845490 1.2539919615 1.2539919615
 1003.8112183  -999.250000 16.826000214  -999.250000  -999.250000  -999.250000  -999.250000 45.602058411 146.59901428 1.2769999504 52.217777252 1.2489951849 1.2489951849
 1003.9636230  -999.250000 16.604000092  -999.250000  -999.250000  -999.250000  -999.250000 45.654041290 145.18075562 1.2769999504 52.035091400 1.2449988127 1.2449988127
 1004.1160278  -999.250000 16.319999695  -999.250000  -999.250000  -999.250000  -999.250000 49.014781952 143.67063904 1.2770415545 52.111492157 1.2440059185 1.2440059185
 1004.2684326  -999.250000 16.233999252  -999.250000  -999.250000  -999.250000  -999.250000 51.321617126 143.18289185 1.2900704145 51.688995361 1.2490059137 1.2490059137
 1004.4208374  -999.250000 16.118999481  -999.250000  -999.250000  -999.250000  -999.250000 47.676620483 142.43077087 1.3119584322 51.684913635 1.2540096045 1.2540096045
 1004.5732422  -999.250000 16.132999420  -999.250000  -999.250000  -999.250000  -999.250000 47.361110687 141.98918152 1.2989487648 51.613079071 1.2620064020 1.2620064020
 1004.7256470  -999.250000 16.559000015  -999.250000  -999.250000  -999.250000  -999.250000 45.559070587 141.69485474 1.2829294205 51.663097382 1.2660000324 1.2660000324
 1004.8780518  -999.250000 16.176000595  -999.250000  -999.250000  -999.250000  -999.250000 44.351837158 141.96592712 1.2609134912 51.724452972 1.2659791708 1.2659791708
 1005.0304565  -999.250000 15.699999809  -999.250000  -999.250000  -999.250000  -999.250000 41.755386353 143.05346680 1.2368665934 52.007251740 1.2529679537 1.2529679537
 1005.1828613  -999.250000 16.311000824  -999.250000  -999.250000  -999.250000  -999.250000 40.747322083 144.30432129 1.1999135017 51.541294098 1.2329679728 1.2329679728
 1005.3352661  -999.250000 16.642999649  -999.250000  -999.250000  -999.250000  -999.250000 39.701808929 148.00505066 1.1759387255 51.722877502 1.2129728794 1.2129728794
 1005.4876709  -999.250000 16.770999908  -999.250000  -999.250000  -999.250000  -999.250000 39.583927155 153.28755188 1.1589387655 51.024696350 1.1959728003 1.1959728003
 1005.6400757  -999.250000 16.740999222  -999.250000  -999.250000  -999.250000  -999.250000 39.538963318 156.76594543 1.1419422626 50.834300995 1.1789759398 1.1789759398
 1005.7924805  -999.250000 16.753000259  -999.250000  -999.250000  -999.250000  -999.250000 39.519989014 158.12995911 1.1259459257 51.021678925 1.1639840603 1.1639840603
 1005.9448242  -999.250000 16.795000076  -999.250000  -999.250000  -999.250000  -999.250000 42.629211426 157.55381775 1.1109519005 50.821430206 1.1539880037 1.1539880037
 1006.0972290  -999.250000 16.864999771  -999.250000  -999.250000  -999.250000  -999.250000 42.799980164 155.62680054 1.0959614515 51.177993774 1.1439892054 1.1439892054
