# LAS format log file from PETREL
# Project units are specified as depth units
#==================================================================
~Version information
VERS.   2.0:
WRAP.   NO:
#==================================================================
~Well
STRT .m      515.45703125 :
STOP .m      3237.9299316 :
STEP .m     0.00000000 :
NULL .        -999.250000 :
COMP.           : COMPANY
WELL.  33/9-17   : WELL
FLD.            : FIELD
LOC.            : LOCATION
SRVC.           : SERVICE COMPANY
DATE.  2018-09-11 14:48:42   : Log Export Date {yyyy-MM-dd HH:mm:ss}
PROV.           : PROVINCE
UWI.   33/9-17   : UNIQUE WELL ID
API.            : API NUMBER
#==================================================================
~Curve
DEPT .m                   : DEPTH
Lithology_geolink ._      : Lithology_geolink
CALI .in                  : CALI
BS .in                    : BS
DRHO .g/cm3               : DRHO
NPHI .m3/m3               : NPHI
RHOB .g/cm3               : RHOB
PEF .b/e                  : PEF
GR .gAPI                  : GR
DTC .us/ft                : DTC
RDEP .ohm.m               : RDEP
SP .mV                    : SP
RSHA .ohm.m               : RSHA
RMED .ohm.m               : RMED
~Parameter
#==================================================================
~Ascii
# ...
 696.50817871  -999.250000 12.086001396 8.5000000000 -0.027000001 0.3680000007 2.2019999027  -999.250000 98.599327087 150.00000000 2.4891602993 217.62500000 2.4604654312 1.8580000401
 696.66058350  -999.250000 12.086001396 8.5000000000 -0.029999999 0.3510000110 2.2130000591  -999.250000 96.712165833 148.30000305 2.4902172089 217.75000000 2.4456572533 1.8600000143
 696.81298828  -999.250000 12.086001396 8.5000000000 -0.032000002 0.3779999912 2.2090001106  -999.250000 92.363723755 145.60000610 2.4866228104 217.62500000 2.4197387695 1.9229999781
 696.96539307  -999.250000 12.156000137 8.5000000000 -0.027000001 0.4020000100 2.1979999542  -999.250000 87.413345337 146.80000305 2.4743022919 217.50000000 2.3720328808 1.9989999533
 697.11773682  -999.250000 12.250000954 8.5000000000 -0.023000000 0.4099999964 2.1870000362  -999.250000 84.402763367 146.89999390 2.4598729610 218.25000000 2.3388762474 2.0230000019
 697.27014160  -999.250000 12.125000000 8.5000000000 -0.020000000 0.3939999938 2.1730000973  -999.250000 85.489334106 146.69999695 2.4484670162 218.25000000 2.3331911564 2.0199999809
 697.42254639  -999.250000 12.133000374 8.5000000000 -0.017999999 0.3840000033 2.1730000973  -999.250000 87.071754456 150.39997864 2.4309287071 218.25000000 2.3256628513 2.0099999905
 697.57495117  -999.250000 12.234000206 8.5000000000 -0.018999999 0.3829999864 2.1809999943  -999.250000 87.642356873 147.80000305 2.3988215923 216.75000000 2.3057076931 1.9789999723
 697.72735596  -999.250000 12.116999626 8.5000000000 -0.020000000 0.3840000033 2.1819999218  -999.250000 88.617279053 147.30000305 2.3592274189 217.12500000 2.2751569748 1.9459999800
 697.87976074  -999.250000 12.116999626 8.5000000000 -0.020000000 0.3630000055 2.1600000858  -999.250000 91.954994202 147.19999695 2.3109071255 216.75000000 2.2109768391 1.9359999895
 698.03216553  -999.250000 12.227000237 8.5000000000 -0.021000000 0.4110000134 2.1159999371  -999.250000 95.480560303 149.60000610 2.2598786354 216.25000000 2.1490108967 1.9309999943
 698.18457031  -999.250000 12.218999863 8.5000000000 -0.022000000 0.4629999995 2.0780000687  -999.250000 96.486312866 157.50000000 2.2203876972 216.87500000 2.1067657471 1.9210000038
 698.33697510  -999.250000 12.078000069 8.5000000000 -0.022000000 0.4810000062 2.0680000782  -999.250000 97.138931274 160.19999695 2.1945195198 216.87500000 2.0689511299 1.9160000086
 698.48937988  -999.250000 12.227000237 8.5000000000 -0.016000001 0.4399999976 2.0829999447  -999.250000 96.521789551 160.60000610 2.1741137505 216.75000000 2.0516161919 1.8830000162
 698.64178467  -999.250000 12.250000954 8.5000000000 -0.015000000 0.4120000005 2.0920000076  -999.250000 95.175849915 158.10000610 2.1505479813 216.50000000 2.0333144665 1.8150000572
 698.79418945  -999.250000 12.312999725 8.5000000000 -0.011000000 0.4289999902 2.0780000687  -999.250000 92.743423462 159.10000610 2.1275193691 216.75000000 2.0202124119 1.7810000181
 698.94659424  -999.250000 12.281000137 8.5000000000 -0.007000000 0.4269999862 2.0659999847  -999.250000 93.510604858 158.89999390 2.1142454147 216.37500000 2.0225756168 1.7560000420
 699.09893799  -999.250000 12.305000305 8.5000000000 -0.004000000 0.4410000145 2.0590000153  -999.250000 94.979408264 161.19999695 2.1062486172 216.75000000 2.0202360153 1.7259999514
 699.25134277  -999.250000 12.468999863 8.5000000000 -0.004000000 0.4420000017 2.0650000572  -999.250000 94.876251221 163.60000610 2.1220052242 215.75000000 2.0295059681 1.7180000544
 699.40374756  -999.250000 12.250000954 8.5000000000 -0.003000000 0.4469999969 2.0680000782  -999.250000 93.602729797 164.80000305 2.1688530445 215.87500000 2.0582475662 1.7070000172
 699.55615234  -999.250000 12.305000305 8.5000000000 -0.001000000 0.4460000098 2.0729999542  -999.250000 91.891151428 163.30000305 2.2199251652 216.62500000 2.0868878365 1.7020000219
 699.70855713  -999.250000 12.352001190 8.5000000000 -0.004000000 0.4300000072 2.0820000172  -999.250000 91.398101807 162.69999695 2.2782247066 217.00000000 2.1339218616 1.7059999704
 699.86096191  -999.250000 12.086001396 8.5000000000 -0.004000000 0.4210000038 2.1040000916  -999.250000 91.953231812 158.69999695 2.3275837898 217.00000000 2.2411808968 1.7139999866
 700.01336670  -999.250000 11.961000443 8.5000000000 -0.003000000 0.3939999938 2.1300001144  -999.250000 95.132301331 153.49998474 2.3424055576 217.12500000 2.3142697811 1.7389999628
 700.16577148  -999.250000 11.859000206 8.5000000000 0.0000000000 0.3910000026 2.1380000114  -999.250000 98.292991638 150.80000305 2.3503203392 217.87500000 2.3158721924 1.7740000486
 700.31817627  -999.250000 11.758000374 8.5000000000 -0.003000000 0.3930000067 2.1289999485  -999.250000 98.836914063 148.89999390 2.3625373840 217.62500000 2.2857592106 1.7960000038
 700.47058105  -999.250000 11.766000748 8.5000000000 0.0010000000 0.4320000112 2.1250000000  -999.250000 96.529029846 149.39999390 2.3568966389 217.62500000 2.2652328014 1.8370000124
 700.62298584  -999.250000 11.913999557 8.5000000000 0.0030000000 0.4259999990 2.1250000000  -999.250000 94.743675232 149.89999390 2.3327648640 217.12500000 2.2608082294 1.9390000105
 700.77539063  -999.250000 11.836000443 8.5000000000 0.0080000004 0.4070000052 2.1289999485  -999.250000 95.724182129 150.39997864 2.2823696136 217.25000000 2.2397389412 1.9609999657
 700.92779541  -999.250000 11.758000374 8.5000000000 0.0130000003 0.3889999986 2.1349999905  -999.250000 99.323089600 150.50000000 2.2250957489 217.50000000 2.1884574890 1.9539999962
 701.08020020  -999.250000 11.852000237 8.5000000000 0.0130000003 0.4379999936 2.1359999180  -999.250000 105.50196838 151.10000610 2.1689355373 217.12500000 2.0920860767 1.9129999876
 701.23254395  -999.250000 12.102000237 8.5000000000 0.0140000004 0.4659999907 2.1480000019  -999.250000 108.11363220 151.39999390 2.0933296680 216.87500000 1.9969543219 1.8899999857
 701.38494873  -999.250000 12.296999931 8.5000000000 0.0170000009 0.4679999948 2.1480000019  -999.250000 106.77134705 152.80001831 2.0021722317 216.50000000 1.9393929243 1.8750000000
 701.53735352  -999.250000 12.258000374 8.5000000000 0.0099999998 0.4480000138 2.1370000839  -999.250000 104.39441681 152.50000000 1.8921078444 215.87500000 1.8999660015 1.8539999723
 701.68975830  -999.250000 12.296999931 8.5000000000 0.0040000002 0.4600000083 2.1150000095  -999.250000 105.24337006 153.00000000 1.7960493565 216.12500000 1.8319991827 1.8099999428
 701.84216309  -999.250000 12.250000954 8.5000000000 0.0040000002 0.4600000083 2.1010000706  -999.250000 108.51480865 153.30000305 1.7033799887 217.62500000 1.7429991961 1.7220000029
 701.99456787  -999.250000 12.250000954 8.5000000000 0.0020000001 0.4580000043 2.0840001106  -999.250000 108.70705414 154.60000610 1.6097004414 216.87500000 1.6807973385 1.6649999619
 702.14697266  -999.250000 12.250000954 8.5000000000 -0.001000000 0.4510000050 2.0780000687  -999.250000 106.24633789 155.99998474 1.5430957079 217.25000000 1.6338196993 1.6360000372
 702.29937744  -999.250000 12.296999931 8.5000000000 0.0010000000 0.4410000145 2.0880000591  -999.250000 104.10250092 155.80000305 1.5000103712 216.50000000 1.5752760172 1.6109999418
 702.45178223  -999.250000 12.319999695 8.5000000000 0.0020000001 0.4160000086 2.1019999981  -999.250000 104.51497650 154.60000610 1.4754909277 215.75000000 1.5293347836 1.5410000086
 702.60418701  -999.250000 12.328000069 8.5000000000 0.0000000000 0.4120000005 2.1180000305  -999.250000 106.23308563 154.50000000 1.4624625444 215.62500000 1.4903756380 1.4709999561
 702.75659180  -999.250000 12.397999763 8.5000000000 0.0000000000 0.4110000134 2.1259999275  -999.250000 105.92749023 152.20001221 1.4508682489 215.25000000 1.4622735977 1.4390000105
 702.90899658  -999.250000 12.336000443 8.5000000000 -0.001000000 0.4550000131 2.1310000420  -999.250000 104.10727692 152.10000610 1.4525374174 215.12500000 1.4663224220 1.4049999714
 703.06140137  -999.250000 12.272999763 8.5000000000 -0.004000000 0.4480000138 2.1300001144  -999.250000 102.76132202 152.00000000 1.4742350578 215.00000000 1.5008162260 1.3539999723
