# LAS format log file from PETREL
# Project units are specified as depth units
#==================================================================
~Version information
VERS.   2.0:
WRAP.   NO:
#==================================================================
~Well
STRT .m      1740.8350830 :
STOP .m      3359.4750977 :
STEP .m     0.00000000 :
NULL .        -999.250000 :
COMP.           : COMPANY
WELL.  33/9-6   : WELL
FLD.            : FIELD
LOC.            : LOCATION
SRVC.           : SERVICE COMPANY
DATE.  2018-09-11 14:48:43   : Log Export Date {yyyy-MM-dd HH:mm:ss}
PROV.           : PROVINCE
UWI.   33/9-6   : UNIQUE WELL ID
API.            : API NUMBER
#==================================================================
~Curve
DEPT .m                   : DEPTH
Lithology_geolink ._      : Lithology_geolink
CALI .in                  : CALI
DRHO .g/cm3               : DRHO
NPHI .m3/m3               : NPHI
RHOB .g/cm3               : RHOB
GR .gAPI                  : GR
DTC .us/ft                : DTC
RDEP .ohm.m               : RDEP
SP .mV                    : SP
RSHA .ohm.m               : RSHA
RMED .ohm.m               : RMED
~Parameter
#==================================================================
~Ascii
# ...
 3031.0529785 2.0000000000 12.494999886 -0.030012799 0.1873500049 2.3980255127 34.575000763 86.261001587 1.7463552952 61.020999908 2.5529999733 2.5529999733
 3031.2055664 2.0000000000 12.515000343 -0.034991987 0.2090699971 2.3840224743 33.201000214 90.333999634 1.6331810951 58.957000732 2.3369998932 2.3369998932
 3031.3579102 2.0000000000 12.542999268 -0.041988783 0.2256300002 2.3570432663 32.895999908 93.603004456 1.5002131462 58.367000580 2.1059999466 2.1059999466
 3031.5102539 2.0000000000 12.562999725 -0.031017628 0.2377800047 2.3090770245 34.500000000 92.404998779 1.3702083826 57.294998169 1.9520000219 1.9520000219
 3031.6625977 2.0000000000 12.357000351 -0.035991985 0.2415599972 2.2600784302 35.646999359 90.108001709 1.2611746788 56.443000793 1.9340000153 1.9340000153
 3031.8149414 2.0000000000 12.350999832 -0.049955200 0.2453400046 2.2081663609 36.758998871 90.566001892 1.1912239790 55.881000519 1.9420000315 1.9420000315
 3031.9675293 2.0000000000 12.296999931 -0.063977569 0.2491099983 2.1810431480 37.193000793 91.303001404 1.1251057386 55.224998474 1.9329999685 1.9329999685
 3032.1198730 2.0000000000 12.213999748 -0.068991989 0.2555499971 2.1730129719 36.777000427 92.442001343 1.0601041317 55.104000092 1.8760000467 1.8760000467
 3032.2722168 2.0000000000 12.134000778 -0.071995191 0.2627300024 2.1680080891 36.432998657 92.280006409 1.0410304070 54.473999023 1.7439999580 1.7439999580
 3032.4245605 2.0000000000 12.097999573 -0.072996803 0.2673799992 2.1650094986 35.659999847 93.080001831 1.0250511169 54.775001526 1.6779999733 1.6779999733
 3032.5771484 2.0000000000 12.145999908 -0.074996799 0.2713299990 2.1689934731 35.161998749 93.084999084 1.0100240707 54.903999329 1.6200000048 1.6200000048
 3032.7294922 2.0000000000 12.274999619 -0.072004803 0.2752899826 2.1620111465 35.652999878 92.475997925 0.9950240254 55.104000092 1.6069999933 1.6069999933
 3032.8818359 2.0000000000 12.298000336 -0.066009618 0.2802000046 2.1649951935 36.456001282 91.938003540 0.9810224175 55.182998657 1.6219999790 1.6219999790
 3033.0341797 2.0000000000 12.329999924 -0.059022401 0.2861900032 2.1769616604 36.894001007 91.513000488 0.9810000062 55.202999115 1.6399999857 1.6399999857
 3033.1867676 2.0000000000 12.442000389 -0.053009614 0.2822200060 2.1799952984 37.014999390 91.078002930 0.9819983840 55.303001404 1.6849999428 1.6849999428
 3033.3391113 2.0000000000 12.418999672 -0.060987182 0.2798199952 2.1760065556 36.546001434 91.200996399 0.9859935641 55.104000092 1.6990000010 1.6990000010
 3033.4914551 2.0000000000 12.369001389 -0.070983976 0.2879000008 2.1710081100 33.588001251 91.593002319 0.9860000014 55.104000092 1.6790000200 1.6790000200
 3033.6437988 2.0000000000 12.296999931 -0.081982374 0.2914800048 2.1650094986 32.012001038 92.426002502 0.9820064306 54.715000153 1.6239999533 1.6239999533
 3033.7961426 2.0000000000 12.310999870 -0.095955200 0.2940800190 2.1580224037 32.194000244 93.281997681 0.9829967618 54.506000519 1.5729999542 1.5729999542
 3033.9487305 2.0000000000 12.310999870 -0.109977566 0.2966800034 2.1440224648 33.071998596 94.069999695 0.9839984179 54.027999878 1.5679999590 1.5679999590
 3034.1010742 2.0000000000 12.310999870 -0.123977564 0.2948600054 2.1380095482 33.191001892 94.699996948 0.9770112038 53.908000946 1.5970000029 1.5970000029
 3034.2534180 2.0000000000 12.326999664 -0.110022433 0.2921600044 2.1449887753 32.798000336 95.007011414 0.9690127969 53.547000885 1.6390000582 1.6390000582
 3034.4057617 2.0000000000 12.364999771 -0.087073594 0.2882200181 2.1788911819 32.555999756 94.246994019 0.9680032134 53.776000977 1.6890000105 1.6890000105
 3034.5583496 2.0000000000 12.430998802 -0.075019233 0.2787999809 2.1879856586 32.313999176 93.652000427 0.9689983726 53.908000946 1.7100000381 1.7100000381
 3034.7106934 2.0000000000 12.446000099 -0.068011224 0.2656500041 2.1760194302 32.519001007 93.098991394 0.9909647107 53.708999634 1.7009999752 1.7009999752
 3034.8630371 2.0000000000 12.407000542 -0.076985575 0.2524999976 2.1730048656 32.820999146 93.209999084 1.0189552307 53.708999634 1.6720000505 1.6720000505
 3035.0153809 2.0000000000 12.380999565 -0.085971206 0.2393499911 2.1849615574 33.679000854 93.154998779 1.0389360189 53.801998138 1.6749999523 1.6749999523
 3035.1679688 2.0000000000 12.407999992 -0.076016024 0.2325100005 2.1830031872 34.844001770 92.889999390 1.0619632006 53.991001129 1.7380000353 1.7380000353
 3035.3203125 2.0000000000 12.432000160 -0.079993591 0.2263900042 2.1869935989 36.894001007 91.853996277 1.0859614611 54.306999207 1.8559999466 1.8559999466
 3035.4726563 2.0000000000 12.432000160 -0.087987177 0.2302400023 2.2009775639 38.941001892 90.745002747 1.1089631319 54.405998230 1.9170000553 1.9170000553
 3035.6250000 4.0000000000 12.359999657 -0.074022435 0.2374399900 2.2289552689 39.896999359 90.027992249 1.1329615116 54.412998199 1.9819999933 1.9819999933
 3035.7773438 4.0000000000 12.336000443 -0.060044799 0.2445800006 2.2519264221 40.658000946 89.781997681 1.1579200029 54.306999207 2.0429999828 2.0429999828
 3035.9299316 4.0000000000 12.343999863 -0.042028844 0.2513599992 2.2739646435 41.259998322 90.348999023 1.1829599142 54.306999207 2.0620000362 2.0620000362
 3036.0822754 4.0000000000 12.354000092 -0.042998400 0.2545999885 2.2879776955 41.066001892 90.877998352 1.1949808598 54.708000183 2.0620000362 2.0620000362
 3036.2346191 4.0000000000 12.368000031 -0.046993587 0.2559199929 2.2850048542 40.777000427 90.877998352 1.2049840689 54.903999329 2.0739998817 2.0739998817
 3036.3869629 4.0000000000 12.380999565 -0.051984001 0.2619099915 2.2830064297 40.581001282 90.541000366 1.2159647942 54.903999329 2.0810000896 2.0810000896
 3036.5395508 4.0000000000 12.392000198 -0.043014426 0.2666600049 2.2720177174 39.549999237 89.910003662 1.2249855995 54.705001831 2.0650000572 2.0650000572
 3036.6918945 2.0000000000 12.395999908 -0.042001601 0.2610499859 2.2680063248 37.650001526 89.670997620 1.2339855433 54.589000702 2.0559999943 2.0559999943
 3036.8442383 2.0000000000 12.401000023 -0.044995192 0.2552500069 2.2480318546 36.410999298 89.671997070 1.2379935980 54.506000519 2.0299999714 2.0299999714
 3036.9965820 2.0000000000 12.406000137 -0.047990400 0.2493399978 2.2300577164 35.972999573 89.671997070 1.2280319929 54.306999207 2.0099999905 2.0099999905
 3037.1491699 2.0000000000 12.409999847 -0.048998397 0.2468799949 2.2309982777 36.187999725 89.679000854 1.2190144062 54.333999634 1.9869999886 1.9869999886
 3037.3015137 2.0000000000 12.305000305 -0.051995192 0.2467699945 2.2220141888 36.023998260 89.672996521 1.2070192099 54.306999207 2.0020000935 2.0020000935
 3037.4538574 2.0000000000 12.258000374 -0.053996798 0.2499900013 2.2309856415 35.125000000 89.672996521 1.1830384731 54.237998962 2.0550000668 2.0550000668
 3037.6062012 2.0000000000 12.272999763 -0.064982370 0.2532199919 2.2399857044 34.354000092 89.874000549 1.1570416689 54.108001709 2.0309998989 2.0309998989
 3037.7585449 2.0000000000 12.288000107 -0.065996803 0.2564399838 2.2479743958 34.041999817 89.674003601 1.1340734959 53.766998291 1.8849999905 1.8849999905
 3037.9111328 2.0000000000 12.315999985 -0.063004807 0.2596699893 2.2420096397 32.837001801 90.075996399 1.1140320301 53.708999634 1.8150000572 1.8150000572
 3038.0634766 2.0000000000 12.345999718 -0.064996794 0.2563699782 2.2210335732 33.092998505 89.848999023 1.1060128212 53.608001709 1.8190000057 1.8190000057
 3038.2158203 2.0000000000 12.371000290 -0.063003205 0.2481600046 2.2090194225 33.994998932 88.777000427 1.1040031910 53.609001160 1.8910000324 1.8910000324
 3038.3681641 2.0000000000 12.371000290 -0.059012800 0.2481600046 2.2179710865 33.783000946 87.827003479 1.1159616709 53.509998322 1.9349999428 1.9349999428
 3038.5207520 2.0000000000 12.342000961 -0.070980772 0.2506999969 2.2189984322 32.896999359 87.440002441 1.1409599781 53.470001221 1.9420000315 1.9420000315
 3038.6730957 2.0000000000 12.302000046 -0.082980767 0.2556000054 2.2190001011 31.726999283 87.236000061 1.1699534655 53.645999908 1.9830000401 1.9830000401
