# LAS format log file from PETREL
# Project units are specified as depth units
#==================================================================
~Version information
VERS.   2.0:
WRAP.   NO:
#==================================================================
~Well
STRT .m      1740.8350830 :
STOP .m      3359.4750977 :
STEP .m     0.00000000 :
NULL .        -999.250000 :
COMP.           : COMPANY
WELL.  33/9-6   : WELL
FLD.            : FIELD
LOC.            : LOCATION
SRVC.           : SERVICE COMPANY
DATE.  2018-09-11 14:48:43   : Log Export Date {yyyy-MM-dd HH:mm:ss}
PROV.           : PROVINCE
UWI.   33/9-6   : UNIQUE WELL ID
API.            : API NUMBER
#==================================================================
~Curve
DEPT .m                   : DEPTH
Lithology_geolink ._      : Lithology_geolink
CALI .in                  : CALI
DRHO .g/cm3               : DRHO
NPHI .m3/m3               : NPHI
RHOB .g/cm3               : RHOB
GR .gAPI                  : GR
DTC .us/ft                : DTC
RDEP .ohm.m               : RDEP
SP .mV                    : SP
RSHA .ohm.m               : RSHA
RMED .ohm.m               : RMED
~Parameter
#==================================================================
~Ascii
# ...
 1958.4622803  -999.250000 15.272000313 -0.005000000 0.3929805160 2.2530143261 49.378509521 122.21393585 1.5269999504 53.575382233 1.5409407616 1.5409407616
 1958.6146240  -999.250000 15.272000313 -0.004000000 0.3870736957 2.2569870949 48.445808411 123.42116547 1.5399999619 53.189918518 1.5040272474 1.5040272474
 1958.7670898  -999.250000 15.273000717 -0.014000000 0.3791663349 2.2619881630 45.709655762 119.87536621 1.5319999456 53.091285706 1.5381296873 1.5381296873
 1958.9194336  -999.250000 15.409999847 -0.025000000 0.3706524074 2.2679805756 44.245716095 115.11022949 1.5230000019 53.270175934 1.6190456152 1.6190456152
 1959.0717773  -999.250000 15.661001205 -0.028999999 0.3611596227 2.2759742737 43.895282745 111.65723419 1.5149999857 53.490348816 1.6759840250 1.6759840250
 1959.2242432  -999.250000 15.519000053 -0.027000001 0.3607046306 2.2600512505 44.247142792 113.20161438 1.5269999504 53.927406311 1.6559399366 1.6559399366
 1959.3765869  -999.250000 15.680999756 -0.023000000 0.3789539039 2.2480382919 45.675632477 117.70119476 1.5509999990 58.177856445 1.5809671879 1.5809671879
 1959.5290527  -999.250000 16.486000061 -0.017999999 0.3963079154 2.2450094223 47.713657379 119.20520020 1.5570000410 60.498004913 1.5400152206 1.5400152206
 1959.6813965  -999.250000 16.379999161 -0.013000000 0.4061314166 2.2609486580 49.779453278 118.19540405 1.5570000410 61.749317169 1.5590344667 1.5590344667
 1959.8338623  -999.250000 15.762999535 -0.022000000 0.3954614997 2.2609999180 50.345996857 116.20319366 1.5390000343 62.142898560 1.6020328999 1.6020328999
 1959.9862061  -999.250000 15.490999222 -0.021000000 0.3848215640 2.2609999180 50.338996887 115.19116211 1.5329999924 62.015792847 1.6429952383 1.6429952383
 1960.1386719  -999.250000 15.779000282 -0.017000001 0.3742499948 2.2609999180 50.331996918 115.39969635 1.4900000095 61.759601593 1.6369702816 1.6369702816
 1960.2910156  -999.250000 16.100000381 -0.012000000 0.3742416799 2.2609999180 50.326271057 118.75931549 1.4759999514 61.265289307 1.5999655724 1.5999655724
 1960.4434814  -999.250000 16.233999252 -0.007000000 0.3763135076 2.2530193329 50.666629791 119.14927673 1.4579999447 60.377605438 1.5569007397 1.5569007397
 1960.5958252  -999.250000 15.727999687 -0.010000000 0.3722687364 2.2470192909 51.059619904 121.18923950 1.4579999447 58.882457733 1.4949615002 1.4949615002
 1960.7482910  -999.250000 15.697999954 -0.020000000 0.3706780076 2.2400169373 50.583801270 121.48310089 1.4680000544 56.959300995 1.4470064640 1.4470064640
 1960.9006348  -999.250000 16.024000168 -0.028999999 0.3756560385 2.2370095253 49.211231232 120.29776001 1.4869999886 55.901374817 1.4510167837 1.4510167837
 1961.0531006  -999.250000 16.497999191 -0.028999999 0.3706569374 2.2369999886 47.003017426 119.99761963 1.5180000067 55.120250702 1.4721040726 1.4721040726
 1961.2054443  -999.250000 15.996999741 -0.029999999 0.3562620878 2.2629168034 46.388557434 116.63675690 1.5349999666 55.277156830 1.5371474028 1.5371474028
 1961.3577881  -999.250000 15.772000313 -0.039000001 0.3339487016 2.2919070721 45.834705353 108.85820007 1.5299999714 55.471679688 1.7211848497 1.7211848497
 1961.5102539  -999.250000 15.641000748 -0.035000000 0.3323122263 2.3129327297 45.466125488 107.86544037 1.5290000439 55.073669434 1.9519968033 1.9519968033
 1961.6625977  -999.250000 15.472999573 -0.030999999 0.3475836813 2.2950577736 45.624477386 110.93029022 1.5230000019 54.661750793 1.9478318691 1.9478318691
 1961.8150635  -999.250000 15.545998573 -0.028000001 0.3771358430 2.2560937405 46.220912933 118.78012085 1.5199999809 54.351757050 1.7377724648 1.7377724648
 1961.9674072  -999.250000 15.815000534 -0.030999999 0.4093989134 2.2161281109 46.113449097 126.41236877 1.5130000114 54.046905518 1.4539327621 1.4539327621
 1962.1198730  -999.250000 16.329999924 -0.035000000 0.4080715775 2.1930553913 46.677955627 126.87121582 1.4830000401 53.929050446 1.3700144291 1.3700144291
 1962.2722168  -999.250000 16.132999420 -0.037999999 0.4100348055 2.1880159378 47.871807098 127.14054108 1.4270000458 53.992595673 1.3879903555 1.3879903555
 1962.4246826  -999.250000 15.694999695 -0.032000002 0.4035342038 2.1919903755 48.881908417 127.81419373 1.3919999599 54.740283966 1.3760080338 1.3760080338
 1962.5770264  -999.250000 15.604999542 -0.032000002 0.3999139369 2.2079486847 50.071327209 126.68302917 1.3719999790 57.414215088 1.3810256720 1.3810256720
 1962.7294922  -999.250000 15.815000534 -0.034000002 0.4048314095 2.2099952698 50.478454590 126.72396088 1.3689999580 60.177883148 1.4130560160 1.4130560160
 1962.8818359  -999.250000 15.696000099 -0.028999999 0.4119517803 2.2229583263 48.889328003 125.45099640 1.3750000000 61.352577209 1.4480408430 1.4480408430
 1963.0343018  -999.250000 15.366999626 -0.023000000 0.4141389132 2.2230000496 46.806564331 120.45762634 1.3890000582 59.578281403 1.4990015030 1.4990015030
 1963.1866455  -999.250000 15.303000450 -0.014000000 0.3947373331 2.2289807796 45.912967682 121.46414185 1.3969999552 58.504905701 1.4999991655 1.4999991655
 1963.3389893  -999.250000 15.534000397 -0.013000000 0.3789560497 2.2270064354 45.875404358 117.88538361 1.3940000534 58.383995056 1.4989999533 1.4989999533
 1963.4914551  -999.250000 15.571999550 -0.015000000 0.3740119040 2.2369680405 46.380073547 117.10955048 1.3890000582 58.376934052 1.4989879131 1.4989879131
 1963.6437988  -999.250000 15.512999535 -0.012000000 0.3888504505 2.2499582767 46.471290588 119.03501129 1.3839999437 58.295108795 1.4839559793 1.4839559793
 1963.7962646  -999.250000 15.732000351 -0.009000000 0.3894265890 2.2599680424 46.831642151 124.04362488 1.3710000515 55.932769775 1.4289582968 1.4289582968
 1963.9486084  -999.250000 15.434000015 -0.009000000 0.3851553202 2.2450480461 46.382972717 127.32067108 1.3569999933 54.400379181 1.3770008087 1.3770008087
 1964.1010742  -999.250000 15.194000244 -0.010000000 0.3918165267 2.2140746117 46.350574493 129.40313721 1.3439999819 54.870216370 1.3780152798 1.3780152798
 1964.2534180  -999.250000 14.868000031 -0.012000000 0.3999681771 2.2050287724 47.068744659 128.31059265 1.3289999962 55.142997742 1.3969967365 1.3969967365
 1964.4058838  -999.250000 14.737000465 -0.015000000 0.4101987183 2.1870431900 47.994522095 127.80422974 1.3300000429 55.135990143 1.3929487467 1.3929487467
 1964.5582275  -999.250000 14.706999779 -0.017999999 0.4218637943 2.1850063801 48.318832397 126.70038605 1.3320000172 55.129173279 1.3609726429 1.3609726429
 1964.7106934  -999.250000 14.682000160 -0.018999999 0.4265700281 2.1859977245 46.864028931 124.67772675 1.3380000591 55.343688965 1.3270624876 1.3270624876
 1964.8630371  -999.250000 14.842000008 -0.020000000 0.4203440249 2.1969647408 46.884391785 121.39063263 1.3400000334 55.774887085 1.3660866022 1.3660866022
 1965.0155029  -999.250000 14.883000374 -0.021000000 0.4128676653 2.2239351273 47.374557495 119.69742584 1.3329999447 55.632328033 1.4741184711 1.4741184711
 1965.1678467  -999.250000 14.583000183 -0.030999999 0.3927167356 2.2249968052 47.721771240 124.95267487 1.3250000477 55.213642120 1.5479735136 1.5479735136
 1965.3201904  -999.250000 14.632000923 -0.035000000 0.4011355937 2.2030706406 48.683826447 128.29859924 1.3240000010 54.764743805 1.5148662329 1.5148662329
 1965.4726563  -999.250000 14.669999123 -0.028999999 0.4205936193 2.1880478859 48.469753265 131.54441833 1.3270000219 54.444904327 1.3479880095 1.3479880095
 1965.6250000  -999.250000 14.652998924 -0.026000001 0.4251286387 2.1750416756 48.159763336 133.30438232 1.3190000057 54.328022003 1.3330255747 1.3330255747
 1965.7774658  -999.250000 14.545999527 -0.024000000 0.4234218001 2.1789870262 47.862884521 132.54696655 1.2869999409 54.355106354 1.3650056124 1.3650056124
 1965.9298096  -999.250000 14.628000259 -0.017999999 0.4131969213 2.1979391575 47.722179413 132.51719666 1.2790000439 54.490112305 1.3719567060 1.3719567060
 1966.0822754  -999.250000 14.675999641 -0.013000000 0.4218380749 2.1940095425 47.947380066 133.99452209 1.2740000486 54.626071930 1.3179734945 1.3179734945
