# LAS format log file from PETREL
# Project units are specified as depth units
#==================================================================
~Version information
VERS.   2.0:
WRAP.   NO:
#==================================================================
~Well
STRT .m      457.60995483 :
STOP .m      3127.1992188 :
STEP .m     0.00000000 :
NULL .        -999.250000 :
COMP.           : COMPANY
WELL.  33/9-1   : WELL
FLD.            : FIELD
LOC.            : LOCATION
SRVC.           : SERVICE COMPANY
DATE.  2018-09-11 14:48:42   : Log Export Date {yyyy-MM-dd HH:mm:ss}
PROV.           : PROVINCE
UWI.   33/9-1   : UNIQUE WELL ID
API.            : API NUMBER
#==================================================================
~Curve
DEPT .m                   : DEPTH
Lithology_geolink ._      : Lithology_geolink
CALI .in                  : CALI
BS .in                    : BS
DRHO .g/cm3               : DRHO
NPHI .m3/m3               : NPHI
RHOB .g/cm3               : RHOB
GR .gAPI                  : GR
DTC .us/ft                : DTC
RDEP .ohm.m               : RDEP
SP .mV                    : SP
RSHA .ohm.m               : RSHA
RMED .ohm.m               : RMED
~Parameter
#==================================================================
~Ascii
# ...
 2059.6379395  -999.250000 12.230999947  -999.250000 -0.021985577 0.3954442739 2.2389712334 45.990840912 125.55480957 1.3790272474 52.662479401 1.2929999828 1.2929999828
 2059.7902832  -999.250000 12.354999542  -999.250000 -0.012988800 0.3856057525 2.2619631290 45.269195557 123.56891632 1.3959407806 53.584018707 1.2929807901 1.2929807901
 2059.9426270  -999.250000 12.562999725  -999.250000 -0.006000000 0.3908615410 2.2719841003 46.013999939 124.75441742 1.3589502573 53.596000671 1.2810000181 1.2810000181
 2060.0949707  -999.250000 12.647000313  -999.250000 -0.005000000 0.4004193246 2.2630288601 45.423000336 121.27763367 1.3279502392 52.805000305 1.2710000277 1.2710000277
 2060.2475586  -999.250000 12.534000397  -999.250000 -0.010000000 0.4074188173 2.2500207424 44.682727814 122.30518341 1.2968912125 52.000026703 1.2589631081 1.2589631081
 2060.3999023  -999.250000 12.470000267  -999.250000 -0.009998400 0.4053632915 2.2420129776 44.513538361 124.85265350 1.2629358768 51.392971039 1.2359488010 1.2359488010
 2060.5522461  -999.250000 12.564000130  -999.250000 -0.009000000 0.4132573307 2.2439968586 44.847999573 122.76934814 1.2229439020 51.375000000 1.2039999962 1.2039999962
 2060.7045898  -999.250000 12.762999535  -999.250000 -0.013000000 0.4198788106 2.2230672836 46.235000610 124.85392761 1.1879839897 50.594001770 1.1799999475 1.1799999475
 2060.8571777  -999.250000 12.989000320  -999.250000 -0.023001602 0.4196204543 2.2060272694 48.224697113 124.81581116 1.1779711246 50.388633728 1.1639759541 1.1639759541
 2061.0095215  -999.250000 13.084999084  -999.250000 -0.023980770 0.4112833738 2.1990110874 49.905227661 126.94118500 1.1689903736 50.784805298 1.1489984989 1.1489984989
 2061.1618652  -999.250000 12.970999718  -999.250000 -0.011985600 0.3978914618 2.2089841366 50.045387268 128.29801941 1.1629935503 51.287158966 1.1479823589 1.1479823589
 2061.3142090  -999.250000 12.767000198  -999.250000 -0.003000000 0.3947599828 2.2209615707 47.790000916 128.30787659 1.1589936018 51.387001038 1.1369999647 1.1369999647
 2061.4667969  -999.250000 12.676000595  -999.250000 0.0019903847 0.4031165540 2.2299857140 46.756080627 127.60048676 1.1550480127 51.687480927 1.1480144262 1.1480144262
 2061.6191406  -999.250000 12.776000023  -999.250000 -0.004004808 0.4195237160 2.2369887829 46.803226471 124.95417023 1.1700288057 51.986637115 1.1570096016 1.1570096016
 2061.7714844  -999.250000 12.890000343  -999.250000 -0.006992000 0.4224154055 2.2389969826 45.696838379 128.79756165 1.1880208254 52.383037567 1.1630256176 1.1630256176
 2061.9238281  -999.250000 12.899000168  -999.250000 -0.002000000 0.4102295935 2.2419953346 44.346000671 128.52258301 1.2010111809 51.783000946 1.1790000200 1.1790000200
 2062.0761719  -999.250000 12.788998604  -999.250000 -0.009000000 0.4065018594 2.2320320606 44.680999756 127.64070892 1.2080128193 51.784000397 1.1909999847 1.1909999847
 2062.2287598  -999.250000 12.706998825  -999.250000 -0.012000000 0.4178917110 2.2359936237 44.787899017 128.07960510 1.2160991430 52.087970734 1.2020000219 1.2020000219
 2062.3811035  -999.250000 12.699000359  -999.250000 -0.011998400 0.4122990072 2.2489793301 44.096523285 127.64294434 1.2470240593 52.691791534 1.2020176649 1.2020176649
 2062.5334473  -999.250000 12.694999695  -999.250000 -0.011000000 0.4029649496 2.2450063229 41.926998138 125.73892212 1.2619967461 53.183998108 1.2130000591 1.2130000591
 2062.6857910  -999.250000 12.687999725  -999.250000 0.0000000000 0.3891842067 2.2509806156 41.069000244 125.69636536 1.2599743605 52.972999573 1.2079999447 1.2079999447
 2062.8383789  -999.250000 12.687999725  -999.250000 0.0010000000 0.4015501142 2.2500016689 43.392993927 125.30075836 1.2439455986 52.064071655 1.2029902935 1.2029902935
 2062.9907227  -999.250000 12.694000244  -999.250000 0.0010096155 0.4121430516 2.2460064888 46.505867004 125.53815460 1.2269614935 50.859256744 1.1969743967 1.1969743967
 2063.1430664  -999.250000 12.645999908  -999.250000 0.0069808001 0.4157841802 2.2519905567 47.662712097 126.88085175 1.2029582262 49.774021149 1.1809743643 1.1809743643
 2063.2954102  -999.250000 12.562999725  -999.250000 -0.005000000 0.4259274602 2.2350542545 44.986999512 127.41234589 1.1769679785 49.789001465 1.1649999619 1.1649999619
 2063.4479980  -999.250000 12.492000580  -999.250000 -0.015009615 0.4312415421 2.2150318623 45.173763275 126.37510681 1.1569807529 50.492309570 1.1590080261 1.1590080261
 2063.6003418  -999.250000 12.437999725  -999.250000 -0.021003205 0.4296525717 2.2110064030 45.647682190 126.72268677 1.1510144472 51.309062958 1.1640096903 1.1640096903
 2063.7526855  -999.250000 12.417000771  -999.250000 -0.022995200 0.4330245852 2.2060081959 45.450607300 126.52648926 1.1600400209 51.971012115 1.1700510979 1.1700510979
 2063.9050293  -999.250000 12.395000458  -999.250000 -0.020000000 0.4364045560 2.2099936008 45.827999115 126.83019257 1.1850688457 51.978000641 1.2020000219 1.2020000219
 2064.0573730  -999.250000 12.343000412  -999.250000 -0.012000000 0.4352238178 2.2269456387 45.775001526 126.32688904 1.2280753851 52.087001801 1.2239999771 1.2239999771
 2064.2099609  -999.250000 12.317000389  -999.250000 -0.001991987 0.4019034803 2.2449710369 46.639263153 127.50229645 1.2751471996 51.977161407 1.2530273199 1.2530273199
 2064.3623047  -999.250000 12.325000763  -999.250000 0.0030000000 0.3868041635 2.2519888878 45.553329468 126.03736115 1.3210753202 52.077159882 1.2700383663 1.2700383663
 2064.5146484  -999.250000 12.319000244  -999.250000 0.0030000000 0.3947072625 2.2629823685 43.263000488 126.88742828 1.3680818081 52.175998688 1.2940000296 1.2940000296
 2064.6669922  -999.250000 12.340999603  -999.250000 -0.005000000 0.3987371027 2.2799456120 40.208000183 127.77416992 1.4189823866 52.064998627 1.3170000315 1.3170000315
 2064.8195801  -999.250000 12.584000587  -999.250000 -0.017990384 0.3943570852 2.2999680042 37.897201538 125.99613953 1.4078687429 52.488418579 1.3119808435 1.3119808435
 2064.9719238  -999.250000 12.913999557  -999.250000 -0.011980769 0.4026666582 2.3129792213 38.022308350 121.67405701 1.3669230938 52.749317169 1.2999534607 1.2999534607
 2065.1242676  -999.250000 13.045999527  -999.250000 0.0000048000 0.4133828282 2.3139982224 38.213485718 119.21781158 1.3189198971 52.322441101 1.2709456682 1.2709456682
 2065.2766113  -999.250000 12.807999611  -999.250000 0.0030000000 0.4015879035 2.2950608730 37.890998840 118.48027802 1.2689375877 51.347999573 1.2369999886 1.2369999886
 2065.4291992  -999.250000 12.479000092  -999.250000 0.0059887823 0.3975664079 2.2820208073 36.966930389 119.92065430 1.2299968004 50.457855225 1.2250273228 1.2250273228
 2065.5815430  -999.250000 12.711999893  -999.250000 -0.001011218 0.4033506811 2.2620320320 38.173938751 124.17738342 1.2290223837 49.742877960 1.2420272827 1.2420272827
 2065.7338867  -999.250000 12.598999977  -999.250000 -0.007988800 0.4045380950 2.2300512791 41.254703522 126.28671265 1.2430400848 49.042186737 1.2590175867 1.2590175867
 2065.8862305  -999.250000 12.524000168  -999.250000 -0.001000000 0.4112991691 2.2170207500 42.943000793 125.48215485 1.2680785656 48.534999847 1.2699999809 1.2699999809
 2066.0385742  -999.250000 12.965000153  -999.250000 -0.005000000 0.4229925275 2.2170000076 42.997001648 124.96102142 1.3170864582 48.451000214 1.2829999924 1.2829999924
 2066.1911621  -999.250000 13.241000175  -999.250000 -0.006995193 0.4163606763 2.2219917774 42.296108246 128.09097290 1.3710097075 49.628929138 1.2769902945 1.2769902945
 2066.3435059  -999.250000 12.934999466  -999.250000 -0.003992000 0.4040097892 2.2309856415 41.117607117 126.82121277 1.3769840002 50.833797455 1.2709808350 1.2709808350
 2066.4958496  -999.250000 12.666999817  -999.250000 0.0010000000 0.3939061761 2.2329969406 41.497001648 125.71450043 1.3669054508 51.953998566 1.2589999437 1.2589999437
 2066.6481934  -999.250000 12.557999611  -999.250000 0.0060000001 0.3980665803 2.2399775982 42.444000244 127.27005005 1.3078925610 52.805999756 1.2419999838 1.2419999838
 2066.8007813  -999.250000 12.473999977  -999.250000 0.0109967953 0.4039405882 2.2469887733 43.916248322 126.05420685 1.2408176661 52.694610596 1.2139470577 1.2139470577
