# LAS format log file from PETREL
# Project units are specified as depth units
#==================================================================
~Version information
VERS.   2.0:
WRAP.   NO:
#==================================================================
~Well
STRT .m      515.45703125 :
STOP .m      3237.9299316 :
STEP .m     0.00000000 :
NULL .        -999.250000 :
COMP.           : COMPANY
WELL.  33/9-17   : WELL
FLD.            : FIELD
LOC.            : LOCATION
SRVC.           : SERVICE COMPANY
DATE.  2018-09-11 14:48:42   : Log Export Date {yyyy-MM-dd HH:mm:ss}
PROV.           : PROVINCE
UWI.   33/9-17   : UNIQUE WELL ID
API.            : API NUMBER
#==================================================================
~Curve
DEPT .m                   : DEPTH
Lithology_geolink ._      : Lithology_geolink
CALI .in                  : CALI
BS .in                    : BS
DRHO .g/cm3               : DRHO
NPHI .m3/m3               : NPHI
RHOB .g/cm3               : RHOB
PEF .b/e                  : PEF
GR .gAPI                  : GR
DTC .us/ft                : DTC
RDEP .ohm.m               : RDEP
SP .mV                    : SP
RSHA .ohm.m               : RSHA
RMED .ohm.m               : RMED
~Parameter
#==================================================================
~Ascii
# ...
 1058.6104736  -999.250000 12.125000000 8.5000000000 0.0099999998 0.4189999998 2.3069999218  -999.250000 86.015090942 121.00000000 1.6374062300 225.25000000 1.6394999027 1.3289999962
 1058.7628174  -999.250000 12.296999931 8.5000000000 -0.002000000 0.4350000024 2.3099999428  -999.250000 86.351943970 122.90000153 1.6601376534 225.75000000 1.6105340719 1.3669999838
 1058.9152832  -999.250000 12.413998604 8.5000000000 -0.023000000 0.4149999917 2.3010001183  -999.250000 86.451751709 124.90000153 1.7193436623 225.75000000 1.5997884274 1.4060000181
 1059.0676270  -999.250000 12.397999763 8.5000000000 -0.028000001 0.3750000000 2.2909998894  -999.250000 86.519157410 123.50000000 1.7679847479 225.12500000 1.6278269291 1.4420000315
 1059.2200928  -999.250000 12.250000954 8.5000000000 -0.028000001 0.3600000143 2.2850000858  -999.250000 85.422630310 123.09999847 1.7899062634 224.25000000 1.6722450256 1.4550000429
 1059.3724365  -999.250000 12.250000954 8.5000000000 -0.009000000 0.3449999988 2.2669999599  -999.250000 84.911537170 120.40000153 1.7900625467 223.50000000 1.7060961723 1.4320000410
 1059.5249023  -999.250000 12.093999863 8.5000000000 0.0040000002 0.3459999859 2.2679998875  -999.250000 85.334159851 118.50000000 1.7687717676 224.25000000 1.7110352516 1.4119999409
 1059.6772461  -999.250000 12.086001396 8.5000000000 0.0080000004 0.3549999893 2.2730000019  -999.250000 87.212158203 119.69999695 1.7332500219 225.50000000 1.6903077364 1.4140000343
 1059.8297119  -999.250000 12.086001396 8.5000000000 0.0070000002 0.4090000093 2.3110001087  -999.250000 88.164459229 120.90000153 1.6920487881 226.00000000 1.6581233740 1.4520000219
 1059.9820557  -999.250000 12.319999695 8.5000000000 0.0049999999 0.4180000126 2.3420000076  -999.250000 87.421844482 120.59999847 1.6690624952 225.50000000 1.6165770292 1.4769999981
 1060.1345215  -999.250000 12.508000374 8.5000000000 -0.017999999 0.4140000045 2.3399999142  -999.250000 85.348358154 119.80000305 1.6649999619 225.25000000 1.5729479790 1.4910000563
 1060.2868652  -999.250000 12.492000580 8.5000000000 -0.037999999 0.3910000026 2.3180000782  -999.250000 84.833526611 119.80000305 1.6691563129 225.00000000 1.5446730852 1.4819999933
 1060.4393311  -999.250000 12.227000237 8.5000000000 -0.046999998 0.3980000019 2.3020000458  -999.250000 85.964447021 120.40000153 1.6838815212 224.12500000 1.5495259762 1.4720000029
 1060.5916748  -999.250000 12.281000137 8.5000000000 -0.050999999 0.3729999959 2.2799999714  -999.250000 85.890594482 120.59999847 1.7009062767 223.87500000 1.5675384998 1.4429999590
 1060.7440186  -999.250000 12.343999863 8.5000000000 -0.048000000 0.3490000069 2.2720000744  -999.250000 86.069892883 118.60000610 1.7247982025 224.87500000 1.6079535484 1.4029999971
 1060.8964844  -999.250000 12.194999695 8.5000000000 -0.041000001 0.3449999988 2.2699999809  -999.250000 86.881469727 118.80000305 1.7423437834 225.12500000 1.7049230337 1.3760000467
 1061.0488281  -999.250000 12.194999695 8.5000000000 -0.035000000 0.3750000000 2.2860000134  -999.250000 87.305335999 120.49999237 1.7501529455 224.12500000 1.7591696978 1.3580000401
 1061.2012939  -999.250000 12.397999763 8.5000000000 -0.033000000 0.4169999957 2.2980000973  -999.250000 86.400062561 121.10000610 1.7553750277 223.25000000 1.7387499809 1.3719999790
 1061.3536377  -999.250000 12.413998604 8.5000000000 -0.033000000 0.4339999855 2.3099999428  -999.250000 86.669403076 121.10000610 1.7605625391 223.25000000 1.7188268900 1.3799999952
 1061.5061035  -999.250000 12.413998604 8.5000000000 -0.048999999 0.4120000005 2.2969999313  -999.250000 87.856040955 121.00000000 1.7915155888 224.87500000 1.6987022161 1.4199999571
 1061.6584473  -999.250000 12.319999695 8.5000000000 -0.050999999 0.3729999959 2.2980000973  -999.250000 90.415122986 121.50000000 1.8579062223 225.37500000 1.6905769110 1.5360000134
 1061.8109131  -999.250000 12.250000954 8.5000000000 -0.052000001 0.3619999886 2.2929999828  -999.250000 90.577140808 119.59999847 1.9107925892 226.37500000 1.7311744690 1.5369999409
 1061.9632568  -999.250000 12.250000954 8.5000000000 -0.045000002 0.3639999926 2.2899999619  -999.250000 88.918434143 117.50000000 1.9279687405 225.62500000 1.7939615250 1.5010000467
 1062.1157227  -999.250000 12.305000305 8.5000000000 -0.037000000 0.3589999974 2.2780001163  -999.250000 85.340003967 118.19999695 1.9240591526 225.50000000 1.8333154917 1.4980000257
 1062.2680664  -999.250000 12.250000954 8.5000000000 -0.028000001 0.4020000100 2.2630000114  -999.250000 83.777969360 118.90000916 1.9075312614 224.50000000 1.8465769291 1.4739999771
 1062.4205322  -999.250000 12.180000305 8.5000000000 -0.026000001 0.4289999902 2.2490000725  -999.250000 85.200859070 120.19998932 1.8793956041 224.12500000 1.8442281485 1.4789999723
 1062.5728760  -999.250000 12.171998978 8.5000000000 -0.025000000 0.4779999852 2.2609999180  -999.250000 90.179000854 121.40000916 1.8422499895 223.37500000 1.8147692680 1.5340000391
 1062.7252197  -999.250000 12.444999695 8.5000000000 -0.033000000 0.4569999874 2.2720000744  -999.250000 93.951248169 121.90000153 1.8141344786 224.00000000 1.7421977520 1.5690000057
 1062.8776855  -999.250000 12.366999626 8.5000000000 -0.039000001 0.4280000031 2.2929999828  -999.250000 95.517715454 121.69999695 1.8071874380 224.37500000 1.6555192471 1.5900000334
 1063.0300293  -999.250000 12.272999763 8.5000000000 -0.039000001 0.3910000026 2.3099999428  -999.250000 96.586456299 120.40000153 1.8050335646 225.00000000 1.6225956678 1.6000000238
 1063.1824951  -999.250000 12.281000137 8.5000000000 -0.039000001 0.3630000055 2.3350000381  -999.250000 97.388847351 119.69999695 1.8018125296 224.00000000 1.6307500601 1.5950000286
 1063.3348389  -999.250000 12.296999931 8.5000000000 -0.034000002 0.3650000095 2.3499999046  -999.250000 96.345130920 116.30000305 1.7814218998 224.25000000 1.6532884836 1.5629999638
 1063.4873047  -999.250000 12.328000069 8.5000000000 -0.027000001 0.3659999967 2.3399999142  -999.250000 91.434753418 113.60000610 1.7495937347 224.37500000 1.6822978258 1.4859999418
 1063.6396484  -999.250000 11.984001160 8.5000000000 -0.035000000 0.3650000095 2.3080000877  -999.250000 86.737220764 117.30000305 1.7221562862 224.37500000 1.6957885027 1.4309999943
 1063.7921143  -999.250000 12.125000000 8.5000000000 -0.039000001 0.3930000067 2.3020000458  -999.250000 85.947257996 118.80000305 1.6935837269 225.50000000 1.6713515520 1.4320000410
 1063.9444580  -999.250000 12.250000954 8.5000000000 -0.041999999 0.4169999957 2.3139998913  -999.250000 85.652847290 120.19998932 1.6655625105 225.87500000 1.6152499914 1.4370000362
 1064.0969238  -999.250000 12.343999863 8.5000000000 -0.048000000 0.4339999855 2.3199999332  -999.250000 85.217643738 120.30000305 1.6526236534 225.50000000 1.5567902327 1.4550000429
 1064.2492676  -999.250000 12.250000954 8.5000000000 -0.057000000 0.4079999924 2.3050000668  -999.250000 85.706909180 120.00000000 1.6539688110 225.12500000 1.5212883949 1.4830000401
 1064.4017334  -999.250000 12.250000954 8.5000000000 -0.056000002 0.4079999924 2.2939999104  -999.250000 88.403083801 119.00000000 1.6655052900 224.62500000 1.5185612440 1.4869999886
 1064.5540771  -999.250000 12.319999695 8.5000000000 -0.057000000 0.3750000000 2.2920000553  -999.250000 91.016593933 118.69999695 1.6779375076 224.75000000 1.5450576544 1.4490000010
 1064.7064209  -999.250000 12.211000443 8.5000000000 -0.050999999 0.3930000067 2.2869999409  -999.250000 90.591285706 116.69999695 1.6796269417 224.75000000 1.5903794765 1.4010000229
 1064.8588867  -999.250000 12.086001396 8.5000000000 -0.041999999 0.3869999945 2.2860000134  -999.250000 90.840034485 117.00000000 1.6714687347 225.62500000 1.6318653822 1.3619999886
 1065.0112305  -999.250000 12.086001396 8.5000000000 -0.046999998 0.4090000093 2.2780001163  -999.250000 94.358703613 117.69998932 1.6533547640 225.87500000 1.6388518810 1.3450000286
 1065.1636963  -999.250000 12.116999626 8.5000000000 -0.048000000 0.3970000148 2.2860000134  -999.250000 98.270660400 119.50000000 1.6398437023 226.25000000 1.6173076630 1.3530000448
