# LAS format log file from PETREL
# Project units are specified as depth units
#==================================================================
~Version information
VERS.   2.0:
WRAP.   NO:
#==================================================================
~Well
STRT .m      785.37786865 :
STOP .m      3526.7492676 :
STEP .m     0.00000000 :
NULL .        -999.250000 :
COMP.           : COMPANY
WELL.  33/9-11   : WELL
FLD.            : FIELD
LOC.            : LOCATION
SRVC.           : SERVICE COMPANY
DATE.  2018-09-11 14:48:42   : Log Export Date {yyyy-MM-dd HH:mm:ss}
PROV.           : PROVINCE
UWI.   33/9-11   : UNIQUE WELL ID
API.            : API NUMBER
#==================================================================
~Curve
DEPT .m                   : DEPTH
Lithology_geolink ._      : Lithology_geolink
CALI .in                  : CALI
DRHO .g/cm3               : DRHO
NPHI .m3/m3               : NPHI
RHOB .g/cm3               : RHOB
GR .gAPI                  : GR
DTC .us/ft                : DTC
RDEP .ohm.m               : RDEP
SP .mV                    : SP
RSHA .ohm.m               : RSHA
RMED .ohm.m               : RMED
~Parameter
#==================================================================
~Ascii
# ...
 2052.2792969  -999.250000 15.090999603 0.0589872003 0.3637232780 2.3339841366 50.939998627 120.79999542 1.1460080147 39.035999298 1.3220849037 1.3220849037
 2052.4316406  -999.250000 14.918000221 0.0549871810 0.3585202694 2.3289856911 52.320999146 119.37899780 1.1510353088 39.278999329 1.3750288486 1.3750288486
 2052.5839844  -999.250000 14.810999870 0.0469903834 0.3586211205 2.3199999332 51.567211151 117.08068848  -999.250000 39.072330475  -999.250000  -999.250000
 2052.7363281  -999.250000  -999.250000 0.0409871824 0.3652041554 2.3199918270  -999.250000  -999.250000  -999.250000  -999.250000  -999.250000  -999.250000
 2052.8889160  -999.250000 14.781000137 0.0329903997 0.3740337193 2.3149905205 50.785999298 115.18900299 1.2110512257 39.105998993 1.3829903603 1.3829903603
 2053.0412598  -999.250000 14.810000420 0.0300128199 0.3783009946 2.3120112419 50.846000671 115.78199768 1.2430273294 39.219001770 1.3769935369 1.3769935369
 2053.1936035  -999.250000 14.850001335 0.0380016007 0.3786129057 2.3190064430 50.062255859 118.38682556 1.2599984407 38.893524170 1.3729920387 1.3729920387
 2053.3459473  -999.250000 14.810000420 0.0390000008 0.3795142770 2.3230016232 49.763477325 118.62661743 1.2589999437 38.502624512 1.3680000305 1.3680000305
 2053.4982910  -999.250000 14.788000107 0.0390192010 0.3808396161 2.3240191936 49.711082458 119.22004700 1.2560000420 38.710662842 1.3839999437 1.3839999437
 2053.6508789  -999.250000 14.923000336 0.0510112159 0.3806252182 2.3360176086 48.520000458 115.62699890 1.2549952269 39.138999939 1.4199855328 1.4199855328
 2053.8032227  -999.250000 14.873000145 0.0580032021 0.3885102272 2.3470015526 49.130023956 114.96504974 1.2519887686 39.216873169 1.4109872580 1.4109872580
 2053.9555664  -999.250000 14.829000473 0.0599983968 0.4010422230 2.3479969501 49.277763367 117.06961823 1.2450000048 39.079219818 1.4029999971 1.4029999971
 2054.1079102  -999.250000 14.853999138 0.0589823723 0.4079622924 2.3459839821 48.500247955 117.32958984 1.2369999886 38.967178345 1.4079999924 1.4079999924
 2054.2604980  -999.250000 14.878000259 0.0479712002 0.4093645215 2.3359327316 48.882999420 117.23999786 1.2329968214 39.361000061 1.4019695520 1.4019695520
 2054.4128418  -999.250000 14.842000008 0.0390096158 0.4045024812 2.3150017262 50.963001251 118.34700012 1.2309919596 39.548000336 1.3829504251 1.3829504251
 2054.5651855  -999.250000 14.789000511 0.0450048111 0.3896892369 2.3160095215 53.929244995 119.18365479 1.2259999514 39.723716736 1.3519999981 1.3519999981
 2054.7175293  -999.250000 14.756999969 0.0479935892 0.3801096678 2.3219919205 55.249885559 119.21195984 1.2220000029 39.957626343 1.3329999447 1.3329999447
 2054.8701172  -999.250000 14.743000031 0.0440191999 0.3798839450 2.3170063496 55.013000488 119.63800049 1.2209839821 40.048000336 1.3329999447 1.3329999447
 2055.0224609  -999.250000 14.744998932 0.0500016026 0.3779788315 2.3190031052 54.574001312 119.99500275 1.2109711170 39.986999512 1.3330096006 1.3330096006
 2055.1748047  -999.250000 14.762999535 0.0509839728 0.3713752329 2.3209953308 54.407268524 119.78433228  -999.250000 39.682487488  -999.250000  -999.250000
 2055.3271484  -999.250000  -999.250000 0.0409775637 0.3636830449 2.3179905415  -999.250000  -999.250000  -999.250000  -999.250000  -999.250000  -999.250000
 2055.4797363  -999.250000 14.800000191 0.0269616004 0.3678120375 2.3119680882 52.853000641 118.38999939 1.1799967289 39.660999298 1.3570400476 1.3570400476
 2055.6320801  -999.250000 14.848999977 0.0150032043 0.3871743679 2.3020017147 51.855998993 117.46600342 1.1779999733 39.771999359 1.3820143938 1.3820143938
 2055.7844238  -999.250000 14.895999908 0.0170208346 0.4103302360 2.3030192852 52.144538879 117.76551819 1.1779967546 39.687137604 1.3909728527 1.3909728527
 2055.9367676  -999.250000 14.932999611 0.0300112180 0.4165835977 2.3149969578 50.777198792 117.58728790 1.1759999990 39.584163666 1.3739999533 1.3739999533
 2056.0891113  -999.250000 14.953000069 0.0369967967 0.4021038711 2.3129711151 52.092884064 119.50492096 1.1679999828 39.587993622 1.3380000591 1.3380000591
 2056.2416992  -999.250000 14.845000267 0.0350032002 0.3795394897 2.2949712276 58.645000458 121.81500244 1.1439871788 39.485000610 1.3049726486 1.3049726486
 2056.3940430  -999.250000 14.756999969 0.0359983966 0.3669581711 2.2859919071 59.758213043 123.78083801 1.1360015869 39.904327393 1.2879551649 1.2879551649
 2056.5463867  -999.250000 14.727000237 0.0349983983 0.3726478517 2.2809886932 59.658164978 123.70313263 1.1369999647 40.177562714 1.2599999905 1.2599999905
 2056.6987305  -999.250000 14.741001129 0.0340064131 0.3844606876 2.2740046978 58.291194916 122.85436249 1.1369999647 39.434192657 1.2400000095 1.2400000095
 2056.8513184  -999.250000 14.753000259 0.0380063988 0.3973679543 2.2770287991 56.678001404 122.56099701 1.1380112171 39.463001251 1.2450368404 1.2450368404
 2057.0036621  -999.250000 14.767000198 0.0399967954 0.4060385525 2.2860112190 57.175998688 123.39299774 1.1450240612 39.923000336 1.2680561543 1.2680561543
 2057.1560059  -999.250000 14.807000160 0.0380048081 0.3993172646 2.2930159569 57.787017822 122.29875183 1.1600255966 40.298397064 1.3030575514 1.3030575514
 2057.3083496  -999.250000 14.833999634 0.0410160273 0.3828708529 2.3030240536 57.502456665 121.32755280 1.1759999990 40.167209625 1.3389999866 1.3389999866
 2057.4609375  -999.250000 14.800999641 0.0510223992 0.3706724048 2.3180384636 57.041999817 120.10900116 1.1900160313 39.782001495 1.3660112619 1.3660112619
 2057.6132813  -999.250000 14.765999794 0.0580048077 0.3714404702 2.3300192356 56.040000916 117.40200043 1.2000129223 40.166000366 1.3730096817 1.3730096817
 2057.7656250  -999.250000 14.765999794 0.0609967969 0.3809522390 2.3420112133 55.385047913 117.60067749 1.2080014944 40.472507477 1.3790111542 1.3790111542
 2057.9179688  -999.250000 14.774999619 0.0589855760 0.3909859657 2.3489887714 55.267185211 118.17607880 1.2089999914 40.101596832 1.3860000372 1.3860000372
 2058.0703125  -999.250000  -999.250000 0.0499983989 0.3928318322 2.3419904709  -999.250000  -999.250000  -999.250000  -999.250000  -999.250000  -999.250000
 2058.2229004  -999.250000 14.782999992 0.0490255989 0.3877238035 2.3360128403 53.158000946 118.08699799 1.2030063868 39.563999176 1.3859808445 1.3859808445
 2058.3752441  -999.250000 14.789000511 0.0570144244 0.3826622367 2.3400127888 51.152214050 118.79087067 1.2070144415 39.590957642 1.3739695549 1.3739695549
 2058.5275879  -999.250000 14.791999817 0.0660112202 0.3740084469 2.3480176926 51.183940887 118.92678833 1.2159999609 39.915477753 1.3550000191 1.3550000191
 2058.6799316  -999.250000 14.798000336 0.0730080083 0.3704224527 2.3590128422 51.875888824 118.54460907 1.2209999561 40.152618408 1.3380000591 1.3380000591
 2058.8325195  -999.250000 14.819000244 0.0779904053 0.3782145977 2.3669776917 53.976001740 118.51699829 1.1990128756 39.888000488 1.3309775591 1.3309775591
 2058.9848633  -999.250000 14.826998711 0.0749791712 0.3858726919 2.3599710464 54.185001373 120.02799225 1.2070176601 39.444000244 1.3169727325 1.3169727325
 2059.1372070  -999.250000 14.829000473 0.0619823709 0.3898373544 2.3419888020 54.030246735 120.87763977 1.2180176973 39.459972382 1.3000143766 1.3000143766
 2059.2895508  -999.250000 14.833999634 0.0509887822 0.3952660263 2.3350048065 53.455924988 120.18012238 1.2289999723 39.550853729 1.3090000153 1.3090000153
 2059.4421387  -999.250000 14.855999947 0.0439487994 0.4034101665 2.3379871845 51.075000763 118.80700684 1.2300015688 39.666000366 1.3631250858 1.3631250858
 2059.5944824  -999.250000 14.888999939 0.0279711541 0.4127937257 2.3339920044 47.501998901 115.28701019 1.2310143709 39.539001465 1.4411089420 1.4411089420
 2059.7468262  -999.250000 14.925999641 0.0099839745 0.4139136076 2.3289935589 46.263984680 114.60109711 1.2399984598 39.331333160 1.5089488029 1.5089488029
 2059.8991699  -999.250000 15.050999641 0.0000096154 0.4025897384 2.3249664307 46.154170990 117.86075592 1.2389999628 38.929645538 1.4769999981 1.4769999981
