# LAS format log file from PETREL
# Project units are specified as depth units
#==================================================================
~Version information
VERS.   2.0:
WRAP.   NO:
#==================================================================
~Well
STRT .m      1740.8350830 :
STOP .m      3359.4750977 :
STEP .m     0.00000000 :
NULL .        -999.250000 :
COMP.           : COMPANY
WELL.  33/9-6   : WELL
FLD.            : FIELD
LOC.            : LOCATION
SRVC.           : SERVICE COMPANY
DATE.  2018-09-11 14:48:43   : Log Export Date {yyyy-MM-dd HH:mm:ss}
PROV.           : PROVINCE
UWI.   33/9-6   : UNIQUE WELL ID
API.            : API NUMBER
#==================================================================
~Curve
DEPT .m                   : DEPTH
Lithology_geolink ._      : Lithology_geolink
CALI .in                  : CALI
DRHO .g/cm3               : DRHO
NPHI .m3/m3               : NPHI
RHOB .g/cm3               : RHOB
GR .gAPI                  : GR
DTC .us/ft                : DTC
RDEP .ohm.m               : RDEP
SP .mV                    : SP
RSHA .ohm.m               : RSHA
RMED .ohm.m               : RMED
~Parameter
#==================================================================
~Ascii
# ...
 3349.7214355  -999.250000 11.862000465 -0.077000000 0.2639699876 2.2769999504 28.114000320 65.459999084 1.7029999495 58.020000458 2.2309999466 2.2309999466
 3349.8737793  -999.250000 11.873999596 -0.090000004 0.2592000067 2.2620000839 28.517000198 65.458000183 1.5210000277 58.022998810 2.1059999466 2.1059999466
 3350.0263672  -999.250000 11.878998756 -0.081000000 0.2544199824 2.2869999409 29.370000839 65.555999756 1.3370000124 58.026000977 2.2660000324 2.2660000324
 3350.1787109  -999.250000 11.930000305 -0.072999999 0.2496400028 2.3159999847 28.849000931 65.552001953 1.2300000191 58.028999329 2.3540000916 2.3540000916
 3350.3310547  -999.250000 12.079998970 -0.063000001 0.2570199966 2.3459999561 27.659000397 65.572998047 1.1640000343 58.032001495 2.1240000725 2.1240000725
 3350.4833984  -999.250000 12.378999710 -0.074000001 0.2641299963 2.3169999123 26.864000320 65.646003723 1.1080000401 58.034999847 1.8760000467 1.8760000467
 3350.6359863  -999.250000 12.121000290 -0.086000003 0.2657400072 2.2569999695 27.799999237 65.596000671 1.0570000410 58.037998199 1.6189999580 1.6189999580
 3350.7883301  -999.250000 12.042000771 -0.088000000 0.2658799887 2.2349998951 30.666000366 65.537002563 1.0180000067 58.041000366 1.5249999762 1.5249999762
 3350.9406738  -999.250000 12.062998772 -0.093999997 0.2649500072 2.2249999046 31.469999313 65.532997131 0.9890000224 58.043998718 1.5620000362 1.5620000362
 3351.0930176  -999.250000 12.034999847 -0.101000004 0.2666900158 2.2249999046 30.620000839 65.528999329 0.9679999948 58.047000885 1.6219999790 1.6219999790
 3351.2456055  -999.250000 12.022999763 -0.101999998 0.2702299953 2.2420001030 29.760999680 65.538002014 0.9499999881 58.046001434 1.6480000019 1.6480000019
 3351.3979492  -999.250000 12.005999565 -0.097999997 0.2626399994 2.2520000935 29.688999176 65.623001099 0.9359999895 58.033000946 1.6649999619 1.6649999619
 3351.5502930  -999.250000 11.947000504 -0.101000004 0.2549200058 2.2290000916 30.094999313 65.611000061 0.9399999976 58.020000458 1.6369999647 1.6369999647
 3351.7026367  -999.250000 12.015999794 -0.100000001 0.2490299940 2.2160000801 31.086999893 65.614997864 0.9509999752 58.006999969 1.5260000229 1.5260000229
 3351.8549805  -999.250000 12.008999825 -0.098999999 0.2508900166 2.2190001011 31.400999069 65.510002136 0.9549999833 57.994998932 1.4379999638 1.4379999638
 3352.0075684  -999.250000 11.930000305 -0.097999997 0.2557600141 2.2260000706 31.382999420 65.467002869 0.9419999719 57.981998444 1.4559999704 1.4559999704
 3352.1599121  -999.250000 12.010999680 -0.105999999 0.2599500120 2.2309999466 30.621999741 65.401000977 0.9309999943 57.969001770 1.5290000439 1.5290000439
 3352.3122559  -999.250000 12.032000542 -0.109999999 0.2654400170 2.2260000706 29.121999741 65.397003174 0.9219999909 57.956001282 1.5670000315 1.5670000315
 3352.4645996  -999.250000 12.026000023 -0.109999999 0.2716200054 2.2049999237 29.313999176 65.494003296 0.9219999909 57.944000244 1.5629999638 1.5629999638
 3352.6171875  -999.250000 11.998999596 -0.101999998 0.2687299848 2.2009999752 29.420999527 65.330001831 0.9219999909 57.930999756 1.5570000410 1.5570000410
 3352.7695313  -999.250000 11.972000122 -0.093999997 0.2606399953 2.2149999142 31.087999344 65.283996582 0.9219999909 57.917999268 1.5559999943 1.5559999943
 3352.9218750  -999.250000 11.989999771 -0.085000001 0.2569700181 2.2200000286 31.736000061 65.279998779 0.9219999909 57.938999176 1.5559999943 1.5559999943
 3353.0742188  -999.250000 12.024999619 -0.092000000 0.2571899891 2.2179999352 31.163999557 65.569000244 0.9229999781 57.976001740 1.5579999685 1.5579999685
 3353.2268066  -999.250000 12.045998573 -0.097000003 0.2638999820 2.2209999561 31.347000122 65.374000549 0.9229999781 58.012001038 1.5620000362 1.5620000362
 3353.3791504  -999.250000 12.046999931 -0.086000003 0.2609100044 2.2420001030 30.844999313 65.267997742 0.9229999781 58.048000336 1.5659999847 1.5659999847
 3353.5314941  -999.250000 12.048000336 -0.100000001 0.2563799918 2.2390000820 30.000999451 65.467002869 0.9240000248 58.083999634 1.5700000525 1.5700000525
 3353.6838379  -999.250000 12.049000740 -0.104000002 0.2522500157 2.2290000916 30.548999786 65.462997437 0.9240000248 58.120998383 1.5709999800 1.5709999800
 3353.8361816  -999.250000 12.000000000 -0.108000003 0.2479199916 2.2269999981 28.857999802 65.257003784 0.9240000248 58.152000427 1.5679999590 1.5679999590
 3353.9887695  -999.250000 11.920000076 -0.109999999 0.2430199981 2.2330000401 26.974000931 65.252998352 0.9250000119 58.127998352 1.5640000105 1.5640000105
 3354.1411133  -999.250000 11.814999580 -0.103000000 0.2400400043 2.2420001030 27.966999054 65.452003479 0.9250000119 58.104999542 1.5599999428 1.5599999428
 3354.2934570  -999.250000 11.783000946 -0.101000004 0.2402400076 2.2520000935 28.638000488 65.447998047 0.9250000119 58.082000732 1.5570000410 1.5570000410
 3354.4458008  -999.250000 11.774000168 -0.108000003 0.2464199960 2.2479999065 28.742000580 65.444000244 0.9259999990 58.057998657 1.5529999733 1.5529999733
 3354.5983887  -999.250000 11.774999619 -0.112999998 0.2401899844 2.2369999886 28.340999603 65.440002441 0.9259999990 58.034999847 1.5499999523 1.5499999523
 3354.7507324  -999.250000 11.776000023 -0.115999997 0.2333200127 2.2320001125 27.122999191 65.537002563 0.9259999990 58.012001038 1.5460000038 1.5460000038
 3354.9030762  -999.250000 11.777000427 -0.112999998 0.2128700018 2.2420001030 26.320999146 65.498001099 0.9259999990 58.011001587 1.5470000505 1.5470000505
 3355.0554199  -999.250000 11.777999878 -0.108000003 0.1924099922 2.2439999580 27.865999222 65.574996948 0.9259999990 58.060001373 1.5470000505 1.5470000505
 3355.2080078  -999.250000 11.779000282 -0.101999998 0.1310099959 2.2620000839 28.655000687 65.425003052 0.9259999990 58.109001160 1.5479999781 1.5479999781
 3355.3603516  -999.250000 11.779998779 -0.097000003 0.0377500020 2.2650001049 28.229000092 65.623001099 0.9259999990 58.158000946 1.5479999781 1.5479999781
 3355.5126953  -999.250000 11.779998779 -0.098999999 -0.023590000 2.2539999485 29.018999100 65.416999817 0.9259999990 58.207000732 1.5479999781 1.5479999781
 3355.6650391  -999.250000 11.781000137 -0.109999999 -0.034779999 2.2439999580 29.833999634 65.413002014 0.9269999862 58.227001190 1.5490000248 1.5490000248
 3355.8173828  -999.250000 11.779998779 -0.114000000 -0.043949999 2.2430000305 30.836000443 65.610000610 0.9269999862 58.233001709 1.5490000248 1.5490000248
 3355.9699707  -999.250000 11.779998779 -0.114000000 -0.043970000 2.2409999371 31.438999176 65.592002869 0.9269999862 58.238998413 1.5490000248 1.5490000248
 3356.1223145  -999.250000 11.779000282 -0.112999998 -0.044000000 2.2339999676 30.881000519 65.623001099 0.9269999862 58.244998932 1.5499999523 1.5499999523
 3356.2746582  -999.250000 11.777999878 -0.111000001 -0.043949999 2.2279999256 29.134000778 65.599998474 0.9269999862 58.250999451 1.5499999523 1.5499999523
 3356.4270020  -999.250000 11.777000427 -0.108000003 -0.043779999 2.2360000610 28.201999664 65.495002747 0.9269999862 58.256999969 1.5509999990 1.5509999990
 3356.5795898  -999.250000 11.777000427 -0.104000002 -0.043620002 2.2379999161 27.333999634 65.389999390 0.9269999862 58.263999939 1.5509999990 1.5509999990
 3356.7319336  -999.250000 11.776000023 -0.103000000 -0.043499999 2.2409999371 26.027000427 65.486999512 0.9269999862 58.270000458 1.5509999990 1.5509999990
 3356.8842773  -999.250000 11.774999619 -0.104999997 -0.043520004 2.2400000095 24.367000580 65.584999084 0.9269999862 58.276000977 1.5520000458 1.5520000458
 3357.0366211  -999.250000 11.774000168 -0.108999997 -0.043350000 2.2420001030 24.100999832 65.478996277 0.9269999862 58.282001495 1.5520000458 1.5520000458
 3357.1892090  -999.250000 11.774000168 -0.112000003 -0.042540003 2.2479999065 24.479000092 65.467002869 0.9269999862 58.287998199 1.5529999733 1.5529999733
 3357.3415527  -999.250000 11.773000717 -0.108999997 -0.041770000 2.2599999905 26.204000473 65.370002747 0.9269999862 58.293998718 1.5529999733 1.5529999733
