# LAS format log file from PETREL
# Project units are specified as depth units
#==================================================================
~Version information
VERS.   2.0:
WRAP.   NO:
#==================================================================
~Well
STRT .m      785.37786865 :
STOP .m      3526.7492676 :
STEP .m     0.00000000 :
NULL .        -999.250000 :
COMP.           : COMPANY
WELL.  33/9-11   : WELL
FLD.            : FIELD
LOC.            : LOCATION
SRVC.           : SERVICE COMPANY
DATE.  2018-09-11 14:48:42   : Log Export Date {yyyy-MM-dd HH:mm:ss}
PROV.           : PROVINCE
UWI.   33/9-11   : UNIQUE WELL ID
API.            : API NUMBER
#==================================================================
~Curve
DEPT .m                   : DEPTH
Lithology_geolink ._      : Lithology_geolink
CALI .in                  : CALI
DRHO .g/cm3               : DRHO
NPHI .m3/m3               : NPHI
RHOB .g/cm3               : RHOB
GR .gAPI                  : GR
DTC .us/ft                : DTC
RDEP .ohm.m               : RDEP
SP .mV                    : SP
RSHA .ohm.m               : RSHA
RMED .ohm.m               : RMED
~Parameter
#==================================================================
~Ascii
# ...
 3521.2629395  -999.250000 12.562999725 -0.022000000 0.1613499969 2.4349999428 60.215999603 76.385002136 3.3229999542 45.104000092 2.7049999237 2.7049999237
 3521.4152832  -999.250000 12.767000198 -0.024000000 0.1621599942 2.4319999218 60.229000092 76.403007507 3.2309999466 42.261001587 2.9440000057 2.9440000057
 3521.5676270  -999.250000 12.873998642 -0.024000000 0.1627700031 2.4300000668 60.242000580 76.419998169 3.0769999027 38.819000244 3.1389999390 3.1389999390
 3521.7202148  -999.250000 12.658999443 -0.018999999 0.1630100012 2.4249999523 60.181999207 76.436996460 2.9709999561 32.870998383 3.6610000134 3.6610000134
 3521.8725586  -999.250000 12.336000443 -0.018999999 0.1630299985 2.3959999084 60.113998413 76.455001831 2.8959999084 30.038000107 3.7969999313 3.7969999313
 3522.0249023  -999.250000 12.137000084 -0.032000002 0.1629999876 2.3499999046 59.976001740 76.492996216 2.7449998856 26.247999191 3.4739999771 3.4739999771
 3522.1772461  -999.250000 12.133000374 -0.039000001 0.1628499925 2.3210000992 59.908000946 76.512001038 2.6700000763 24.888999939 3.3410000801 3.3410000801
 3522.3298340  -999.250000 12.140000343 -0.032000002 0.1625999957 2.3099999428 59.839000702 76.529998779 2.5950000286 23.850000381 2.9769999981 2.9769999981
 3522.4821777  -999.250000 12.147000313 -0.023000000 0.1623499990 2.2829999924 59.770999908 76.549003601 2.5769999027 24.124000549 2.9409999847 2.9409999847
 3522.6345215  -999.250000 12.152999878 -0.024000000 0.1621100008 2.2760000229 59.701999664 76.568000793 2.5710000992 24.917999268 3.0250000954 3.0250000954
 3522.7868652  -999.250000 12.159999847 -0.026000001 0.1619300097 2.2799999714 59.632999420 76.586997986 2.5659999847 22.791000366 3.1370000839 3.1370000839
 3522.9392090  -999.250000 12.166999817 -0.028000001 0.1618999988 2.2809998989 59.564998627 76.605003357 2.5599999428 22.427000046 3.2479999065 3.2479999065
 3523.0917969  -999.250000 12.173000336 -0.029999999 0.1619199961 2.2809998989 59.495998383 76.624000549 2.5950000286 23.525999069 3.2960000038 3.2960000038
 3523.2441406  -999.250000 12.180000305 -0.026000001 0.1620199978 2.2890000343 59.428001404 76.642997742 2.7060000896 25.270999908 3.2790000439 3.2790000439
 3523.3964844  -999.250000 12.187000275 -0.017999999 0.1622999907 2.2980000973 59.422000885 76.660003662 2.8180000782 26.725999832 3.2620000839 3.2620000839
 3523.5488281  -999.250000 12.194000244 -0.016000001 0.1626199931 2.2980000973 59.419998169 76.587997437 2.9969999790 25.618999481 3.2460000515 3.2460000515
 3523.7014160  -999.250000  -999.250000 -0.022000000 0.1629999876 2.3010001183  -999.250000  -999.250000  -999.250000  -999.250000  -999.250000  -999.250000
 3523.8537598  -999.250000 12.199999809 -0.022000000 0.1633900106 2.3080000877 59.417999268 76.514999390 3.2079999447 24.893999100 3.3680000305 3.3680000305
 3524.0061035  -999.250000 12.206999779 -0.020000000 0.1636900008 2.3180000782 59.416000366 76.443000793 3.2939999104 28.506999969 3.4900000095 3.4900000095
 3524.1584473  -999.250000 12.180999756 -0.021000000 0.1637900025 2.3350000381 59.415000916 76.370994568 3.3229999542 32.455001831 3.6199998856 3.6199998856
 3524.3110352  -999.250000 12.049000740 -0.022000000 0.1640300006 2.3529999256 59.412998199 76.299003601 3.3519999981 33.580001831 3.7839999199 3.7839999199
 3524.4633789  -999.250000 11.868000031 -0.023000000 0.1646599919 2.3680000305 59.410999298 76.226997375 3.3650000095 34.703998566 3.9479999542 3.9479999542
 3524.6157227  -999.250000 11.869000435 -0.033000000 0.1650200039 2.3770000935 59.407001495 76.083000183 3.3650000095 37.423000336 4.0669999123 4.0669999123
 3524.7680664  -999.250000 11.800999641 -0.037999999 0.1650300026 2.3900001049 59.404998779 76.011001587 3.3640000820 37.050998688 4.0580000877 4.0580000877
 3524.9204102  -999.250000 11.578000069 -0.035999998 0.1645999849 2.4079999924 59.403999329 75.939002991 3.3629999161 36.152000427 4.0489997864 4.0489997864
 3525.0729980  -999.250000 11.404000282 -0.039000001 0.1632599980 2.4049999714 59.500999451 75.875000000 3.3580000401 34.949001312 4.0390000343 4.0390000343
 3525.2253418  -999.250000 11.298000336 -0.046000000 0.1599600017 2.3829998970 59.597000122 75.901000977 3.3540000916 33.877998352 4.0300002098 4.0300002098
 3525.3776855  -999.250000 11.179999352 -0.057999998 0.1462900043 2.3359999657 59.693000793 75.926002502 3.3489999771 32.944000244 4.0199999809 4.0199999809
 3525.5300293  -999.250000 11.064999580 -0.071000002 0.1067500040 2.3050000668 59.790000916 75.950996399 3.3440001011 32.009998322 4.0110001564 4.0110001564
 3525.6826172  -999.250000 10.956000328 -0.083999999 0.0344499983 2.2839999199 59.886001587 75.976997375 3.3389999866 30.364999771 4.0019998550 4.0019998550
 3525.8349609  -999.250000 10.854000092 -0.097000003 -0.029340001 2.2730000019 59.983001709 76.001998901 3.3340001106 29.070999146 3.9920001030 3.9920001030
 3525.9873047  -999.250000 10.769000053 -0.101999998 -0.041589998 2.2699999809 60.078998566 76.027999878 3.3329999447 30.084999084 3.9830000401 3.9830000401
 3526.1396484  -999.250000 10.719999313 -0.103000000 -0.041450001 2.2699999809 60.175998688 76.053001404 3.3329999447 30.232000351 3.9730000496 3.9730000496
 3526.2922363  -999.250000 10.701000214 -0.101000004 -0.041310001 2.2809998989 60.271999359 76.078002930 3.3320000172 27.385000229 3.9649999142 3.9649999142
 3526.4445801  -999.250000  -999.250000 -0.097999997 -0.041170001 2.2869999409  -999.250000  -999.250000  -999.250000  -999.250000  -999.250000  -999.250000
 3526.5969238  -999.250000 10.699001312 -0.092000000 -0.041030001 2.2880001068 60.368999481 76.382003784 3.3320000172 26.920000076 3.9609999657 3.9609999657
 3526.7492676  -999.250000 10.699001312 -0.085000001 -0.040890001 2.2880001068 61.099998474 76.755989075 3.3320000172 27.232999802 3.9570000172 3.9570000172
