# LAS format log file from PETREL
# Project units are specified as depth units
#==================================================================
~Version information
VERS.   2.0:
WRAP.   NO:
#==================================================================
~Well
STRT .m      1740.8350830 :
STOP .m      3359.4750977 :
STEP .m     0.00000000 :
NULL .        -999.250000 :
COMP.           : COMPANY
WELL.  33/9-6   : WELL
FLD.            : FIELD
LOC.            : LOCATION
SRVC.           : SERVICE COMPANY
DATE.  2018-09-11 14:48:43   : Log Export Date {yyyy-MM-dd HH:mm:ss}
PROV.           : PROVINCE
UWI.   33/9-6   : UNIQUE WELL ID
API.            : API NUMBER
#==================================================================
~Curve
DEPT .m                   : DEPTH
Lithology_geolink ._      : Lithology_geolink
CALI .in                  : CALI
DRHO .g/cm3               : DRHO
NPHI .m3/m3               : NPHI
RHOB .g/cm3               : RHOB
GR .gAPI                  : GR
DTC .us/ft                : DTC
RDEP .ohm.m               : RDEP
SP .mV                    : SP
RSHA .ohm.m               : RSHA
RMED .ohm.m               : RMED
~Parameter
#==================================================================
~Ascii
# ...
 1849.6486816  -999.250000 19.819999695 -0.104999997 0.4723076224 2.0300672054 39.262935638 173.48121643 0.8750000000 51.776607513 0.9380272627 0.9380272627
 1849.8011475  -999.250000 19.819999695 -0.137999997 0.4818359315 2.0060577393 39.221775055 168.75387573 0.8709999919 51.532417297 0.9550359845 0.9550359845
 1849.9534912  -999.250000 19.444000244 -0.153999999 0.4892294407 2.0668046474 38.711734772 163.60527039 0.8669999838 51.289527893 0.9700224400 0.9700224400
 1850.1059570  -999.250000 17.447999954 -0.159999996 0.4884951711 2.1388268471 37.920795441 160.19407654 0.8629999757 50.993927002 0.9840144515 0.9840144515
 1850.2583008  -999.250000 15.529999733 -0.165000007 0.4729847312 2.1340160370 37.418579102 156.50590515 0.8590000272 50.548282623 0.9900000095 0.9900000095
 1850.4107666  -999.250000 15.917000771 -0.150000006 0.4664458632 2.1290118694 36.532028198 160.12231445 0.8550000191 50.100929260 0.9900000095 0.9900000095
 1850.5631104  -999.250000 16.555000305 -0.123000003 0.4825772047 2.1389679909 35.713211060 162.81491089 0.8519999981 49.654441833 0.9900000095 0.9900000095
 1850.7155762  -999.250000 16.068000793 -0.120999999 0.4790757596 2.1240360737 35.845897675 165.19412231 0.8560000062 49.307289124 0.9900048375 0.9900048375
 1850.8679199  -999.250000 15.534000397 -0.130999997 0.4764105082 2.1110417843 36.633064270 165.89323425 0.8619999886 49.012527466 0.9920048118 0.9920048118
 1851.0202637  -999.250000 15.704999924 -0.103000000 0.4770636261 2.1737980843 36.672252655 163.68522644 0.8679999709 48.716526031 0.9950048327 0.9950048327
 1851.1727295  -999.250000 15.876999855 -0.077000000 0.4815582633 2.1879551411 36.208580017 162.72357178 0.8769999743 48.420001984 0.9979832172 0.9979832172
 1851.3250732  -999.250000 15.961999893 -0.093000002 0.4918816090 2.1381602287 36.867069244 162.20060730 0.8859999776 48.004180908 0.9910160303 0.9910160303
 1851.4775391  -999.250000 15.798999786 -0.108000003 0.4938958585 2.1150553226 38.782222748 162.94367981 0.8899999857 47.492153168 1.0010433197 1.0010433197
 1851.6298828  -999.250000 15.786999702 -0.123000003 0.4887353778 2.1199839115 39.292915344 167.50820923 0.8939999938 47.140602112 1.0190256834 1.0190256834
 1851.7823486  -999.250000 15.733000755 -0.104000002 0.4829729795 2.1549158096 40.485832214 169.00509644 0.9020000100 46.893169403 1.0349687338 1.0349687338
 1851.9346924  -999.250000 14.883000374 -0.082999997 0.4866827130 2.1240992546 40.415462494 169.12510681 0.9100000262 46.545490265 1.0219663382 1.0219663382
 1852.0871582  -999.250000 15.517000198 -0.101999998 0.4900680184 2.0461874008 40.078479767 170.55125427 0.9190000296 45.601734161 1.0009399652 1.0009399652
 1852.2395020  -999.250000 16.556999207 -0.136000007 0.4888370037 2.0160961151 39.030544281 189.42410278 0.9290000200 44.659488678 0.9760048389 0.9760048389
 1852.3919678  -999.250000 15.736000061 -0.170000002 0.4726346433 2.0588965416 38.745021820 202.01861572 0.9509999752 43.715732574 0.9791032672 0.9791032672
 1852.5443115  -999.250000 15.043000221 -0.185000002 0.4630911350 2.0719583035 37.919849396 202.40019226 0.9879999757 42.772811890 1.0220705271 1.0220705271
 1852.6967773  -999.250000 16.426000595 -0.165999994 0.4895133674 2.0340912342 36.576213837 205.12431335 1.0420000553 41.404598236 1.0660840273 1.0660840273
 1852.8491211  -999.250000 17.930000305 -0.147000000 0.5290136337 1.9911377430 35.000308990 200.96653748 1.1039999723 39.990543365 1.1010544300 1.1010544300
 1853.0014648  -999.250000 19.628999710 -0.155000001 0.5335445404 1.9441506863 33.324279785 207.86250305 1.1540000439 39.081256866 1.1350785494 1.1350785494
 1853.1539307  -999.250000 19.922000885 -0.166999996 0.5266838670 1.9400128126 32.874992371 204.72111511 1.1990000010 38.617698669 1.1841537952 1.1841537952
 1853.3062744  -999.250000 19.698999405 -0.178000003 0.5066311955 2.0008044243 32.872257233 188.63720703 1.2109999657 38.493087769 1.2481858730 1.2481858730
 1853.4587402  -999.250000 18.648000717 -0.189999998 0.4831022620 2.1186220646 33.032695770 163.92630005 1.1890000105 38.548217773 1.3639760017 1.3639760017
 1853.6110840  -999.250000 18.982000351 -0.201000005 0.4734579027 2.1837916374 33.323917389 171.79206848 1.1710000038 38.639785767 1.3538076878 1.3538076878
 1853.7635498  -999.250000 19.746000290 -0.160999998 0.4833395183 2.1969687939 35.146495819 183.11660767 1.1879999638 39.131587982 1.2335315943 1.2335315943
 1853.9158936  -999.250000 19.839000702 -0.123999998 0.4952113032 2.1800544262 36.600406647 195.10168457 1.2569999695 39.791744232 1.0387948751 1.0387948751
 1854.0683594  -999.250000 19.829000473 -0.111000001 0.4968158603 2.1430888176 38.724670410 188.45582581 1.2840000391 40.255035400 0.9112570286 0.9112570286
 1854.2207031  -999.250000 19.774999619 -0.097999997 0.4692767859 2.1459903717 39.833171844 175.86834717 1.2699999809 40.270294189 1.0182083845 1.0182083845
 1854.3731689  -999.250000 19.826000214 -0.083999999 0.4403351247 2.1799182892 39.936584473 160.08505249 1.2569999695 40.454441071 1.1487085819 1.1487085819
 1854.5255127  -999.250000 19.802999496 -0.079000004 0.4372875690 2.1909646988 38.931243896 153.88002014 1.2819999456 40.639572144 1.4433156252 1.4433156252
 1854.6779785  -999.250000 18.492000580 -0.082000002 0.4342364669 2.1670577526 37.836994171 155.14341736 1.3159999847 40.997085571 1.6399831772 1.6399831772
 1854.8303223  -999.250000 17.225999832 -0.083999999 0.4320505261 2.1450705528 37.834453583 146.04133606 1.3519999981 41.866100311 1.6327452660 1.6327452660
 1854.9826660  -999.250000 15.800000191 -0.079999998 0.4327005148 2.1489870548 38.119487762 140.22348022 1.3819999695 43.800842285 1.4737502337 1.4737502337
 1855.1351318  -999.250000 15.458999634 -0.071000002 0.4333204627 2.1440160275 39.048343658 144.56112671 1.3389999866 45.574707031 1.3178637028 1.3178637028
 1855.2874756  -999.250000 16.646999359 -0.061999999 0.4338904321 2.1320383549 39.883853912 148.46669006 1.2840000391 47.265674591 1.2329711914 1.2329711914
 1855.4399414  -999.250000 16.923999786 -0.056000002 0.4344604313 2.1270160675 38.543750763 148.09307861 1.2070000172 48.935775757 1.2149832249 1.2149832249
 1855.5922852  -999.250000 17.069999695 -0.044000000 0.4350306988 2.1240096092 37.610145569 148.19450378 1.1089999676 50.506839752 1.2079551220 1.2079551220
 1855.7447510  -999.250000 17.284000397 -0.037999999 0.4359216690 2.1150217056 38.322067261 148.83291626 1.0199999809 51.654941559 1.1797597408 1.1797597408
 1855.8970947  -999.250000 16.475000381 -0.037999999 0.4380244911 2.1100158691 38.350139618 149.99981689 0.9499999881 52.461772919 1.0798333883 1.0798333883
 1856.0495605  -999.250000 16.107000351 -0.039999999 0.4436421394 2.0930407047 37.809658051 153.52539063 0.9169999957 52.945610046 0.9757718444 0.9757718444
 1856.2019043  -999.250000 18.388000488 -0.041000001 0.4588241577 2.0939970016 36.837108612 165.22801208 0.8909999728 53.199409485 0.8809999824 0.8809999824
 1856.3543701  -999.250000 19.700000763 -0.048999999 0.4639859498 2.0850217342 36.908287048 177.71755981 0.8679999709 53.453197479 0.8810359836 0.8810359836
 1856.5067139  -999.250000 19.642999649 -0.056000002 0.4427553415 2.0850000381 39.106304169 177.42295837 0.8489999771 53.534816742 0.8961282372 0.8961282372
 1856.6591797  -999.250000 19.384000778 -0.061000001 0.4493944943 2.0820071697 39.921936035 159.89341736 0.8379999995 53.421714783 0.9761657715 0.9761657715
 1856.8115234  -999.250000 19.080999374 -0.066000000 0.4459672570 2.0640575886 40.727901459 148.93754578 0.8259999752 53.718807220 1.0450096130 1.0450096130
 1856.9637451  -999.250000 18.381000519 -0.056016013 0.4425400198 2.0759518147 41.289237976 148.36900330 0.8250015974 54.223537445 1.0509448051 1.0509448051
 1857.1162109  -999.250000 17.867000580 -0.070987985 0.4391099811 2.0700240135 41.586036682 150.35499573 0.8299959898 54.896595001 0.9819527268 0.9819527268
 1857.2685547  -999.250000 18.597999573 -0.098977566 0.4557099938 2.0500800610 41.632942200 157.70599365 0.8369944096 55.640510559 0.9229823351 0.9229823351
