# LAS format log file from PETREL
# Project units are specified as depth units
#==================================================================
~Version information
VERS.   2.0:
WRAP.   NO:
#==================================================================
~Well
STRT .m      1740.8350830 :
STOP .m      3359.4750977 :
STEP .m     0.00000000 :
NULL .        -999.250000 :
COMP.           : COMPANY
WELL.  33/9-6   : WELL
FLD.            : FIELD
LOC.            : LOCATION
SRVC.           : SERVICE COMPANY
DATE.  2018-09-11 14:48:43   : Log Export Date {yyyy-MM-dd HH:mm:ss}
PROV.           : PROVINCE
UWI.   33/9-6   : UNIQUE WELL ID
API.            : API NUMBER
#==================================================================
~Curve
DEPT .m                   : DEPTH
Lithology_geolink ._      : Lithology_geolink
CALI .in                  : CALI
DRHO .g/cm3               : DRHO
NPHI .m3/m3               : NPHI
RHOB .g/cm3               : RHOB
GR .gAPI                  : GR
DTC .us/ft                : DTC
RDEP .ohm.m               : RDEP
SP .mV                    : SP
RSHA .ohm.m               : RSHA
RMED .ohm.m               : RMED
~Parameter
#==================================================================
~Ascii
# ...
 2922.2395020 13.000000000 14.331999779 -0.031982373 0.2745899856 2.4218444824 52.710998535 87.434997559 2.1540000439 81.637001038 2.7109999657 2.7109999657
 2922.3918457 13.000000000 14.298001289 -0.032000002 0.2606500089 2.4718399048 46.696998596 83.156997681 2.4379999638 81.329002380 3.4070000648 3.4070000648
 2922.5444336 13.000000000 13.916000366 -0.024012821 0.2490099967 2.5109374523 43.618999481 81.888000488 2.7209999561 80.999000549 3.8849999905 3.8849999905
 2922.6967773 13.000000000 13.916998863 -0.027993592 0.2476499975 2.5209839344 43.731998444 82.331001282 3.0039999485 80.660003662 4.1620001793 4.1620001793
 2922.8491211 13.000000000 13.903000832 -0.032991987 0.2483699918 2.5289871693 45.463001251 81.775001526 3.2360000610 80.592002869 4.4409999847 4.4409999847
 2923.0014648 13.000000000 13.883000374 -0.035995189 0.2496500015 2.5170192719 45.236000061 83.774002075 3.4030001163 81.050003052 4.3439998627 4.3439998627
 2923.1540527 13.000000000 13.854000092 -0.031008000 0.2512599826 2.5060176849 44.680000305 84.609001160 3.5710000992 81.358001709 4.0460000038 4.0460000038
 2923.3063965 13.000000000 13.840000153 -0.023012821 0.2567999959 2.5319583416 43.763999939 84.829002380 3.6700000763 81.763000488 3.7690000534 3.7690000534
 2923.4587402 13.000000000 13.840000153 -0.019006409 0.2662500143 2.5479743481 42.999000549 84.813003540 3.7550001144 81.829002380 3.6570000648 3.6570000648
 2923.6110840 13.000000000 13.847000122 -0.018001601 0.2757000029 2.5280320644 42.805000305 84.263000488 3.8399999142 81.808998108 3.7809998989 3.7809998989
 2923.7634277 13.000000000 13.850999832 -0.017999999 0.2761700153 2.4901216030 42.273998260 82.584999084 3.9570000172 81.541999817 3.9210000038 3.9210000038
 2923.9160156 13.000000000 13.980999947 -0.013008013 0.2613900006 2.4880030155 40.701000214 80.214996338 4.1009998322 81.731002808 4.1300001144 4.1300001144
 2924.0683594 13.000000000 13.850000381 -0.006011218 0.2427000105 2.5279359818 39.229000092 78.670997620 4.2449998856 82.013000488 4.7319998741 4.7319998741
 2924.2207031 13.000000000 13.753999710 -0.006000000 0.2178599983 2.5599486828 39.332000732 77.125000000 4.4019999504 81.915000916 5.1329998970 5.1329998970
 2924.3730469 13.000000000 13.909000397 -0.010984000 0.2048200071 2.5749521255 38.868000031 75.797004700 4.5599999428 81.802001953 5.3930001259 5.3930001259
 2924.5256348 13.000000000 13.890999794 -0.024977565 0.2015399933 2.5660142899 38.277000427 75.931999207 4.6719999313 81.886001587 5.6339998245 5.6339998245
 2924.6779785 13.000000000 13.819000244 -0.035982370 0.2022500038 2.5580129623 38.437999725 75.926002502 4.6729998589 82.107002258 5.7259998322 5.7259998322
 2924.8303223 13.000000000 13.826000214 -0.035999998 0.2067300081 2.5520095825 39.448001862 75.920997620 4.6739997864 82.221000671 5.5339999199 5.5339999199
 2924.9826660 13.000000000 13.868000031 -0.033009600 0.2170999944 2.5390415192 40.060001373 77.833999634 4.6119999886 82.526000977 5.3099999428 5.3099999428
 2925.1352539 13.000000000 13.904000282 -0.030004807 0.2274699956 2.5350065231 40.066001892 78.468002319 4.5170001984 82.834999084 5.0739998817 5.0739998817
 2925.2875977 13.000000000 13.925999641 -0.021014422 0.2413699925 2.5150320530 40.490001678 79.223999023 4.4210000038 82.834999084 4.7839999199 4.7839999199
 2925.4399414 13.000000000 14.031000137 -0.025991987 0.2649099827 2.4900400639 40.931999207 81.598999023 4.2960000038 82.827003479 4.4959998131 4.4959998131
 2925.5922852 13.000000000 14.046999931 -0.032988783 0.2689599991 2.4840095043 42.152000427 82.248008728 4.1719999313 82.211997986 4.2290000916 4.2290000916
 2925.7446289 13.000000000 14.087000847 -0.022035200 0.2595700026 2.5158977509 42.687000275 82.709999084 4.0469999313 81.930999756 4.1129999161 4.1129999161
 2925.8972168 13.000000000 14.156999588 -0.013014424 0.2501600087 2.5319743156 42.618999481 83.470001221 3.9230000973 82.110000610 4.1170001030 4.1170001030
 2926.0495605 13.000000000 14.166000366 -0.024980770 0.2451799959 2.5459775925 43.356998444 83.442001343 3.7790000439 82.134002686 4.1510000229 4.1510000229
 2926.2019043 13.000000000 14.166000366 -0.036980771 0.2511700094 2.5350177288 44.703998566 82.108009338 3.6289999485 82.102996826 4.1810002327 4.1810002327
 2926.3542480 13.000000000 14.185998917 -0.037000000 0.2508099973 2.5519456863 45.856998444 82.639999390 3.4790000916 82.550003052 4.1209998131 4.1209998131
 2926.5068359 13.000000000 14.185998917 -0.029012820 0.2570199966 2.5510017872 46.595001221 83.502998352 3.3280000687 82.921997070 3.8940000534 3.8940000534
 2926.6591797 13.000000000 14.185998917 -0.025006410 0.2681100070 2.5599856377 47.590000153 85.279998779 3.2500000000 83.130996704 3.4040000439 3.4040000439
 2926.8115234 13.000000000 14.185998917 -0.025998399 0.2757000029 2.5570046902 48.022998810 86.626998901 3.3159999847 83.440002441 3.4779999256 3.4779999256
 2926.9638672 13.000000000 14.185000420 -0.026000001 0.2823700011 2.5470318794 47.527999878 87.221992493 3.3299999237 83.496002197 3.6240000725 3.6240000725
 2927.1164551 13.000000000 14.225000381 -0.023004808 0.2828299999 2.5489969254 46.618000031 85.897003174 3.3489999771 83.501998901 3.8610000610 3.8610000610
 2927.2687988 13.000000000 14.225000381 -0.020004807 0.2752799988 2.5529935360 44.445999146 82.564002991 3.4070000648 83.507003784 4.0219998360 4.0219998360
 2927.4211426 13.000000000 14.265000343 -0.020998398 0.2463299930 2.5569934845 41.624000549 80.916999817 3.5539999008 83.513000488 4.3600001335 4.3600001335
 2927.5734863 13.000000000 14.204999924 -0.027988782 0.2074699998 2.5739727020 39.280998230 77.955001831 3.7660000324 83.319000244 4.8639998436 4.8639998436
 2927.7258301 13.000000000 14.168998718 -0.032984000 0.1896599978 2.5899486542 38.792999268 76.387001038 3.9289999008 83.277000427 5.1519999504 5.1519999504
 2927.8784180 13.000000000 14.145000458 -0.033998400 0.1862899959 2.5939936638 38.062999725 76.313003540 4.2379999161 82.775001526 5.1290001869 5.1290001869
 2928.0307617 13.000000000 14.126000404 -0.028009616 0.1956200004 2.5900063515 37.580001831 76.193000793 4.4629998207 82.653999329 5.1430001259 5.1430001259
 2928.1831055 13.000000000 14.003000259 -0.028998397 0.1858900040 2.5780193806 37.159000397 75.433998108 4.7829999924 82.569000244 5.6290001869 5.6290001869
 2928.3354492 13.000000000 13.897000313 -0.028003201 0.1764300019 2.5760064125 37.681999207 74.010002136 4.8750000000 82.928001404 6.1209998131 6.1209998131
 2928.4880371 13.000000000 13.782999992 -0.027001603 0.1786000133 2.5740029812 37.992000580 74.179000854 5.0069999695 83.247001648 6.3179998398 6.3179998398
 2928.6403809 13.000000000 13.670999527 -0.027998399 0.1867700070 2.5879776478 38.400001526 74.383003235 5.2199997902 82.958999634 6.2490000725 6.2490000725
 2928.7927246 13.000000000 13.524998665 -0.030995192 0.1997100115 2.5770175457 41.014999390 75.030998230 5.1729998589 83.066001892 6.1420001984 6.1420001984
 2928.9450684 13.000000000 13.505000114 -0.034987200 0.2126500010 2.5660352707 43.608001709 76.830001831 5.0060000420 83.372001648 5.9419999123 5.9419999123
 2929.0976563 13.000000000 13.423999786 -0.025016027 0.2259300053 2.5650017262 46.451999664 77.801002502 4.3909997940 83.574996948 5.3790001869 5.3790001869
 2929.2500000 13.000000000 13.364999771 -0.020008013 0.2394899875 2.5550160408 47.672000885 78.175003052 3.8340001106 83.793998718 5.0229997635 5.0229997635
 2929.4023438 13.000000000 13.364999771 -0.029983973 0.2509000003 2.5430192947 48.873001099 77.485000610 2.9839999676 84.023002625 4.9759998322 4.9759998322
 2929.5546875 13.000000000 13.281999588 -0.036988784 0.2531999946 2.5429999828 50.592998505 75.347000122 2.3489999771 84.712997437 5.0980000496 5.0980000496
 2929.7070313 13.000000000 13.245000839 -0.038993601 0.2544199824 2.5499775410 53.234001160 76.642005920 1.9910000563 85.122001648 3.6749999523 3.6749999523
 2929.8596191 13.000000000 13.225000381 -0.037003204 0.2604100108 2.5390176773 54.453998566 79.198997498 1.8569999933 85.301002502 2.1860001087 2.1860001087
