# LAS format log file from PETREL
# Project units are specified as depth units
#==================================================================
~Version information
VERS.   2.0:
WRAP.   NO:
#==================================================================
~Well
STRT .m      785.37786865 :
STOP .m      3526.7492676 :
STEP .m     0.00000000 :
NULL .        -999.250000 :
COMP.           : COMPANY
WELL.  33/9-11   : WELL
FLD.            : FIELD
LOC.            : LOCATION
SRVC.           : SERVICE COMPANY
DATE.  2018-09-11 14:48:42   : Log Export Date {yyyy-MM-dd HH:mm:ss}
PROV.           : PROVINCE
UWI.   33/9-11   : UNIQUE WELL ID
API.            : API NUMBER
#==================================================================
~Curve
DEPT .m                   : DEPTH
Lithology_geolink ._      : Lithology_geolink
CALI .in                  : CALI
DRHO .g/cm3               : DRHO
NPHI .m3/m3               : NPHI
RHOB .g/cm3               : RHOB
GR .gAPI                  : GR
DTC .us/ft                : DTC
RDEP .ohm.m               : RDEP
SP .mV                    : SP
RSHA .ohm.m               : RSHA
RMED .ohm.m               : RMED
~Parameter
#==================================================================
~Ascii
# ...
 2184.4099121  -999.250000 14.609999657 0.0469919853 0.3625177741 2.4050016403 43.380252838 118.15093231 1.3240000010 41.655189514 1.5240000486 1.5240000486
 2184.5622559  -999.250000 14.626000404 0.0419743992 0.3673918545 2.4059791565 43.248214722 116.64340973 1.3270000219 41.664985657 1.4980000257 1.4980000257
 2184.7148438  -999.250000 14.668999672 0.0259887818 0.3810477257 2.3929903507 43.111999512 116.33799744 1.3430401087 41.066001892 1.4650192261 1.4650192261
 2184.8671875  -999.250000 14.739000320 0.0190144219 0.3920810521 2.3870258331 43.621185303 119.64569855  -999.250000 40.210369110  -999.250000  -999.250000
 2185.0195313  -999.250000  -999.250000 0.0280192308 0.3865056038 2.4030289650  -999.250000  -999.250000  -999.250000  -999.250000  -999.250000  -999.250000
 2185.1718750  -999.250000 14.776000023 0.0400080122 0.3775343299 2.4210143089  -999.250000  -999.250000 1.3930000067  -999.250000 1.5460000038 1.5460000038
 2185.3244629  -999.250000 14.748001099 0.0449584015 0.3739891946 2.4299871922 42.669998169 117.45499420 1.4170417786 40.768001556 1.6131010056 1.6131010056
 2185.4768066  -999.250000 14.704999924 0.0319775641 0.3768756390 2.4259729385 42.944999695 117.82200623 1.4430528879 40.441001892 1.6761041880 1.6761041880
 2185.6291504  -999.250000 14.684000015 0.0180016011 0.3866032362 2.4089903831 41.825794220 112.74513245 1.4760607481 40.091560364 1.7411072254 1.7411072254
 2185.7814941  -999.250000 14.708000183 0.0190224349 0.3886177838 2.4030225277 41.276878357 112.39554596 1.5140000582 39.632736206 1.8079999685 1.8079999685
 2185.9340820  -999.250000 14.713000298 0.0330127999 0.3809984028 2.4170255661 41.665000916 108.79299927 1.5900465250 40.238998413 1.8878862858 1.8878862858
 2186.0864258  -999.250000 14.690999985 0.0370032042 0.3773800135 2.4250094891 41.091999054 109.15799713 1.6190047264 40.689998627 1.8168830872 1.8168830872
 2186.2387695  -999.250000 14.697000504 0.0389935896 0.3773768246 2.4309918880 40.097595215 110.65559387 1.6219807863 41.227138519 1.7439984083 1.7439984083
 2186.3911133  -999.250000 14.786999702 0.0349727571 0.3691480458 2.4259743690 39.798477173 111.59150696 1.6100000143 41.284908295 1.7430000305 1.7430000305
 2186.5434570  -999.250000 14.932001114 0.0179887991 0.3554525673 2.4099888802 37.728321075 111.19364166 1.6050000191 40.247661591 1.7849999666 1.7849999666
 2186.6960449  -999.250000 14.892999649 0.0110016027 0.3445681632 2.4029953480 34.856998444 110.07800293 1.6039952040 37.771999359 1.8359999657 1.8359999657
 2186.8483887  -999.250000 14.721000671 0.0120016029 0.3434334397 2.4000000954 34.464630127 109.19242096 1.6009935141 36.971282959 1.8359199762 1.8359199762
 2187.0007324  -999.250000 14.679999352 0.0130032049 0.3518226743 2.4000065327 35.867744446 109.10313416 1.5970000029 38.831012726 1.7860000134 1.7860000134
 2187.1530762  -999.250000 14.767999649 0.0149983969 0.3597201407 2.4039871693 37.178897858 111.04486847 1.5930000544 40.516300201 1.7380000353 1.7380000353
 2187.3056641  -999.250000 14.895999908 0.0139936004 0.3598219454 2.3959550858 38.299999237 112.51300049 1.5899647474 41.139999390 1.7220144272 1.7220144272
 2187.4580078  -999.250000 14.927000046 0.0120032048 0.3604409695 2.3819952011 39.515998840 112.56099701  -999.250000 41.289001465  -999.250000  -999.250000
 2187.6103516  -999.250000  -999.250000 0.0139983976 0.3672951162 2.3789935112  -999.250000  -999.250000  -999.250000  -999.250000  -999.250000  -999.250000
 2187.7626953  -999.250000 14.866999626 0.0129935900 0.3767125607 2.3749856949  -999.250000  -999.250000 1.5099999905  -999.250000 1.7239999771 1.7239999771
 2187.9152832  -999.250000 14.967000008 0.0089935996 0.3845620155 2.3659806252 41.998001099 111.27899933 1.4439038038 40.853000641 1.7109342813 1.7109342813
 2188.0676270  -999.250000 15.135999680 0.0070064105 0.3883072734 2.3599967957 42.542999268 112.46398926 1.3839213848 39.923000336 1.6698429585 1.6698429585
 2188.2199707  -999.250000 15.122999191 0.0110064102 0.3928293884 2.3579919338 43.955738068 112.77350616 1.3349328041 39.931983948 1.5718352795 1.5718352795
 2188.3723145  -999.250000 15.097000122 0.0150096146 0.3986834288 2.3529951572 46.430030823 117.41854858 1.2929999828 40.836547852 1.4689999819 1.4689999819
 2188.5249023  -999.250000 15.191000938 0.0210320000 0.4008036852 2.3500063419 49.978000641 123.92500305 1.2129487991 41.282001495 1.2859375477 1.2859375477
 2188.6772461  -999.250000 15.012000084 0.0310176276 0.3988316357 2.3520095348 49.208999634 124.71199799 1.1809582710 40.556999207 1.2470576763 1.2470576763
 2188.8295898  -999.250000 14.821999550 0.0420048088 0.3936317861 2.3579952717 47.848182678 125.17126465 1.1549743414 40.298416138 1.2830543518 1.2830543518
 2188.9819336  -999.250000 14.699999809 0.0450016037 0.3947498500 2.3549888134 48.246360779 120.96775055 1.1390000582 40.855106354 1.3170000315 1.3170000315
 2189.1342773  -999.250000 14.625000000 0.0460000001 0.4009016752 2.3480000496 49.666721344 121.10376740 1.1360000372 41.534908295 1.3289999962 1.3289999962
 2189.2868652  -999.250000 14.586000443 0.0459711999 0.4019249678 2.3479905128 49.030998230 122.02400208 1.1380096674 41.495998383 1.3390417099 1.3390417099
 2189.4392090  -999.250000 14.593000412 0.0369823724 0.3972435594 2.3449935913 46.577934265 119.00783539 1.1440064907 41.495998383 1.3650655746 1.3650655746
 2189.5915527  -999.250000 14.614999771 0.0259951930 0.3932301700 2.3409969807 44.954597473 117.24082947 1.1480000019 41.497001648 1.4060000181 1.4060000181
 2189.7438965  -999.250000 14.605000496 0.0230128206 0.3933277130 2.3390080929 44.850162506 116.96543121 1.1529999971 41.497001648 1.4049999714 1.4049999714
 2189.8964844  -999.250000 14.581999779 0.0310287997 0.3918854594 2.3440320492 47.264999390 119.09200287 1.1620223522 41.498001099 1.3609502316 1.3609502316
 2190.0488281  -999.250000 14.588999748 0.0399983972 0.3904652297 2.3540129662 49.679000854 119.17299652 1.1760240793 41.933998108 1.3299920559 1.3299920559
 2190.2011719  -999.250000 14.626999855 0.0389903858 0.3874750733 2.3619968891 47.690189362 121.13784027  -999.250000 42.059799194  -999.250000  -999.250000
 2190.3535156  -999.250000  -999.250000 0.0329775624 0.3781525791 2.3599870205  -999.250000  -999.250000  -999.250000  -999.250000  -999.250000  -999.250000
 2190.5061035  -999.250000 14.670999527 0.0189711992 0.3673093915 2.3520159721 44.323001862 120.94799805 1.2080191374 41.590999603 1.3410352468 1.3410352468
 2190.6584473  -999.250000 14.706999779 0.0100208335 0.3702527881 2.3570144176 43.187999725 117.82200623 1.2200096846 41.877998352 1.3631474972 1.3631474972
 2190.8107910  -999.250000 14.760999680 0.0230320506 0.3844751716 2.3659999371 42.172630310 115.32301331 1.2259984016 42.098644257 1.4552128315 1.4552128315
 2190.9631348  -999.250000 14.850999832 0.0429935902 0.3939431608 2.3659679890 40.680393219 112.91586304 1.2250000238 41.655712128 1.5880000591 1.5880000591
 2191.1154785  -999.250000 14.845000267 0.0389791690 0.4021481276 2.3459742069 41.620487213 118.03477478 1.2089999914 41.295574188 1.4650000334 1.4650000334
 2191.2680664  -999.250000 14.767999649 0.0260032006 0.4072115719 2.3300383091 43.942001343 120.92600250 1.2079919577 40.837001801 1.3539487123 1.3539487123
 2191.4204102  -999.250000 14.727998734 0.0270016026 0.4108231068 2.3419952393 45.123107910 123.04460144 1.2029680014 40.914875031 1.3220944405 1.3220944405
 2191.5727539  -999.250000 14.711000443 0.0279983990 0.4189775288 2.3389630318 45.829868317 118.16384125 1.1829999685 41.227500916 1.3810000420 1.3810000420
 2191.7250977  -999.250000 14.699999809 0.0270000007 0.4174205363 2.3159775734 46.033676147 114.03062439 1.1499999762 41.044292450 1.3860000372 1.3860000372
 2191.8776855  -999.250000 14.690999985 0.0269936007 0.4052473307 2.3019807339 46.422000885 118.06100464 1.1189823151 40.679000854 1.3188589811 1.3188589811
 2192.0300293  -999.250000 14.684000015 0.0249823723 0.3888162673 2.2960112095 47.964000702 123.34799957 1.1080160141 40.402999878 1.2308989763 1.2308989763
