# LAS format log file from PETREL
# Project units are specified as depth units
#==================================================================
~Version information
VERS.   2.0:
WRAP.   NO:
#==================================================================
~Well
STRT .m      457.60995483 :
STOP .m      3127.1992188 :
STEP .m     0.00000000 :
NULL .        -999.250000 :
COMP.           : COMPANY
WELL.  33/9-1   : WELL
FLD.            : FIELD
LOC.            : LOCATION
SRVC.           : SERVICE COMPANY
DATE.  2018-09-11 14:48:42   : Log Export Date {yyyy-MM-dd HH:mm:ss}
PROV.           : PROVINCE
UWI.   33/9-1   : UNIQUE WELL ID
API.            : API NUMBER
#==================================================================
~Curve
DEPT .m                   : DEPTH
Lithology_geolink ._      : Lithology_geolink
CALI .in                  : CALI
BS .in                    : BS
DRHO .g/cm3               : DRHO
NPHI .m3/m3               : NPHI
RHOB .g/cm3               : RHOB
GR .gAPI                  : GR
DTC .us/ft                : DTC
RDEP .ohm.m               : RDEP
SP .mV                    : SP
RSHA .ohm.m               : RSHA
RMED .ohm.m               : RMED
~Parameter
#==================================================================
~Ascii
# ...
 816.05450439  -999.250000 16.954000473  -999.250000  -999.250000  -999.250000  -999.250000 28.329803467 146.40660095 1.0999871492 49.848209381 1.1699999571 1.1699999571
 816.20690918  -999.250000 16.891000748  -999.250000  -999.250000  -999.250000  -999.250000 29.831291199 147.21859741 1.0959870815 50.022350311 1.1699999571 1.1699999571
 816.35931396  -999.250000 16.923999786  -999.250000  -999.250000  -999.250000  -999.250000 30.903194427 148.03067017 1.0919903517 50.312301636 1.1700015068 1.1700015068
 816.51171875  -999.250000 16.944999695  -999.250000  -999.250000  -999.250000  -999.250000 29.775562286 148.86315918 1.0890035629 49.876358032 1.1710032225 1.1710032225
 816.66412354  -999.250000 16.947000504  -999.250000  -999.250000  -999.250000  -999.250000 28.879003525 149.45845032 1.0900108814 49.477993011 1.1730047464 1.1730047464
 816.81652832  -999.250000 16.990999222  -999.250000  -999.250000  -999.250000  -999.250000 28.879812241 149.30325317 1.0930109024 49.471298218 1.1760047674 1.1760047674
 816.96893311  -999.250000 17.024999619  -999.250000  -999.250000  -999.250000  -999.250000 28.138725281 148.82096863 1.0960108042 47.789916992 1.1790047884 1.1790047884
 817.12133789  -999.250000 17.024000168  -999.250000  -999.250000  -999.250000  -999.250000 27.969396591 148.25817871 1.0990108252 49.607021332 1.1820048094 1.1820048094
 817.27374268  -999.250000 16.989000320  -999.250000  -999.250000  -999.250000  -999.250000 29.462278366 147.75566101 1.1020108461 48.998317719 1.1850047112 1.1850047112
 817.42614746  -999.250000 16.889999390  -999.250000  -999.250000  -999.250000  -999.250000 28.389553070 147.93969727 1.1050144434 49.816844940 1.1880047321 1.1880047321
 817.57855225  -999.250000 16.825000763  -999.250000  -999.250000  -999.250000  -999.250000 28.733333588 148.13360596 1.1090865135 48.474948883 1.1909999847 1.1909999847
 817.73089600  -999.250000 16.804000854  -999.250000  -999.250000  -999.250000  -999.250000 28.318056107 147.74871826 1.1330928802 49.689788818 1.1909903288 1.1909903288
 817.88330078  -999.250000 16.886999130  -999.250000  -999.250000  -999.250000  -999.250000 27.534746170 147.66349792 1.1621024609 49.513675690 1.1830288172 1.1830288172
 818.03570557  -999.250000 16.955999374  -999.250000  -999.250000  -999.250000  -999.250000 28.986431122 147.19389343 1.1941089630 49.242576599 1.2070227861 1.2070227861
 818.18811035  -999.250000 16.995000839  -999.250000  -999.250000  -999.250000  -999.250000 29.345443726 145.91381836 1.2281602621 48.888599396 1.2260408401 1.2260408401
 818.34051514  -999.250000 17.107000351  -999.250000  -999.250000  -999.250000  -999.250000 29.716028214 144.60723877 1.2782754898 48.555679321 1.2600415945 1.2600415945
 818.49291992  -999.250000 17.291999817  -999.250000  -999.250000  -999.250000  -999.250000 30.985927582 143.11880493 1.3642755747 48.358352661 1.2860609293 1.2860609293
 818.64532471  -999.250000 17.465000153  -999.250000  -999.250000  -999.250000  -999.250000 34.688064575 141.50605774 1.4503028393 49.201599121 1.3240768909 1.3240768909
 818.79772949  -999.250000 17.636999130  -999.250000  -999.250000  -999.250000  -999.250000 39.098068237 141.24584961 1.5343316793 48.951652527 1.3720624447 1.3720624447
 818.95013428  -999.250000 17.872999191  -999.250000  -999.250000  -999.250000  -999.250000 43.509712219 142.02934265 1.6263676882 49.358024597 1.4110609293 1.4110609293
 819.10253906  -999.250000 18.124000549  -999.250000  -999.250000  -999.250000  -999.250000 47.698192596 140.73693848 1.7280973196 48.748523712 1.4490368366 1.4490368366
 819.25494385  -999.250000 17.934999466  -999.250000  -999.250000  -999.250000  -999.250000 50.932365417 139.60281372 1.7550721169 48.450931549 1.4720240831 1.4720240831
 819.40734863  -999.250000 17.604000092  -999.250000  -999.250000  -999.250000  -999.250000 49.909400940 135.94784546 1.7749783993 48.408687592 1.4870079756 1.4870079756
 819.55975342  -999.250000 17.273000717  -999.250000  -999.250000  -999.250000  -999.250000 47.037555695 132.59320068 1.7689784765 49.459785461 1.4919999838 1.4919999838
 819.71209717  -999.250000 17.101999283  -999.250000  -999.250000  -999.250000  -999.250000 44.264419556 134.03538513 1.7630159855 49.327053070 1.4920071363 1.4920071363
 819.86450195  -999.250000 17.416999817  -999.250000  -999.250000  -999.250000  -999.250000 42.120738983 135.10920715 1.7680480480 49.370738983 1.4980168343 1.4980168343
 820.01690674  -999.250000 17.819000244  -999.250000  -999.250000  -999.250000  -999.250000 41.073719025 140.78051758 1.7830352783 49.156692505 1.5120096207 1.5120096207
 820.16931152  -999.250000 17.691999435  -999.250000  -999.250000  -999.250000  -999.250000 42.504894257 143.42591858 1.7940000296 49.733394623 1.5200011730 1.5200011730
 820.32171631  -999.250000 17.670000076  -999.250000  -999.250000  -999.250000  -999.250000 44.083862305 142.78353882 1.7940032482 50.061214447 1.5210000277 1.5210000277
 820.47412109  -999.250000 17.819999695  -999.250000  -999.250000  -999.250000  -999.250000 46.465164185 143.57160950 1.7950447798 51.067680359 1.5210000277 1.5210000277
 820.62652588  -999.250000 17.586999893  -999.250000  -999.250000  -999.250000  -999.250000 49.062854767 143.76658630 1.8090504408 50.869964600 1.5210000277 1.5210000277
 820.77893066  -999.250000 17.354000092  -999.250000  -999.250000  -999.250000  -999.250000 49.600662231 145.06086731 1.8229746819 51.472309113 1.5209791660 1.5209791660
 820.93133545  -999.250000 17.596000671  -999.250000  -999.250000  -999.250000  -999.250000 52.513282776 151.95960999 1.8159207106 51.665691376 1.5079952478 1.5079952478
 821.08374023  -999.250000 17.483999252  -999.250000  -999.250000  -999.250000  -999.250000 57.054946899 158.77404785 1.7939243317 51.472496033 1.5049871206 1.5049871206
 821.23614502  -999.250000 17.420999527  -999.250000  -999.250000  -999.250000  -999.250000 58.271530151 161.54814148 1.7728450298 51.781986237 1.4969967604 1.4969967604
 821.38854980  -999.250000 17.566999435  -999.250000  -999.250000  -999.250000  -999.250000 61.104179382 160.75140381 1.7297946215 51.772872925 1.4950224161 1.4950224161
 821.54095459  -999.250000 17.781000137  -999.250000  -999.250000  -999.250000  -999.250000 66.826210022 158.36007690 1.6728918552 51.694316864 1.5090271235 1.5090271235
 821.69335938  -999.250000 17.347000122  -999.250000  -999.250000  -999.250000  -999.250000 67.580604553 153.67008972 1.6430397034 51.889533997 1.5260208845 1.5260208845
 821.84570313  -999.250000 17.812000275  -999.250000  -999.250000  -999.250000  -999.250000 66.087486267 151.75872803 1.6540609598 50.976882935 1.5389808416 1.5389808416
 821.99810791  -999.250000 18.347999573  -999.250000  -999.250000  -999.250000  -999.250000 64.829223633 151.35615540 1.6730641127 50.877784729 1.5230096579 1.5230096579
 822.15051270  -999.250000 18.738000870  -999.250000  -999.250000  -999.250000  -999.250000 62.516616821 148.59613037 1.6930897236 50.699245453 1.5310264826 1.5310264826
 822.30291748  -999.250000 18.611999512  -999.250000  -999.250000  -999.250000  -999.250000 58.870586395 146.74929810 1.7210960388 50.901824951 1.5530517101 1.5530517101
 822.45532227  -999.250000 17.472000122  -999.250000  -999.250000  -999.250000  -999.250000 56.033493042 140.60877991 1.7510961294 50.756198883 1.5959758759 1.5959758759
 822.60772705  -999.250000 17.170000076  -999.250000  -999.250000  -999.250000  -999.250000 55.716407776 136.79858398 1.7810962200 50.256080627 1.5810240507 1.5810240507
 822.76013184  -999.250000 17.291000366  -999.250000  -999.250000  -999.250000  -999.250000 55.342849731 133.86532593 1.8110541105 49.683338165 1.5960015059 1.5960015059
 822.91253662  -999.250000 17.305000305  -999.250000  -999.250000  -999.250000  -999.250000 51.504920959 132.85458374 1.8259098530 49.270641327 1.5970000029 1.5970000029
 823.06494141  -999.250000 17.236000061  -999.250000  -999.250000  -999.250000  -999.250000 47.713005066 134.95562744 1.8009098768 49.049102783 1.5969728231 1.5969728231
 823.21734619  -999.250000 17.256999969  -999.250000  -999.250000  -999.250000  -999.250000 47.093311310 136.23519897 1.7758486271 50.358287811 1.5799711943 1.5799711943
