# LAS format log file from PETREL
# Project units are specified as depth units
#==================================================================
~Version information
VERS.   2.0:
WRAP.   NO:
#==================================================================
~Well
STRT .m      785.37786865 :
STOP .m      3526.7492676 :
STEP .m     0.00000000 :
NULL .        -999.250000 :
COMP.           : COMPANY
WELL.  33/9-11   : WELL
FLD.            : FIELD
LOC.            : LOCATION
SRVC.           : SERVICE COMPANY
DATE.  2018-09-11 14:48:42   : Log Export Date {yyyy-MM-dd HH:mm:ss}
PROV.           : PROVINCE
UWI.   33/9-11   : UNIQUE WELL ID
API.            : API NUMBER
#==================================================================
~Curve
DEPT .m                   : DEPTH
Lithology_geolink ._      : Lithology_geolink
CALI .in                  : CALI
DRHO .g/cm3               : DRHO
NPHI .m3/m3               : NPHI
RHOB .g/cm3               : RHOB
GR .gAPI                  : GR
DTC .us/ft                : DTC
RDEP .ohm.m               : RDEP
SP .mV                    : SP
RSHA .ohm.m               : RSHA
RMED .ohm.m               : RMED
~Parameter
#==================================================================
~Ascii
# ...
 901.96386719  -999.250000 17.280000687  -999.250000  -999.250000  -999.250000 113.01847076 134.76614380  -999.250000 44.196960449  -999.250000  -999.250000
 902.11627197  -999.250000  -999.250000  -999.250000  -999.250000  -999.250000  -999.250000  -999.250000  -999.250000  -999.250000  -999.250000  -999.250000
 902.26867676  -999.250000 17.274000168  -999.250000  -999.250000  -999.250000  -999.250000  -999.250000 1.9079840183  -999.250000 1.6710385084 1.6710385084
 902.42108154  -999.250000 17.267999649  -999.250000  -999.250000  -999.250000 114.53438568 135.02925110 1.8979614973 44.146049500 1.6950753927 1.6950753927
 902.57348633  -999.250000 17.238000870  -999.250000  -999.250000  -999.250000 114.86633301 136.06692505  -999.250000 44.096099854  -999.250000  -999.250000
 902.72589111  -999.250000  -999.250000  -999.250000  -999.250000  -999.250000  -999.250000  -999.250000  -999.250000  -999.250000  -999.250000  -999.250000
 902.87829590  -999.250000 17.211999893  -999.250000  -999.250000  -999.250000  -999.250000  -999.250000 1.8639839888  -999.250000 1.6999664307 1.6999664307
 903.03063965  -999.250000 17.173999786  -999.250000  -999.250000  -999.250000 111.16189575 136.98950195 1.8539879322 44.045047760 1.6789207458 1.6789207458
 903.18304443  -999.250000 17.183000565  -999.250000  -999.250000  -999.250000 109.30471802 136.68261719 1.8439795971 44.098892212 1.6130071878 1.6130071878
 903.33544922  -999.250000 17.250000000  -999.250000  -999.250000  -999.250000 107.64531708 136.53628540 1.8269747496 44.173851013 1.6189746857 1.6189746857
 903.48785400  -999.250000 17.318000793  -999.250000  -999.250000  -999.250000 109.95037079 136.48709106 1.8059747219 44.219909668 1.5979628563 1.5979628563
 903.64025879  -999.250000 17.349000931  -999.250000  -999.250000  -999.250000 110.05779266 136.25447083 1.7849987745 44.093254089 1.5669915676 1.5669915676
 903.79266357  -999.250000 17.319000244  -999.250000  -999.250000  -999.250000 109.62985992 135.61727905 1.7840641737 43.967250824 1.5601168871 1.5601168871
 903.94506836  -999.250000 17.135999680  -999.250000  -999.250000  -999.250000 111.01721191 134.21580505  -999.250000 43.839256287  -999.250000  -999.250000
 904.09747314  -999.250000  -999.250000  -999.250000  -999.250000  -999.250000  -999.250000  -999.250000  -999.250000  -999.250000  -999.250000  -999.250000
 904.24987793  -999.250000 17.111000061  -999.250000  -999.250000  -999.250000  -999.250000  -999.250000 1.8440320492  -999.250000 1.6480497122 1.6480497122
 904.40228271  -999.250000 17.180999756  -999.250000  -999.250000  -999.250000 111.44711304 134.51965332 1.8640320301 43.839000702 1.6790015697 1.6790015697
 904.55468750  -999.250000 17.295999527  -999.250000  -999.250000  -999.250000 112.98890686 134.69364929 1.8840303421 43.838005066 1.6800479889 1.6800479889
 904.70709229  -999.250000 17.270000458  -999.250000  -999.250000  -999.250000 111.62673950 134.86665344 1.9029903412 43.838001251 1.7100000381 1.7100000381
 904.85949707  -999.250000 17.215999603  -999.250000  -999.250000  -999.250000 111.60103607 139.04627991 1.8969711065 43.838001251 1.7100272179 1.7100272179
 905.01190186  -999.250000 17.290000916  -999.250000  -999.250000  -999.250000 109.64813232 177.80084229 1.8790096045 43.838001251 1.7270079851 1.7270079851
 905.16424561  -999.250000 17.306999207  -999.250000  -999.250000  -999.250000 109.81465912 232.50038147 1.8850191832 43.837005615 1.7319915295 1.7319915295
 905.31665039  -999.250000 17.225999832  -999.250000  -999.250000  -999.250000 110.68125916 155.44682312 1.9009879827 43.837001801 1.7250000238 1.7250000238
 905.46905518  -999.250000 17.190000534  -999.250000  -999.250000  -999.250000 109.58619690 216.19679260 1.8909615278 43.837001801 1.7250000238 1.7250000238
 905.62145996  -999.250000 17.204000473  -999.250000  -999.250000  -999.250000 107.99219513 241.69708252 1.8589687347 43.837001801 1.7249808311 1.7249808311
 905.77386475  -999.250000 17.211999893  -999.250000  -999.250000  -999.250000 107.23751068 243.11724854 1.8329471350 43.836002350 1.7089327574 1.7089327574
 905.92626953  -999.250000 17.292999268  -999.250000  -999.250000  -999.250000 106.92562866 187.08943176  -999.250000 43.835998535  -999.250000  -999.250000
 906.07867432  -999.250000  -999.250000  -999.250000  -999.250000  -999.250000  -999.250000  -999.250000  -999.250000  -999.250000  -999.250000  -999.250000
 906.23107910  -999.250000 17.427999496  -999.250000  -999.250000  -999.250000  -999.250000  -999.250000 1.7859791517  -999.250000 1.6408798695 1.6408798695
 906.38348389  -999.250000 17.697999954  -999.250000  -999.250000  -999.250000 104.16301727 165.68298340 1.7730000019 43.835002899 1.5658990145 1.5658990145
 906.53588867  -999.250000 17.753999710  -999.250000  -999.250000  -999.250000 102.92747498 132.18292236 1.7730000019 43.834999084 1.5030480623 1.5030480623
 906.68829346  -999.250000 17.413000107  -999.250000  -999.250000  -999.250000 105.90602112 135.44331360 1.7729567289 43.834999084 1.5331505537 1.5331505537
 906.84069824  -999.250000 17.108999252  -999.250000  -999.250000  -999.250000 104.56516266 139.46055603 1.7459615469 43.834999084 1.6271153688 1.6271153688
 906.99310303  -999.250000 17.059000015  -999.250000  -999.250000  -999.250000 102.27866364 142.17166138 1.7219871283 43.833999634 1.6990416050 1.6990416050
 907.14544678  -999.250000 17.084999084  -999.250000  -999.250000  -999.250000 102.67120361 143.75482178 1.7139940262 43.676315308 1.7250000238 1.7250000238
 907.29785156  -999.250000 17.066999435  -999.250000  -999.250000  -999.250000 102.16002655 144.10231018 1.7089999914 43.512329102 1.7250000238 1.7250000238
 907.45025635  -999.250000 17.034999847  -999.250000  -999.250000  -999.250000 106.08212280 144.53712463 1.7089819908 43.348327637 1.7249207497 1.7249207497
 907.60266113  -999.250000 16.989000320  -999.250000  -999.250000  -999.250000 108.64886475 145.39028931 1.6939988136 43.212272644 1.6588895321 1.6588895321
 907.75506592  -999.250000 16.974000931  -999.250000  -999.250000  -999.250000 110.50927734 145.87802124 1.6929999590 43.137149811 1.5669903755 1.5669903755
 907.90747070  -999.250000 17.003000259  -999.250000  -999.250000  -999.250000 115.96705627 144.92092896  -999.250000 43.199874878  -999.250000  -999.250000
 908.05987549  -999.250000  -999.250000  -999.250000  -999.250000  -999.250000  -999.250000  -999.250000  -999.250000  -999.250000  -999.250000  -999.250000
 908.21228027  -999.250000 16.923000336  -999.250000  -999.250000  -999.250000  -999.250000  -999.250000 1.6930255890  -999.250000 1.5379551649 1.5379551649
 908.36468506  -999.250000 16.864000320  -999.250000  -999.250000  -999.250000 116.88782501 142.03025818 1.7090256214 43.749378204 1.5100560188 1.5100560188
 908.51708984  -999.250000 16.856000900  -999.250000  -999.250000  -999.250000 118.83309937 139.10185242 1.7251234055 44.348796844 1.5452514887 1.5452514887
 908.66949463  -999.250000 16.899999619  -999.250000  -999.250000  -999.250000 119.47971344 133.45231628 1.8021810055 44.607486725 1.7022098303 1.7022098303
 908.82189941  -999.250000 16.957000732  -999.250000  -999.250000  -999.250000 115.97503662 128.69252014 1.9152002335 44.571071625 1.8331681490 1.8331681490
 908.97430420  -999.250000 17.023000717  -999.250000  -999.250000  -999.250000 111.86957550 143.84266663 2.0400576591 44.534061432 1.9380415678 1.9380415678
 909.12670898  -999.250000 17.080999374  -999.250000  -999.250000  -999.250000 106.34784698 226.70707703 2.0760543346 44.498058319 1.9640400410 1.9640400410
 909.27905273  -999.250000 17.131999969  -999.250000  -999.250000  -999.250000 105.09549713 211.11454773 2.1099998951 44.461071014 1.9889999628 1.9889999628
 909.43145752  -999.250000 17.170999527  -999.250000  -999.250000  -999.250000 101.59102631 130.02662659 2.1099987030 44.416091919 1.9889819622 1.9889819622
 909.58386230  -999.250000 17.195999146  -999.250000  -999.250000  -999.250000 100.90835571 204.50823975 2.1089999676 44.265300751 1.9739110470 1.9739110470
