# LAS format log file from PETREL
# Project units are specified as depth units
#==================================================================
~Version information
VERS.   2.0:
WRAP.   NO:
#==================================================================
~Well
STRT .m      785.37786865 :
STOP .m      3526.7492676 :
STEP .m     0.00000000 :
NULL .        -999.250000 :
COMP.           : COMPANY
WELL.  33/9-11   : WELL
FLD.            : FIELD
LOC.            : LOCATION
SRVC.           : SERVICE COMPANY
DATE.  2018-09-11 14:48:42   : Log Export Date {yyyy-MM-dd HH:mm:ss}
PROV.           : PROVINCE
UWI.   33/9-11   : UNIQUE WELL ID
API.            : API NUMBER
#==================================================================
~Curve
DEPT .m                   : DEPTH
Lithology_geolink ._      : Lithology_geolink
CALI .in                  : CALI
DRHO .g/cm3               : DRHO
NPHI .m3/m3               : NPHI
RHOB .g/cm3               : RHOB
GR .gAPI                  : GR
DTC .us/ft                : DTC
RDEP .ohm.m               : RDEP
SP .mV                    : SP
RSHA .ohm.m               : RSHA
RMED .ohm.m               : RMED
~Parameter
#==================================================================
~Ascii
# ...
 2720.7055664  -999.250000 13.419000626 0.0560000017 0.2918199897 2.4920001030 52.893001556 90.931999207 1.8839999437 46.043998718 2.2769999504 2.2769999504
 2720.8579102  -999.250000 13.427000046 0.0619999990 0.2935499847 2.5120000839 53.317001343 91.849998474 1.8750000000 46.104000092 2.1879999638 2.1879999638
 2721.0104980  -999.250000 13.435000420 0.0399999991 0.3018999994 2.4920001030 52.868999481 92.408996582 1.8710000515 45.715999603 2.1640000343 2.1640000343
 2721.1628418  -999.250000 13.444000244 0.0219999999 0.3075200021 2.4639999866 51.507999420 92.448997498 1.8480000496 45.397998810 2.1019999981 2.1019999981
 2721.3151855  -999.250000 13.453001022 0.0219999999 0.3088800013 2.4590001106 49.828998566 93.476997375 1.8059999943 45.194999695 2.0099999905 2.0099999905
 2721.4675293  -999.250000 13.461000443 0.0309999995 0.3025200069 2.4649999142 50.222000122 94.269996643 1.7630000114 44.923000336 1.9579999447 1.9579999447
 2721.6201172  -999.250000 13.469999313 0.0329999998 0.2988599837 2.4790000916 51.104000092 94.694999695 1.7400000095 44.987998962 1.9539999962 1.9539999962
 2721.7724609  -999.250000 13.475000381 0.0329999998 0.2970000207 2.4760000706 51.740001678 95.285003662 1.7389999628 45.306999207 1.9880000353 1.9880000353
 2721.9248047  -999.250000 13.475999832 0.0260000005 0.2950900197 2.4700000286 52.992000580 95.233001709 1.7350000143 45.569000244 1.9930000305 1.9930000305
 2722.0771484  -999.250000  -999.250000 0.0130000003 0.2882799804 2.4460000992  -999.250000  -999.250000  -999.250000  -999.250000  -999.250000  -999.250000
 2722.2294922  -999.250000 13.475999832 0.0170000009 0.2802700102 2.4379999638 54.029998779 94.999000549 1.7269999981 45.497001648 1.9600000381 1.9600000381
 2722.3820801  -999.250000 13.475999832 0.0320000015 0.2779700160 2.4509999752 54.047000885 95.027000427 1.7300000191 45.266998291 1.9700000286 1.9700000286
 2722.5344238  -999.250000 13.475000381 0.0520000011 0.2882300019 2.4719998837 52.838001251 95.111000061 1.7439999580 45.097999573 2.0090000629 2.0090000629
 2722.6867676  -999.250000 13.475000381 0.0630000010 0.2913399935 2.4909999371 52.208999634 95.279998779 1.7469999790 44.945999146 2.0599999428 2.0599999428
 2722.8391113  -999.250000 13.482000351 0.0630000010 0.2878600061 2.4960000515 52.066001892 94.555000305 1.7350000143 44.872001648 2.1270000935 2.1270000935
 2722.9916992  -999.250000 13.519000053 0.0560000017 0.2836399972 2.4969999790 54.337001801 93.102996826 1.7089999914 45.548000336 2.0950000286 2.0950000286
 2723.1440430  -999.250000 13.529000282 0.0439999998 0.2772099972 2.4820001125 54.840000153 92.903999329 1.7029999495 45.808998108 1.9240000248 1.9240000248
 2723.2963867  -999.250000 13.529000282 0.0320000015 0.2740499973 2.4619998932 54.466999054 94.183998108 1.7009999752 45.804000854 1.8250000477 1.8250000477
 2723.4487305  -999.250000 13.524998665 0.0299999993 0.2791199982 2.4570000172 54.051998138 95.355003357 1.6900000572 45.236999512 1.8359999657 1.8359999657
 2723.6013184  -999.250000 13.522000313 0.0270000007 0.2880499959 2.4639999866 53.993000031 95.316009521 1.6699999571 44.734001160 1.9010000229 1.9010000229
 2723.7536621  -999.250000 13.518000603 0.0179999992 0.2970599830 2.4609999657 53.008998871 94.861000061 1.6510000229 45.098999023 1.9299999475 1.9299999475
 2723.9060059  -999.250000 13.515000343 0.0070000002 0.3011199832 2.4440000057 50.491001129 94.976997375 1.6349999905 45.546001434 1.8849999905 1.8849999905
 2724.0583496  -999.250000 13.515999794 -0.001000000 0.2963500023 2.4360001087 48.026000977 94.833999634 1.6250000000 45.852001190 1.8789999485 1.8789999485
 2724.2106934  -999.250000 13.522000313 -0.003000000 0.2880800068 2.4370000362 48.182998657 95.245002747 1.6230000257 45.662998199 1.9329999685 1.9329999685
 2724.3632813  -999.250000 13.531000137 0.0070000002 0.2829900086 2.4409999847 47.465000153 94.838996887 1.6260000467 45.317001343 1.9769999981 1.9769999981
 2724.5156250  -999.250000 13.539999962 0.0230000000 0.2834900022 2.4500000477 46.377998352 94.783004761 1.6360000372 45.494998932 1.9819999933 1.9819999933
 2724.6679688  -999.250000 13.545001030 0.0350000001 0.2894200087 2.4619998932 47.452999115 94.146003723 1.6460000277 45.629001617 1.9309999943 1.9309999943
 2724.8203125  -999.250000  -999.250000 0.0399999991 0.2976900041 2.4719998837  -999.250000  -999.250000  -999.250000  -999.250000  -999.250000  -999.250000
 2724.9729004  -999.250000 13.541000366 0.0430000015 0.3032500148 2.4809999466 48.981998444 94.643997192 1.6440000534 45.397998810 1.8949999809 1.8949999809
 2725.1252441  -999.250000 13.531998634 0.0390000008 0.3048399985 2.4820001125 49.431999207 94.869003296 1.6399999857 45.030998230 1.9229999781 1.9229999781
 2725.2775879  -999.250000 13.522000313 0.0390000008 0.3055199981 2.4820001125 48.990001678 94.457000732 1.6440000534 44.952999115 1.9720000029 1.9720000029
 2725.4299316  -999.250000 13.513999939 0.0509999990 0.3055000007 2.4920001030 49.082000732 94.458000183 1.6529999971 44.952999115 1.9930000305 1.9930000305
 2725.5825195  -999.250000 13.506999969 0.0540000014 0.3027999997 2.4900000095 51.499000549 94.744003296 1.6749999523 45.094001770 1.9160000086 1.9160000086
 2725.7348633  -999.250000 13.498999596 0.0469999984 0.3016799986 2.4830000401 52.508998871 94.360000610 1.6909999847 45.522998810 1.9240000248 1.9240000248
 2725.8872070  -999.250000 13.486000061 0.0430000015 0.3048900068 2.4800000191 52.277999878 95.082000732 1.7120000124 45.734001160 1.9570000172 1.9570000172
 2726.0395508  -999.250000 13.475000381 0.0480000004 0.3043999970 2.4779999256 50.998001099 95.473999023 1.7220000029 45.624000549 1.9880000353 1.9880000353
 2726.1918945  -999.250000 13.477999687 0.0480000004 0.3003599942 2.4790000916 50.571998596 94.374000549 1.7150000334 45.361000061 2.0020000935 2.0020000935
 2726.3444824  -999.250000 13.491000175 0.0329999998 0.2955600023 2.4719998837 50.868999481 94.327003479 1.7269999981 45.120998383 1.9709999561 1.9709999561
 2726.4968262  -999.250000 13.503999710 0.0289999992 0.2939600050 2.4730000496 50.539001465 94.293998718 1.7680000067 44.722000122 1.9229999781 1.9229999781
 2726.6491699  -999.250000 13.517000198 0.0240000002 0.3024699986 2.4769999981 50.094001770 94.168998718 1.8109999895 44.429000854 1.9349999428 1.9349999428
 2726.8015137  -999.250000 13.545001030 0.0179999992 0.2997599840 2.4949998856 48.706001282 94.017997742 1.8420000076 44.640998840 2.0680000782 2.0680000782
 2726.9541016  -999.250000 13.590999603 0.0120000001 0.2828299999 2.5409998894 47.727001190 91.098999023 1.8400000334 45.145999908 2.3750000000 2.3750000000
 2727.1064453  -999.250000 13.642999649 0.0070000002 0.2753899992 2.5710000992 49.733001709 87.241996765 1.8090000153 45.456001282 2.6960000992 2.6960000992
 2727.2587891  -999.250000 13.687000275 0.0250000004 0.2766399980 2.5850000381 53.115001678 86.165000916 1.7840000391 45.563999176 2.8380000591 2.8380000591
 2727.4111328  -999.250000  -999.250000 0.0619999990 0.2876499891 2.5959999561  -999.250000  -999.250000  -999.250000  -999.250000  -999.250000  -999.250000
 2727.5637207  -999.250000 13.720999718 0.0649999976 0.2960700095 2.5369999409 55.610000610 86.904998779 1.7819999456 45.597000122 2.5720000267 2.5720000267
 2727.7160645  -999.250000 13.751999855 0.0689999983 0.2948800027 2.5160000324 56.426998138 88.637001038 1.7990000248 45.543998718 2.0840001106 2.0840001106
 2727.8684082  -999.250000 13.777999878 0.0590000004 0.2867299914 2.5099999905 55.696998596 91.476005554 1.8129999638 45.125000000 1.9069999456 1.9069999456
 2728.0207520  -999.250000 13.795000076 0.0570000000 0.2899099886 2.4960000515 54.250000000 94.441001892 1.8029999733 44.662998199 1.9379999638 1.9379999638
 2728.1733398  -999.250000 13.805999756 0.0640000030 0.2956300080 2.5120000839 54.605998993 95.397003174 1.7799999714 44.564998627 1.9609999657 1.9609999657
 2728.3256836  -999.250000 13.829999924 0.0509999990 0.2917200029 2.4890000820 55.853000641 94.089996338 1.7869999409 44.522998810 2.0250000954 2.0250000954
