# LAS format log file from PETREL
# Project units are specified as depth units
#==================================================================
~Version information
VERS.   2.0:
WRAP.   NO:
#==================================================================
~Well
STRT .m      785.37786865 :
STOP .m      3526.7492676 :
STEP .m     0.00000000 :
NULL .        -999.250000 :
COMP.           : COMPANY
WELL.  33/9-11   : WELL
FLD.            : FIELD
LOC.            : LOCATION
SRVC.           : SERVICE COMPANY
DATE.  2018-09-11 14:48:42   : Log Export Date {yyyy-MM-dd HH:mm:ss}
PROV.           : PROVINCE
UWI.   33/9-11   : UNIQUE WELL ID
API.            : API NUMBER
#==================================================================
~Curve
DEPT .m                   : DEPTH
Lithology_geolink ._      : Lithology_geolink
CALI .in                  : CALI
DRHO .g/cm3               : DRHO
NPHI .m3/m3               : NPHI
RHOB .g/cm3               : RHOB
GR .gAPI                  : GR
DTC .us/ft                : DTC
RDEP .ohm.m               : RDEP
SP .mV                    : SP
RSHA .ohm.m               : RSHA
RMED .ohm.m               : RMED
~Parameter
#==================================================================
~Ascii
# ...
 2448.6716309  -999.250000 13.560000420 0.0379999988 0.3083243370 2.4230048656 57.654998779 99.703002930 1.9130336046 39.980998993 2.1892158985 2.1892158985
 2448.8239746  -999.250000 13.491999626 0.0380096138 0.3047992289 2.4260177612 57.182998657 98.481002808 1.9340000153 40.127998352 2.3239998817 2.3239998817
 2448.9765625  -999.250000 13.484999657 0.0440352000 0.3043300509 2.4370353222 57.882999420 97.882003784 1.9430159330 39.958999634 2.3990063667 2.3990063667
 2449.1289063  -999.250000 13.557000160 0.0550160259 0.3074786663 2.4480047226 58.162998199 97.589996338 1.9530208111 40.312999725 2.4029200077 2.4029200077
 2449.2812500  -999.250000 13.614000320 0.0649887770 0.3128999472 2.4509840012 57.446998596 96.799011230 1.9660191536 40.831001282 2.3529038429 2.3529038429
 2449.4335938  -999.250000 13.581000328 0.0579759590 0.3191117346 2.4410030842 56.916999817 97.433998108 1.9780000448 40.459999084 2.2929999828 2.2929999828
 2449.5859375  -999.250000  -999.250000 0.0429712012 0.3264332712 2.4429728985  -999.250000  -999.250000  -999.250000  -999.250000  -999.250000  -999.250000
 2449.7385254  -999.250000 13.531000137 0.0250048079 0.3347451389 2.4259841442 55.368000031 98.155998230 1.9880129099 39.909999847 2.2078475952 2.2078475952
 2449.8908691  -999.250000 13.508000374 0.0280096158 0.3441688716 2.4160175323 54.321998596 99.149002075 1.9960032701 40.039001465 2.1130094528 2.1130094528
 2450.0432129  -999.250000 13.512999535 0.0340096168 0.3434492946 2.4270257950 54.769001007 98.808998108 1.9980000257 40.148998260 2.1189999580 2.1189999580
 2450.1955566  -999.250000 13.528000832 0.0399951898 0.3305295408 2.4429953098 54.703998566 99.070999146 1.9900000095 40.015998840 2.2509999275 2.2509999275
 2450.3481445  -999.250000 13.522999763 0.0369520001 0.3177734911 2.4399199486 54.426998138 98.984001160 1.9779535532 39.486000061 2.3659904003 2.3659904003
 2450.5004883  -999.250000 13.486999512 0.0220048074 0.3157468140 2.4149968624 52.436000824 97.789001465 1.9489935637 39.257999420 2.3598847389 2.3598847389
 2450.6528320  -999.250000 13.555001259 0.0250080135 0.3137486279 2.4130144119 53.431999207 97.495002747 1.9450000525 40.028999329 2.2880001068 2.2880001068
 2450.8051758  -999.250000 13.673999786 0.0300016012 0.3066638112 2.4220111370 54.792999268 97.184997559 1.9459999800 40.881000519 2.2420001030 2.2420001030
 2450.9577637  -999.250000 13.723999977 0.0310255997 0.2965357006 2.4290287495 54.729999542 96.688003540 1.9620544910 40.556999207 2.2249934673 2.2249934673
 2451.1101074  -999.250000 13.772999763 0.0390192308 0.2827121317 2.4380369186 53.882999420 97.042999268 1.9960480928 40.102001190 2.2212965488 2.2212965488
 2451.2624512  -999.250000 13.739999771 0.0509887822 0.2715533376 2.4610223770 52.896999359 96.987998962 2.0260305405 40.138999939 2.4067552090 2.4067552090
 2451.4147949  -999.250000 13.574999809 0.0439919867 0.2611557543 2.4750080109 52.027000427 96.647003174 2.0450000763 40.006999969 2.8780000210 2.8780000210
 2451.5673828  -999.250000 13.469999313 0.0390384011 0.2523083389 2.4800384045 51.166000366 91.709007263 2.0450081825 39.882999420 3.1395657063 3.1395657063
 2451.7197266  -999.250000 13.461000443 0.0509967953 0.2611730099 2.4919600487 50.061000824 90.016006470 2.0500447750 40.200000763 2.8683412075 2.8683412075
 2451.8720703  -999.250000 13.486999512 0.0489823706 0.2817624211 2.4669454098 50.777999878 90.402999878 2.0780129433 40.161998749 2.4577343464 2.4577343464
 2452.0244141  -999.250000 13.515000343 0.0379935876 0.2957366407 2.4329841137 53.627998352 90.959999084 2.0859999657 39.759998322 2.2920000553 2.2920000553
 2452.1767578  -999.250000  -999.250000 0.0340080149 0.2998790443 2.4230031967  -999.250000  -999.250000  -999.250000  -999.250000  -999.250000  -999.250000
 2452.3291016  -999.250000 13.536000252 0.0390047990 0.2992765009 2.4249982834  -999.250000  -999.250000 2.0690000057  -999.250000 2.3299999237 2.3299999237
 2452.4814453  -999.250000 13.534000397 0.0419999994 0.2971099913 2.4240000248 57.373905182 97.298591614 2.0559999943 39.738109589 2.3410000801 2.3410000801
 2452.6340332  -999.250000 13.505999565 0.0379855745 0.2959320545 2.4189934731 57.654998779 98.087997437 2.0550000668 40.042999268 2.3129999638 2.3129999638
 2452.7863770  -999.250000 13.496999741 0.0289887805 0.2972295880 2.4149856567 57.071998596 97.730003357 2.0550000668 40.478000641 2.2950000763 2.2950000763
 2452.9387207  -999.250000 13.524000168 0.0219951998 0.3032221198 2.4059758186 56.082588196 97.699050903 2.0550000668 40.532913208 2.3420000076 2.3420000076
 2453.0910645  -999.250000 13.562999725 0.0189999994 0.3107999861 2.3910000324 57.310028076 98.005500793 2.0520000458 39.632446289 2.3759999275 2.3759999275
 2453.2434082  -999.250000 13.538001060 0.0199999996 0.3201600015 2.3900001049 56.415439606 97.995018005 2.0460000038 39.169738770 2.3689999580 2.3689999580
 2453.3959961  -999.250000 13.590000153 0.0189951919 0.3293019831 2.3920142651 55.022998810 97.836997986 2.0390000343 39.108001709 2.4079999924 2.4079999924
 2453.5483398  -999.250000 13.659999847 0.0160032008 0.3305101991 2.4010112286 54.938137054 97.049255371 2.0409998894 39.330642700 2.4500000477 2.4500000477
 2453.7006836  -999.250000 13.612000465 0.0179999992 0.3244100213 2.4079999924 55.885478973 96.799407959 2.0539999008 39.379920959 2.4509999752 2.4509999752
 2453.8530273  -999.250000 13.534000397 0.0130000003 0.3180499971 2.3989999294 56.575893402 97.237297058 2.0659999847 39.616619110 2.4070000648 2.4070000648
 2454.0056152  -999.250000 13.500000000 0.0090032043 0.3173909783 2.3890047073 55.490001678 97.476997375 2.0659999847 40.060001373 2.3900001049 2.3900001049
 2454.1579590  -999.250000 13.500000000 0.0110112177 0.3179939091 2.3920240402 54.090000153 98.240997314 2.0490000248 40.016998291 2.4040000439 2.4040000439
 2454.3103027  -999.250000 13.515999794 0.0179999992 0.3142009377 2.4070272446 54.331611633 97.876586914 2.0320000648 39.406974792 2.4379999638 2.4379999638
 2454.4626465  -999.250000 13.522999763 0.0179999992 0.3085399866 2.4240000248 54.892101288 96.713867188 2.0220000744 39.310153961 2.4519999027 2.4519999027
 2454.6152344  -999.250000 13.518000603 0.0160112195 0.3063565195 2.4259841442 55.460998535 96.175003052 2.0260000229 39.478000641 2.4130001068 2.4130001068
 2454.7675781  -999.250000 13.515999794 0.0230224356 0.3041760325 2.4159934521 55.683998108 96.709999084 2.0350000858 39.462001801 2.3849999905 2.3849999905
 2454.9199219  -999.250000  -999.250000 0.0370111987 0.3017006814 2.4120159149  -999.250000  -999.250000  -999.250000  -999.250000  -999.250000  -999.250000
 2455.0722656  -999.250000 13.524000168 0.0439999998 0.3021200001 2.4219999313  -999.250000  -999.250000 2.0429999828  -999.250000 2.3819999695 2.3819999695
 2455.2246094  -999.250000 13.536999702 0.0430000015 0.2977699935 2.4240000248 55.179916382 98.091979980 2.0499999523 39.171344757 2.3819999695 2.3819999695
 2455.3771973  -999.250000 13.517000198 0.0359807685 0.2943197787 2.4169776440 57.939998627 98.603004456 2.0529999733 39.132999420 2.3800001144 2.3800001144
 2455.5295410  -999.250000 13.466999054 0.0239984002 0.3004181981 2.4029953480 59.474540710 98.946441650 2.0529999733 39.210872650 2.3589999676 2.3589999676
 2455.6818848  -999.250000 13.435000420 0.0230000000 0.3055299819 2.4000000954 59.969211578 99.103744507 2.0840001106 40.239349365 2.3819999695 2.3819999695
 2455.8342285  -999.250000 13.430000305 0.0280000009 0.3026300073 2.4100000858 60.250549316 97.987792969 2.1029999256 40.467636108 2.5139999390 2.5139999390
 2455.9868164  -999.250000 13.446001053 0.0300112180 0.2967918813 2.4210207462 59.334999084 97.432998657 2.1029999256 39.863998413 2.6119999886 2.6119999886
 2456.1391602  -999.250000 13.456001282 0.0370144248 0.2917222083 2.4340143204 57.548000336 95.842002869 2.0820000172 39.138000488 2.6319999695 2.6319999695
 2456.2915039  -999.250000 13.435000420 0.0459952019 0.2930939198 2.4429841042 56.867092133 95.617355347 2.0529999733 39.068111420 2.4839999676 2.4839999676
