# LAS format log file from PETREL
# Project units are specified as depth units
#==================================================================
~Version information
VERS.   2.0:
WRAP.   NO:
#==================================================================
~Well
STRT .m      457.60995483 :
STOP .m      3127.1992188 :
STEP .m     0.00000000 :
NULL .        -999.250000 :
COMP.           : COMPANY
WELL.  33/9-1   : WELL
FLD.            : FIELD
LOC.            : LOCATION
SRVC.           : SERVICE COMPANY
DATE.  2018-09-11 14:48:42   : Log Export Date {yyyy-MM-dd HH:mm:ss}
PROV.           : PROVINCE
UWI.   33/9-1   : UNIQUE WELL ID
API.            : API NUMBER
#==================================================================
~Curve
DEPT .m                   : DEPTH
Lithology_geolink ._      : Lithology_geolink
CALI .in                  : CALI
BS .in                    : BS
DRHO .g/cm3               : DRHO
NPHI .m3/m3               : NPHI
RHOB .g/cm3               : RHOB
GR .gAPI                  : GR
DTC .us/ft                : DTC
RDEP .ohm.m               : RDEP
SP .mV                    : SP
RSHA .ohm.m               : RSHA
RMED .ohm.m               : RMED
~Parameter
#==================================================================
~Ascii
# ...
 1525.6285400  -999.250000 12.765000343  -999.250000 -0.115000002 0.5704402924 1.9260040522 29.667737961 140.11000061 1.2710056305 57.297008514 0.7359983921 0.7359983921
 1525.7810059  -999.250000 12.751999855  -999.250000 -0.109999999 0.5768396258 1.9389582872 29.341543198 140.16342163 1.5828012228 57.305694580 0.7339984179 0.7339984179
 1525.9333496  -999.250000 12.736000061  -999.250000 -0.108000003 0.5619499087 1.9499560595 28.433593750 161.98350525 1.2102305889 57.114269257 0.7330039740 0.7330039740
 1526.0856934  -999.250000 12.733999252  -999.250000 -0.112000003 0.5484341383 1.9470120668 29.174413681 188.41078186 1.2819374800 56.199249268 0.7380071878 0.7380071878
 1526.2381592  -999.250000 12.775000572  -999.250000 -0.115999997 0.5224242806 1.9440120459 29.690105438 153.44667053 1.2549816370 55.262752533 0.7470048070 0.7470048070
 1526.3905029  -999.250000 12.866000175  -999.250000 -0.119999997 0.5019718409 1.9400160313 29.821935654 203.66114807 0.9388293624 54.952159882 0.7530048490 0.7530048490
 1526.5429688  -999.250000 12.831000328  -999.250000 -0.123999998 0.5144892931 1.9380079508 29.741827011 172.59114075 1.2825837135 55.152484894 0.7589951754 0.7589951754
 1526.6953125  -999.250000 12.624999046  -999.250000 -0.123000003 0.5287328959 1.9399920702 29.524635315 168.46656799 1.1530600786 55.757011414 0.7529911995 0.7529911995
 1526.8477783  -999.250000 12.461999893  -999.250000 -0.123000003 0.5377241373 1.9340239763 29.070173264 155.38839722 1.1779519320 55.771007538 0.7419887781 0.7419887781
 1527.0001221  -999.250000 12.439999580  -999.250000 -0.129999995 0.5295431018 1.9160721302 30.535058975 144.67181396 1.1630456448 55.780086517 0.7279839516 0.7279839516
 1527.1525879  -999.250000 12.381999969  -999.250000 -0.134000003 0.5252670646 1.9010601044 33.104461670 167.41831970 1.1834764481 55.890087128 0.7079944015 0.7079944015
 1527.3049316  -999.250000 12.300000191  -999.250000 -0.135000005 0.5371421576 1.9029920101 34.925544739 168.14910889 1.6419134140 55.998336792 0.7009943724 0.7009943724
 1527.4573975  -999.250000 12.215000153  -999.250000 -0.130999997 0.5446300507 1.9089760780 34.357852936 169.86831665 1.1909422874 56.418823242 0.6940016150 0.6940016150
 1527.6097412  -999.250000 12.189000130  -999.250000 -0.128000006 0.5267420411 1.9060120583 33.017276764 174.34446716 1.1730992794 56.932075500 0.6949983835 0.6949983835
 1527.7622070  -999.250000 12.197999954  -999.250000 -0.126000002 0.4999658465 1.9060000181 32.107776642 182.28970337 1.2038301229 57.026016235 0.6930016279 0.6930016279
 1527.9145508  -999.250000 12.248999596  -999.250000 -0.123000003 0.4939936697 1.9239280224 28.229715347 188.37208557 1.1509679556 57.035007477 0.6940007806 0.6940007806
 1528.0670166  -999.250000 12.343000412  -999.250000 -0.115999997 0.5135370493 1.9359614849 30.369392395 173.73588562 1.1408141851 57.042671204 0.6950032115 0.6950032115
 1528.2193604  -999.250000 12.362001419  -999.250000 -0.111000001 0.5114685893 1.9529318810 31.238286972 163.47210693 1.0823178291 56.213386536 0.6970080137 0.6970080137
 1528.3717041  -999.250000 12.290999413  -999.250000 -0.107000001 0.5091990829 1.9679399729 31.596845627 174.39367676 0.8701370358 55.449020386 0.7070080042 0.7070080042
 1528.5241699  -999.250000 12.251999855  -999.250000 -0.109004803 0.5124468803 1.9919039011 33.901897430 171.34887695 0.9271376729 55.472194672 0.7170200348 0.7170200348
 1528.6765137  -999.250000 12.305999756  -999.250000 -0.115008011 0.5258461833 2.0159039497 33.771125793 169.47094727 0.9710793495 55.716476440 0.7420127988 0.7420127988
 1528.8289795  -999.250000 12.392000198  -999.250000 -0.125008821 0.5219857097 1.9980720282 30.184850693 181.90621948 1.4415460825 56.310428619 0.7580032349 0.7580032349
 1528.9813232  -999.250000 12.637999535  -999.250000 -0.135991201 0.5467602611 1.9780801535 28.750448227 184.19456482 8.4538745880 56.844272614 0.7619976401 0.7619976401
 1529.1337891  -999.250000 13.409999847  -999.250000 -0.125004008 0.5767099857 1.9580800533 28.061769485 201.78730774 6.3251457214 57.183944702 0.7589944005 0.7589944005
 1529.2861328  -999.250000 13.558999062  -999.250000 -0.129998386 0.5807542205 1.9400721788 27.774255753 179.45259094 5.7368726730 57.118007660 0.7519975901 0.7519975901
 1529.4385986  -999.250000 13.192000389  -999.250000 -0.127990395 0.5686486959 1.9449800253 26.845050812 169.76911926 1.1213204861 57.126266479 0.7489759922 0.7489759922
 1529.5909424  -999.250000 13.147000313  -999.250000 -0.122004010 0.5554827452 1.9459959269 25.630239487 179.11132813 1.8420521021 56.669361115 0.7339992523 0.7339992523
 1529.7434082  -999.250000 13.402999878  -999.250000 -0.126987189 0.5423820019 1.9330416918 25.931900024 170.53387451 1.5468622446 55.874450684 0.7329999804 0.7329999804
 1529.8957520  -999.250000 13.357000351  -999.250000 -0.118995994 0.5291231275 1.9409679174 27.116910934 182.27072144 1.5041184425 56.155166626 0.7329935431 0.7329935431
 1530.0482178  -999.250000 13.095001221  -999.250000 -0.113988794 0.5289703012 1.9469808340 28.254966736 169.74989319 1.5384680033 56.365032196 0.7249696255 0.7249696255
 1530.2005615  -999.250000 12.777000427  -999.250000 -0.107004009 0.5426450372 1.9519799948 28.857810974 175.29866028 0.7543562651 57.008975983 0.7059991956 0.7059991956
 1530.3529053  -999.250000 12.597000122  -999.250000 -0.112004004 0.5562056899 1.9569799900 28.621284485 170.51113892 1.8000119925 56.981334686 0.7049999833 0.7049999833
 1530.5053711  -999.250000 12.404999733  -999.250000 -0.117005609 0.5649849176 1.9639719725 27.727949142 164.34626770 2.2157661915 56.153877258 0.7049999833 0.7049999833
 1530.6577148  -999.250000 12.269000053  -999.250000 -0.123992793 0.5590141416 1.9530440569 27.663059235 165.36772156 0.8984423280 56.000621796 0.7050119638 0.7050119638
 1530.8101807  -999.250000 12.416000366  -999.250000 -0.114993595 0.5371079445 1.9629600048 27.737419128 167.32446289 1.0851289034 55.530635834 0.7200016379 0.7200016379
 1530.9625244  -999.250000 12.722000122  -999.250000 -0.107003205 0.5148491859 1.9749519825 28.259359360 167.46629333 2.0563557148 55.079025269 0.7220056057 0.7220056057
 1531.1149902  -999.250000 13.262999535  -999.250000 -0.111006409 0.4993917644 1.9730080366 27.457086563 166.76150513 0.9667469859 55.114456177 0.7289935350 0.7289935350
 1531.2673340  -999.250000 12.744999886  -999.250000 -0.119005613 0.5107142329 1.9560680389 25.071603775 169.74450684 3.3838198185 55.684089661 0.7209895849 0.7209895849
 1531.4197998  -999.250000 12.888999939  -999.250000 -0.125983983 0.5210785270 1.9629720449 25.827831268 179.90113831 5.7889566422 57.046337128 0.7079983950 0.7079983950
 1531.5721436  -999.250000 13.126999855  -999.250000 -0.116002403 0.5312592387 1.9689759016 26.970434189 174.92675781 2.6593511105 57.256008148 0.7070136666 0.7070136666
 1531.7246094  -999.250000 12.994999886  -999.250000 -0.119008012 0.5435408354 1.9600360394 27.510978699 161.13885498 1.1512179375 57.264694214 0.7239999771 0.7239999771
 1531.8769531  -999.250000 12.784000397  -999.250000 -0.123992786 0.5434505343 1.9560159445 26.874809265 164.51736450 3.0827069283 57.074008942 0.7239983678 0.7239983678
 1532.0294189  -999.250000 12.750000000  -999.250000 -0.114985593 0.5281890631 1.9669647217 26.635650635 165.56155396 2.3712339401 57.083015442 0.7219887972 0.7219887972
 1532.1817627  -999.250000 12.805998802  -999.250000 -0.106004007 0.5241460204 1.9650080204 25.170703888 164.86369324 3.0619840622 57.091911316 0.7150079608 0.7150079608
 1532.3341064  -999.250000 12.895000458  -999.250000 -0.110998400 0.5378149152 1.9590240717 24.802333832 183.75451660 1.8089832067 56.983322144 0.7250024080 0.7250024080
 1532.4865723  -999.250000 12.937000275  -999.250000 -0.109001599 0.5502502322 1.9570080042 26.468381882 182.25759888 0.5607758164 56.133987427 0.7279983759 0.7279983759
 1532.6389160  -999.250000 12.925999641  -999.250000 -0.111004807 0.5478100181 1.9510240555 28.193830490 165.94981384 1.7346754074 56.120845795 0.7259951830 0.7259951830
 1532.7913818  -999.250000 12.930000305  -999.250000 -0.117009617 0.5640447140 1.9390480518 30.479999542 166.70338440 1.1858197451 55.930007935 0.7200024128 0.7200024128
