# LAS format log file from PETREL
# Project units are specified as depth units
#==================================================================
~Version information
VERS.   2.0:
WRAP.   NO:
#==================================================================
~Well
STRT .m      457.60995483 :
STOP .m      3127.1992188 :
STEP .m     0.00000000 :
NULL .        -999.250000 :
COMP.           : COMPANY
WELL.  33/9-1   : WELL
FLD.            : FIELD
LOC.            : LOCATION
SRVC.           : SERVICE COMPANY
DATE.  2018-09-11 14:48:42   : Log Export Date {yyyy-MM-dd HH:mm:ss}
PROV.           : PROVINCE
UWI.   33/9-1   : UNIQUE WELL ID
API.            : API NUMBER
#==================================================================
~Curve
DEPT .m                   : DEPTH
Lithology_geolink ._      : Lithology_geolink
CALI .in                  : CALI
BS .in                    : BS
DRHO .g/cm3               : DRHO
NPHI .m3/m3               : NPHI
RHOB .g/cm3               : RHOB
GR .gAPI                  : GR
DTC .us/ft                : DTC
RDEP .ohm.m               : RDEP
SP .mV                    : SP
RSHA .ohm.m               : RSHA
RMED .ohm.m               : RMED
~Parameter
#==================================================================
~Ascii
# ...
 1350.0638428  -999.250000 19.250999451  -999.250000  -999.250000  -999.250000  -999.250000 48.498916626 146.99266052 0.8860768676 50.116798401 1.0150008202 1.0150008202
 1350.2163086  -999.250000 18.399000168  -999.250000  -999.250000  -999.250000  -999.250000 48.399681091 149.12344360 0.9100897908 49.864135742 1.0160000324 1.0160000324
 1350.3686523  -999.250000 18.493999481  -999.250000  -999.250000  -999.250000  -999.250000 52.561714172 166.67700195 0.9380865097 49.949268341 1.0160032511 1.0160032511
 1350.5209961  -999.250000 18.556999207  -999.250000  -999.250000  -999.250000  -999.250000 49.709194183 165.99600220 0.9650648832 50.281986237 1.0200127363 1.0200127363
 1350.6734619  -999.250000 18.500999451  -999.250000  -999.250000  -999.250000  -999.250000 44.957977295 140.98631287 0.9920992851 50.263969421 1.0360215902 1.0360215902
 1350.8258057  -999.250000 17.827999115  -999.250000  -999.250000  -999.250000  -999.250000 44.929267883 107.13427734 1.0230865479 50.226871490 1.0630255938 1.0630255938
 1350.9782715  -999.250000 17.336999893  -999.250000  -999.250000  -999.250000  -999.250000 44.014389038 97.362373352 1.0591120720 50.063999176 1.0950256586 1.0950256586
 1351.1306152  -999.250000 17.190999985  -999.250000  -999.250000  -999.250000  -999.250000 40.760112762 118.69515228 1.0940264463 50.063972473 1.1270143986 1.1270143986
 1351.2830811  -999.250000 17.350999832  -999.250000  -999.250000  -999.250000  -999.250000 39.654186249 139.52020264 1.1050000191 50.032978058 1.1449952126 1.1449952126
 1351.4354248  -999.250000 17.219999313  -999.250000  -999.250000  -999.250000  -999.250000 42.383068085 142.39688110 1.1048725843 50.006061554 1.1389712095 1.1389712095
 1351.5878906  -999.250000 17.240999222  -999.250000  -999.250000  -999.250000  -999.250000 46.211463928 148.20329285 1.0517884493 50.082809448 1.1029055119 1.1029055119
 1351.7402344  -999.250000 17.134000778  -999.250000  -999.250000  -999.250000  -999.250000 48.998161316 161.06564331 0.9857918620 49.963901520 1.0439567566 1.0439567566
 1351.8927002  -999.250000 17.500000000  -999.250000  -999.250000  -999.250000  -999.250000 52.943080902 167.49127197 0.9207884669 49.840969086 0.9899359345 0.9899359345
 1352.0450439  -999.250000 18.145999908  -999.250000  -999.250000  -999.250000  -999.250000 53.614860535 167.26170349 0.8548654914 49.822097778 0.9499751329 0.9499751329
 1352.1975098  -999.250000 18.879999161  -999.250000  -999.250000  -999.250000  -999.250000 52.193222046 166.54406738 0.8129166961 49.944683075 0.9189696312 0.9189696312
 1352.3498535  -999.250000 19.715997696  -999.250000  -999.250000  -999.250000  -999.250000 52.329380035 164.99987793 0.7869167328 49.747016907 0.8999879360 0.8999879360
 1352.5021973  -999.250000 20.806997299  -999.250000  -999.250000  -999.250000  -999.250000 49.060409546 161.83941650 0.7609326839 49.763889313 0.8849895597 0.8849895597
 1352.6546631  -999.250000 20.309999466  -999.250000  -999.250000  -999.250000  -999.250000 45.824436188 157.88090515 0.7329647541 49.625015259 0.8719919920 0.8719919920
 1352.8070068  -999.250000 19.827999115  -999.250000  -999.250000  -999.250000  -999.250000 42.624244690 162.81973267 0.7219783664 49.641921997 0.8619999886 0.8619999886
 1352.9594727  -999.250000 19.753000259  -999.250000  -999.250000  -999.250000  -999.250000 39.186626434 158.15551758 0.7129936218 49.545867920 0.8619999886 0.8619999886
 1353.1118164  -999.250000 19.430000305  -999.250000  -999.250000  -999.250000  -999.250000 36.231132507 160.82797241 0.7110000253 49.378986359 0.8619999886 0.8619999886
 1353.2642822  -999.250000 18.841999054  -999.250000  -999.250000  -999.250000  -999.250000 37.648597717 170.75892639 0.7110000253 49.358692169 0.8619911671 0.8619911671
 1353.4166260  -999.250000 18.700000763  -999.250000  -999.250000  -999.250000  -999.250000 42.134986877 165.11978149 0.7110120654 48.974590302 0.8509888053 0.8509888053
 1353.5690918  -999.250000 18.475000381  -999.250000  -999.250000  -999.250000  -999.250000 44.614673615 157.95828247 0.7160160542 48.465839386 0.8369759917 0.8369759917
 1353.7214355  -999.250000 17.993000031  -999.250000  -999.250000  -999.250000  -999.250000 44.407135010 151.50100708 0.7210096121 48.365875244 0.8219912052 0.8219912052
 1353.8739014  -999.250000 18.117000580  -999.250000  -999.250000  -999.250000  -999.250000 40.825870514 147.13517761 0.7239999771 49.454357147 0.8109967709 0.8109967709
 1354.0262451  -999.250000 17.879999161  -999.250000  -999.250000  -999.250000  -999.250000 34.509433746 143.78347778 0.7239999771 49.678989410 0.8090096116 0.8090096116
 1354.1787109  -999.250000 17.742000580  -999.250000  -999.250000  -999.250000  -999.250000 32.548976898 147.64280701 0.7239903808 49.663478851 0.8210543990 0.8210543990
 1354.3310547  -999.250000 17.548000336  -999.250000  -999.250000  -999.250000  -999.250000 28.168861389 140.11904907 0.7209904194 49.336391449 0.8550112247 0.8550112247
 1354.4833984  -999.250000 17.479999542  -999.250000  -999.250000  -999.250000  -999.250000 26.748140335 141.07032776 0.7179879546 48.574840546 0.8690016270 0.8690016270
 1354.6358643  -999.250000 17.658000946  -999.250000  -999.250000  -999.250000  -999.250000 26.925342560 142.04321289 0.7129775882 48.376998901 0.8709999919 0.8709999919
 1354.7882080  -999.250000 17.674999237  -999.250000  -999.250000  -999.250000  -999.250000 27.351892471 143.04762268 0.7059975863 48.378974915 0.8709967732 0.8709967732
 1354.9406738  -999.250000 17.621000290  -999.250000  -999.250000  -999.250000  -999.250000 25.969154358 144.13980103 0.7049999833 48.347183228 0.8669903874 0.8669903874
 1355.0930176  -999.250000 17.562999725  -999.250000  -999.250000  -999.250000  -999.250000 27.409820557 145.01638794 0.7049999833 47.329124451 0.8549951911 0.8549951911
 1355.2454834  -999.250000 17.674999237  -999.250000  -999.250000  -999.250000  -999.250000 28.431596756 145.17369080 0.7049967647 47.484851837 0.8490023613 0.8490023613
 1355.3978271  -999.250000 17.799999237  -999.250000  -999.250000  -999.250000  -999.250000 26.681270599 145.08039856 0.7039927840 47.300071716 0.8520039916 0.8520039916
 1355.5502930  -999.250000 17.820999146  -999.250000  -999.250000  -999.250000  -999.250000 25.771568298 145.24668884 0.7009903789 47.389087677 0.8570095897 0.8570095897
 1355.7026367  -999.250000 17.719999313  -999.250000  -999.250000  -999.250000  -999.250000 25.503175735 145.46585083 0.6979951859 47.443340302 0.8630055785 0.8630055785
 1355.8551025  -999.250000 17.643999100  -999.250000  -999.250000  -999.250000  -999.250000 25.722904205 147.06596375 0.6959903836 47.864891052 0.8700000048 0.8700000048
 1356.0074463  -999.250000 17.690000534  -999.250000  -999.250000  -999.250000  -999.250000 26.286457062 148.92526245 0.6930224299 47.794757843 0.8699992299 0.8699992299
 1356.1599121  -999.250000 17.697000504  -999.250000  -999.250000  -999.250000  -999.250000 25.612638474 150.25346375 0.7000288367 47.497165680 0.8690112233 0.8690112233
 1356.3122559  -999.250000 17.524999619  -999.250000  -999.250000  -999.250000  -999.250000 27.883775711 151.01303101 0.7090288401 47.599025726 0.8760095835 0.8760095835
 1356.4645996  -999.250000 17.791999817  -999.250000  -999.250000  -999.250000  -999.250000 30.096599579 150.08975220 0.7180360556 47.633998871 0.8880119920 0.8880119920
 1356.6170654  -999.250000 17.906999588  -999.250000  -999.250000  -999.250000  -999.250000 29.597835541 150.81375122 0.7331120968 47.633945465 0.9030160308 0.9030160308
 1356.7694092  -999.250000 17.684000015  -999.250000  -999.250000  -999.250000  -999.250000 30.639192581 150.42309570 0.7680841684 47.569103241 0.9230223894 0.9230223894
 1356.9218750  -999.250000 17.709999084  -999.250000  -999.250000  -999.250000  -999.250000 29.629920959 149.20935059 0.8031152487 47.700160980 0.9510223866 0.9510223866
 1357.0742188  -999.250000 17.861000061  -999.250000  -999.250000  -999.250000  -999.250000 25.789205551 146.51054382 0.8390841484 47.899761200 0.9790223837 0.9790223837
 1357.2266846  -999.250000 17.861000061  -999.250000  -999.250000  -999.250000  -999.250000 23.549266815 144.23846436 0.8742914200 47.600219727 1.0070199966 1.0070199966
