# LAS format log file from PETREL
# Project units are specified as depth units
#==================================================================
~Version information
VERS.   2.0:
WRAP.   NO:
#==================================================================
~Well
STRT .m      1740.8350830 :
STOP .m      3359.4750977 :
STEP .m     0.00000000 :
NULL .        -999.250000 :
COMP.           : COMPANY
WELL.  33/9-6   : WELL
FLD.            : FIELD
LOC.            : LOCATION
SRVC.           : SERVICE COMPANY
DATE.  2018-09-11 14:48:43   : Log Export Date {yyyy-MM-dd HH:mm:ss}
PROV.           : PROVINCE
UWI.   33/9-6   : UNIQUE WELL ID
API.            : API NUMBER
#==================================================================
~Curve
DEPT .m                   : DEPTH
Lithology_geolink ._      : Lithology_geolink
CALI .in                  : CALI
DRHO .g/cm3               : DRHO
NPHI .m3/m3               : NPHI
RHOB .g/cm3               : RHOB
GR .gAPI                  : GR
DTC .us/ft                : DTC
RDEP .ohm.m               : RDEP
SP .mV                    : SP
RSHA .ohm.m               : RSHA
RMED .ohm.m               : RMED
~Parameter
#==================================================================
~Ascii
 1740.8350830  -999.250000 12.007999420  -999.250000  -999.250000  -999.250000 36.201789856 129.06732178 1.0700000525 32.142997742 1.0190192461 1.0190192461
 1740.9874268  -999.250000 11.949000359  -999.250000  -999.250000  -999.250000 37.943218231 129.26667786 1.0650000572 32.140964508 1.0310128927 1.0310128927
 1741.1398926  -999.250000 12.045000076  -999.250000 0.6376181245 2.1209559441 40.712787628 130.10041809 1.0590000153 32.098857880 1.0470064878 1.0470064878
 1741.2922363  -999.250000 12.013999939  -999.250000 0.6364154816 2.1319558620 43.076450348 130.98242188 1.0540000200 32.010940552 1.0509999990 1.0509999990
 1741.4447021  -999.250000 11.940000534  -999.250000 0.6307133436 2.1020960808 44.886898041 131.51846313 1.0529999733 31.935997009 1.0509999990 1.0509999990
 1741.5970459  -999.250000 11.892001152  -999.250000 0.6141039133 2.0930359364 46.694561005 131.80087280 1.0559999943 31.934019089 1.0509999990 1.0509999990
 1741.7493896  -999.250000 11.961000443  -999.250000 0.6189978123 2.0949919224 47.395851135 131.65782166 1.0590000153 31.957126617 1.0509903431 1.0509903431
 1741.9018555  -999.250000 12.034999847  -999.250000 0.6287142634 2.0989840031 47.212299347 132.68789673 1.0549999475 32.114124298 1.0389888287 1.0389888287
 1742.0541992  -999.250000 12.131999969  -999.250000 0.6340375543 2.1049759388 47.585880280 135.04197693 1.0399999619 32.271175385 1.0249879360 1.0249879360
 1742.2066650  -999.250000 12.229000092  -999.250000 0.6309736967 2.0860760212 48.687759399 137.51440430 1.0260000229 32.492202759 1.0099920034 1.0099920034
 1742.3590088  -999.250000 12.388999939  -999.250000 0.6230663657 2.0760400295 49.634822845 140.53254700 1.0110000372 32.746131897 0.9999960065 0.9999960065
 1742.5114746  -999.250000 12.598999977  -999.250000 0.6310209632 2.0610601902 49.415725708 143.71208191 0.9929999709 32.915000916 0.9949951768 0.9949951768
 1742.6638184  -999.250000 12.723999023  -999.250000 0.6446959376 2.0470559597 49.071418762 147.55375671 0.9710000157 32.912998199 0.9889568090 0.9889568090
 1742.8162842  -999.250000 12.822999954  -999.250000 0.6145991087 2.0420200825 48.348121643 149.75549316 0.9470000267 32.910999298 0.9349423051 0.9349423051
 1742.9686279  -999.250000 12.913999557  -999.250000 0.6010913849 2.0370199680 46.008125305 152.85763550 0.9279999733 32.909000397 0.8629527092 0.8629527092
 1743.1210938  -999.250000 12.949000359  -999.250000 0.5902864337 2.0220601559 43.668983459 154.91036987 0.9120000005 32.906997681 0.8039615750 0.8039615750
 1743.2734375  -999.250000 12.982000351  -999.250000 0.5880622864 2.0080559254 42.410503387 160.13827515 0.8970000148 32.904998779 0.7800023556 0.7800023556
 1743.4259033  -999.250000 13.016999245  -999.250000 0.5908838511 2.0000257492 41.789196014 161.74478149 0.8849999905 32.903038025 0.7830320001 0.7830320001
 1743.5782471  -999.250000 13.051000595  -999.250000 0.5932537913 1.9950200319 41.288177490 162.22972107 0.8730000257 32.927055359 0.8030256033 0.8030256033
 1743.7307129  -999.250000 13.041000366  -999.250000 0.5855239034 1.9840352535 41.512428284 163.11007690 0.8619999886 33.000114441 0.8350496292 0.8350496292
 1743.8830566  -999.250000 12.949000359  -999.250000 0.5879781842 1.9800159931 42.402542114 165.03672791 0.8579999804 33.071914673 0.8659992218 0.8659992218
 1744.0354004  -999.250000 12.814000130  -999.250000 0.5982049704 1.9740240574 43.080001831 168.44224548 0.8619999886 32.965850830 0.8649823666 0.8649823666
 1744.1878662  -999.250000 12.694000244  -999.250000 0.6169117689 1.9720079899 43.077495575 171.25254822 0.8679999709 32.780056000 0.8429767489 0.8429767489
 1744.3402100  -999.250000 12.727001190  -999.250000 0.6316040158 1.9889318943 42.448547363 173.18185425 0.8730000257 32.851238251 0.8139967918 0.8139967918
 1744.4926758  -999.250000 12.711999893  -999.250000 0.6365824342 1.9820280075 41.881999969 172.99093628 0.8859999776 33.147235870 0.8100184202 0.8100184202
 1744.6450195  -999.250000 12.692000389  -999.250000 0.6396553516 1.9869799614 41.879966736 166.66670227 0.8899999857 33.443031311 0.8330247998 0.8330247998
 1744.7974854  -999.250000 12.683000565  -999.250000 0.6338589191 2.0288319588 41.836742401 165.05232239 0.8880000114 33.479980469 0.8640128374 0.8640128374
 1744.9498291  -999.250000 12.682000160  -999.250000 0.6325484514 2.0787997246 41.510292053 166.70359802 0.8790000081 33.456920624 0.8799863458 0.8799863458
 1745.1022949  -999.250000 12.713000298  -999.250000 0.6305695772 2.1158518791 40.621822357 169.95373535 0.8659999967 33.355834961 0.8629022837 0.8629022837
 1745.2546387  -999.250000 12.751999855  -999.250000 0.6053708792 2.1269559860 39.262508392 174.15719604 0.8529999852 33.253921509 0.8019551039 0.8019551039
 1745.4071045  -999.250000 12.680999756  -999.250000 0.6064838767 2.1220159531 38.651454926 178.13442993 0.8399999738 33.151931763 0.7459359169 0.7459359169
 1745.5594482  -999.250000 12.605999947  -999.250000 0.6151497960 2.0662240982 39.558834076 180.27742004 0.8289999962 33.109130859 0.7059999704 0.7059999704
 1745.7119141  -999.250000 12.496000290  -999.250000 0.6397917271 1.9603397846 40.599273682 180.81455994 0.8180000186 33.272258759 0.7060496211 0.7060496211
 1745.8642578  -999.250000 12.444001198  -999.250000 0.6408548951 1.8574123383 39.520210266 181.80203247 0.8069999814 33.434127808 0.7370160222 0.7370160222
 1746.0166016  -999.250000 12.425999641  -999.250000 0.6220610142 1.8321001530 38.535369873 185.59996033 0.8059999943 33.597129822 0.7569864392 0.7569864392
 1746.1690674  -999.250000 12.409000397  -999.250000 0.6233346462 1.8459439278 37.747428894 188.03131104 0.8080000281 33.760013580 0.7399920225 0.7399920225
 1746.3214111  -999.250000 12.388999939  -999.250000 0.6416544318 1.8629319668 37.035438538 190.90432739 0.8100000024 33.776840210 0.7299944162 0.7299944162
 1746.4738770  -999.250000 12.362999916  -999.250000 0.6596635580 1.8699719906 36.334747314 192.55712891 0.8080000281 33.575847626 0.7229951620 0.7229951620
 1746.6262207  -999.250000 12.342000961  -999.250000 0.6766079664 1.8879278898 34.775196075 193.99327087 0.8000000119 33.385864258 0.7169944048 0.7169944048
 1746.7786865  -999.250000 12.342000961  -999.250000 0.6865239143 1.9168839455 33.772441864 195.57635498 0.7919999957 33.212879181 0.7099879384 0.7099879384
 1746.9310303  -999.250000 12.343000412  -999.250000 0.6914575696 1.9687916040 33.079338074 196.01367188 0.7889999747 33.060058594 0.6949855685 0.6949855685
 1747.0834961  -999.250000 12.388999939  -999.250000 0.6883419752 2.0178036690 33.505809784 196.85919189 0.7889999747 33.133113861 0.6769823432 0.6769823432
 1747.2358398  -999.250000 12.434000969  -999.250000 0.6646347046 2.0618238449 34.635845184 197.60455322 0.7889999747 33.205036163 0.6660007834 0.6660007834
 1747.3883057  -999.250000 12.427000999  -999.250000 0.6580633521 2.1507148743 36.938491821 197.05389404 0.7889999747 33.247081757 0.6670256257 0.6670256257
 1747.5406494  -999.250000 12.430998802  -999.250000 0.6352266073 2.2655396461 37.867839813 196.37855530 0.7919999957 33.296157837 0.6830160618 0.6830160618
 1747.6931152  -999.250000 12.439000130  -999.250000 0.6310158968 2.2849392891 37.665931702 195.83442688 0.7969999909 33.493316650 0.7030352354 0.7030352354
 1747.8454590  -999.250000 12.454001427  -999.250000 0.6534026861 2.2680678368 36.998977661 195.47531128 0.8019999862 33.690128326 0.7250007987 0.7250007987
 1747.9978027  -999.250000 12.480999947  -999.250000 0.6568368077 2.2012684345 35.725040436 195.88049316 0.7889999747 33.854057312 0.7259967923 0.7259967923
 1748.1502686  -999.250000 12.463000298  -999.250000 0.6529014111 2.1043884754 34.522384644 196.48326111 0.7749999762 33.926055908 0.7219911814 0.7219911814
 1748.3026123  -999.250000 12.454001427  -999.250000 0.6547207832 2.0312924385 33.756778717 196.78585815 0.7649999857 33.999076843 0.7109888196 0.7109888196
 1748.4550781  -999.250000 12.479000092  -999.250000 0.6557287574 2.0240280628 33.482543945 196.60501099 0.7509999871 34.092082977 0.6969767809 0.6969767809
