# LAS format log file from PETREL
# Project units are specified as depth units
#==================================================================
~Version information
VERS.   2.0:
WRAP.   NO:
#==================================================================
~Well
STRT .m      457.60995483 :
STOP .m      3127.1992188 :
STEP .m     0.00000000 :
NULL .        -999.250000 :
COMP.           : COMPANY
WELL.  33/9-1   : WELL
FLD.            : FIELD
LOC.            : LOCATION
SRVC.           : SERVICE COMPANY
DATE.  2018-09-11 14:48:42   : Log Export Date {yyyy-MM-dd HH:mm:ss}
PROV.           : PROVINCE
UWI.   33/9-1   : UNIQUE WELL ID
API.            : API NUMBER
#==================================================================
~Curve
DEPT .m                   : DEPTH
Lithology_geolink ._      : Lithology_geolink
CALI .in                  : CALI
BS .in                    : BS
DRHO .g/cm3               : DRHO
NPHI .m3/m3               : NPHI
RHOB .g/cm3               : RHOB
GR .gAPI                  : GR
DTC .us/ft                : DTC
RDEP .ohm.m               : RDEP
SP .mV                    : SP
RSHA .ohm.m               : RSHA
RMED .ohm.m               : RMED
~Parameter
#==================================================================
~Ascii
# ...
 3120.3410645  -999.250000 8.4139995575 8.5000000000  -999.250000  -999.250000  -999.250000 0.2569999993 108.39399719 1.8619999886 87.255996704 2.5678496361 2.5678496361
 3120.4936523  -999.250000 8.2069997787 8.5000000000  -999.250000  -999.250000  -999.250000 0.2489999980 108.33499146 1.8609999418 87.382003784 2.5689983368 2.5689983368
 3120.6459961  -999.250000 8.1319999695 8.5000000000  -999.250000  -999.250000  -999.250000 0.2409999967 108.31900024 1.8589999676 88.936996460 2.6578574181 2.6578574181
 3120.7983398  -999.250000 8.1319999695 8.5000000000  -999.250000  -999.250000  -999.250000 0.2329999954 108.31999969 1.8580000401 90.393997192 2.9944598675 2.9944598675
 3120.9506836  -999.250000 8.1319999695 8.5000000000  -999.250000  -999.250000  -999.250000 0.2249999940 108.31999969 1.8569999933 88.611000061 3.3967103958 3.3967103958
 3121.1032715  -999.250000 8.1239995956 8.5000000000  -999.250000  -999.250000  -999.250000 0.2169999927 108.31999969 1.8559999466 87.927001953 3.2182884216 3.2182884216
 3121.2556152  -999.250000 8.1160001755 8.5000000000  -999.250000  -999.250000  -999.250000 0.2099999934 108.32099915 1.8550000191 87.647003174 2.9873702526 2.9873702526
 3121.4079590  -999.250000 8.1129999161 8.5000000000  -999.250000  -999.250000  -999.250000 0.2020000070 108.37699890 1.8539999723 88.944000244 2.8921523094 2.8921523094
 3121.5603027  -999.250000 8.1129999161 8.5000000000  -999.250000  -999.250000  -999.250000 0.1940000057 108.45700073 1.8530000448 88.009002686 2.8232207298 2.8232207298
 3121.7128906  -999.250000 8.1129999161 8.5000000000  -999.250000  -999.250000  -999.250000 0.1860000044 108.50800323 1.8519999981 88.515998840 2.7630960941 2.7630960941
 3121.8652344  -999.250000 8.1129999161 8.5000000000  -999.250000  -999.250000  -999.250000 0.1780000031 108.44200134 1.8509999514 88.902000427 2.7430319786 2.7430319786
 3122.0175781  -999.250000 8.1129999161 8.5000000000  -999.250000  -999.250000  -999.250000 0.1689999998 108.38400269 1.8489999771 88.058998108 2.7230319977 2.7230319977
 3122.1699219  -999.250000 8.1199998856 8.5000000000  -999.250000  -999.250000  -999.250000 0.1449999958 108.33100128 1.8480000496 88.359001160 2.7160112858 2.7160112858
 3122.3222656  -999.250000 8.1280002594 8.5000000000  -999.250000  -999.250000  -999.250000 0.1199999973 108.32299805 1.8480000496 89.700996399 2.7150030136 2.7150030136
 3122.4748535  -999.250000 8.1339998245 8.5000000000  -999.250000  -999.250000  -999.250000 0.0960000008 108.32299805 1.8480000496 88.267997742 2.7130031586 2.7130031586
 3122.6271973  -999.250000 8.1339998245 8.5000000000  -999.250000  -999.250000  -999.250000 0.0710000023 108.32299805 1.8480000496 88.859001160 2.7120015621 2.7120015621
 3122.7795410  -999.250000 8.1339998245 8.5000000000  -999.250000  -999.250000  -999.250000 0.0469999984 108.26999664 1.8480000496 87.811996460 2.7110016346 2.7110016346
 3122.9318848  -999.250000 8.1339998245 8.5000000000  -999.250000  -999.250000  -999.250000 0.0219999999 108.22399902 1.8480000496 87.976997375 2.7090065479 2.7090065479
 3123.0844727  -999.250000 8.1350002289 8.5000000000  -999.250000  -999.250000  -999.250000 -0.002000000 108.22499847 1.8489999771 89.779998779 2.7080016136 2.7080016136
 3123.2368164  -999.250000 8.1370000839 8.5000000000  -999.250000  -999.250000  -999.250000 0.0030000000 108.22499847 1.8489999771 89.643997192 2.7060031891 2.7060031891
 3123.3891602  -999.250000 8.1420001984 8.5000000000  -999.250000  -999.250000  -999.250000 0.0350000001 108.22499847 1.8489999771 88.139999390 2.7050015926 2.7050015926
 3123.5415039  -999.250000 8.1470003128 8.5000000000  -999.250000  -999.250000  -999.250000 0.0670000017 108.25099945 1.8489999771 88.073997498 2.7030065060 2.7030065060
 3123.6940918  -999.250000 8.1529998779 8.5000000000  -999.250000  -999.250000  -999.250000 0.0989999995 108.32599640 1.8489999771 90.008003235 2.7020015717 2.7020015717
 3123.8464355  -999.250000 8.1549997330 8.5000000000  -999.250000  -999.250000  -999.250000 0.1319999993 108.32599640 1.8500000238 88.567001343 2.7000031471 2.7000031471
 3123.9987793  -999.250000 8.1549997330 8.5000000000  -999.250000  -999.250000  -999.250000 0.1640000045 108.16899109 1.8500000238 88.512001038 2.6990015507 2.6990015507
 3124.1511230  -999.250000 8.1560001373 8.5000000000  -999.250000  -999.250000  -999.250000 0.1959999949 108.15200043 1.8500000238 88.523002625 2.6980016232 2.6980016232
 3124.3034668  -999.250000 8.1560001373 8.5000000000  -999.250000  -999.250000  -999.250000 0.2280000001 108.18399811 1.8500000238 88.138000488 2.6970031261 2.6970031261
 3124.4560547  -999.250000 8.1560001373 8.5000000000  -999.250000  -999.250000  -999.250000 0.2610000074 108.21499634 1.8509999514 86.750000000 2.6979982853 2.6979982853
 3124.6083984  -999.250000 8.1560001373 8.5000000000  -999.250000  -999.250000  -999.250000 0.2930000126 108.26800537 1.8509999514 88.445999146 2.6979999542 2.6979999542
 3124.7607422  -999.250000 8.1560001373 8.5000000000  -999.250000  -999.250000  -999.250000 0.3249999881 108.31900024 1.8509999514 89.790000916 2.6979999542 2.6979999542
 3124.9130859  -999.250000 8.1560001373 8.5000000000  -999.250000  -999.250000  -999.250000 0.3569999933 108.23500061 1.8519999981 90.180999756 2.6989967823 2.6989967823
 3125.0656738  -999.250000 8.1569995880 8.5000000000  -999.250000  -999.250000  -999.250000 0.3889999986 108.22899628 1.8530000448 87.905998230 2.6989998817 2.6989998817
 3125.2180176  -999.250000 8.1490001678 8.5000000000  -999.250000  -999.250000  -999.250000 0.3939999938 108.22899628 1.8550000191 87.139999390 2.6989998817 2.6989998817
 3125.3703613  -999.250000 8.1389999390 8.5000000000  -999.250000  -999.250000  -999.250000 0.3379999995 108.23400116 1.8559999466 89.279998779 2.6989998817 2.6989998817
 3125.5227051  -999.250000 8.1370000839 8.5000000000  -999.250000  -999.250000  -999.250000 0.2820000052 108.24198914 1.8569999933 89.753997803 2.6999969482 2.6999969482
 3125.6752930  -999.250000 8.1370000839 8.5000000000  -999.250000  -999.250000  -999.250000 0.2249999940 108.25000000 1.8580000401 87.577003479 2.7000000477 2.7000000477
 3125.8276367  -999.250000 8.1370000839 8.5000000000  -999.250000  -999.250000  -999.250000 0.1689999998 108.25800323 1.8589999676 88.878997803 2.7000000477 2.7000000477
 3125.9799805  -999.250000 8.1409997940  -999.250000  -999.250000  -999.250000  -999.250000 0.1129999980 108.26599884 1.8600000143 88.560997009 2.7009983063 2.7009983063
 3126.1323242  -999.250000 8.1490001678  -999.250000  -999.250000  -999.250000  -999.250000 0.0570000000 108.27400208 1.8619999886 89.143997192 2.7009999752 2.7009999752
 3126.2846680  -999.250000 8.1569995880  -999.250000  -999.250000  -999.250000  -999.250000 0.0270000007 108.28199768 1.8630000353 89.344001770 2.7009999752 2.7009999752
 3126.4372559  -999.250000 8.1579999924  -999.250000  -999.250000  -999.250000  -999.250000 0.0289999992 108.29000092 1.8639999628 88.580001831 2.7009999752 2.7009999752
 3126.5895996  -999.250000 8.1579999924  -999.250000  -999.250000  -999.250000  -999.250000 0.0309999995 108.29799652 1.8650000095 87.815002441 2.6979999542 2.6979999542
 3126.7419434  -999.250000 8.1579999924  -999.250000  -999.250000  -999.250000  -999.250000 0.0329999998 108.30599213 1.8660000563 89.934997559 2.6940000057 2.6940000057
 3126.8942871  -999.250000 8.1579999924  -999.250000  -999.250000  -999.250000  -999.250000 0.0350000001 108.31400299 1.8669999838 88.181999207 2.6909999847 2.6909999847
 3127.0468750  -999.250000 8.1660003662  -999.250000  -999.250000  -999.250000  -999.250000 0.0370000005 108.32199860 1.8689999580 89.083999634 2.6870000362 2.6870000362
 3127.1992188  -999.250000 8.1750001907  -999.250000  -999.250000  -999.250000  -999.250000 0.0390000008 108.33000183 1.8700000048 89.278999329 2.6830000877 2.6830000877
