# LAS format log file from PETREL
# Project units are specified as depth units
#==================================================================
~Version information
VERS.   2.0:
WRAP.   NO:
#==================================================================
~Well
STRT .m      515.45703125 :
STOP .m      3237.9299316 :
STEP .m     0.00000000 :
NULL .        -999.250000 :
COMP.           : COMPANY
WELL.  33/9-17   : WELL
FLD.            : FIELD
LOC.            : LOCATION
SRVC.           : SERVICE COMPANY
DATE.  2018-09-11 14:48:42   : Log Export Date {yyyy-MM-dd HH:mm:ss}
PROV.           : PROVINCE
UWI.   33/9-17   : UNIQUE WELL ID
API.            : API NUMBER
#==================================================================
~Curve
DEPT .m                   : DEPTH
Lithology_geolink ._      : Lithology_geolink
CALI .in                  : CALI
BS .in                    : BS
DRHO .g/cm3               : DRHO
NPHI .m3/m3               : NPHI
RHOB .g/cm3               : RHOB
PEF .b/e                  : PEF
GR .gAPI                  : GR
DTC .us/ft                : DTC
RDEP .ohm.m               : RDEP
SP .mV                    : SP
RSHA .ohm.m               : RSHA
RMED .ohm.m               : RMED
~Parameter
#==================================================================
~Ascii
# ...
 1601.7639160  -999.250000 12.086001396 8.5000000000 -0.028000001 0.4889999926 1.8700000048  -999.250000 67.156089783 176.50000000 0.4903699160 228.62500000 0.4845964909 0.4830000103
 1601.9163818  -999.250000 11.977001190 8.5000000000 -0.028000001 0.4589999914 1.8669999838  -999.250000 70.515327454 176.19999695 0.4914070666 228.75000000 0.4873878360 0.4830000103
 1602.0687256  -999.250000 12.194999695 8.5000000000 -0.029999999 0.4690000117 1.8639999628  -999.250000 75.040786743 177.20001221 0.4892225862 228.50000000 0.4919823706 0.4749999940
 1602.2211914  -999.250000 12.180000305 8.5000000000 -0.030999999 0.4769999981 1.8500000238  -999.250000 76.789154053 176.39999390 0.4838493764 228.37500000 0.4939999878 0.4650000036
 1602.3735352  -999.250000 12.305000305 8.5000000000 -0.029999999 0.4900000095 1.8470000029  -999.250000 74.070762634 177.60000610 0.4780376256 229.12500000 0.4957894385 0.4609999955
 1602.5260010  -999.250000 12.116999626 8.5000000000 -0.033000000 0.4779999852 1.8420000076  -999.250000 71.760215759 177.50000000 0.4760000110 230.00000000 0.4970000088 0.4629999995
 1602.6783447  -999.250000 12.531000137 8.5000000000 -0.027000001 0.4729999900 1.8439999819  -999.250000 71.428192139 177.60000610 0.4760000110 229.87500000 0.4946140945 0.4650000036
 1602.8308105  -999.250000 13.218999863 8.5000000000 -0.023000000 0.4629999995 1.8400000334  -999.250000 71.969711304 177.10000610 0.4742211401 230.00000000 0.4918060899 0.4670000076
 1602.9831543  -999.250000 12.461001396 8.5000000000 -0.020000000 0.4429999888 1.8450000286  -999.250000 70.019287109 176.60000610 0.4741849303 229.50000000 0.4898070395 0.4699999988
 1603.1356201  -999.250000 12.461001396 8.5000000000 -0.022000000 0.4429999888 1.8439999819  -999.250000 66.248924255 175.50000000 0.4749999940 228.87500000 0.4889999926 0.4729999900
 1603.2879639  -999.250000 12.765999794 8.5000000000 -0.021000000 0.4460000098 1.8619999886  -999.250000 65.397865295 175.50000000 0.4779647291 228.62500000 0.4907894433 0.4709999859
 1603.4403076  -999.250000 12.969000816 8.5000000000 -0.020000000 0.4670000076 1.8680000305  -999.250000 66.670166016 173.60000610 0.4841473103 228.75000000 0.4955769181 0.4670000076
 1603.5927734  -999.250000 12.883000374 8.5000000000 -0.021000000 0.4639999866 1.8700000048  -999.250000 66.539207458 173.39999390 0.4887788594 229.25000000 0.5021786690 0.4659999907
 1603.7451172  -999.250000 12.453000069 8.5000000000 -0.021000000 0.4839999974 1.8589999676  -999.250000 65.815826416 172.39999390 0.4894075394 229.75000000 0.5085788369 0.4659999907
 1603.8975830  -999.250000 12.390999794 8.5000000000 -0.022000000 0.4699999988 1.8470000029  -999.250000 64.230705261 173.10000610 0.4907788634 228.87500000 0.5109999776 0.4659999907
 1604.0499268  -999.250000 12.461001396 8.5000000000 -0.022000000 0.4850000143 1.8420000076  -999.250000 63.931015015 173.30000305 0.4925924838 228.37500000 0.5092105865 0.4679999948
 1604.2023926  -999.250000 12.538999557 8.5000000000 -0.028000001 0.4880000055 1.8380000591  -999.250000 65.728355408 173.49998474 0.4941858947 228.25000000 0.5062091351 0.4729999900
 1604.3547363  -999.250000 12.312999725 8.5000000000 -0.029999999 0.4900000095 1.8530000448  -999.250000 69.033630371 172.39999390 0.4973699152 228.87500000 0.5044035316 0.4810000062
 1604.5072021  -999.250000 12.171998978 8.5000000000 -0.028999999 0.4629999995 1.8660000563  -999.250000 72.129539490 171.69999695 0.4995929599 229.12500000 0.5063878298 0.4869999886
 1604.6595459  -999.250000 11.812999725 8.5000000000 -0.022000000 0.4550000131 1.8880000114  -999.250000 71.859878540 171.69999695 0.5029623508 228.87500000 0.5121753216 0.4900000095
 1604.8120117  -999.250000 11.921999931 8.5000000000 -0.025000000 0.4499999881 1.8839999437  -999.250000 71.245155334 172.10000610 0.5055929422 229.25000000 0.5179847479 0.4860000014
 1604.9643555  -999.250000 12.125000000 8.5000000000 -0.024000000 0.4810000062 1.8869999647  -999.250000 70.815490723 171.60000610 0.5042225718 228.37500000 0.5211929679 0.4810000062
 1605.1168213  -999.250000 12.250000954 8.5000000000 -0.027000001 0.4850000143 1.8769999743  -999.250000 69.957847595 172.50000000 0.5024070740 228.00000000 0.5220000148 0.4790000021
 1605.2691650  -999.250000 12.328000069 8.5000000000 -0.033000000 0.5090000033 1.8639999628  -999.250000 67.908172607 173.10000610 0.5014070272 228.25000000 0.5202105641 0.4830000103
 1605.4216309  -999.250000 12.430000305 8.5000000000 -0.037999999 0.5130000114 1.8559999466  -999.250000 66.036819458 174.39999390 0.5015932322 228.87500000 0.5189999938 0.4900000095
 1605.5739746  -999.250000 12.555000305 8.5000000000 -0.035999998 0.5270000100 1.8680000305  -999.250000 66.180213928 174.19999695 0.5061506033 229.25000000 0.5213859081 0.4930000007
 1605.7263184  -999.250000 12.633000374 8.5000000000 -0.026000001 0.5049999952 1.8919999599  -999.250000 66.334899902 173.60000610 0.5143322945 229.50000000 0.5241922736 0.4950000048
 1605.8787842  -999.250000 12.616999626 8.5000000000 -0.016000001 0.5260000229 1.9060000181  -999.250000 65.889762878 174.60000610 0.5215576887 229.00000000 0.5255969763 0.4939999878
 1606.0311279  -999.250000 12.453000069 8.5000000000 -0.016000001 0.5279999971 1.9029999971  -999.250000 66.712425232 175.19999695 0.5269623399 228.62500000 0.5319647789 0.4930000007
 1606.1835938  -999.250000 12.477000237 8.5000000000 -0.013000000 0.5279999971 1.8930000067  -999.250000 66.700767517 174.80000305 0.5313717723 227.50000000 0.5413725972 0.4920000136
 1606.3359375  -999.250000 12.758000374 8.5000000000 -0.013000000 0.5000000000 1.8890000582  -999.250000 67.436126709 174.89999390 0.5347774029 228.25000000 0.5455964804 0.4950000048
 1606.4884033  -999.250000 12.328000069 8.5000000000 -0.021000000 0.4670000076 1.8639999628  -999.250000 67.460472107 175.19999695 0.5365929604 229.00000000 0.5460000038 0.4990000129
 1606.6407471  -999.250000 12.102000237 8.5000000000 -0.027000001 0.5329999924 1.8600000143  -999.250000 66.891929626 174.89999390 0.5316677094 228.37500000 0.5418246388 0.5000000000
 1606.7932129  -999.250000 11.944999695 8.5000000000 -0.024000000 0.5500000119 1.8710000515  -999.250000 64.825096130 175.39997864 0.5214775801 228.50000000 0.5348213315 0.5109999776
 1606.9455566  -999.250000 11.953000069 8.5000000000 -0.028999999 0.5659999847 1.8810000420  -999.250000 60.912536621 174.60000610 0.5128526688 228.25000000 0.5248422623 0.5210000277
 1607.0980225  -999.250000 12.328000069 8.5000000000 -0.029999999 0.4990000129 1.8880000114  -999.250000 60.069786072 173.69999695 0.5070352554 227.75000000 0.5146273971 0.5180000067
 1607.2503662  -999.250000 13.069999695 8.5000000000 -0.028999999 0.5000000000 1.8819999695  -999.250000 62.481273651 173.10000610 0.5032211542 227.37500000 0.5092105865 0.5149999857
 1607.4028320  -999.250000 12.828000069 8.5000000000 -0.027000001 0.4990000129 1.8780000210  -999.250000 65.024459839 172.39999390 0.5002201796 228.12500000 0.5103878379 0.5090000033
 1607.5551758  -999.250000 12.671999931 8.5000000000 -0.028000001 0.5070000291 1.8680000305  -999.250000 66.693351746 172.89997864 0.4966282248 228.62500000 0.5167717934 0.5040000081
 1607.7075195  -999.250000 12.125000000 8.5000000000 -0.022000000 0.4970000088 1.8619999886  -999.250000 68.214653015 172.50000000 0.4914451540 228.62500000 0.5164230466 0.4950000048
 1607.8599854  -999.250000 12.069999695 8.5000000000 -0.014000000 0.5000000000 1.8619999886  -999.250000 69.738952637 172.69999695 0.4854423106 228.25000000 0.5110152364 0.4880000055
 1608.0123291  -999.250000 12.102000237 8.5000000000 -0.014000000 0.4659999907 1.8519999981  -999.250000 67.934288025 172.89997864 0.4788526893 228.00000000 0.5054211617 0.4839999974
 1608.1647949  -999.250000 12.281000137 8.5000000000 -0.011000000 0.4449999928 1.8689999580  -999.250000 64.436882019 172.89997864 0.4712564051 227.25000000 0.4988213181 0.4869999886
 1608.3171387  -999.250000 12.562999725 8.5000000000 -0.008000000 0.4569999874 1.8849999905  -999.250000 63.515113831 172.60000610 0.4679999948 227.50000000 0.4930176139 0.4950000048
