# LAS format log file from PETREL
# Project units are specified as depth units
#==================================================================
~Version information
VERS.   2.0:
WRAP.   NO:
#==================================================================
~Well
STRT .m      515.45703125 :
STOP .m      3237.9299316 :
STEP .m     0.00000000 :
NULL .        -999.250000 :
COMP.           : COMPANY
WELL.  33/9-17   : WELL
FLD.            : FIELD
LOC.            : LOCATION
SRVC.           : SERVICE COMPANY
DATE.  2018-09-11 14:48:42   : Log Export Date {yyyy-MM-dd HH:mm:ss}
PROV.           : PROVINCE
UWI.   33/9-17   : UNIQUE WELL ID
API.            : API NUMBER
#==================================================================
~Curve
DEPT .m                   : DEPTH
Lithology_geolink ._      : Lithology_geolink
CALI .in                  : CALI
BS .in                    : BS
DRHO .g/cm3               : DRHO
NPHI .m3/m3               : NPHI
RHOB .g/cm3               : RHOB
PEF .b/e                  : PEF
GR .gAPI                  : GR
DTC .us/ft                : DTC
RDEP .ohm.m               : RDEP
SP .mV                    : SP
RSHA .ohm.m               : RSHA
RMED .ohm.m               : RMED
~Parameter
#==================================================================
~Ascii
# ...
 2325.9685059  -999.250000 9.0229997635 8.5000000000 -0.011000000 0.3199999928 2.4000000954  -999.250000 108.93069458 107.69998932 1.5461394787 -295.0000000 1.6397932768 1.5529999733
 2326.1210938  -999.250000 9.0229997635 8.5000000000 -0.010000000 0.3059999943 2.3989999294  -999.250000 108.36026001 106.80000305 1.5490000248 -297.5000000 1.6469839811 1.5690000057
 2326.2734375  -999.250000 9.0229997635 8.5000000000 -0.011000000 0.3160000145 2.4110000134  -999.250000 110.12916565 106.69999695 1.5454479456 -298.2500000 1.6557821035 1.5900000334
 2326.4257813  -999.250000 9.0229997635 8.5000000000 -0.007000000 0.3280000091 2.4270000458  -999.250000 112.42321777 106.69999695 1.5364952087 -297.5000000 1.6625865698 1.5889999866
 2326.5781250  -999.250000 9.0229997635 8.5000000000 0.0000000000 0.3569999933 2.4409999847  -999.250000 113.92929077 106.69999695 1.5284519196 -297.2500000 1.6667932272 1.5900000334
 2326.7304688  -999.250000 9.0229997635 8.5000000000 -0.003000000 0.3459999859 2.4279999733  -999.250000 114.18951416 107.59999847 1.5254086256 -296.0000000 1.6679999828 1.5980000496
 2326.8830566  -999.250000 9.0229997635 8.5000000000 -0.006000000 0.3510000110 2.4159998894  -999.250000 114.39588165 107.30000305 1.5261858702 -296.0000000 1.6650111675 1.6039999723
 2327.0354004  -999.250000 9.0229997635 8.5000000000 -0.003000000 0.3330000043 2.4189999104  -999.250000 115.18194580 107.09999847 1.5287759304 -296.7500000 1.6576201916 1.5959999561
 2327.1877441  -999.250000 9.0229997635 8.5000000000 -0.003000000 0.3409999907 2.4260001183  -999.250000 114.72116089 106.69999695 1.5317740440 -296.0000000 1.6510112286 1.5800000429
 2327.3400879  -999.250000 9.0229997635 8.5000000000 -0.011000000 0.3260000050 2.4140000343  -999.250000 112.62783813 106.69999695 1.5335913897 -294.7500000 1.6490000486 1.5750000477
 2327.4926758  -999.250000 9.0229997635 8.5000000000 -0.012000000 0.3319999874 2.4100000858  -999.250000 111.27915192 106.59999847 1.5334070921 -295.5000000 1.6507933140 1.5779999495
 2327.6450195  -999.250000 9.0229997635 8.5000000000 -0.011000000 0.3249999881 2.4079999924  -999.250000 112.68305206 106.90000153 1.5318160057 -296.7500000 1.6543910503 1.5829999447
 2327.7973633  -999.250000 9.0229997635 8.5000000000 -0.010000000 0.3339999914 2.4179999828  -999.250000 116.61508942 106.69999695 1.5292259455 -296.0000000 1.6571955681 1.5870000124
 2327.9497070  -999.250000 9.0229997635 8.5000000000 -0.010000000 0.3379999995 2.4140000343  -999.250000 119.24191284 106.59999847 1.5274085999 -294.0000000 1.6597932577 1.5889999866
 2328.1022949  -999.250000 9.0229997635 8.5000000000 -0.009000000 0.3359999955 2.4089999199  -999.250000 117.72203064 107.09999847 1.5281858444 -291.2500000 1.6621967554 1.5889999866
 2328.2546387  -999.250000 9.0229997635 8.5000000000 -0.006000000 0.3249999881 2.4110000134  -999.250000 112.25129700 107.80000305 1.5331439972 -291.7500000 1.6647932529 1.5920000076
 2328.4069824  -999.250000 9.0229997635 8.5000000000 -0.008000000 0.3179999888 2.4159998894  -999.250000 107.33354950 108.30000305 1.5407308340 -294.2500000 1.6671955585 1.5959999561
 2328.5593262  -999.250000 9.0229997635 8.5000000000 -0.009000000 0.3230000138 2.4140000343  -999.250000 105.84191895 108.90000916 1.5475480556 -294.7500000 1.6691955328 1.5970000029
 2328.7116699  -999.250000 9.0229997635 8.5000000000 -0.007000000 0.3260000050 2.4179999828  -999.250000 106.50460815 108.80000305 1.5535480976 -294.0000000 1.6711935997 1.5970000029
 2328.8642578  -999.250000 9.0229997635 8.5000000000 -0.006000000 0.3339999914 2.4179999828  -999.250000 107.63409424 109.50000000 1.5589647293 -294.5000000 1.6743910313 1.6009999514
 2329.0166016  -999.250000 9.0229997635 8.5000000000 -0.008000000 0.3420000076 2.4289999008  -999.250000 107.54324341 111.10000610 1.5639599562 -294.0000000 1.6795865297 1.6050000191
 2329.1689453  -999.250000 9.0229997635 8.5000000000 -0.005000000 0.3639999926 2.4409999847  -999.250000 106.94515228 112.90000153 1.5677740574 -295.7500000 1.6843910217 1.6080000401
 2329.3212891  -999.250000 9.0229997635 8.5000000000 -0.003000000 0.3770000041 2.4479999542  -999.250000 106.57234192 114.40000153 1.5707740784 -296.2500000 1.6871936321 1.6150000095
 2329.4738770  -999.250000 9.0229997635 8.5000000000 -0.003000000 0.3670000136 2.4330000877  -999.250000 106.95824432 114.69999695 1.5731859207 -293.5000000 1.6862066984 1.6330000162
 2329.6262207  -999.250000 9.0229997635 8.5000000000 -0.003000000 0.3490000069 2.4179999828  -999.250000 108.01171875 112.19999695 1.5751839876 -295.5000000 1.6826089621 1.6360000372
 2329.7785645  -999.250000 9.0229997635 8.5000000000 -0.002000000 0.3160000145 2.4089999199  -999.250000 107.54061890 111.00000000 1.5771826506 -296.5000000 1.6798044443 1.6069999933
 2329.9309082  -999.250000 9.0229997635 8.5000000000 -0.001000000 0.3100000024 2.4230000973  -999.250000 106.44448853 110.40000153 1.5791827440 -297.2500000 1.6795977354 1.5859999657
 2330.0834961  -999.250000 9.0229997635 8.5000000000 -0.003000000 0.3109999895 2.4340000153  -999.250000 106.58093262 107.09999847 1.5776282549 -298.0000000 1.6811968088 1.5970000029
 2330.2358398  -999.250000 9.0780000687 8.5000000000 -0.003000000 0.3280000091 2.4400000572  -999.250000 108.61009216 105.80000305 1.5659359694 -299.0000000 1.6790112257 1.6339999437
 2330.3881836  -999.250000 9.1409997940 8.5000000000 -0.006000000 0.3400000036 2.4289999008  -999.250000 110.18100739 107.00000000 1.5453990698 -282.5000000 1.6632516384 1.6430000067
 2330.5405273  -999.250000 9.1560001373 8.5000000000 -0.006000000 0.3249999881 2.4149999619  -999.250000 111.24390411 107.80000305 1.5253558159 50.437999725 1.6324808598 1.5970000029
 2330.6928711  -999.250000 9.1250000000 8.5000000000 -0.006000000 0.3199999928 2.4179999828  -999.250000 110.97166443 109.00000000 1.5144518614 -281.5000000 1.6042736769 1.5379999876
 2330.8454590  -999.250000 9.1250000000 8.5000000000 -0.008000000 0.3129999936 2.4110000134  -999.250000 108.78880310 108.69999695 1.5114079714 -294.5000000 1.5932067633 1.5110000372
 2330.9978027  -999.250000 9.1020002365 8.5000000000 -0.007000000 0.3129999936 2.4140000343  -999.250000 105.48842621 107.40000153 1.5104086399 -296.2500000 1.5949888229 1.5160000324
 2331.1501465  -999.250000 9.0939998627 8.5000000000 -0.008000000 0.3249999881 2.4059998989  -999.250000 104.25984955 106.40000916 1.5076346397 -296.5000000 1.5999888182 1.5360000134
 2331.3024902  -999.250000 9.1560001373 8.5000000000 -0.011000000 0.3120000064 2.4100000858  -999.250000 106.82730103 106.30000305 1.5048172474 -295.7500000 1.6055808067 1.5429999828
 2331.4550781  -999.250000 9.1949996948 8.5000000000 -0.013000000 0.3210000098 2.4140000343  -999.250000 110.19088745 107.00000000 1.5057787895 -295.2500000 1.6145752668 1.5379999876
 2331.6074219  -999.250000 9.1949996948 8.5000000000 -0.010000000 0.3330000043 2.4119999409  -999.250000 110.49114990 106.90000153 1.5123280287 -295.7500000 1.6315528154 1.5349999666
 2331.7597656  -999.250000 9.1949996948 8.5000000000 -0.013000000 0.3519999981 2.4130001068  -999.250000 107.43914795 107.00000000 1.5219135284 -294.5000000 1.6537483931 1.5629999638
 2331.9121094  -999.250000 9.1949996948 8.5000000000 -0.013000000 0.3540000021 2.4179999828  -999.250000 104.89354706 106.80000305 1.5289567709 -292.5000000 1.6701730490 1.5959999561
 2332.0646973  -999.250000 9.1949996948 8.5000000000 -0.013000000 0.3429999948 2.4289999008  -999.250000 105.72467041 107.30000305 1.5298141241 -292.2500000 1.6714096069 1.6089999676
 2332.2170410  -999.250000 9.1949996948 8.5000000000 -0.010000000 0.3339999914 2.4240000248  -999.250000 108.72959900 107.99999237 1.5260400772 -293.2500000 1.6582404375 1.6019999981
 2332.3693848  -999.250000 9.1949996948 8.5000000000 -0.009000000 0.3179999888 2.4100000858  -999.250000 110.42208099 108.09999847 1.5204519033 -294.0000000 1.6372516155 1.5789999962
 2332.5217285  -999.250000 9.1949996948 8.5000000000 -0.010000000 0.3059999943 2.4000000954  -999.250000 110.68099976 108.50000000 1.5103125572 -293.7500000 1.6148493290 1.5540000200
