# LAS format log file from PETREL
# Project units are specified as depth units
#==================================================================
~Version information
VERS.   2.0:
WRAP.   NO:
#==================================================================
~Well
STRT .m      785.37786865 :
STOP .m      3526.7492676 :
STEP .m     0.00000000 :
NULL .        -999.250000 :
COMP.           : COMPANY
WELL.  33/9-11   : WELL
FLD.            : FIELD
LOC.            : LOCATION
SRVC.           : SERVICE COMPANY
DATE.  2018-09-11 14:48:42   : Log Export Date {yyyy-MM-dd HH:mm:ss}
PROV.           : PROVINCE
UWI.   33/9-11   : UNIQUE WELL ID
API.            : API NUMBER
#==================================================================
~Curve
DEPT .m                   : DEPTH
Lithology_geolink ._      : Lithology_geolink
CALI .in                  : CALI
DRHO .g/cm3               : DRHO
NPHI .m3/m3               : NPHI
RHOB .g/cm3               : RHOB
GR .gAPI                  : GR
DTC .us/ft                : DTC
RDEP .ohm.m               : RDEP
SP .mV                    : SP
RSHA .ohm.m               : RSHA
RMED .ohm.m               : RMED
~Parameter
#==================================================================
~Ascii
# ...
 2588.5749512  -999.250000 13.732001305 0.0360159986 0.3387910128 2.4190413952 52.582000732 105.48100281 1.2660000324 44.361000061 1.5599999428 1.5599999428
 2588.7272949  -999.250000 13.753999710 0.0410048105 0.3422369659 2.4320142269 52.792999268 105.35299683 1.2860000134 44.435001373 1.5650000572 1.5650000572
 2588.8796387  -999.250000 13.826999664 0.0439935885 0.3465835154 2.4409935474 54.471000671 104.91000366 1.3040000200 44.506000519 1.5659999847 1.5659999847
 2589.0319824  -999.250000 13.878000259 0.0399823710 0.3487646282 2.4369742870 55.438999176 105.23600006 1.3179999590 44.391998291 1.5559999943 1.5559999943
 2589.1843262  -999.250000 13.844999313 0.0290080123 0.3454186320 2.4210240841 53.944000244 105.86799622 1.3109999895 44.382999420 1.5479999781 1.5479999781
 2589.3369141  -999.250000 13.803000450 0.0340416022 0.3383277655 2.4360256195 51.257999420 105.77400208 1.2929999828 44.248001099 1.5509999990 1.5509999990
 2589.4892578  -999.250000 13.795999527 0.0470144227 0.3345214427 2.4439969063 50.111000061 105.59999847 1.2810000181 44.080001831 1.5740000010 1.5740000010
 2589.6416016  -999.250000 13.822999954 0.0560016036 0.3354508877 2.4419806004 49.960998535 105.28699493 1.2690000534 44.472999573 1.5820000172 1.5820000172
 2589.7939453  -999.250000  -999.250000 0.0569839738 0.3422581553 2.4300031662  -999.250000  -999.250000  -999.250000  -999.250000  -999.250000  -999.250000
 2589.9465332  -999.250000 13.838999748 0.0469967984 0.3473595083 2.4320063591 49.800998688 105.43598938 1.2500000000 45.330001831 1.5740000010 1.5740000010
 2590.0988770  -999.250000 13.821001053 0.0460032038 0.3503232598 2.4339807034 49.429000854 105.96700287 1.2269999981 45.408000946 1.5279999971 1.5279999971
 2590.2512207  -999.250000 13.826999664 0.0480000004 0.3523319066 2.4219982624 48.464000702 107.09899902 1.2109999657 44.548999786 1.4609999657 1.4609999657
 2590.4035645  -999.250000 13.840999603 0.0479903854 0.3472896218 2.4209887981 47.683998108 107.67700195 1.2039999962 44.115001678 1.4429999590 1.4429999590
 2590.5561523  -999.250000 13.880000114 0.0419423990 0.3470686972 2.4139552116 47.368000031 107.30999756 1.1940000057 44.215000153 1.4470000267 1.4470000267
 2590.7084961  -999.250000 13.869999886 0.0239823721 0.3528878093 2.4000017643 49.460998535 106.48000336 1.1870000362 44.708999634 1.4589999914 1.4589999914
 2590.8608398  -999.250000 13.987000465 0.0130208340 0.3515097499 2.4010384083 50.007999420 106.67699432 1.2029999495 44.816001892 1.4500000477 1.4500000477
 2591.0131836  -999.250000 14.027999878 0.0260160267 0.3513153493 2.4250383377 50.553001404 107.86499786 1.2200000286 44.932998657 1.4559999704 1.4559999704
 2591.1655273  -999.250000 13.920999527 0.0359999985 0.3359581530 2.4490222931 51.109001160 106.73899841 1.2359999418 45.138999939 1.4789999723 1.4789999723
 2591.3181152  -999.250000 13.855999947 0.0359519981 0.3348026574 2.4630768299 51.175998688 106.34700012 1.2530000210 45.062999725 1.4780000448 1.4780000448
 2591.4704590  -999.250000 13.711000443 0.0209567305 0.3356168270 2.4870431423 50.977001190 106.52100372 1.2649999857 45.073001862 1.4759999514 1.4759999514
 2591.6228027  -999.250000 13.737000465 -0.005988782 0.3274076581 2.5140593052 50.256000519 105.99099731 1.2680000067 44.776000977 1.5559999943 1.5559999943
 2591.7751465  -999.250000 13.781999588 0.0010865385 0.3259747624 2.5510241985 49.460998535 102.16899872 1.2669999599 44.527999878 1.6670000553 1.6670000553
 2591.9277344  -999.250000 13.739999771 0.0549967997 0.3413841724 2.5656929016 49.025001526 98.417999268 1.2680000067 44.973999023 1.6430000067 1.6430000067
 2592.0800781  -999.250000 13.887999535 0.0539711565 0.3426733613 2.4698734283 49.558998108 98.106002808 1.2710000277 45.097000122 1.5379999876 1.5379999876
 2592.2324219  -999.250000 14.022999763 0.0359935872 0.3385580778 2.3910081387 50.520999908 98.914001465 1.2769999504 44.866001129 1.4620000124 1.4620000124
 2592.3847656  -999.250000  -999.250000 0.0320064127 0.3498298824 2.3959968090  -999.250000  -999.250000  -999.250000  -999.250000  -999.250000  -999.250000
 2592.5373535  -999.250000 13.975999832 0.0359807983 0.3560017645 2.3940415382 51.250000000 104.17800140 1.2840000391 44.453998566 1.4290000200 1.4290000200
 2592.6896973  -999.250000 13.965000153 0.0299887806 0.3565500081 2.4069569111 51.657001495 106.60600281 1.2769999504 44.034000397 1.4479999542 1.4479999542
 2592.8420410  -999.250000 14.142000198 0.0230096150 0.3503146768 2.3800129890 51.987998962 106.58300018 1.2510000467 44.174999237 1.4750000238 1.4750000238
 2592.9943848  -999.250000 14.185998917 0.0289695505 0.3407622576 2.3879742622 53.191001892 106.94800568 1.2339999676 44.655998230 1.4789999723 1.4789999723
 2593.1467285  -999.250000 14.194000244 0.0100047998 0.3359361589 2.3719856739 54.541000366 106.34100342 1.2380000353 44.861999512 1.4650000334 1.4650000334
 2593.2993164  -999.250000 14.348999977 0.0129983975 0.3397713602 2.3629968166 55.505001068 106.75099945 1.2840000391 45.032001495 1.4910000563 1.4910000563
 2593.4516602  -999.250000 14.246999741 0.0119903851 0.3343888819 2.3610193729 54.540000916 106.59799957 1.2910000086 44.777000427 1.5130000114 1.5130000114
 2593.6040039  -999.250000 14.310000420 0.0060208333 0.3399315476 2.3730430603 53.138999939 105.80599976 1.3009999990 44.208000183 1.5329999924 1.5329999924
 2593.7563477  -999.250000 14.354999542 0.0190240387 0.3471312225 2.4000513554 51.967998505 105.78299713 1.3190000057 44.039001465 1.5750000477 1.5750000477
 2593.9089355  -999.250000 14.295999527 0.0340352021 0.3541261554 2.4320702553 51.673000336 104.38200378 1.3400000334 44.625000000 1.6109999418 1.6109999418
 2594.0612793  -999.250000 14.279000282 0.0450064130 0.3560491204 2.4540064335 51.314998627 103.64299774 1.3539999723 45.462001801 1.6019999981 1.6019999981
 2594.2136230  -999.250000 14.267998695 0.0489791669 0.3555026650 2.4579551220 51.196998596 103.38700104 1.3650000095 45.763999939 1.5829999447 1.5829999447
 2594.3659668  -999.250000 14.159000397 0.0359663442 0.3509349525 2.4299488068 52.089000702 103.78199768 1.3890000582 45.401000977 1.5939999819 1.5939999819
 2594.5185547  -999.250000 14.244999886 0.0150031997 0.3478336930 2.3979680538 53.354000092 104.36499786 1.3949999809 44.643001556 1.6250000000 1.6250000000
 2594.6708984  -999.250000 14.458000183 0.0159967951 0.3645574450 2.3879919052 53.604000092 104.50800323 1.3669999838 44.355998993 1.6519999504 1.6519999504
 2594.8232422  -999.250000 14.366001129 0.0140128210 0.3629397750 2.3830015659 53.279998779 104.90699768 1.3420000076 44.284000397 1.6330000162 1.6330000162
 2594.9755859  -999.250000 14.213999748 0.0220272429 0.3503343165 2.3840193748 53.536998749 104.64399719 1.3270000219 44.568000793 1.5920000076 1.5920000076
 2595.1281738  -999.250000  -999.250000 0.0389552005 0.3468070924 2.3959262371  -999.250000  -999.250000  -999.250000  -999.250000  -999.250000  -999.250000
 2595.2805176  -999.250000 14.309000015 0.0249919873 0.3521399498 2.3729887009 54.973999023 103.50100708 1.3179999590 45.090999603 1.5590000153 1.5590000153
 2595.4328613  -999.250000 14.470000267 0.0200144220 0.3583252132 2.3660511971 56.541000366 103.59101105 1.3040000200 45.408000946 1.5260000229 1.5260000229
 2595.5852051  -999.250000 14.386999130 0.0289839730 0.3615850806 2.3980095387 57.578998566 103.99400330 1.2810000181 45.112998962 1.4859999418 1.4859999418
 2595.7375488  -999.250000 14.366999626 0.0189935900 0.3647419214 2.4039871693 57.326999664 105.46700287 1.2519999743 44.478000641 1.4589999914 1.4589999914
 2595.8901367  -999.250000 14.423000336 0.0150223998 0.3659284413 2.3959679604 56.375000000 106.05699921 1.2280000448 44.233001709 1.4479999542 1.4479999542
 2596.0424805  -999.250000 14.503000259 0.0220080130 0.3592051566 2.3859903812 55.451999664 104.88300323 1.2150000334 44.928001404 1.4620000124 1.4620000124
 2596.1948242  -999.250000 14.654999733 0.0269935913 0.3561675549 2.3799953461 54.956001282 104.48899078 1.2120000124 45.571998596 1.4539999962 1.4539999962
