# LAS format log file from PETREL
# Project units are specified as depth units
#==================================================================
~Version information
VERS.   2.0:
WRAP.   NO:
#==================================================================
~Well
STRT .m      515.45703125 :
STOP .m      3237.9299316 :
STEP .m     0.00000000 :
NULL .        -999.250000 :
COMP.           : COMPANY
WELL.  33/9-17   : WELL
FLD.            : FIELD
LOC.            : LOCATION
SRVC.           : SERVICE COMPANY
DATE.  2018-09-11 14:48:42   : Log Export Date {yyyy-MM-dd HH:mm:ss}
PROV.           : PROVINCE
UWI.   33/9-17   : UNIQUE WELL ID
API.            : API NUMBER
#==================================================================
~Curve
DEPT .m                   : DEPTH
Lithology_geolink ._      : Lithology_geolink
CALI .in                  : CALI
BS .in                    : BS
DRHO .g/cm3               : DRHO
NPHI .m3/m3               : NPHI
RHOB .g/cm3               : RHOB
PEF .b/e                  : PEF
GR .gAPI                  : GR
DTC .us/ft                : DTC
RDEP .ohm.m               : RDEP
SP .mV                    : SP
RSHA .ohm.m               : RSHA
RMED .ohm.m               : RMED
~Parameter
#==================================================================
~Ascii
# ...
 1239.6616211  -999.250000 12.647999763 8.5000000000 0.0000000000 0.4339999855 2.0329999924  -999.250000 75.657386780 152.89997864 1.0190352201 222.62500000 0.9906141162 0.9190000296
 1239.8140869  -999.250000 12.867000580 8.5000000000 0.0030000000 0.4959999919 2.0290000439  -999.250000 75.543792725 152.80001831 1.0152201653 222.87500000 0.9901939034 0.9049999714
 1239.9664307  -999.250000 12.741999626 8.5000000000 -0.003000000 0.5450000167 2.0269999504  -999.250000 75.920745850 155.60000610 1.0187436342 223.25000000 0.9921929240 0.9100000262
 1240.1188965  -999.250000 12.102000237 8.5000000000 0.0030000000 0.5630000234 2.0429999828  -999.250000 75.526809692 159.50000000 1.0249687433 222.87500000 0.9965817332 0.9210000038
 1240.2712402  -999.250000 12.194999695 8.5000000000 0.0020000001 0.5189999938 2.0350000858  -999.250000 75.815742493 160.19999695 1.0293730497 223.00000000 0.9972105622 0.9139999747
 1240.4237061  -999.250000 12.531000137 8.5000000000 -0.004000000 0.5049999952 2.0069999695  -999.250000 77.397529602 158.30000305 1.0381250381 222.62500000 0.9971939325 0.9039999843
 1240.5760498  -999.250000 12.687999725 8.5000000000 -0.008000000 0.4819999933 1.9889999628  -999.250000 80.014007568 158.39999390 1.0507125854 223.12500000 1.0033682585 0.9039999843
 1240.7285156  -999.250000 13.187999725 8.5000000000 -0.003000000 0.5170000196 2.0039999485  -999.250000 80.895370483 157.80001831 1.0613437891 223.12500000 1.0159542561 0.8970000148
 1240.8808594  -999.250000 13.108999252 8.5000000000 -0.008000000 0.5090000033 2.0120000839  -999.250000 80.641410828 157.50000000 1.0727125406 223.12500000 1.0345259905 0.9039999843
 1241.0332031  -999.250000 12.875000000 8.5000000000 -0.010000000 0.4880000055 2.0099999905  -999.250000 78.868057251 157.39999390 1.0797787905 223.00000000 1.0567115545 0.9039999843
 1241.1856689  -999.250000 12.750000000 8.5000000000 -0.011000000 0.4329999983 2.0050001144  -999.250000 77.062103271 156.80000305 1.0774403811 223.12500000 1.0815207958 0.9070000052
 1241.3380127  -999.250000 12.765999794 8.5000000000 -0.010000000 0.4329999983 2.0000000000  -999.250000 76.724281311 157.39999390 1.0738141537 223.00000000 1.0884211063 0.9150000215
 1241.4904785  -999.250000 12.750000000 8.5000000000 -0.010000000 0.4230000079 2.0009999275  -999.250000 76.853668213 158.89999390 1.0706268549 223.12500000 1.0645096302 0.9269999862
 1241.6428223  -999.250000 12.718999863 8.5000000000 -0.007000000 0.4560000002 2.0009999275  -999.250000 77.781776428 160.39997864 1.0690000057 222.75000000 1.0362809896 0.9459999800
 1241.7952881  -999.250000 12.562999725 8.5000000000 -0.005000000 0.5170000196 2.0039999485  -999.250000 77.624473572 159.60000610 1.0713731050 222.25000000 1.0269999504 0.9670000076
 1241.9476318  -999.250000 12.991999626 8.5000000000 -0.005000000 0.5370000005 2.0069999695  -999.250000 76.583259583 158.30000305 1.0771539211 222.25000000 1.0335612297 0.9829999804
 1242.1000977  -999.250000 12.921999931 8.5000000000 -0.005000000 0.5550000072 2.0090000629  -999.250000 76.401603699 158.10000610 1.0853466988 222.37500000 1.0535207987 0.9800000191
 1242.2524414  -999.250000 12.843999863 8.5000000000 -0.001000000 0.4749999940 2.0209999084  -999.250000 77.196533203 156.80000305 1.0901874304 222.50000000 1.0729471445 0.9480000138
 1242.4049072  -999.250000 13.093999863 8.5000000000 -0.005000000 0.4920000136 2.0130000114  -999.250000 77.252616882 154.60000610 1.0915941000 222.62500000 1.0879542828 0.9240000248
 1242.5572510  -999.250000 12.859000206 8.5000000000 -0.006000000 0.4880000055 2.0090000629  -999.250000 78.495216370 153.00000000 1.0914062262 222.37500000 1.0999647379 0.9300000072
 1242.7097168  -999.250000 12.305000305 8.5000000000 -0.002000000 0.4930000007 1.9989999533  -999.250000 80.388275146 154.60000610 1.0915941000 222.37500000 1.1051938534 0.9470000267
 1242.8620605  -999.250000 12.663999557 8.5000000000 0.0020000001 0.4740000069 2.0039999485  -999.250000 81.177436829 156.10000610 1.0920000076 222.50000000 1.0970528126 0.9649999738
 1243.0144043  -999.250000 12.781000137 8.5000000000 0.0000000000 0.4410000145 1.9969999790  -999.250000 81.093147278 157.39999390 1.0931864977 222.50000000 1.0808653831 0.9739999771
 1243.1668701  -999.250000 13.055000305 8.5000000000 0.0040000002 0.4690000117 2.0039999485  -999.250000 80.396316528 157.80001831 1.0928125381 223.00000000 1.0614639521 0.9810000062
 1243.3192139  -999.250000 13.163998604 8.5000000000 0.0000000000 0.4920000136 2.0099999905  -999.250000 80.111022949 155.50000000 1.0937798023 222.87500000 1.0589647293 0.9879999757
 1243.4716797  -999.250000 13.046999931 8.5000000000 -0.008000000 0.4920000136 2.0190000534  -999.250000 82.286720276 154.80000305 1.0938125849 223.37500000 1.0838934183 0.9929999709
 1243.6240234  -999.250000 12.843999863 8.5000000000 -0.011000000 0.5059999824 2.0220000744  -999.250000 81.963485718 155.30001831 1.0846941471 223.50000000 1.0932282209 0.9829999804
 1243.7764893  -999.250000 13.328000069 8.5000000000 -0.011000000 0.5299999714 2.0020000935  -999.250000 80.674781799 153.19999695 1.0730625391 223.25000000 1.0720913410 0.9610000253
 1243.9288330  -999.250000 12.812999725 8.5000000000 -0.018999999 0.5860000253 1.9839999676  -999.250000 77.993690491 153.60000610 1.0672187805 222.75000000 1.0480704308 0.9490000010
 1244.0812988  -999.250000 12.727001190 8.5000000000 -0.014000000 0.5609999895 1.9800000191  -999.250000 76.815399170 153.49998474 1.0618414879 222.50000000 1.0286579132 0.9599999785
 1244.2336426  -999.250000 12.859000206 8.5000000000 -0.007000000 0.5600000024 1.9910000563  -999.250000 76.685440063 154.10000610 1.0584062338 222.75000000 1.0180176497 0.9919999838
 1244.3861084  -999.250000 12.602000237 8.5000000000 -0.009000000 0.5009999871 1.9859999418  -999.250000 77.879112244 155.30001831 1.0562177896 222.62500000 1.0130152702 0.9879999757
 1244.5384521  -999.250000 12.555000305 8.5000000000 -0.009000000 0.4830000103 1.9930000305  -999.250000 77.621627808 156.39999390 1.0508437157 223.00000000 1.0139824152 0.9610000253
 1244.6909180  -999.250000 12.812999725 8.5000000000 -0.004000000 0.4760000110 2.0339999199  -999.250000 77.738937378 157.00000000 1.0444356203 223.25000000 1.0237604380 0.9419999719
 1244.8432617  -999.250000 12.500000000 8.5000000000 -0.005000000 0.4740000069 2.0390000343  -999.250000 77.551376343 156.60000610 1.0402188301 222.62500000 1.0295964479 0.9300000072
 1244.9957275  -999.250000 12.578000069 8.5000000000 -0.004000000 0.4830000103 2.0360000134  -999.250000 78.295303345 155.50000000 1.0372178555 222.62500000 1.0258213282 0.9259999990
 1245.1480713  -999.250000 12.578000069 8.5000000000 -0.004000000 0.4709999859 2.0079998970  -999.250000 76.527343750 155.30001831 1.0365936756 222.37500000 1.0200176239 0.9210000038
 1245.3004150  -999.250000 12.578000069 8.5000000000 -0.006000000 0.4930000007 2.0009999275  -999.250000 74.532531738 154.60000610 1.0369999409 222.50000000 1.0197885036 0.9240000248
 1245.4528809  -999.250000 12.578000069 8.5000000000 -0.008000000 0.5180000067 1.9939999580  -999.250000 73.938751221 156.50000000 1.0358124971 222.62500000 1.0263725519 0.9380000234
 1245.6052246  -999.250000 12.602000237 8.5000000000 -0.011000000 0.5199999809 1.9780000448  -999.250000 75.432472229 157.30000305 1.0344067812 222.37500000 1.0252281427 0.9380000234
 1245.7576904  -999.250000 12.633000374 8.5000000000 -0.015000000 0.4970000088 1.9630000591  -999.250000 78.610343933 157.39999390 1.0345937014 222.12500000 1.0118517876 0.9300000072
 1245.9100342  -999.250000 12.703001022 8.5000000000 -0.018999999 0.4760000110 1.9620000124  -999.250000 80.858596802 156.80000305 1.0355937481 222.25000000 1.0103683472 0.9250000119
 1246.0625000  -999.250000 12.772999763 8.5000000000 -0.017000001 0.4560000002 1.9759999514  -999.250000 81.433624268 156.50000000 1.0336236954 222.37500000 1.0122091770 0.9259999990
 1246.2148438  -999.250000 12.852000237 8.5000000000 -0.020000000 0.5070000291 2.0020000935  -999.250000 79.837158203 154.39999390 1.0319999456 222.12500000 1.0050352812 0.9340000153
