# LAS format log file from PETREL
# Project units are specified as depth units
#==================================================================
~Version information
VERS.   2.0:
WRAP.   NO:
#==================================================================
~Well
STRT .m      785.37786865 :
STOP .m      3526.7492676 :
STEP .m     0.00000000 :
NULL .        -999.250000 :
COMP.           : COMPANY
WELL.  33/9-11   : WELL
FLD.            : FIELD
LOC.            : LOCATION
SRVC.           : SERVICE COMPANY
DATE.  2018-09-11 14:48:42   : Log Export Date {yyyy-MM-dd HH:mm:ss}
PROV.           : PROVINCE
UWI.   33/9-11   : UNIQUE WELL ID
API.            : API NUMBER
#==================================================================
~Curve
DEPT .m                   : DEPTH
Lithology_geolink ._      : Lithology_geolink
CALI .in                  : CALI
DRHO .g/cm3               : DRHO
NPHI .m3/m3               : NPHI
RHOB .g/cm3               : RHOB
GR .gAPI                  : GR
DTC .us/ft                : DTC
RDEP .ohm.m               : RDEP
SP .mV                    : SP
RSHA .ohm.m               : RSHA
RMED .ohm.m               : RMED
~Parameter
#==================================================================
~Ascii
# ...
 3257.0014648 6.0000000000 12.668999672 0.0199999996 0.3932699859 2.4949998856 76.958999634 94.993003845 2.2460000515 50.332000732 3.2669999599 3.2669999599
 3257.1538086 6.0000000000 12.668999672 0.0149999997 0.4048899710 2.4709999561 78.414001465 95.492996216 2.2790000439 50.155998230 3.0880000591 3.0880000591
 3257.3061523 6.0000000000 12.670000076 0.0199999996 0.4057599902 2.4700000286 78.813003540 96.412002563 2.3259999752 50.151000977 3.0699999332 3.0699999332
 3257.4584961 6.0000000000 12.661999702 0.0240000002 0.4110400081 2.4909999371 76.373001099 97.059997559 2.4140000343 50.387001038 3.6349999905 3.6349999905
 3257.6110840 6.0000000000 12.656999588 0.0230000000 0.4255099893 2.5099999905 75.904998779 96.885002136 2.4709999561 50.394001007 3.6700000763 3.6700000763
 3257.7634277 6.0000000000 12.654999733 0.0410000011 0.4177899957 2.5239999294 75.339996338 95.808998108 2.5069999695 50.400001526 3.5610001087 3.5610001087
 3257.9157715 6.0000000000 12.658999443 0.0399999991 0.4050500095 2.5160000324 74.625000000 96.339004517 2.5360000134 50.407001495 3.5050001144 3.5050001144
 3258.0681152 6.0000000000 12.666000366 0.0209999997 0.3997499943 2.4909999371 75.283996582 96.608001709 2.5590000153 50.414001465 3.5230000019 3.5230000019
 3258.2207031 6.0000000000 12.670999527 0.0099999998 0.4053599834 2.4790000916 76.727996826 97.541999817 2.5820000172 50.244998932 3.5469999313 3.5469999313
 3258.3730469 6.0000000000 12.673999786 0.0149999997 0.4100700021 2.4700000286 77.360000610 98.638999939 2.6119999886 50.150001526 3.5750000477 3.5750000477
 3258.5253906 6.0000000000 12.675000191 0.0230000000 0.4068700075 2.4639999866 77.580001831 99.800003052 2.6410000324 50.365001678 3.6519999504 3.6519999504
 3258.6777344 6.0000000000 12.673999786 0.0160000008 0.3948199749 2.4709999561 79.107002258 99.976997375 2.6800000668 50.439998627 3.6779999733 3.6779999733
 3258.8300781 6.0000000000 12.668000221 0.0149999997 0.4001500010 2.4600000381 80.433998108 99.920997620 2.7330000401 50.446998596 3.5639998913 3.5639998913
 3258.9826660 6.0000000000 12.654999733 0.0240000002 0.4046300054 2.4649999142 80.285003662 99.431999207 2.7820000648 50.104999542 3.5510001183 3.5510001183
 3259.1350098 6.0000000000  -999.250000 0.0209999997 0.4079000056 2.4579999447  -999.250000  -999.250000  -999.250000  -999.250000  -999.250000  -999.250000
 3259.2873535 6.0000000000 12.644000053 0.0080000004 0.3905099928 2.4460000992 79.836997986 100.04399872 2.8331058025 49.576000214 3.8417661190 3.8417661190
 3259.4396973 6.0000000000 12.647000313 0.0130000003 0.3807899952 2.4519999027 79.024002075 98.785003662 2.8992083073 49.470001221 4.3191456795 4.3191456795
 3259.5922852 6.0000000000 12.661999702 0.0049999999 0.3827100098 2.4430000782 77.736000061 99.032997131 3.0295791626 49.652000427 4.4090847969 4.4090847969
 3259.7446289 6.0000000000 12.678000450 0.0170000009 0.3889499903 2.4489998817 76.930000305 98.435997009 3.2102980614 49.858001709 4.1239905357 4.1239905357
 3259.8969727 6.0000000000 12.692000389 0.0289999992 0.3973199725 2.4549999237 77.150001526 96.783996582 3.3964357376 49.858001709 4.1196861267 4.1196861267
 3260.0493164 6.0000000000 12.694999695 0.0199999996 0.3902300000 2.4549999237 80.402999878 95.748001099 3.6679806709 49.738998413 5.1712117195 5.1712117195
 3260.2019043 6.0000000000 12.693000793 0.0109999999 0.3769499958 2.4470000267 80.148002625 95.513999939 3.6562077999 49.728000641 5.9250240326 5.9250240326
 3260.3542480 6.0000000000 12.690999985 0.0179999992 0.3675299883 2.4579999447 78.041000366 95.867004395 3.7211506367 50.002998352 5.6205110550 5.6205110550
 3260.5065918 6.0000000000 12.689000130 0.0270000007 0.3606899977 2.4869999886 75.533996582 97.601997375 3.8150897026 50.122001648 5.3155465126 5.3155465126
 3260.6589355 6.0000000000 12.687000275 0.0390000008 0.3797700107 2.5220000744 74.497001648 96.426002502 3.8710448742 50.215999603 5.0326008797 5.0326008797
 3260.8112793 6.0000000000 12.685000420 0.0340000018 0.3898500204 2.5380001068 73.333000183 94.496002197 3.8989582062 50.334999084 4.7838878632 4.7838878632
 3260.9638672 6.0000000000 12.684000015 0.0289999992 0.3872600198 2.5280001163 72.981002808 92.797996521 3.8726286888 50.166000366 4.7146978378 4.7146978378
 3261.1162109 6.0000000000 12.683000565 0.0219999999 0.3795000017 2.5260000229 73.053001404 91.130996704 3.7568492889 49.773998260 4.9322118759 4.9322118759
 3261.2685547 6.0000000000 12.684000015 0.0140000004 0.3717399836 2.5230000019 73.774002075 89.983001709 3.6629519463 49.557998657 5.0638751984 5.0638751984
 3261.4208984 6.0000000000 12.684000015 0.0149999997 0.3769400120 2.5160000324 74.876998901 89.947998047 3.6329534054 49.738998413 4.9860963821 4.9860963821
 3261.5734863 6.0000000000 12.685000420 0.0209999997 0.3817600012 2.5269999504 74.962997437 90.441001892 3.6039521694 50.131999969 5.0464353561 5.0464353561
 3261.7258301 6.0000000000 12.685000420 0.0280000009 0.3843999803 2.5380001068 72.725997925 90.594001770  -999.250000 50.446998596  -999.250000  -999.250000
 3261.8781738 6.0000000000  -999.250000 0.0370000005 0.3905899823 2.5399999619  -999.250000  -999.250000  -999.250000  -999.250000  -999.250000  -999.250000
 3262.0305176 6.0000000000 12.685999870 0.0549999997 0.3912599981 2.5599999428 70.831001282 91.339004517 3.5879905224 50.342998505 5.2269344330 5.2269344330
 3262.1831055 6.0000000000 12.687000275 0.0560000017 0.3929100037 2.5720000267 72.182998657 90.722999573 3.5819616318 49.846000671 5.1856541634 5.1856541634
 3262.3354492 6.0000000000 12.687000275 0.0430000015 0.3989899755 2.5529999733 73.424003601 89.995002747 3.5699934959 49.597000122 5.0778589249 5.0778589249
 3262.4877930 6.0000000000 12.687999725 0.0230000000 0.4038299918 2.5280001163 72.873001099 89.500999451 3.5660305023 49.604000092 4.9896922112 4.9896922112
 3262.6401367 6.0000000000 12.687999725 0.0170000009 0.4101999998 2.5150001049 72.378997803 89.917007446 3.5851042271 49.699001312 4.7974181175 4.7974181175
 3262.7924805 6.0000000000 12.689000130 0.0070000002 0.4174399972 2.5020000935 75.559997559 90.918998718 3.6500546932 50.110000610 4.4352898598 4.4352898598
 3262.9450684 6.0000000000 12.689998627 0.0010000000 0.4168800116 2.4790000916 78.660003662 91.466003418 3.6840801239 49.966999054 4.6170883179 4.6170883179
 3263.0971680 6.0000000000 12.689000130 0.0010000000 0.4028125703 2.4760048389 79.681358337 91.687644958 3.7090001106 49.544677734 4.9559998512 4.9559998512
 3263.2495117 6.0000000000 12.680000305 0.0079887826 0.3926861882 2.4789953232 80.127288818 91.969551086 3.7249999046 49.436172485 5.2350001335 5.2350001335
 3263.4018555 6.0000000000 12.664999962 0.0159871802 0.3787822723 2.5109486580 80.445487976 91.956024170 3.7360000610 49.450977325 5.3390002251 5.3390002251
 3263.5541992 6.0000000000 12.649000168 0.0120128002 0.3705563545 2.5189745426 80.237670898 91.497474670 3.7390000820 49.457977295 5.2989997864 5.2989997864
 3263.7067871 6.0000000000 12.637999535 0.0110016027 0.3785870671 2.5259888172 79.453262329 91.122604370 3.7149999142 49.464988708 5.2699999809 5.2699999809
 3263.8591309 6.0000000000 12.637999535 0.0070064105 0.3774918020 2.5299935341 79.334190369 91.217849731 3.6559998989 49.470989227 5.1510000229 5.1510000229
 3264.0114746 6.0000000000 12.642999649 0.0119919870 0.3775798380 2.5160224438 79.301055908 91.291877747 3.5829999447 49.477989197 4.9439997673 4.9439997673
 3264.1638184 6.0000000000 12.647999763 0.0040256004 0.3796234429 2.5020449162 78.386940002 91.799377441 3.4949998856 48.962654114 4.6609997749 4.6609997749
 3264.3164063 6.0000000000 12.654000282 0.0020032052 0.3870381415 2.4990048409 78.256202698 92.230316162 3.4219999313 48.316032410 4.3660001755 4.3660001755
 3264.4687500 6.0000000000  -999.250000 0.0049951924 0.3793523610 2.4990000725  -999.250000  -999.250000  -999.250000  -999.250000  -999.250000  -999.250000
 3264.6210938 6.0000000000 12.661999702 0.0010064103 0.3811271191 2.5009968281  -999.250000  -999.250000 3.3800001144  -999.250000 4.0279998779 4.0279998779
