# LAS format log file from PETREL
# Project units are specified as depth units
#==================================================================
~Version information
VERS.   2.0:
WRAP.   NO:
#==================================================================
~Well
STRT .m      515.45703125 :
STOP .m      3237.9299316 :
STEP .m     0.00000000 :
NULL .        -999.250000 :
COMP.           : COMPANY
WELL.  33/9-17   : WELL
FLD.            : FIELD
LOC.            : LOCATION
SRVC.           : SERVICE COMPANY
DATE.  2018-09-11 14:48:42   : Log Export Date {yyyy-MM-dd HH:mm:ss}
PROV.           : PROVINCE
UWI.   33/9-17   : UNIQUE WELL ID
API.            : API NUMBER
#==================================================================
~Curve
DEPT .m                   : DEPTH
Lithology_geolink ._      : Lithology_geolink
CALI .in                  : CALI
BS .in                    : BS
DRHO .g/cm3               : DRHO
NPHI .m3/m3               : NPHI
RHOB .g/cm3               : RHOB
PEF .b/e                  : PEF
GR .gAPI                  : GR
DTC .us/ft                : DTC
RDEP .ohm.m               : RDEP
SP .mV                    : SP
RSHA .ohm.m               : RSHA
RMED .ohm.m               : RMED
~Parameter
#==================================================================
~Ascii
# ...
 877.55932617  -999.250000 12.375000000 8.5000000000 0.0070000002 0.3479999900 2.2639999390  -999.250000 95.833572388 129.80000305 2.6516244411 217.62500000 2.8925471306 2.2030000687
 877.71173096  -999.250000 12.250000954 8.5000000000 0.0080000004 0.3440000117 2.2550001144  -999.250000 101.07674408 129.19999695 2.6695992947 217.50000000 2.8869385719 2.2360000610
 877.86413574  -999.250000 12.250000954 8.5000000000 0.0080000004 0.3470000029 2.2569999695  -999.250000 102.33797455 128.89999390 2.6913182735 217.37500000 2.8870408535 2.2699999809
 878.01654053  -999.250000 12.296999931 8.5000000000 0.0089999996 0.3650000095 2.2590000629  -999.250000 98.065589905 129.30000305 2.7076976299 216.75000000 2.9247307777 2.2869999409
 878.16894531  -999.250000 12.258000374 8.5000000000 0.0099999998 0.3790000081 2.2509999275  -999.250000 93.898483276 129.80000305 2.7280747890 217.25000000 2.9714858532 2.2639999390
 878.32135010  -999.250000 12.296999931 8.5000000000 0.0080000004 0.3659999967 2.2460000515  -999.250000 93.749885559 130.69999695 2.7542350292 217.37500000 3.0006968975 2.2320001125
 878.47375488  -999.250000 12.671999931 8.5000000000 0.0030000000 0.3429999948 2.2509999275  -999.250000 96.312660217 130.80000305 2.7862067223 217.75000000 3.0167706013 2.2049999237
 878.62615967  -999.250000 12.413998604 8.5000000000 0.0030000000 0.3109999895 2.2739999294  -999.250000 97.704521179 131.60000610 2.8148577213 217.50000000 3.0289447308 2.2209999561
 878.77856445  -999.250000 12.413998604 8.5000000000 0.0040000002 0.3249999881 2.2890000343  -999.250000 96.815711975 130.30000305 2.8339147568 216.62500000 3.0499079227 2.2709999084
 878.93096924  -999.250000 12.413998604 8.5000000000 0.0020000001 0.3249999881 2.2950000763  -999.250000 96.875137329 130.50000000 2.8542635441 216.87500000 3.0844490528 2.2850000858
 879.08337402  -999.250000 12.413998604 8.5000000000 -0.003000000 0.3630000055 2.2780001163  -999.250000 97.729644775 129.80000305 2.8735091686 217.12500000 3.0944404602 2.3050000668
 879.23577881  -999.250000 12.413998604 8.5000000000 -0.002000000 0.3499999940 2.2730000019  -999.250000 96.388130188 129.69999695 2.8800001144 216.75000000 3.0744957924 2.3069999218
 879.38818359  -999.250000 12.413998604 8.5000000000 -0.001000000 0.3829999864 2.2639999390  -999.250000 95.169929504 128.50000000 2.8734626770 217.12500000 3.0508811474 2.3139998913
 879.54052734  -999.250000 12.413998604 8.5000000000 0.0040000002 0.3479999900 2.2809998989  -999.250000 95.214569092 128.39999390 2.8618731499 217.75000000 3.0485551357 2.3280000687
 879.69293213  -999.250000 12.578000069 8.5000000000 0.0049999999 0.3829999864 2.2890000343  -999.250000 96.606506348 128.60000610 2.8546242714 217.75000000 3.0535957813 2.3359999657
 879.84533691  -999.250000 12.750000000 8.5000000000 0.0070000002 0.3510000110 2.2980000973  -999.250000 94.270324707 127.50000000 2.8595356941 217.75000000 3.0134778023 2.3069999218
 879.99774170  -999.250000 12.578000069 8.5000000000 0.0099999998 0.3569999933 2.3039999008  -999.250000 90.366294861 128.80000305 2.8717262745 217.75000000 2.9502451420 2.3129999638
 880.15014648  -999.250000 12.358999252 8.5000000000 0.0109999999 0.3339999914 2.2969999313  -999.250000 88.178215027 127.90000153 2.8847262859 218.75000000 2.9271924496 2.3239998817
 880.30255127  -999.250000 12.234000206 8.5000000000 0.0040000002 0.3310000002 2.2880001068  -999.250000 86.447463989 127.80000305 2.8965375423 219.37500000 2.9691457748 2.3499999046
 880.45495605  -999.250000 12.102000237 8.5000000000 0.0010000000 0.3120000064 2.2809998989  -999.250000 84.285560608 125.09999847 2.8956511021 219.62500000 3.0023667812 2.3729999065
 880.60736084  -999.250000 11.913999557 8.5000000000 -0.001000000 0.2960000038 2.2890000343  -999.250000 82.238662720 124.80000305 2.8830852509 219.62500000 2.9785695076 2.3540000916
 880.75976563  -999.250000 11.852000237 8.5000000000 -0.002000000 0.3039999902 2.2929999828  -999.250000 85.417320251 122.50000000 2.8674910069 219.62500000 2.9045426846 2.3199999332
 880.91217041  -999.250000 12.069999695 8.5000000000 -0.005000000 0.3120000064 2.3039999008  -999.250000 89.808235168 120.19998932 2.8556511402 219.87500000 2.8353953362 2.2909998894
 881.06457520  -999.250000 12.250000954 8.5000000000 -0.008000000 0.3260000050 2.3169999123  -999.250000 94.085777283 120.59999847 2.8424909115 220.00000000 2.8587236404 2.3180000782
 881.21697998  -999.250000 12.093999863 8.5000000000 -0.009000000 0.3120000064 2.3269999027  -999.250000 94.189628601 118.29999542 2.8395657539 219.62500000 2.9432647228 2.3440001011
 881.36938477  -999.250000 12.086001396 8.5000000000 -0.004000000 0.3179999888 2.3289999962  -999.250000 92.770454407 119.69999695 2.8503203392 219.62500000 2.9776148796 2.3159999847
 881.52178955  -999.250000 12.046999931 8.5000000000 -0.006000000 0.3019999862 2.3029999733  -999.250000 92.387359619 120.49999237 2.8565943241 219.62500000 2.9157721996 2.2579998970
 881.67413330  -999.250000 11.913999557 8.5000000000 -0.002000000 0.3230000138 2.2820000648  -999.250000 93.864410400 122.30000305 2.8474974632 220.50000000 2.8612940311 2.2360000610
 881.82653809  -999.250000 11.913999557 8.5000000000 0.0070000002 0.3230000138 2.2750000954  -999.250000 97.019889832 125.49999237 2.8505027294 219.50000000 2.8829874992 2.2909998894
 881.97894287  -999.250000 12.055000305 8.5000000000 0.0089999996 0.3319999874 2.2799999714  -999.250000 99.553794861 123.80000305 2.8575942516 218.87500000 2.9242610931 2.3359999657
 882.13134766  -999.250000 12.086001396 8.5000000000 0.0130000003 0.3160000145 2.2839999199  -999.250000 100.58900452 123.40000153 2.8692920208 219.12500000 2.9820978642 2.3299999237
 882.28375244  -999.250000 12.187999725 8.5000000000 0.0170000009 0.3269999921 2.2760000229  -999.250000 99.697036743 124.50000000 2.8645193577 219.12500000 3.0233268738 2.2420001030
 882.43615723  -999.250000 12.234000206 8.5000000000 0.0149999997 0.3140000105 2.2579998970  -999.250000 95.996955872 125.09999847 2.8447079659 219.50000000 3.0405409336 2.2230000496
 882.58856201  -999.250000 12.250000954 8.5000000000 0.0199999996 0.3199999928 2.2679998875  -999.250000 93.473258972 126.00000000 2.8358113766 219.50000000 3.0356700420 2.2599999905
 882.74096680  -999.250000 12.250000954 8.5000000000 0.0370000005 0.3079999983 2.2999999523  -999.250000 91.396095276 129.00000000 2.8433203697 218.87500000 2.9618091583 2.2750000954
 882.89337158  -999.250000 12.250000954 8.5000000000 0.0309999995 0.3199999928 2.2939999104  -999.250000 92.075897217 130.69999695 2.8662350178 218.12500000 2.9331004620 2.3259999752
 883.04577637  -999.250000 12.250000954 8.5000000000 0.0289999992 0.3440000117 2.2880001068  -999.250000 94.259918213 130.00000000 2.8619534969 217.62500000 2.9630820751 2.3340001106
 883.19818115  -999.250000 12.250000954 8.5000000000 0.0240000002 0.3319999874 2.2720000744  -999.250000 95.479255676 128.89999390 2.8397080898 217.37500000 3.0022377968 2.3440001011
 883.35058594  -999.250000 12.250000954 8.5000000000 0.0149999997 0.3199999928 2.2699999809  -999.250000 97.473442078 127.50000000 2.8290283680 217.87500000 3.0343115330 2.3399999142
 883.50299072  -999.250000 12.397999763 8.5000000000 0.0089999996 0.3170000017 2.2750000954  -999.250000 97.908386230 126.00000000 2.8216512203 219.12500000 3.0046432018 2.2360000610
 883.65533447  -999.250000 12.718999863 8.5000000000 0.0060000001 0.3120000064 2.2799999714  -999.250000 100.89269257 126.30000305 2.8257210255 218.75000000 3.0095834732 2.2269999981
 883.80773926  -999.250000 12.397999763 8.5000000000 -0.002000000 0.3499999940 2.2739999294  -999.250000 103.33358765 128.89999390 2.8470356464 218.12500000 3.0995302200 2.2809998989
 883.96014404  -999.250000 12.296999931 8.5000000000 -0.007000000 0.3389999866 2.2550001144  -999.250000 103.40931702 129.19999695 2.8591878414 216.50000000 3.1674528122 2.3220000267
 884.11254883  -999.250000 12.413998604 8.5000000000 -0.005000000 0.3889999986 2.2579998970  -999.250000 103.57601166 130.50000000 2.8534643650 217.25000000 3.1194288731 2.3259999752
