# LAS format log file from PETREL
# Project units are specified as depth units
#==================================================================
~Version information
VERS.   2.0:
WRAP.   NO:
#==================================================================
~Well
STRT .m      785.37786865 :
STOP .m      3526.7492676 :
STEP .m     0.00000000 :
NULL .        -999.250000 :
COMP.           : COMPANY
WELL.  33/9-11   : WELL
FLD.            : FIELD
LOC.            : LOCATION
SRVC.           : SERVICE COMPANY
DATE.  2018-09-11 14:48:42   : Log Export Date {yyyy-MM-dd HH:mm:ss}
PROV.           : PROVINCE
UWI.   33/9-11   : UNIQUE WELL ID
API.            : API NUMBER
#==================================================================
~Curve
DEPT .m                   : DEPTH
Lithology_geolink ._      : Lithology_geolink
CALI .in                  : CALI
DRHO .g/cm3               : DRHO
NPHI .m3/m3               : NPHI
RHOB .g/cm3               : RHOB
GR .gAPI                  : GR
DTC .us/ft                : DTC
RDEP .ohm.m               : RDEP
SP .mV                    : SP
RSHA .ohm.m               : RSHA
RMED .ohm.m               : RMED
~Parameter
#==================================================================
~Ascii
# ...
 1702.5211182  -999.250000 17.530000687  -999.250000  -999.250000  -999.250000  -999.250000  -999.250000 1.3100039959  -999.250000 1.5399919748 1.5399919748
 1702.6734619  -999.250000 17.533000946  -999.250000  -999.250000  -999.250000 75.175689697 126.12519836 1.3150000572 41.427814484 1.5299975872 1.5299975872
 1702.8259277  -999.250000 17.538000107  -999.250000  -999.250000  -999.250000 74.135665894 125.93930054 1.3149832487 41.505874634 1.5269863605 1.5269863605
 1702.9782715  -999.250000 17.520999908  -999.250000  -999.250000  -999.250000 76.952217102 124.74088287 1.2940088511 41.568847656 1.5099855661 1.5099855661
 1703.1307373  -999.250000 17.496000290  -999.250000  -999.250000  -999.250000 78.016304016 124.23381042 1.3050103188 41.559013367 1.4919775724 1.4919775724
 1703.2830811  -999.250000 17.486999512  -999.250000  -999.250000  -999.250000 76.481697083 123.53567505 1.3180143833 41.549022675 1.4640064240 1.4640064240
 1703.4355469  -999.250000 17.493000031  -999.250000  -999.250000  -999.250000 74.367385864 122.03540039  -999.250000 41.656829834  -999.250000  -999.250000
 1703.5878906  -999.250000  -999.250000  -999.250000  -999.250000  -999.250000  -999.250000  -999.250000  -999.250000  -999.250000  -999.250000  -999.250000
 1703.7403564  -999.250000 17.499000549  -999.250000  -999.250000  -999.250000  -999.250000  -999.250000 1.3730272055  -999.250000 1.5170975924 1.5170975924
 1703.8927002  -999.250000 17.503999710  -999.250000  -999.250000  -999.250000 72.354515076 118.29764557 1.3900128603 41.944778442 1.5780456066 1.5780456066
 1704.0451660  -999.250000 17.510000229  -999.250000  -999.250000  -999.250000 72.250167847 117.32156372 1.4060304165 42.043838501 1.6350784302 1.6350784302
 1704.1975098  -999.250000 17.516000748  -999.250000  -999.250000  -999.250000 71.634986877 116.58817291 1.4250208139 42.142841339 1.6839655638 1.6839655638
 1704.3498535  -999.250000 17.541999817  -999.250000  -999.250000  -999.250000 70.424911499 115.80188751 1.4510111809 42.275680542 1.6409664154 1.6409664154
 1704.5023193  -999.250000 17.556999207  -999.250000  -999.250000  -999.250000 70.394042969 114.85452271 1.4650088549 42.266014099 1.5989919901 1.5989919901
 1704.6546631  -999.250000 17.568000793  -999.250000  -999.250000  -999.250000 71.608078003 113.90628052 1.4759935141 42.255027771 1.5890256166 1.5890256166
 1704.8071289  -999.250000 17.575000763  -999.250000  -999.250000  -999.250000 75.088211060 114.19077301  -999.250000 42.245014191  -999.250000  -999.250000
 1704.9594727  -999.250000  -999.250000  -999.250000  -999.250000  -999.250000  -999.250000  -999.250000  -999.250000  -999.250000  -999.250000  -999.250000
 1705.1119385  -999.250000 17.576999664  -999.250000  -999.250000  -999.250000  -999.250000  -999.250000 1.4599944353  -999.250000 1.6720200777 1.6720200777
 1705.2642822  -999.250000 17.576000214  -999.250000  -999.250000  -999.250000 75.625350952 115.97489929 1.4529870749 42.225021362 1.6969767809 1.6969767809
 1705.4167480  -999.250000 17.569999695  -999.250000  -999.250000  -999.250000 73.580642700 117.26496887 1.4369423389 42.215015411 1.6678991318 1.6678991318
 1705.5690918  -999.250000 17.562999725  -999.250000  -999.250000  -999.250000 74.304420471 118.44505310 1.4009495974 42.205024719 1.6049038172 1.6049038172
 1705.7215576  -999.250000 17.552000046  -999.250000  -999.250000  -999.250000 75.586967468 119.72396851 1.3379679918 42.185031891 1.4849791527 1.4849791527
 1705.8739014  -999.250000 17.558000565  -999.250000  -999.250000  -999.250000 78.789428711 120.74018097 1.3179999590 42.175022125 1.4720128775 1.4720128775
 1706.0263672  -999.250000 17.565999985  -999.250000  -999.250000  -999.250000 82.432083130 121.75618744 1.3180208206 42.165008545 1.4880256653 1.4880256653
 1706.1787109  -999.250000 17.566999435  -999.250000  -999.250000  -999.250000 85.140830994 122.77218628  -999.250000 42.155006409  -999.250000  -999.250000
 1706.3310547  -999.250000  -999.250000  -999.250000  -999.250000  -999.250000  -999.250000  -999.250000  -999.250000  -999.250000  -999.250000  -999.250000
 1706.4835205  -999.250000 17.565000534  -999.250000  -999.250000  -999.250000  -999.250000  -999.250000 1.3470247984  -999.250000 1.5040215254 1.5040215254
 1706.6358643  -999.250000 17.565999985  -999.250000  -999.250000  -999.250000 90.279800415 170.37104797 1.3780080080 42.135013580 1.5310544968 1.5310544968
 1706.7883301  -999.250000 17.570999146  -999.250000  -999.250000  -999.250000 90.724647522 122.50943756 1.3879784346 42.125007629 1.5990167856 1.5990167856
 1706.9406738  -999.250000 17.575000763  -999.250000  -999.250000  -999.250000 85.778938293 119.34301758 1.3609871864 42.105030060 1.6199816465 1.6199816465
 1707.0931396  -999.250000 17.573999405  -999.250000  -999.250000  -999.250000 81.380516052 119.88555908 1.3449944258 42.092010498 1.5969823599 1.5969823599
 1707.2454834  -999.250000 17.572000504  -999.250000  -999.250000  -999.250000 79.493507385 129.09761047 1.3379992247 42.033046722 1.5749871731 1.5749871731
 1707.3979492  -999.250000 17.569999695  -999.250000  -999.250000  -999.250000 78.526771545 175.44786072  -999.250000 41.974044800  -999.250000  -999.250000
 1707.5502930  -999.250000  -999.250000  -999.250000  -999.250000  -999.250000  -999.250000  -999.250000  -999.250000  -999.250000  -999.250000  -999.250000
 1707.7027588  -999.250000 17.569000244  -999.250000  -999.250000  -999.250000  -999.250000  -999.250000 1.3259711266  -999.250000 1.5439679623 1.5439679623
 1707.8551025  -999.250000 17.566999435  -999.250000  -999.250000  -999.250000 78.028457642 123.57869720 1.3079895973 41.855049133 1.5239791870 1.5239791870
 1708.0075684  -999.250000 17.565000534  -999.250000  -999.250000  -999.250000 80.143302917 124.05361938 1.2949872017 41.796047211 1.4979808331 1.4979808331
 1708.1599121  -999.250000 17.563999176  -999.250000  -999.250000  -999.250000 79.402595520 124.54660034 1.2869807482 41.737045288 1.4859911203 1.4859911203
 1708.3122559  -999.250000 17.565999985  -999.250000  -999.250000  -999.250000 79.441940308 125.55338287 1.2629991770 41.619190216 1.4750000238 1.4750000238
 1708.4647217  -999.250000 17.569000244  -999.250000  -999.250000  -999.250000 78.126052856 124.23706055 1.2620007992 41.465122223 1.4750448465 1.4750448465
 1708.6170654  -999.250000 17.569999695  -999.250000  -999.250000  -999.250000 75.423332214 122.20626068 1.2630047798 41.304260254 1.5310271978 1.5310271978
 1708.7695313  -999.250000 17.586999893  -999.250000  -999.250000  -999.250000 73.384635925 122.15403748  -999.250000 41.144130707  -999.250000  -999.250000
 1708.9218750  -999.250000  -999.250000  -999.250000  -999.250000  -999.250000  -999.250000  -999.250000  -999.250000  -999.250000  -999.250000  -999.250000
 1709.0743408  -999.250000 17.604999542  -999.250000  -999.250000  -999.250000  -999.250000  -999.250000 1.2880200148  -999.250000 1.5770032406 1.5770032406
 1709.2266846  -999.250000 17.591999054  -999.250000  -999.250000  -999.250000 75.028228760 151.09138489 1.3130176067 40.823131561 1.5809887648 1.5809887648
 1709.3791504  -999.250000 17.614000320  -999.250000  -999.250000  -999.250000 77.182273865 123.27629852 1.3350168467 40.803016663 1.5669784546 1.5669784546
 1709.5314941  -999.250000 17.656999588  -999.250000  -999.250000  -999.250000 77.844474792 123.20803833 1.3560279608 40.861953735 1.5400232077 1.5400232077
 1709.6839600  -999.250000 17.593999863  -999.250000  -999.250000  -999.250000 74.221908569 120.18541718 1.3910416365 40.978904724 1.5690495968 1.5690495968
 1709.8363037  -999.250000 17.583000183  -999.250000  -999.250000  -999.250000 76.302330017 119.34366608 1.4170080423 41.036952972 1.6000304222 1.6000304222
 1709.9887695  -999.250000 17.597999573  -999.250000  -999.250000  -999.250000 77.089370728 118.87237549 1.4269616604 41.095954895 1.6380239725 1.6380239725
 1710.1411133  -999.250000 17.604999542  -999.250000  -999.250000  -999.250000 76.540443420 120.27787018  -999.250000 41.178936005  -999.250000  -999.250000
