# LAS format log file from PETREL
# Project units are specified as depth units
#==================================================================
~Version information
VERS.   2.0:
WRAP.   NO:
#==================================================================
~Well
STRT .m      457.60995483 :
STOP .m      3127.1992188 :
STEP .m     0.00000000 :
NULL .        -999.250000 :
COMP.           : COMPANY
WELL.  33/9-1   : WELL
FLD.            : FIELD
LOC.            : LOCATION
SRVC.           : SERVICE COMPANY
DATE.  2018-09-11 14:48:42   : Log Export Date {yyyy-MM-dd HH:mm:ss}
PROV.           : PROVINCE
UWI.   33/9-1   : UNIQUE WELL ID
API.            : API NUMBER
#==================================================================
~Curve
DEPT .m                   : DEPTH
Lithology_geolink ._      : Lithology_geolink
CALI .in                  : CALI
BS .in                    : BS
DRHO .g/cm3               : DRHO
NPHI .m3/m3               : NPHI
RHOB .g/cm3               : RHOB
GR .gAPI                  : GR
DTC .us/ft                : DTC
RDEP .ohm.m               : RDEP
SP .mV                    : SP
RSHA .ohm.m               : RSHA
RMED .ohm.m               : RMED
~Parameter
#==================================================================
~Ascii
# ...
 1884.0731201  -999.250000 13.350998878  -999.250000 -0.002997598 0.3932209313 2.2620224953 43.935672760 122.74824524 1.5939791203 51.627552032 1.3979879618 1.3979879618
 1884.2255859  -999.250000 13.357998848  -999.250000 0.0000016026 0.4021214843 2.2799422741 43.526359558 121.65776062 1.5809663534 52.318553925 1.3830056190 1.3830056190
 1884.3779297  -999.250000 13.390999794  -999.250000 0.0019959968 0.3985814452 2.3029263020 43.973934174 123.63928223 1.5669423342 53.009418488 1.3900256157 1.3900256157
 1884.5303955  -999.250000 13.338999748  -999.250000 -0.003012821 0.3933667243 2.3229358196 45.142028809 126.30840302 1.5309159756 53.532154083 1.4220104218 1.4220104218
 1884.6827393  -999.250000 13.277999878  -999.250000 -0.019004803 0.3888245523 2.3409423828 46.426269531 125.23377228 1.4959664345 53.723991394 1.4350047112 1.4350047112
 1884.8352051  -999.250000 13.262999535  -999.250000 -0.024991186 0.3832334280 2.3529710770 45.515514374 126.95420074 1.4749472141 53.715892792 1.4410208464 1.4410208464
 1884.9875488  -999.250000 13.229999542  -999.250000 -0.013987981 0.3761925995 2.3609745502 44.909461975 124.54728699 1.4529534578 53.585426331 1.4670441151 1.4670441151
 1885.1400146  -999.250000 13.203999519  -999.250000 0.0009983988 0.3701944053 2.3540170193 44.236644745 124.72168732 1.4239063263 54.116237640 1.5220671892 1.5220671892
 1885.2923584  -999.250000 13.220000267  -999.250000 -0.000004006 0.3537926674 2.3340642452 42.768650055 122.51304626 1.3850128651 53.638217926 1.5640344620 1.5640344620
 1885.4448242  -999.250000 13.289999962  -999.250000 -0.005000000 0.3515053988 2.3160431385 41.084197998 120.66728210 1.3931705952 51.416042328 1.6070336103 1.6070336103
 1885.5971680  -999.250000 13.345000267  -999.250000 -0.005002404 0.3525765240 2.3259680271 39.333595276 118.29221344 1.4641330242 52.067192078 1.6280056238 1.6280056238
 1885.7496338  -999.250000 13.413000107  -999.250000 -0.008008007 0.3503154218 2.3240046501 37.580551147 117.17737579 1.5471777916 53.552165985 1.6350111961 1.6350111961
 1885.9019775  -999.250000 13.546999931  -999.250000 -0.013000801 0.3477582037 2.3299806118 36.676677704 116.08285522 1.6210867167 53.658908844 1.6420111656 1.6420111656
 1886.0543213  -999.250000 13.670000076  -999.250000 -0.013998399 0.3434438407 2.3180384636 36.279098511 112.87591553 1.6750744581 54.791069031 1.6559928656 1.6559928656
 1886.2067871  -999.250000 13.656999588  -999.250000 -0.011995193 0.3434200287 2.3150095940 36.402660370 111.57417297 1.7060928345 56.121765137 1.6469870806 1.6469870806
 1886.3591309  -999.250000 13.519000053  -999.250000 -0.005988791 0.3485235870 2.3150000572 35.977306366 109.81248474 1.7350624800 55.827590942 1.6310192347 1.6310192347
 1886.5115967  -999.250000 13.420000076  -999.250000 0.0079975966 0.3574115038 2.3329422474 35.112121582 110.74624634 1.7609392405 55.318668365 1.6549991369 1.6549991369
 1886.6639404  -999.250000 13.395999908  -999.250000 0.0049959966 0.3678166270 2.3320031166 35.265338898 113.76876068 1.7418605089 54.906513214 1.6539968252 1.6539968252
 1886.8164063  -999.250000 13.440999985  -999.250000 0.0000000000 0.3757210672 2.3240191936 36.940082550 119.22185516 1.6838494539 54.295303345 1.6500215530 1.6500215530
 1886.9687500  -999.250000 13.472999573  -999.250000 0.0000064051 0.3783715367 2.3309776783 39.537487030 117.50007629 1.6370096207 53.424446106 1.6770377159 1.6770377159
 1887.1212158  -999.250000 13.442998886  -999.250000 0.0079991994 0.3800659478 2.3409759998 41.392753601 116.93270874 1.6410737038 52.733272552 1.7240247726 1.7240247726
 1887.2735596  -999.250000 13.420999527  -999.250000 0.0069951927 0.3800600469 2.3410000801 42.334125519 119.71282959 1.6640409231 53.072982788 1.7550176382 1.7550176382
 1887.4260254  -999.250000 13.387000084  -999.250000 0.0009903924 0.3696750402 2.3320217133 41.239589691 117.11434174 1.6808878183 54.298309326 1.7770512104 1.7770512104
 1887.5783691  -999.250000 13.326000214  -999.250000 -0.005004006 0.3621042371 2.3349905014 38.488410950 116.83805847 1.6460704803 54.491943359 1.8090015650 1.8090015650
 1887.7308350  -999.250000 13.270999908  -999.250000 -0.009980785 0.3645041585 2.3300118446 35.260284424 115.00119019 1.6681153774 55.669605255 1.8109775782 1.8109775782
 1887.8831787  -999.250000 13.222000122  -999.250000 0.0019927886 0.3527976573 2.3429582119 36.687957764 114.66412354 1.7041281462 56.669307709 1.7969952822 1.7969952822
 1888.0356445  -999.250000 13.180001259  -999.250000 -0.007000000 0.3524307907 2.3310289383 39.125289917 114.11294556 1.7441698313 55.806610107 1.7909631729 1.7909631729
 1888.1879883  -999.250000 13.142000198  -999.250000 -0.006994391 0.3567859828 2.3369805813 38.680812836 112.01958466 1.7972242832 55.562965393 1.7679911852 1.7679911852
 1888.3403320  -999.250000 13.108999252  -999.250000 0.0000080064 0.3675753474 2.3379969597 35.957122803 115.49568939 1.8671106100 55.521720886 1.7569952011 1.7569952011
 1888.4927979  -999.250000 13.086999893  -999.250000 0.0100080129 0.3806880116 2.3350095749 36.110179901 112.82162476 1.9130256176 55.172348022 1.7509912252 1.7509912252
 1888.6451416  -999.250000 13.071998596  -999.250000 0.0199967977 0.3754769266 2.3399839401 36.332328796 114.74555206 1.9209207296 54.360492706 1.7400120497 1.7400120497
 1888.7976074  -999.250000 13.083000183  -999.250000 0.0159903858 0.3678383827 2.3489782810 35.497055054 116.96638489 1.8877789974 53.724811554 1.7550352812 1.7550352812
 1888.9499512  -999.250000 13.128999710  -999.250000 0.0039959969 0.3681589067 2.3300607204 38.059360504 118.78768158 1.8188413382 53.494518280 1.7990528345 1.7990528345
 1889.1024170  -999.250000 13.199000359  -999.250000 -0.001005609 0.3718511164 2.3399758339 37.260559082 119.21916199 1.7528367043 54.141410828 1.8650512695 1.8650512695
 1889.2547607  -999.250000 13.272999763  -999.250000 -0.008000000 0.3584331274 2.3429903984 36.708133698 121.77674103 1.7018774748 54.653427124 1.9290792942 1.9290792942
 1889.4072266  -999.250000 13.298999786  -999.250000 -0.007991994 0.3352457583 2.3489856720 36.874111176 119.11588287 1.6509487629 53.938739777 2.0280609131 2.0280609131
 1889.5595703  -999.250000 13.258998871  -999.250000 -0.002999199 0.3212747276 2.3659455776 37.567134857 116.15273285 1.6350191832 51.904720306 2.0659592152 2.0659592152
 1889.7120361  -999.250000 13.218999863  -999.250000 -0.002001601 0.3305176198 2.3610119820 37.728015900 112.85197449 1.6413012743 51.556221008 2.0148656368 2.0148656368
 1889.8643799  -999.250000 13.258000374  -999.250000 -0.002998397 0.3431693912 2.3470447063 33.369392395 104.94458771 1.7353490591 51.695720673 1.9309326410 1.9309326410
 1890.0168457  -999.250000 13.244000435  -999.250000 -0.000991994 0.3603087962 2.3220601082 30.114934921 102.20538330 1.8452467918 52.597583771 1.8468638659 1.8468638659
 1890.1691895  -999.250000 13.135000229  -999.250000 0.0040016025 0.3803977668 2.2930929661 28.828599930 105.70277405 2.2338967323 53.585418701 1.7619646788 1.7619646788
 1890.3215332  -999.250000 13.026000023  -999.250000 0.0059983986 0.4004617631 2.2880160809 30.827259064 114.91499329 2.5126609802 54.109313965 1.7179496288 1.7179496288
 1890.4739990  -999.250000 12.973999977  -999.250000 0.0039983978 0.4148469865 2.2979681492 33.647151947 121.15042114 2.3707158566 54.500926971 1.6549631357 1.6549631357
 1890.6263428  -999.250000 13.043999672  -999.250000 0.0020008008 0.4112187624 2.3059742451 36.333175659 124.64530182 1.9702186584 54.410835266 1.6089639664 1.6089639664
 1890.7788086  -999.250000 13.173998833  -999.250000 0.0030016026 0.4110402763 2.2980256081 37.801208496 121.70729828 1.6457149982 54.207672119 1.5639759302 1.5639759302
 1890.9311523  -999.250000 13.293999672  -999.250000 0.0049935947 0.4188013077 2.2810544968 38.060321808 117.25974274 1.5570913553 53.796352386 1.5339888334 1.5339888334
 1891.0836182  -999.250000 13.315999985  -999.250000 -0.002996795 0.4138979018 2.2640407085 37.214572906 116.48276520 1.5952210426 52.987667084 1.5200103521 1.5200103521
 1891.2359619  -999.250000 13.293999672  -999.250000 0.0010080129 0.4162144065 2.2460577488 37.930637360 119.71968079 1.6641490459 52.575355530 1.5329879522 1.5329879522
