# LAS format log file from PETREL
# Project units are specified as depth units
#==================================================================
~Version information
VERS.   2.0:
WRAP.   NO:
#==================================================================
~Well
STRT .m      1740.8350830 :
STOP .m      3359.4750977 :
STEP .m     0.00000000 :
NULL .        -999.250000 :
COMP.           : COMPANY
WELL.  33/9-6   : WELL
FLD.            : FIELD
LOC.            : LOCATION
SRVC.           : SERVICE COMPANY
DATE.  2018-09-11 14:48:43   : Log Export Date {yyyy-MM-dd HH:mm:ss}
PROV.           : PROVINCE
UWI.   33/9-6   : UNIQUE WELL ID
API.            : API NUMBER
#==================================================================
~Curve
DEPT .m                   : DEPTH
Lithology_geolink ._      : Lithology_geolink
CALI .in                  : CALI
DRHO .g/cm3               : DRHO
NPHI .m3/m3               : NPHI
RHOB .g/cm3               : RHOB
GR .gAPI                  : GR
DTC .us/ft                : DTC
RDEP .ohm.m               : RDEP
SP .mV                    : SP
RSHA .ohm.m               : RSHA
RMED .ohm.m               : RMED
~Parameter
#==================================================================
~Ascii
# ...
 2059.5034180  -999.250000 15.072000504 -0.016000001 0.3878400028 2.2470030785 49.678001404 123.51399994 1.2599999905 61.396831512 1.3439935446 1.3439935446
 2059.6557617  -999.250000 15.303998947 -0.016000001 0.3928900063 2.2469999790 50.236999512 123.74099731 1.2550079823 64.412712097 1.3399344683 1.3399344683
 2059.8081055  -999.250000 14.994000435 -0.016000001 0.3903400004 2.2390384674 52.138999939 124.45500183 1.2430192232 66.732002258 1.2990000248 1.2990000248
 2059.9604492  -999.250000 14.843001366 -0.010009615 0.3836600184 2.2380046844 54.523998260 126.68199921 1.2360111475 67.507003784 1.2769999504 1.2769999504
 2060.1130371  -999.250000 15.031999588 -0.006000000 0.3769699931 2.2120833397 55.478122711 128.82299805 1.2280000448 66.824615479 1.2649759054 1.2649759054
 2060.2653809  -999.250000 15.170000076 -0.010000000 0.3757199943 2.2080128193 55.551071167 130.63600159 1.2180000544 65.961425781 1.2499679327 1.2499679327
 2060.4177246  -999.250000 15.432999611 -0.014992000 0.3849200010 2.1970527172 54.348751068 131.15199280 1.2100127935 64.980049133 1.2299984694 1.2299984694
 2060.5700684  -999.250000 15.557000160 -0.015998399 0.3810299933 2.2039663792 54.193000793 128.75000000 1.2040096521 63.762001038 1.2289999723 1.2289999723
 2060.7226563  -999.250000 15.161000252 -0.015000000 0.3752999902 2.2079870701 53.299316406 126.75299072 1.2050000429 62.937900543 1.2370047569 1.2370047569
 2060.8750000  -999.250000 15.314999580 -0.016000001 0.3857799768 2.2050094604 52.251316071 124.73600006 1.2079999447 62.254692078 1.2400624752 1.2400624752
 2061.0273438  -999.250000 15.362000465 -0.017996799 0.3956600130 2.1990191936 51.825847626 122.81199646 1.2129920721 61.436901093 1.2790319920 1.2790319920
 2061.1796875  -999.250000 15.470998764 -0.024988782 0.3865499794 2.2029807568 51.730998993 123.73600006 1.2239823341 60.127998352 1.2990000248 1.2990000248
 2061.3320313  -999.250000 15.663000107 -0.034983974 0.3735599816 2.2059857845 51.902999878 127.16999817 1.2359807491 59.756000519 1.3109999895 1.3109999895
 2061.4846191  -999.250000 15.819999695 -0.041000001 0.3666500151 2.2079935074 53.566371918 133.38299561 1.2530000210 60.108695984 1.3129951954 1.3129951954
 2061.6369629  -999.250000 15.882999420 -0.032014400 0.3759900033 2.2289328575 54.425716400 133.15699768 1.2689744234 59.917694092 1.3100206852 1.3100206852
 2061.7893066  -999.250000 15.942999840 -0.022016026 0.3812099695 2.2290000916 56.120998383 128.56599426 1.2849743366 59.728000641 1.3229999542 1.3229999542
 2061.9416504  -999.250000 15.873999596 -0.019004807 0.3797000051 2.2270095348 58.319999695 125.44100189 1.2989776134 59.506000519 1.3519999981 1.3519999981
 2062.0942383  -999.250000 16.235000610 -0.024000000 0.3709599972 2.2140209675 57.875900269 123.88700104 1.3159999847 59.308990479 1.3800384998 1.3800384998
 2062.2465820  -999.250000 16.162000656 -0.021000000 0.3637000024 2.2219743729 56.566951752 124.30000305 1.3279999495 59.305358887 1.4039968252 1.4039968252
 2062.3989258  -999.250000 15.906000137 -0.015009600 0.3702500165 2.2339615822 55.910610199 123.92900085 1.3469696045 59.530151367 1.4020015001 1.4020015001
 2062.5512695  -999.250000 16.243999481 -0.018993590 0.3770900071 2.2339999676 54.421001434 121.45400238 1.3509935141 60.248001099 1.4029999971 1.4029999971
 2062.7038574  -999.250000 16.197000504 -0.026000001 0.3847399950 2.2210206985 54.236015320 117.52700043 1.3389999866 61.281921387 1.4030689001 1.4030689001
 2062.8562012  -999.250000 16.090999603 -0.034000002 0.3817800283 2.2050511837 54.870101929 118.44100189 1.3279999495 62.483570099 1.4459984303 1.4459984303
 2063.0085449  -999.250000 15.750000954 -0.027011201 0.3874300122 2.2059969902 55.557636261 121.87000275 1.3060351610 64.710464478 1.4448560476 1.4448560476
 2063.1608887  -999.250000 15.470998764 -0.025003206 0.3950500190 2.2189583778 55.956001282 128.53799438 1.3010079861 66.249000549 1.3550000191 1.3550000191
 2063.3132324  -999.250000 15.350999832 -0.029991986 0.4065400064 2.1910896301 56.449001312 133.41299438 1.2940112352 67.123001099 1.2480000257 1.2480000257
 2063.4658203  -999.250000 15.229999542 -0.022000000 0.4193800092 2.1740543842 57.151187897 136.08299255 1.2829999924 67.726875305 1.2470608950 1.2470608950
 2063.6181641  -999.250000 15.052000046 -0.019004799 0.4077999890 2.1720063686 58.516460419 134.73800659 1.2600368261 68.271339417 1.2850959301 1.2850959301
 2063.7705078  -999.250000 14.846999168 -0.017003207 0.3976899981 2.1959230900 58.804000854 131.96899414 1.2480192184 67.855003357 1.3450000286 1.3450000286
 2063.9228516  -999.250000 14.831000328 -0.015003204 0.4013000131 2.1950030327 57.075000763 133.20700073 1.2549887896 66.689002991 1.3719999790 1.3719999790
 2064.0754395  -999.250000 14.902000427 -0.024000000 0.3995800018 2.1949999332 56.510852814 133.09800720 1.2580000162 65.598098755 1.3579615355 1.3579615355
 2064.2277832  -999.250000 14.977000237 -0.022000000 0.4045000076 2.1959969997 55.171672821 132.49200439 1.2660000324 63.788204193 1.3339582682 1.3339582682
 2064.3801270  -999.250000 15.079000473 -0.021001600 0.4003300071 2.1910159588 53.718219757 131.36099243 1.2699935436 61.424793243 1.3080031872 1.3080031872
 2064.5324707  -999.250000 14.935999870 -0.026990386 0.3947499990 2.1840224266 51.984001160 130.05200195 1.2739936113 60.049999237 1.3099999428 1.3099999428
 2064.6850586  -999.250000 14.714000702 -0.018999999 0.3897600174 2.1969792843 50.527549744 129.04200745 1.2810000181 60.047203064 1.3350400925 1.3350400925
 2064.8374023  -999.250000 14.776000023 -0.012000000 0.3806799948 2.2049744129 50.248428345 128.69900513 1.2779999971 60.173316956 1.3600159883 1.3600159883
 2064.9897461  -999.250000 14.998999596 -0.016992001 0.3698199987 2.2059969902 51.141475677 129.11199951 1.2819935083 60.371101379 1.3699903488 1.3699903488
 2065.1420898  -999.250000 15.269000053 -0.020993590 0.3675099909 2.2040064335 53.310001373 129.98100281 1.2919840813 60.436000824 1.3639999628 1.3639999628
 2065.2944336  -999.250000 14.982000351 -0.010017628 0.3787599802 2.2159616947 55.832000732 132.32600403 1.2929984331 60.431999207 1.3550000191 1.3550000191
 2065.4470215  -999.250000 14.848999977 -0.012000000 0.3898199797 2.1920766830 57.162639618 136.03300476 1.2910000086 60.429252625 1.3490176201 1.3490176201
 2065.5993652  -999.250000 14.852999687 -0.013996800 0.3986700177 2.1890094280 57.563098907 137.08399963 1.2800176144 60.585289001 1.3599680662 1.3599680662
 2065.7517090  -999.250000 14.898000717 -0.014998397 0.4016700089 2.1989679337 58.248001099 134.15299988 1.2660224438 60.766998291 1.3400000334 1.3400000334
 2065.9040527  -999.250000 14.923000336 -0.015998399 0.4049400091 2.2039840221 58.395999908 131.41499329 1.2570143938 60.924999237 1.3150000572 1.3150000572
 2066.0566406  -999.250000 14.945999146 -0.015000000 0.4071599841 2.2079935074 58.742641449 133.23899841 1.2549999952 61.073211670 1.2899614573 1.2899614573
 2066.2089844  -999.250000 14.961999893 -0.015000000 0.4043500125 2.2079999447 56.647884369 135.01899719 1.2539999485 61.202831268 1.2659615278 1.2659615278
 2066.3613281  -999.250000 14.958000183 -0.017999999 0.4003700018 2.1970353127 54.705322266 134.01199341 1.2549984455 61.097805023 1.2419984341 1.2419984341
 2066.5136719  -999.250000 14.938999176 -0.020000000 0.3955599964 2.1910192966 53.657001495 131.86700439 1.2540014982 60.977001190 1.2410000563 1.2410000563
 2066.6662598  -999.250000 14.911998749 -0.021000000 0.3971599936 2.2069742680 53.293041229 130.85621643 1.2599999905 60.692546844 1.2530512810 1.2530512810
 2066.8186035  -999.250000 14.906999588 -0.017999999 0.4005899727 2.2099905014 53.941978455 130.98924255 1.2630000114 60.409381866 1.2850736380 1.2850736380
 2066.9709473  -999.250000 14.951000214 -0.017999999 0.3933000267 2.2109968662 53.927371979 131.75929260 1.2669935226 60.648468018 1.3310863972 1.3310863972
 2067.1232910  -999.250000 15.034001350 -0.025000000 0.3776900172 2.2359199524 53.534999847 131.32099915 1.2779823542 60.942001343 1.3849999905 1.3849999905
