# LAS format log file from PETREL
# Project units are specified as depth units
#==================================================================
~Version information
VERS.   2.0:
WRAP.   NO:
#==================================================================
~Well
STRT .m      515.45703125 :
STOP .m      3237.9299316 :
STEP .m     0.00000000 :
NULL .        -999.250000 :
COMP.           : COMPANY
WELL.  33/9-17   : WELL
FLD.            : FIELD
LOC.            : LOCATION
SRVC.           : SERVICE COMPANY
DATE.  2018-09-11 14:48:42   : Log Export Date {yyyy-MM-dd HH:mm:ss}
PROV.           : PROVINCE
UWI.   33/9-17   : UNIQUE WELL ID
API.            : API NUMBER
#==================================================================
~Curve
DEPT .m                   : DEPTH
Lithology_geolink ._      : Lithology_geolink
CALI .in                  : CALI
BS .in                    : BS
DRHO .g/cm3               : DRHO
NPHI .m3/m3               : NPHI
RHOB .g/cm3               : RHOB
PEF .b/e                  : PEF
GR .gAPI                  : GR
DTC .us/ft                : DTC
RDEP .ohm.m               : RDEP
SP .mV                    : SP
RSHA .ohm.m               : RSHA
RMED .ohm.m               : RMED
~Parameter
#==================================================================
~Ascii
# ...
 2869.1220703  -999.250000 8.7810001373 8.5000000000 -0.003000000 0.2399999946 2.4890000820 2.4909870625 66.715927124 98.300003052 1.8654614687 -331.2500000 2.0742115974 2.0120000839
 2869.2744141  -999.250000 8.6879997253 8.5000000000 -0.007000000 0.2380000055 2.4879999161 2.4900047779 62.427513123 94.900001526 1.8884358406 -331.7500000 2.0550127029 1.9479999542
 2869.4267578  -999.250000 8.6800003052 8.5000000000 -0.009000000 0.2259999961 2.4779999256 2.4800481796 64.619308472 91.300003052 1.8837949038 -331.2500000 2.0290191174 1.9349999428
 2869.5793457  -999.250000 8.6879997253 8.5000000000 -0.011000000 0.2179999948 2.4639999866 2.4660449028 74.257347107 89.800003052 1.8411664963 -329.7500000 1.9888000488 2.0209999084
 2869.7316895  -999.250000 8.6879997253 8.5000000000 -0.012000000 0.2280000001 2.4630000591 2.4650030136 84.561897278 97.400001526 1.7727692127 -329.5000000 1.9280449152 1.9989999533
 2869.8840332  -999.250000 8.6879997253 8.5000000000 -0.009000000 0.2599999905 2.4709999561 2.4729616642 90.440513611 99.400001526 1.7125128508 -329.7500000 1.8586442471 1.8530000448
 2870.0363770  -999.250000 8.6800003052 8.5000000000 -0.007000000 0.2779999971 2.4800000191 2.4819569588 93.313003540 100.19998932 1.6819742918 -330.0000000 1.8094230890 1.7500000000
 2870.1889648  -999.250000 8.6800003052 8.5000000000 -0.004000000 0.2849999964 2.4809999466 2.4829969406 95.615509033 99.800003052 1.6738191843 -331.0000000 1.7913999557 1.7250000238
 2870.3413086  -999.250000 8.6800003052 8.5000000000 -0.005000000 0.2689999938 2.4790000916 2.4810063839 98.018203735 99.599998474 1.6718205214 -331.5000000 1.7919968367 1.7350000143
 2870.4936523  -999.250000 8.7030000687 8.5000000000 -0.005000000 0.2919999957 2.4820001125 2.4839856625 99.781204224 102.19999695 1.6662820578 -332.0000000 1.7957980633 1.7510000467
 2870.6459961  -999.250000 8.6800003052 8.5000000000 -0.004000000 0.2939999998 2.4809999466 2.4830048084 102.05003357 101.40000916 1.6565023661 -330.0000000 1.7975993156 1.7480000257
 2870.7985840  -999.250000 8.6800003052 8.5000000000 -0.007000000 0.3050000072 2.4760000706 2.4780158997 104.33227539 99.000000000 1.6454775333 -327.5000000 1.7979999781 1.7480000257
 2870.9509277  -999.250000 8.6800003052 8.5000000000 -0.010000000 0.2969999909 2.4709999561 2.4730160236 105.47843933 99.300003052 1.6374479532 -328.0000000 1.7961999178 1.7469999790
 2871.1032715  -999.250000 8.6800003052 8.5000000000 -0.011000000 0.3030000031 2.4639999866 2.4660224915 106.26878357 100.00000000 1.6326346397 -329.7500000 1.7914038897 1.7430000305
 2871.2556152  -999.250000 8.6800003052 8.5000000000 -0.008000000 0.3109999895 2.4719998837 2.4739615917 106.86322784 100.59999847 1.6286345720 -329.7500000 1.7854038477 1.7339999676
 2871.4079590  -999.250000 8.6879997253 8.5000000000 -0.008000000 0.3050000072 2.4700000286 2.4720094204 106.12841797 101.19999695 1.6216778755 -329.5000000 1.7782051563 1.7309999466
 2871.5605469  -999.250000 8.7030000687 8.5000000000 -0.004000000 0.3030000031 2.4800000191 2.4819681644 104.00209808 101.10000610 1.6085280180 -328.7500000 1.7653999329 1.7230000496
 2871.7128906  -999.250000 8.6879997253 8.5000000000 -0.002000000 0.2930000126 2.4769999981 2.4790096283 101.04985809 101.50000000 1.5889904499 -328.2500000 1.7422178984 1.7159999609
 2871.8652344  -999.250000 8.6879997253 8.5000000000 -0.002000000 0.3039999902 2.4719998837 2.4740240574 99.092254639 102.19999695 1.5663990974 -328.2500000 1.7088236809 1.6879999638
 2872.0175781  -999.250000 8.6800003052 8.5000000000 -0.004000000 0.2919999957 2.4660000801 2.4680287838 98.398353577 102.40000153 1.5469471216 -328.7500000 1.6742211580 1.6469999552
 2872.1701660  -999.250000 8.6800003052 8.5000000000 -0.006000000 0.3050000072 2.4630000591 2.4650094509 98.693580627 102.19999695 1.5358493328 -330.0000000 1.6532000303 1.6050000191
 2872.3225098  -999.250000 8.6800003052 8.5000000000 -0.011000000 0.2949999869 2.4609999657 2.4630064964 100.15167999 100.59999847 1.5300400257 -330.7500000 1.6527948380 1.5880000591
 2872.4748535  -999.250000 8.6879997253 8.5000000000 -0.013000000 0.3289999962 2.4679999352 2.4699664116 102.15116882 99.199996948 1.5244518518 -330.0000000 1.6655898094 1.6000000238
 2872.6271973  -999.250000 8.7110004425 8.5000000000 -0.012000000 0.3149999976 2.4730000496 2.4749758244 103.79545593 100.19998932 1.5172692537 -330.0000000 1.6779936552 1.6310000420
 2872.7797852  -999.250000 8.7270002365 8.5000000000 -0.014000000 0.3109999895 2.4769999981 2.4789872169 103.39298248 100.90000153 1.5104423761 -329.7500000 1.6789952517 1.6410000324
 2872.9321289  -999.250000 8.7030000687 8.5000000000 -0.011000000 0.3009999990 2.4670000076 2.4690320492 101.61001587 101.59999847 1.5068160295 -330.2500000 1.6685999632 1.6360000372
 2873.0844727  -999.250000 8.6800003052 8.5000000000 -0.010000000 0.3109999895 2.4700000286 2.4719903469 100.98952484 101.80000305 1.5054086447 -329.5000000 1.6546089649 1.6089999676
 2873.2368164  -999.250000 8.6800003052 8.5000000000 -0.008000000 0.3249999881 2.4719998837 2.4739904404 101.71141052 100.90000153 1.5044085979 -329.7500000 1.6430064440 1.6019999981
 2873.3891602  -999.250000 8.6800003052 8.5000000000 -0.007000000 0.3280000091 2.4790000916 2.4809663296 101.47960663 100.90000153 1.5028172731 -330.0000000 1.6348044872 1.5950000286
 2873.5417480  -999.250000 8.6800003052 8.5000000000 -0.005000000 0.3179999888 2.4800000191 2.4819970131 100.04564667 101.00000000 1.4996320009 -329.7500000 1.6296000481 1.5850000381
 2873.6940918  -999.250000 8.7030000687 8.5000000000 -0.007000000 0.3170000017 2.4749999046 2.4770159721 100.07074738 100.30000305 1.4968173504 -329.7500000 1.6280000210 1.5770000219
 2873.8464355  -999.250000 8.7030000687 8.5000000000 -0.011000000 0.3179999888 2.4730000496 2.4750094414 102.31070709 100.09999847 1.4989567995 -329.2500000 1.6315960884 1.5750000477
 2873.9987793  -999.250000 8.7030000687 8.5000000000 -0.010000000 0.3199999928 2.4749999046 2.4769904613 104.59552002 100.19998932 1.5086874962 -329.0000000 1.6429903507 1.5829999447
 2874.1513672  -999.250000 8.6879997253 8.5000000000 -0.011000000 0.3120000064 2.4719998837 2.4740095139 105.55005646 99.800003052 1.5264519453 -329.2500000 1.6621999741 1.6000000238
 2874.3037109  -999.250000 8.6800003052 8.5000000000 -0.013000000 0.3030000031 2.4649999142 2.4670224190 106.78213501 100.00000000 1.5492080450 -328.2500000 1.6865833998 1.6200000048
 2874.4560547  -999.250000 8.6800003052 8.5000000000 -0.011000000 0.3000000119 2.4609999657 2.4630193710 107.98770142 99.300003052 1.5731922388 -328.0000000 1.7131826878 1.6449999809
 2874.6083984  -999.250000 8.6879997253 8.5000000000 -0.006000000 0.3140000105 2.4679999352 2.4699664116 106.95395660 98.900009155 1.5954182148 -327.2500000 1.7389839888 1.6699999571
 2874.7609863  -999.250000 8.7810001373 8.5000000000 -0.007000000 0.3109999895 2.4670000076 2.4690032005 102.75859833 98.699996948 1.6134871244 -327.7500000 1.7603999376 1.6959999800
 2874.9133301  -999.250000 8.7889995575 8.5000000000 -0.007000000 0.3109999895 2.4739999771 2.4759776592 98.559478760 98.900009155 1.6247360706 -329.0000000 1.7745929956 1.7150000334
 2875.0656738  -999.250000 8.6879997253 8.5000000000 -0.007000000 0.3030000031 2.4739999771 2.4760000706 99.005508423 98.800003052 1.6303653717 -329.7500000 1.7819968462 1.7209999561
 2875.2180176  -999.250000 8.6800003052 8.5000000000 -0.007000000 0.2980000079 2.4779999256 2.4799807072 103.96598053 99.000000000 1.6302258968 -331.7500000 1.7845993042 1.7289999723
 2875.3706055  -999.250000 8.7189998627 8.5000000000 -0.009000000 0.3120000064 2.4690001011 2.4710288048 107.44676971 101.10000610 1.6242563725 -331.2500000 1.7807933092 1.7289999723
 2875.5229492  -999.250000 8.7340002060 8.5000000000 -0.008000000 0.3219999969 2.4709999561 2.4729936123 105.61638641 100.59999847 1.6138960123 -329.5000000 1.7671999931 1.7230000496
 2875.6752930  -999.250000 8.7110004425 8.5000000000 -0.005000000 0.3280000091 2.4719998837 2.4739968777 100.80760956 100.40000153 1.6048605442 -327.0000000 1.7486121655 1.7029999495
