# LAS format log file from PETREL
# Project units are specified as depth units
#==================================================================
~Version information
VERS.   2.0:
WRAP.   NO:
#==================================================================
~Well
STRT .m      785.37786865 :
STOP .m      3526.7492676 :
STEP .m     0.00000000 :
NULL .        -999.250000 :
COMP.           : COMPANY
WELL.  33/9-11   : WELL
FLD.            : FIELD
LOC.            : LOCATION
SRVC.           : SERVICE COMPANY
DATE.  2018-09-11 14:48:42   : Log Export Date {yyyy-MM-dd HH:mm:ss}
PROV.           : PROVINCE
UWI.   33/9-11   : UNIQUE WELL ID
API.            : API NUMBER
#==================================================================
~Curve
DEPT .m                   : DEPTH
Lithology_geolink ._      : Lithology_geolink
CALI .in                  : CALI
DRHO .g/cm3               : DRHO
NPHI .m3/m3               : NPHI
RHOB .g/cm3               : RHOB
GR .gAPI                  : GR
DTC .us/ft                : DTC
RDEP .ohm.m               : RDEP
SP .mV                    : SP
RSHA .ohm.m               : RSHA
RMED .ohm.m               : RMED
~Parameter
#==================================================================
~Ascii
# ...
 3117.0979004 7.0000000000 14.005999565 0.0150256408 0.3381800056 2.5789630413 95.990974426 94.690605164 2.0329999924 43.553043365 2.2279999256 2.2279999256
 3117.2502441 6.0000000000 13.102999687 0.0130032049 0.3131699860 2.5819952488 83.859458923 91.432235718 2.1849999428 40.652652740 2.5880000591 2.5880000591
 3117.4025879 6.0000000000 12.984000206 0.0189807992 0.3056399822 2.5550863743 80.037208557 87.303237915 2.2960000038 39.850559235 3.2439999580 3.2439999580
 3117.5551758 6.0000000000 12.979001045 0.0340000018 0.2949399948 2.5309998989 78.665184021 84.609313965 2.4860000610 38.521129608 3.9079999924 3.9079999924
 3117.7075195 6.0000000000 12.972998619 0.0469999984 0.2782500088 2.5179998875 73.688980103 84.928482056 2.7269999981 36.916572571 4.1609997749 4.1609997749
 3117.8598633 6.0000000000 12.966000557 0.0540000014 0.2639399767 2.5050001144 64.757316589 85.391265869 3.0169999599 35.785812378 4.3499999046 4.3499999046
 3118.0122070 5.0000000000 12.960000038 0.0430000015 0.2579999864 2.4920001030 58.727313995 85.843551636 3.2939999104 34.696491241 4.5229997635 4.5229997635
 3118.1647949 5.0000000000 12.954999924 0.0260000005 0.2595599890 2.4900000095 55.751747131 85.706222534 3.4860000610 33.253311157 4.6880002022 4.6880002022
 3118.3171387 5.0000000000 12.954000473 0.0149999997 0.2635000050 2.4990000725 53.599449158 85.544258118 3.5959999561 31.412952423 4.8390002251 4.8390002251
 3118.4694824 5.0000000000 12.954999924 0.0099999998 0.2671500146 2.5039999485 51.584232330 84.001487732 3.6300001144 30.494468689 5.0240001678 5.0240001678
 3118.6218262 5.0000000000 12.944999695 0.0130000003 0.2651499808 2.5039999485 51.156360626 83.348091125 3.6800000668 29.839099884 5.2480001450 5.2480001450
 3118.7744141 5.0000000000 12.884000778 0.0149999997 0.2593199909 2.4979999065 52.777393341 82.446441650 3.7390000820 28.845590591 5.2810001373 5.2810001373
 3118.9267578 5.0000000000  -999.250000 0.0089999996 0.2543900013 2.4800000191  -999.250000  -999.250000  -999.250000  -999.250000  -999.250000  -999.250000
 3119.0791016 5.0000000000 12.785000801 0.0030000000 0.2511500120 2.4570000172  -999.250000  -999.250000 3.7929999828  -999.250000 5.0000000000 5.0000000000
 3119.2314453 4.0000000000 12.715999603 0.0030000000 0.2487199903 2.4430000782 52.472915649 80.627151489 3.7839999199 26.069417953 4.8140001297 4.8140001297
 3119.3837891 4.0000000000 12.668999672 0.0070000002 0.2483000010 2.4360001087 49.543399811 81.063591003 3.6930000782 25.303451538 4.9380002022 4.9380002022
 3119.5363770 4.0000000000 12.614000320 0.0049999999 0.2513500154 2.4219999313 46.184375763 83.405242920 3.5820000172 25.220129013 5.0700001717 5.0700001717
 3119.6887207 4.0000000000 12.555000305 0.0010000000 0.2559399903 2.4059998989 44.897056580 84.780799866 3.5209999084 25.114170074 5.0500001907 5.0500001907
 3119.8410645 4.0000000000 12.450999260 0.0020000001 0.2604500055 2.3980000019 46.612243652 87.763214111 3.5720000267 25.113002777 4.7750000954 4.7750000954
 3119.9934082 4.0000000000 12.414999962 0.0010000000 0.2620100081 2.4000000954 46.936965942 89.172485352 3.6340000629 25.028272629 4.8670001030 4.8670001030
 3120.1459961 4.0000000000 12.402999878 -0.004000000 0.2646799982 2.4119999409 47.102737427 88.938377380 3.8039999008 25.375442505 5.2300000191 5.2300000191
 3120.2983398 4.0000000000 12.409000397 -0.009000000 0.2705699801 2.4370000362 48.047485352 87.201782227 4.0700001717 26.048919678 5.8850002289 5.8850002289
 3120.4506836 4.0000000000 12.425000191 -0.012000000 0.2760500014 2.4700000286 48.644046783 85.191215515 4.3489999771 26.785820007 6.5019998550 6.5019998550
 3120.6030273 4.0000000000 12.444001198 -0.010000000 0.2769399881 2.4939999580 49.193241119 82.966140747 4.5809998512 27.882482529 6.9790000916 6.9790000916
 3120.7556152 4.0000000000 12.457999229 -0.003000000 0.2709000111 2.5039999485 51.148864746 80.958213806 4.7719998360 28.596858978 7.2410001755 7.2410001755
 3120.9079590 4.0000000000 12.480999947 0.0020000001 0.2659900188 2.5120000839 53.209697723 80.401885986 4.8870000839 29.407701492 7.4539999962 7.4539999962
 3121.0603027 4.0000000000 12.522000313 0.0099999998 0.2665700018 2.5290000439 54.658679962 80.805351257 4.8829998970 30.148811340 7.8150000572 7.8150000572
 3121.2126465 5.0000000000 12.562000275 0.0189999994 0.2710300088 2.5499999523 54.517227173 79.570983887 4.8369998932 30.385622025 8.2390003204 8.2390003204
 3121.3652344 5.0000000000 12.586000443 0.0320000015 0.2779899836 2.5699999332 54.208496094 78.361938477 4.8769998550 31.488231659 7.7030000687 7.7030000687
 3121.5175781 5.0000000000 12.586000443 0.0410000011 0.2852900028 2.5820000172 55.732555389 77.496391296 4.9780001640 33.110397339 6.4369997978 6.4369997978
 3121.6699219 5.0000000000  -999.250000 0.0329999998 0.2887700200 2.5780000687  -999.250000  -999.250000  -999.250000  -999.250000  -999.250000  -999.250000
 3121.8222656 5.0000000000 12.559999466 0.0230000000 0.2838599980 2.5769999027  -999.250000  -999.250000 4.9260001183  -999.250000 5.9349999428 5.9349999428
 3121.9746094 5.0000000000 12.531000137 0.0140000004 0.2769800127 2.5639998913 55.227508545 77.729621887 4.8099999428 33.366100311 6.5339999199 6.5339999199
 3122.1271973 5.0000000000 12.516000748 0.0010000000 0.2736999989 2.5309998989 54.496166229 77.719024658 4.7140002251 32.835849762 7.7410001755 7.7410001755
 3122.2795410 5.0000000000 12.505000114 0.0000000000 0.2720600069 2.5060000420 54.117607117 77.296676636 4.6570000648 31.656892776 8.1730003357 8.1730003357
 3122.4318848 5.0000000000 12.468999863 -0.002000000 0.2739199996 2.4839999676 52.572479248 78.945350647 4.7329998016 30.523815155 6.8340001106 6.8340001106
 3122.5842285 5.0000000000 12.460000038 -0.007000000 0.2779700160 2.4690001011 52.442409515 80.500015259 4.8130002022 30.323637009 6.5229997635 6.5229997635
 3122.7368164 5.0000000000 12.470000267 -0.006000000 0.2802399993 2.4679999352 52.139484406 81.962654114 4.8940000534 30.443805695 6.5269999504 6.5269999504
 3122.8891602 5.0000000000 12.487000465 0.0000000000 0.2800000012 2.4849998951 53.247222900 82.156692505 4.9710001945 31.544233322 6.7979998589 6.7979998589
 3123.0415039 5.0000000000 12.500000000 0.0060000001 0.2796899974 2.5030000210 55.735008240 81.382240295 5.0510001183 33.166397095 7.4019999504 7.4019999504
 3123.1938477 5.0000000000 12.503999710 0.0120000001 0.2851600051 2.5209999084 57.139503479 79.641586304 5.1380000114 33.719234467 8.2030000687 8.2030000687
 3123.3464355 5.0000000000 12.496000290 0.0189999994 0.2942900062 2.5480000973 58.063522339 77.978660583 5.2449998856 34.509735107 8.7559995651 8.7559995651
 3123.4987793 5.0000000000 12.479999542 0.0240000002 0.3049600124 2.5769999027 58.309608459 76.665107727 5.3159999847 35.342666626 8.6969995499 8.6969995499
 3123.6511230 5.0000000000 12.465999603 0.0270000007 0.3185499907 2.6040000916 57.770866394 76.249664307 5.2899999619 35.761329651 8.1890001297 8.1890001297
 3123.8034668 5.0000000000 12.470000267 0.0289999992 0.3302899897 2.6259999275 58.007617950 76.231040955 5.1609997749 35.618228912 7.8750000000 7.8750000000
 3123.9558105 5.0000000000 12.503999710 0.0260000005 0.3312900066 2.6300001144 58.021953583 76.531036377 4.8670001030 34.852455139 7.8759999275 7.8759999275
 3124.1083984 5.0000000000 12.536999702 0.0160000008 0.3245399892 2.6119999886 56.511425018 77.517425537 4.4730000496 33.616981506 7.7010002136 7.7010002136
 3124.2607422 5.0000000000  -999.250000 0.0080000004 0.3172100186 2.5810000896  -999.250000  -999.250000  -999.250000  -999.250000  -999.250000  -999.250000
 3124.4130859 5.0000000000 12.542999268 0.0070000002 0.3096999824 2.5350000858  -999.250000  -999.250000 4.0770001411  -999.250000 6.0120000839 6.0120000839
 3124.5654297 5.0000000000 12.527999878 0.0060000001 0.2934300005 2.4960000515 54.270687103 79.224632263 3.7109999657 30.687990189 3.8919999599 3.8919999599
 3124.7180176 5.0000000000 12.501000404 0.0020000001 0.2691600025 2.4590001106 52.561737061 79.974800110 3.3870000839 28.734128952 3.4500000477 3.4500000477
