# LAS format log file from PETREL
# Project units are specified as depth units
#==================================================================
~Version information
VERS.   2.0:
WRAP.   NO:
#==================================================================
~Well
STRT .m      457.60995483 :
STOP .m      3127.1992188 :
STEP .m     0.00000000 :
NULL .        -999.250000 :
COMP.           : COMPANY
WELL.  33/9-1   : WELL
FLD.            : FIELD
LOC.            : LOCATION
SRVC.           : SERVICE COMPANY
DATE.  2018-09-11 14:48:42   : Log Export Date {yyyy-MM-dd HH:mm:ss}
PROV.           : PROVINCE
UWI.   33/9-1   : UNIQUE WELL ID
API.            : API NUMBER
#==================================================================
~Curve
DEPT .m                   : DEPTH
Lithology_geolink ._      : Lithology_geolink
CALI .in                  : CALI
BS .in                    : BS
DRHO .g/cm3               : DRHO
NPHI .m3/m3               : NPHI
RHOB .g/cm3               : RHOB
GR .gAPI                  : GR
DTC .us/ft                : DTC
RDEP .ohm.m               : RDEP
SP .mV                    : SP
RSHA .ohm.m               : RSHA
RMED .ohm.m               : RMED
~Parameter
#==================================================================
~Ascii
# ...
 2769.2116699 5.0000000000 9.1890001297 8.5000000000 -0.022000000 0.3336899877 2.4130001068 61.202999115 94.066009521 3.4590001106 79.541000366 4.2300000191 4.2300000191
 2769.3642578 5.0000000000 9.2030000687 8.5000000000 -0.024000000 0.3412599862 2.4170000553 62.291999817 93.933998108 3.4500000477 79.818000793 4.2300000191 4.2300000191
 2769.5166016 5.0000000000 9.2170000076 8.5000000000 -0.018999999 0.3479600251 2.4240000248 62.644001007 93.814002991 3.4409999847 80.554000854 4.2300000191 4.2300000191
 2769.6689453 5.0000000000 9.2340002060 8.5000000000 -0.011000000 0.3545299768 2.4279999733 60.853000641 93.668998718 3.4319999218 80.405998230 4.2300000191 4.2300000191
 2769.8212891 5.0000000000 9.2580003738 8.5000000000 -0.006000000 0.3550400138 2.4289999008 59.555999756 93.444999695 3.4240000248 79.650001526 4.2300000191 4.2300000191
 2769.9738770 5.0000000000 9.2819995880 8.5000000000 -0.009000000 0.3437200189 2.4300000668 58.668998718 93.152999878 3.4140000343 79.458000183 4.2300000191 4.2300000191
 2770.1262207 5.0000000000 9.3059997559 8.5000000000 -0.012000000 0.3359400034 2.4279999733 59.074001312 92.992996216 3.4049999714 79.458999634 4.2659997940 4.2659997940
 2770.2785645 5.0000000000 9.3299999237 8.5000000000 -0.015000000 0.3301199973 2.4289999008 58.473999023 92.850997925 3.3949999809 79.459999084 4.2750000954 4.2750000954
 2770.4309082 5.0000000000 9.3540000916 8.5000000000 -0.015000000 0.3218100071 2.4370000362 59.171001434 92.713996887 3.3780000210 78.522003174 4.2300000191 4.2300000191
 2770.5832520 5.0000000000 9.3780002594 8.5000000000 -0.010000000 0.3173699975 2.4340000153 58.384998322 92.608001709 3.3580000401 79.502998352 4.2300000191 4.2300000191
 2770.7358398 5.0000000000 9.3780002594 8.5000000000 -0.004000000 0.3235499859 2.4389998913 59.930000305 92.549003601 3.3380000591 82.328002930 4.2300000191 4.2300000191
 2770.8881836 5.0000000000 9.3669996262 8.5000000000 -0.003000000 0.3331700265 2.4470000267 60.764999390 92.657997131 3.3180000782 81.526000977 4.2300000191 4.2300000191
 2771.0405273 5.0000000000 9.3090000153 8.5000000000 -0.002000000 0.3367300034 2.4479999542 60.694999695 92.763000488 3.3029999733 81.023002625 4.2300000191 4.2300000191
 2771.1928711 5.0000000000 9.2760000229 8.5000000000 0.0020000001 0.3360699713 2.4579999447 60.465000153 92.869003296 3.3190000057 81.060997009 4.2459998131 4.2459998131
 2771.3454590 5.0000000000 9.3059997559 8.5000000000 0.0080000004 0.3327299953 2.4660000801 58.895999908 93.022003174 3.3350000381 81.061996460 4.2690000534 4.2690000534
 2771.4978027 5.0000000000 9.3319997787 8.5000000000 0.0049999999 0.3243399858 2.4609999657 59.623001099 93.250000000 3.3510000706 80.733001709 4.2690000534 4.2690000534
 2771.6501465 5.0000000000 9.3590002060 8.5000000000 -0.006000000 0.3193899989 2.4440000057 59.292999268 93.476997375 3.3670001030 80.073997498 4.2680001259 4.2680001259
 2771.8024902 5.0000000000 9.3760004044 8.5000000000 -0.003000000 0.3147999942 2.4370000362 61.430999756 93.704994202 3.3829998970 82.319999695 4.2300000191 4.2300000191
 2771.9550781 5.0000000000 9.3400001526 8.5000000000 -0.004000000 0.3100199997 2.4279999733 63.851001740 94.014999390 3.3989999294 81.751998901 4.2300000191 4.2300000191
 2772.1074219 5.0000000000 9.3000001907 8.5000000000 -0.007000000 0.3107999861 2.4200000763 66.711997986 94.335998535 3.4149999619 81.148002625 4.2569999695 4.2569999695
 2772.2597656 5.0000000000 9.1990003586 8.5000000000 -0.007000000 0.3172699809 2.4230000973 68.950996399 94.656997681 3.4200000763 81.365997314 4.3049998283 4.3049998283
 2772.4121094 5.0000000000 9.1070003510 8.5000000000 -0.007000000 0.3234499991 2.4360001087 68.896003723 94.978996277 3.4089999199 81.442001343 4.3530001640 4.3530001640
 2772.5644531 5.0000000000 9.1070003510 8.5000000000 -0.005000000 0.3209400177 2.4479999542 69.578002930 95.004997253 3.3989999294 81.541000366 4.3889999390 4.3889999390
 2772.7170410 5.0000000000 9.0889997482 8.5000000000 -0.007000000 0.3127200007 2.4519999027 69.422996521 94.421989441 3.3780000210 81.623001099 4.3889999390 4.3889999390
 2772.8693848 5.0000000000 9.0609998703 8.5000000000 -0.007000000 0.3111900091 2.4430000782 70.223999023 93.990997314 3.3450000286 81.583999634 4.3889999390 4.3889999390
 2773.0217285 5.0000000000 9.0319995880 8.5000000000 -0.005000000 0.3154500127 2.4279999733 70.222999573 93.752998352 3.3110001087 81.398002625 4.3889999390 4.3889999390
 2773.1740723 5.0000000000 9.0069999695 8.5000000000 -0.003000000 0.3194499910 2.4349999428 68.541999817 93.667999268 3.2780001163 81.382003784 4.3889999390 4.3889999390
 2773.3266602 5.0000000000 9.0000000000 8.5000000000 -0.002000000 0.3206399977 2.4479999542 69.002998352 93.727996826 3.2439999580 81.736999512 4.3730001450 4.3730001450
 2773.4790039 5.0000000000 8.9940004349 8.5000000000 -0.001000000 0.3201400042 2.4570000172 70.055000305 93.953002930 3.2109999657 82.093002319 4.3249998093 4.3249998093
 2773.6313477 6.0000000000 8.9879999161 8.5000000000 -0.002000000 0.3197299838 2.4590001106 70.795997620 94.357002258 3.1760001183 82.371002197 4.2779998779 4.2779998779
 2773.7836914 6.0000000000 8.9879999161 8.5000000000 -0.008000000 0.3281300068 2.4509999752 76.320999146 94.839996338 3.1400001049 81.680000305 4.2309999466 4.2309999466
 2773.9362793 6.0000000000 8.9879999161 8.5000000000 -0.016000001 0.3420200050 2.4479999542 75.079002380 95.344001770 3.1050000191 80.612998962 4.1849999428 4.1849999428
 2774.0886230 6.0000000000 8.9300003052 8.5000000000 -0.022000000 0.3549100161 2.4349999428 75.456001282 96.033996582 3.0690000057 82.361999512 4.1399998665 4.1399998665
 2774.2409668 6.0000000000 8.9079999924 8.5000000000 -0.025000000 0.3601100147 2.4349999428 78.536003113 96.796997070 3.0369999409 83.968002319 4.0949997902 4.0949997902
 2774.3933105 6.0000000000 8.9079999924 8.5000000000 -0.022000000 0.3582400084 2.4470000267 79.152999878 97.423004150 3.0199999809 84.774002075 4.0789999962 4.0789999962
 2774.5456543 6.0000000000 8.9149999619 8.5000000000 -0.011000000 0.3548799753 2.4539999962 76.642997742 97.827003479 3.0039999485 83.566001892 4.0539999008 4.0539999008
 2774.6982422 6.0000000000 8.9259996414 8.5000000000 -0.004000000 0.3470600247 2.4630000591 78.570999146 97.962997437 2.9869999886 83.176002502 4.0430002213 4.0430002213
 2774.8505859 6.0000000000 8.9460000992 8.5000000000 0.0020000001 0.3419900239 2.4749999046 78.152000427 99.896003723 2.9700000286 83.279998779 4.0430002213 4.0430002213
 2775.0029297 6.0000000000 8.9680004120 8.5000000000 0.0040000002 0.3459099829 2.4749999046 77.271003723 119.84899902 2.9530000687 83.481002808 4.0430002213 4.0430002213
 2775.1552734 6.0000000000 9.0010004044 8.5000000000 0.0010000000 0.3449499905 2.4839999676 76.134002686 99.969001770 2.9370000362 83.759002686 4.0430002213 4.0430002213
 2775.3078613 5.0000000000 9.0249996185 8.5000000000 -0.002000000 0.3427200019 2.4790000916 74.339996338 118.70700073 2.9309999943 83.683998108 4.0069999695 4.0069999695
 2775.4602051 5.0000000000 9.0120000839 8.5000000000 -0.002000000 0.3398899734 2.4809999466 71.858001709 122.18900299 2.9309999943 83.485000610 4.0000000000 4.0000000000
 2775.6125488 5.0000000000 9.0069999695 8.5000000000 -0.001000000 0.3409000039 2.4830000401 69.732002258 122.50700378 2.9309999943 83.097000122 3.9570000172 3.9570000172
 2775.7648926 5.0000000000 9.0139999390 8.5000000000 -0.002000000 0.3458800018 2.4909999371 71.550003052 122.93900299 2.9309999943 83.022003174 3.9340000153 3.9340000153
 2775.9174805 5.0000000000 9.0310001373 8.5000000000 -0.006000000 0.3463400006 2.4990000725 71.279998779 122.95099640 2.9319999218 83.508003235 3.9340000153 3.9340000153
 2776.0698242 5.0000000000 9.0480003357 8.5000000000 -0.012000000 0.3409099877 2.5039999485 69.436996460 116.74299622 2.9319999218 83.390998840 3.9349999428 3.9349999428
 2776.2221680 5.0000000000 9.0600004196 8.5000000000 -0.012000000 0.3418299854 2.4990000725 68.413002014 117.76399231 2.9270000458 83.105003357 3.9349999428 3.9349999428
 2776.3745117 5.0000000000 9.0600004196 8.5000000000 -0.005000000 0.3473400176 2.4949998856 67.111999512 116.98599243 2.9179999828 83.038002014 3.9349999428 3.9349999428
