# LAS format log file from PETREL
# Project units are specified as depth units
#==================================================================
~Version information
VERS.   2.0:
WRAP.   NO:
#==================================================================
~Well
STRT .m      515.45703125 :
STOP .m      3237.9299316 :
STEP .m     0.00000000 :
NULL .        -999.250000 :
COMP.           : COMPANY
WELL.  33/9-17   : WELL
FLD.            : FIELD
LOC.            : LOCATION
SRVC.           : SERVICE COMPANY
DATE.  2018-09-11 14:48:42   : Log Export Date {yyyy-MM-dd HH:mm:ss}
PROV.           : PROVINCE
UWI.   33/9-17   : UNIQUE WELL ID
API.            : API NUMBER
#==================================================================
~Curve
DEPT .m                   : DEPTH
Lithology_geolink ._      : Lithology_geolink
CALI .in                  : CALI
BS .in                    : BS
DRHO .g/cm3               : DRHO
NPHI .m3/m3               : NPHI
RHOB .g/cm3               : RHOB
PEF .b/e                  : PEF
GR .gAPI                  : GR
DTC .us/ft                : DTC
RDEP .ohm.m               : RDEP
SP .mV                    : SP
RSHA .ohm.m               : RSHA
RMED .ohm.m               : RMED
~Parameter
#==================================================================
~Ascii
# ...
 1420.7128906  -999.250000 12.921999931 8.5000000000 -0.012000000 0.4850000143 1.9500000477  -999.250000 65.687202454 163.39999390 0.6250000000 224.12500000 0.6385969520 0.5910000205
 1420.8652344  -999.250000 12.961000443 8.5000000000 -0.005000000 0.5090000033 1.9670000076  -999.250000 65.935096741 161.89999390 0.6250000000 224.37500000 0.6437718272 0.6039999723
 1421.0177002  -999.250000 12.733999252 8.5000000000 -0.009000000 0.4740000069 1.9459999800  -999.250000 70.713981628 162.39999390 0.6250000000 224.75000000 0.6470000148 0.6050000191
 1421.1700439  -999.250000 12.906000137 8.5000000000 -0.014000000 0.4950000048 1.9179999828  -999.250000 74.518783569 162.69999695 0.6255937219 224.87500000 0.6470000148 0.5989999771
 1421.3225098  -999.250000 12.828000069 8.5000000000 -0.016000001 0.4880000055 1.8980000019  -999.250000 74.443481445 163.80000305 0.6271881461 225.12500000 0.6464030743 0.5979999900
 1421.4748535  -999.250000 12.421999931 8.5000000000 -0.018999999 0.5159999728 1.9019999504  -999.250000 71.614997864 164.50000000 0.6285937428 225.50000000 0.6442105770 0.6010000110
 1421.6271973  -999.250000 12.500000000 8.5000000000 -0.023000000 0.4860000014 1.9049999714  -999.250000 68.440643311 165.00000000 0.6301865578 225.12500000 0.6400192380 0.6090000272
 1421.7796631  -999.250000 12.382999420 8.5000000000 -0.023000000 0.4749999940 1.9279999733  -999.250000 67.516784668 165.10000610 0.6345624924 225.00000000 0.6374030709 0.6090000272
 1421.9320068  -999.250000 12.663999557 8.5000000000 -0.017000001 0.4589999914 1.9479999542  -999.250000 67.761314392 165.10000610 0.6370000243 225.12500000 0.6346141100 0.6069999933
 1422.0844727  -999.250000 13.046999931 8.5000000000 -0.016000001 0.4740000069 1.9559999704  -999.250000 70.340469360 163.49998474 0.6375937462 225.12500000 0.6347908378 0.6039999723
 1422.2368164  -999.250000 12.944999695 8.5000000000 -0.014000000 0.4970000088 1.9520000219  -999.250000 72.780532837 161.80000305 0.6380000114 225.12500000 0.6419647932 0.6010000110
 1422.3892822  -999.250000 12.819999695 8.5000000000 -0.014000000 0.5170000196 1.9420000315  -999.250000 72.822753906 162.39999390 0.6374059319 224.87500000 0.6489847898 0.5979999900
 1422.5416260  -999.250000 12.828000069 8.5000000000 -0.013000000 0.5189999938 1.9329999685  -999.250000 70.423973083 163.10000610 0.6352187395 225.00000000 0.6462281942 0.5979999900
 1422.6940918  -999.250000 12.250000954 8.5000000000 -0.012000000 0.4939999878 1.9170000553  -999.250000 68.409652710 163.39999390 0.6316236854 225.12500000 0.6370304823 0.5979999900
 1422.8464355  -999.250000 12.453000069 8.5000000000 -0.012000000 0.4850000143 1.9060000181  -999.250000 66.882659912 163.60000610 0.6288124919 225.37500000 0.6330000162 0.5979999900
 1422.9989014  -999.250000 12.727001190 8.5000000000 -0.013000000 0.5159999728 1.9110000134  -999.250000 65.788230896 162.89997864 0.6244355440 225.00000000 0.6300152540 0.6050000191
 1423.1512451  -999.250000 12.461001396 8.5000000000 -0.010000000 0.5360000134 1.9329999685  -999.250000 67.859466553 163.39999390 0.6214062572 224.87500000 0.6208422780 0.6129999757
 1423.3037109  -999.250000 12.538999557 8.5000000000 -0.009000000 0.5189999938 1.9529999495  -999.250000 69.609786987 162.80001831 0.6209999919 224.62500000 0.6171938777 0.6039999723
 1423.4560547  -999.250000 12.546999931 8.5000000000 -0.014000000 0.5099999905 1.9500000477  -999.250000 69.605751038 161.30000305 0.6186249852 225.00000000 0.6239647865 0.5939999819
 1423.6083984  -999.250000 12.421999931 8.5000000000 -0.017999999 0.5019999743 1.9299999475  -999.250000 66.867248535 163.39999390 0.6152201891 225.12500000 0.6315769553 0.5960000157
 1423.7608643  -999.250000 12.116999626 8.5000000000 -0.017999999 0.5090000033 1.9160000086  -999.250000 65.409812927 161.30000305 0.6104375124 224.75000000 0.6334030628 0.5950000286
 1423.9132080  -999.250000 12.078000069 8.5000000000 -0.021000000 0.4709999859 1.9040000439  -999.250000 67.406158447 162.60000610 0.6085932851 224.50000000 0.6318070292 0.5830000043
 1424.0656738  -999.250000 12.430000305 8.5000000000 -0.023000000 0.4490000010 1.8990000486  -999.250000 70.147377014 164.00000000 0.6113749743 225.25000000 0.6262243390 0.5820000172
 1424.2180176  -999.250000 12.633000374 8.5000000000 -0.021000000 0.4720000029 1.9060000181  -999.250000 72.109252930 164.60000610 0.6135937572 225.37500000 0.6206141114 0.5910000205
 1424.3704834  -999.250000 12.788998604 8.5000000000 -0.023000000 0.5170000196 1.9029999971  -999.250000 71.328582764 165.30001831 0.6175644398 225.12500000 0.6184030175 0.5950000286
 1424.5228271  -999.250000 12.663999557 8.5000000000 -0.022000000 0.5490000248 1.9129999876  -999.250000 69.016059875 163.60000610 0.6217812896 225.25000000 0.6221753359 0.5939999819
 1424.6752930  -999.250000 12.711000443 8.5000000000 -0.021000000 0.5500000119 1.9229999781  -999.250000 69.738746643 162.20001221 0.6271585226 224.50000000 0.6315664649 0.5929999948
 1424.8276367  -999.250000 12.413998604 8.5000000000 -0.018999999 0.5249999762 1.9390000105  -999.250000 73.499877930 162.20001221 0.6329687238 225.12500000 0.6413682699 0.5870000124
 1424.9801025  -999.250000 12.421999931 8.5000000000 -0.021000000 0.5299999714 1.9329999685  -999.250000 76.327964783 162.20001221 0.6349999905 225.50000000 0.6455969810 0.5830000043
 1425.1324463  -999.250000 12.413998604 8.5000000000 -0.016000001 0.5159999728 1.9279999733  -999.250000 74.949684143 161.10000610 0.6326249838 225.87500000 0.6424211264 0.5820000172
 1425.2849121  -999.250000 12.477000237 8.5000000000 -0.015000000 0.4760000110 1.9179999828  -999.250000 70.810890198 161.60000610 0.6309999824 225.87500000 0.6364182830 0.5879999995
 1425.4372559  -999.250000 12.624999046 8.5000000000 -0.018999999 0.4449999928 1.9099999666  -999.250000 67.702781677 163.19999695 0.6309999824 225.50000000 0.6304211617 0.5970000029
 1425.5895996  -999.250000 12.578000069 8.5000000000 -0.024000000 0.4609999955 1.8999999762  -999.250000 66.431304932 164.39999390 0.6315932870 225.37500000 0.6274038553 0.6060000062
 1425.7420654  -999.250000 12.578000069 8.5000000000 -0.021000000 0.4850000143 1.9049999714  -999.250000 67.065536499 163.30000305 0.6314062476 225.12500000 0.6269999743 0.6069999933
 1425.8944092  -999.250000 12.656000137 8.5000000000 -0.024000000 0.4639999866 1.9060000181  -999.250000 70.895309448 162.80001831 0.6315932870 225.37500000 0.6299824119 0.6010000110
 1426.0468750  -999.250000 12.750000000 8.5000000000 -0.026000001 0.4560000002 1.9119999409  -999.250000 72.653594971 162.50000000 0.6320000291 225.75000000 0.6308060884 0.5950000286
 1426.1992188  -999.250000 12.516000748 8.5000000000 -0.023000000 0.4959999919 1.9170000553  -999.250000 73.979980469 163.30000305 0.6320000291 226.12500000 0.6288070679 0.5899999738
 1426.3516846  -999.250000 12.671999931 8.5000000000 -0.025000000 0.5210000277 1.9090000391  -999.250000 74.165969849 163.60000610 0.6314062476 225.50000000 0.6303878427 0.5889999866
 1426.5040283  -999.250000 12.477000237 8.5000000000 -0.027000001 0.5249999762 1.9069999456  -999.250000 75.599624634 161.60000610 0.6304062605 225.25000000 0.6355788708 0.5899999738
 1426.6564941  -999.250000 12.727001190 8.5000000000 -0.027000001 0.4970000088 1.9140000343  -999.250000 74.559692383 163.19999695 0.6288118362 224.87500000 0.6374030709 0.5929999948
 1426.8088379  -999.250000 12.750000000 8.5000000000 -0.025000000 0.4930000007 1.9199999571  -999.250000 71.664222717 164.89999390 0.6244375110 224.75000000 0.6340176463 0.5910000205
 1426.9613037  -999.250000 12.921999931 8.5000000000 -0.024000000 0.4670000076 1.9210000038  -999.250000 70.936744690 164.00000000 0.6225940585 225.37500000 0.6308060884 0.5870000124
 1427.1136475  -999.250000 12.883000374 8.5000000000 -0.024000000 0.4709999859 1.9179999828  -999.250000 70.132621765 164.10000610 0.6224062443 225.75000000 0.6234387755 0.5910000205
 1427.2661133  -999.250000 12.430000305 8.5000000000 -0.017999999 0.5009999871 1.9320000410  -999.250000 68.341285706 162.30000305 0.6208118200 225.62500000 0.6154182553 0.6010000110
