# LAS format log file from PETREL
# Project units are specified as depth units
#==================================================================
~Version information
VERS.   2.0:
WRAP.   NO:
#==================================================================
~Well
STRT .m      515.45703125 :
STOP .m      3237.9299316 :
STEP .m     0.00000000 :
NULL .        -999.250000 :
COMP.           : COMPANY
WELL.  33/9-17   : WELL
FLD.            : FIELD
LOC.            : LOCATION
SRVC.           : SERVICE COMPANY
DATE.  2018-09-11 14:48:42   : Log Export Date {yyyy-MM-dd HH:mm:ss}
PROV.           : PROVINCE
UWI.   33/9-17   : UNIQUE WELL ID
API.            : API NUMBER
#==================================================================
~Curve
DEPT .m                   : DEPTH
Lithology_geolink ._      : Lithology_geolink
CALI .in                  : CALI
BS .in                    : BS
DRHO .g/cm3               : DRHO
NPHI .m3/m3               : NPHI
RHOB .g/cm3               : RHOB
PEF .b/e                  : PEF
GR .gAPI                  : GR
DTC .us/ft                : DTC
RDEP .ohm.m               : RDEP
SP .mV                    : SP
RSHA .ohm.m               : RSHA
RMED .ohm.m               : RMED
~Parameter
#==================================================================
~Ascii
# ...
 1782.8150635  -999.250000 8.3360004425 8.5000000000 -1.151000023 0.5450000167 1.7779999971  -999.250000 53.019962311 79.000000000 0.7762249708 -246.1250000 0.7616140842 1950.0000000
 1782.9675293  -999.250000 8.3360004425 8.5000000000 -1.144000053 0.5199999809 1.7389999628  -999.250000 54.238567352 82.099998474 0.7702628374 -245.2500000 0.7564182878 1950.0000000
 1783.1198730  -999.250000 8.3360004425 8.5000000000 -1.105999947 0.5550000072 1.7539999485  -999.250000 55.597618103 82.400001526 0.7640416622 -240.5000000 0.7593683004 1950.0000000
 1783.2723389  -999.250000 8.3360004425 8.5000000000 -1.088999987 0.5529999733 1.7849999666  -999.250000 56.686779022 82.400001526 0.7531177998 -237.8750000 0.7564334869 1950.0000000
 1783.4246826  -999.250000 8.3360004425 8.5000000000 -1.077000022 0.5699999928 1.7970000505  -999.250000 57.578170776 -3.599999666 0.7410832644 -234.1250000 0.7382810116 1950.0000000
 1783.5770264  -999.250000 8.3360004425 8.5000000000 -1.067000031 0.5400000215 1.8289999962  -999.250000 58.113464355 -3.599999666 0.7381827235 -233.1250000 0.7272115350 1950.0000000
 1783.7294922  -999.250000 8.3360004425 8.5000000000 -1.078999996 0.5450000167 1.8109999895  -999.250000 57.589916229 107.00000000 0.7425500751 -230.8750000 0.7319695354 1950.0000000
 1783.8818359  -999.250000 8.3360004425 8.5000000000 -1.100000024 0.5569999814 1.8480000496  -999.250000 55.973369598 97.900001526 0.7414519191 -238.1250000 0.7377894521 1950.0000000
 1784.0343018  -999.250000 8.3830003738 8.5000000000 -1.069000006 0.5720000267 1.9639999866  -999.250000 55.054161072 97.900001526 0.7360392809 -238.5000000 0.7366122007 1950.0000000
 1784.1866455  -999.250000 8.5000000000 8.5000000000 -0.700999975 0.5460000038 2.1679999828  -999.250000 57.566894531 97.800003052 0.7357750535 -236.2500000 0.7296317220 1950.0000000
 1784.3391113  -999.250000 8.7340002060 8.5000000000 -0.495999992 0.4920000136 1.9090000391  -999.250000 64.529998779 220.69999695 0.7387764454 -244.6250000 0.7283878326 1950.0000000
 1784.4914551  -999.250000 9.0939998627 8.5000000000 -0.314999998 0.4440000057 1.8700000048  -999.250000 73.273689270 220.69999695 0.7447333932 -249.5000000 0.7377541661 1950.0000000
 1784.6439209  -999.250000 9.1800003052 8.5000000000 -0.150999993 0.4460000098 1.9210000038  -999.250000 79.238319397 220.69999695 0.7533293366 -260.0000000 0.7424030304 1950.0000000
 1784.7962646  -999.250000 9.1949996948 8.5000000000 -0.027000001 0.4469999969 2.0559999943  -999.250000 80.520713806 141.50000000 0.7587750554 -263.0000000 0.7408070564 1950.0000000
 1784.9487305  -999.250000 9.4219999313 8.5000000000 -0.007000000 0.4539999962 2.0520000458  -999.250000 80.817581177 140.80000305 0.7623704672 -278.0000000 0.7405969501 1950.0000000
 1785.1010742  -999.250000 10.093999863 8.5000000000 -0.011000000 0.4760000110 2.0239999294  -999.250000 83.803565979 143.00000000 0.7687435746 -278.5000000 0.7433859110 27.922000885
 1785.2535400  -999.250000 11.406000137 8.5000000000 -0.006000000 0.4779999852 2.0139999390  -999.250000 89.060905457 144.00000000 0.7737798095 -286.5000000 0.7479847670 1950.0000000
 1785.4058838  -999.250000 12.328000069 8.5000000000 -0.004000000 0.4850000143 2.0480000973  -999.250000 93.020172119 143.19999695 0.7797435522 -299.0000000 0.7476140857 1950.0000000
 1785.5582275  -999.250000 12.102000237 8.5000000000 -0.001000000 0.4679999948 2.0889999866  -999.250000 93.419731140 145.00000000 0.7924795747 -296.2500000 0.7394422889 0.7310000062
 1785.7106934  -999.250000 12.102000237 8.5000000000 -0.002000000 0.4370000064 2.1159999371  -999.250000 92.461372375 143.60000610 0.8025577068 -310.0000000 0.7409695387 0.3670000136
 1785.8630371  -999.250000 12.147998810 8.5000000000 -0.001000000 0.4230000079 2.1140000820  -999.250000 92.085929871 143.10000610 0.8026301265 -303.5000000 0.7599118948 0.4230000079
 1786.0155029  -999.250000 12.272999763 8.5000000000 -0.009000000 0.4110000134 2.1040000916  -999.250000 92.779212952 128.89999390 0.7998141050 -311.5000000 0.7723878026 0.4429999888
 1786.1678467  -999.250000 12.781000137 8.5000000000 -0.010000000 0.4629999995 2.0999999046  -999.250000 93.809410095 188.60000610 0.8013699055 -311.5000000 0.7739999890 0.4539999962
 1786.3203125  -999.250000 12.508000374 8.5000000000 -0.020000000 0.4639999866 2.0950000286  -999.250000 95.617271423 184.60000610 0.7946987152 -313.7500000 0.7674335241 0.5080000162
 1786.4726563  -999.250000 12.203000069 8.5000000000 -0.028000001 0.4510000050 2.0780000687  -999.250000 97.635131836 188.19999695 0.7907773852 -314.7500000 0.7516669631 0.6380000114
 1786.6251221  -999.250000 12.727001190 8.5000000000 -0.039999999 0.4370000064 2.0669999123  -999.250000 98.486495972 190.19999695 0.7902211547 -311.2500000 0.7374334931 0.6700000167
 1786.7774658  -999.250000 12.281000137 8.5000000000 -0.046999998 0.4679999948 2.0699999332  -999.250000 97.333099365 190.30001831 0.7789279222 -318.7500000 0.7449295521 0.6600000262
 1786.9299316  -999.250000 13.265998840 8.5000000000 -0.048999999 0.4970000088 2.1389999390  -999.250000 96.721038818 192.69999695 0.7625128031 -310.7500000 0.7738934159 0.6359999776
 1787.0822754  -999.250000 14.616999626 8.5000000000 -0.021000000 0.4930000007 2.2709999084  -999.250000 98.759475708 195.30001831 0.7471128702 -317.7500000 0.7826316953 0.6159999967
 1787.2347412  -999.250000 14.718999863 8.5000000000 -0.001000000 0.4629999995 2.3640000820  -999.250000 101.58270264 198.39999390 0.7291410565 -317.2500000 0.7521370053 0.7379999757
 1787.3870850  -999.250000 12.758000374 8.5000000000 -0.023000000 0.4510000050 2.2520000935  -999.250000 102.43561554 190.89999390 0.7204070687 -317.0000000 0.7226669192 0.7310000062
 1787.5394287  -999.250000 12.265999794 8.5000000000 -0.039999999 0.4420000017 2.1459999084  -999.250000 100.91257477 195.69999695 0.7271096706 -317.5000000 0.7215576768 0.7009999752
 1787.6918945  -999.250000 12.319999695 8.5000000000 -0.032000002 0.4329999983 2.0929999352  -999.250000 98.677856445 202.20001221 0.7373365164 -316.7500000 0.7409238815 0.6930000186
 1787.8442383  -999.250000 12.147998810 8.5000000000 -0.030999999 0.4679999948 2.0989999771  -999.250000 96.792755127 199.50000000 0.7415924668 -316.5000000 0.7611401081 0.7210000157
 1787.9967041  -999.250000 12.125000000 8.5000000000 -0.039000001 0.4799999893 2.0829999447  -999.250000 95.477027893 148.30000305 0.7419999838 -315.5000000 0.7733725905 0.7839999795
 1788.1490479  -999.250000 11.937999725 8.5000000000 -0.035000000 0.4990000129 2.0899999142  -999.250000 94.315109253 148.89999390 0.7414075136 -316.2500000 0.7781929374 0.7730000019
 1788.3015137  -999.250000 12.516000748 8.5000000000 -0.035999998 0.4850000143 2.0880000591  -999.250000 94.578872681 151.19999695 0.7368493676 -315.5000000 0.7760152221 0.7329999804
 1788.4538574  -999.250000 12.031000137 8.5000000000 -0.045000002 0.4860000014 2.0759999752  -999.250000 96.259552002 154.00000000 0.7334074974 -317.2500000 0.7650528550 0.7269999981
 1788.6063232  -999.250000 12.453000069 8.5000000000 -0.045000002 0.4670000076 2.0789999962  -999.250000 99.417678833 154.30000305 0.7329999804 -316.2500000 0.7422852516 0.7379999757
 1788.7586670  -999.250000 13.875000000 8.5000000000 -0.061000001 0.4399999976 2.0550000668  -999.250000 100.94027710 157.80001831 0.7329999804 -315.7500000 0.7208598852 0.7480000257
 1788.9111328  -999.250000 12.937999725 8.5000000000 -0.068000004 0.4440000057 2.0610001087  -999.250000 99.374992371 155.89999390 0.7324070334 -315.5000000 0.7151939273 0.7580000162
 1789.0634766  -999.250000 11.569999695 8.5000000000 -0.079000004 0.4779999852 2.0629999638  -999.250000 97.439147949 156.60000610 0.7266677022 -317.5000000 0.7225612402 0.7469999790
 1789.2159424  -999.250000 11.289000511 8.5000000000 -0.066000000 0.5170000196 2.1050000191  -999.250000 96.908874512 159.30000305 0.7164775729 -312.0000000 0.7269999981 0.7329999804
 1789.3682861  -999.250000 11.828000069 8.5000000000 -0.082000002 0.5139999986 2.0869998932  -999.250000 97.429977417 160.99998474 0.7066634893 -320.0000000 0.7210352421 0.7409999967
