# LAS format log file from PETREL
# Project units are specified as depth units
#==================================================================
~Version information
VERS.   2.0:
WRAP.   NO:
#==================================================================
~Well
STRT .m      515.45703125 :
STOP .m      3237.9299316 :
STEP .m     0.00000000 :
NULL .        -999.250000 :
COMP.           : COMPANY
WELL.  33/9-17   : WELL
FLD.            : FIELD
LOC.            : LOCATION
SRVC.           : SERVICE COMPANY
DATE.  2018-09-11 14:48:42   : Log Export Date {yyyy-MM-dd HH:mm:ss}
PROV.           : PROVINCE
UWI.   33/9-17   : UNIQUE WELL ID
API.            : API NUMBER
#==================================================================
~Curve
DEPT .m                   : DEPTH
Lithology_geolink ._      : Lithology_geolink
CALI .in                  : CALI
BS .in                    : BS
DRHO .g/cm3               : DRHO
NPHI .m3/m3               : NPHI
RHOB .g/cm3               : RHOB
PEF .b/e                  : PEF
GR .gAPI                  : GR
DTC .us/ft                : DTC
RDEP .ohm.m               : RDEP
SP .mV                    : SP
RSHA .ohm.m               : RSHA
RMED .ohm.m               : RMED
~Parameter
#==================================================================
~Ascii
# ...
 2144.9174805  -999.250000 8.6800003052 8.5000000000 -0.002000000 0.4169999957 2.3340001106  -999.250000 108.95402527 125.19998932 0.9395920038 -81.87500000 1.0010000467 0.9810000062
 2145.0698242  -999.250000 8.6800003052 8.5000000000 -0.004000000 0.4050000012 2.3340001106  -999.250000 109.74343109 125.40000153 0.9423654079 -345.5000000 1.0015977621 0.9829999804
 2145.2221680  -999.250000 8.6800003052 8.5000000000 -0.004000000 0.4000000060 2.3350000381  -999.250000 112.39480591 125.19998932 0.9457740784 -346.7500000 1.0031936169 0.9829999804
 2145.3747559  -999.250000 8.6800003052 8.5000000000 -0.006000000 0.4110000134 2.3380000591  -999.250000 114.87299347 125.19998932 0.9487788677 -336.0000000 1.0057932138 0.9850000143
 2145.5270996  -999.250000 8.6800003052 8.5000000000 -0.009000000 0.4219999909 2.3369998932  -999.250000 114.06578064 124.50000000 0.9499999881 63.125000000 1.0087932348 0.9879999757
 2145.6794434  -999.250000 8.6800003052 8.5000000000 -0.011000000 0.4280000031 2.3329999447  -999.250000 110.06459045 124.30000305 0.9499999881 114.00000000 1.0105978251 0.9950000048
 2145.8317871  -999.250000 8.6800003052 8.5000000000 -0.010000000 0.4120000005 2.3299999237  -999.250000 107.61519623 124.69999695 0.9476345778 71.438003540 1.0092067719 0.9969999790
 2145.9843750  -999.250000 8.6800003052 8.5000000000 -0.010000000 0.4050000012 2.3280000687  -999.250000 109.11440277 125.09999847 0.9430352449 -334.7500000 1.0038112402 0.9909999967
 2146.1367188  -999.250000 8.6800003052 8.5000000000 -0.010000000 0.3709999919 2.3299999237  -999.250000 111.89732361 125.09999847 0.9374480247 -349.2500000 0.9956201911 0.9829999804
 2146.2890625  -999.250000 8.6800003052 8.5000000000 -0.012000000 0.3750000000 2.3210000992  -999.250000 112.26061249 125.59999847 0.9320432544 -352.5000000 0.9884134531 0.9729999900
 2146.4414063  -999.250000 8.6800003052 8.5000000000 -0.009000000 0.3729999959 2.3239998817  -999.250000 109.78858185 125.90000153 0.9276345968 -352.7500000 0.9836089611 0.9670000076
 2146.5937500  -999.250000 8.6800003052 8.5000000000 -0.007000000 0.3860000074 2.3210000992  -999.250000 106.62998962 126.00000000 0.9236345887 -350.2500000 0.9802095890 0.9639999866
 2146.7463379  -999.250000 8.6800003052 8.5000000000 -0.008000000 0.3959999979 2.3190000057  -999.250000 105.19053650 125.69999695 0.9196319580 -352.7500000 0.9772067070 0.9620000124
 2146.8986816  -999.250000 8.6800003052 8.5000000000 -0.008000000 0.4040000141 2.3180000782  -999.250000 106.28632355 126.00000000 0.9156345725 -353.7500000 0.9742067456 0.9589999914
 2147.0510254  -999.250000 8.6800003052 8.5000000000 -0.006000000 0.4160000086 2.3190000057  -999.250000 108.39778900 126.19999695 0.9116346240 -354.0000000 0.9712067246 0.9549999833
 2147.2033691  -999.250000 8.6800003052 8.5000000000 -0.006000000 0.4199999869 2.3239998817  -999.250000 109.84001160 126.19999695 0.9094086289 -350.5000000 0.9688063860 0.9530000091
 2147.3559570  -999.250000 8.6800003052 8.5000000000 -0.009000000 0.4040000141 2.3210000992  -999.250000 110.25082397 126.30000305 0.9084070325 -349.2500000 0.9668045044 0.9509999752
 2147.5083008  -999.250000 8.6800003052 8.5000000000 -0.011000000 0.4129999876 2.3250000477  -999.250000 110.13194275 126.90000153 0.9079999924 -349.5000000 0.9654022455 0.9499999881
 2147.6606445  -999.250000 8.6800003052 8.5000000000 -0.011000000 0.3910000026 2.3210000992  -999.250000 109.29317474 127.00000000 0.9074086547 -349.7500000 0.9638044834 0.9480000138
 2147.8129883  -999.250000 8.6800003052 8.5000000000 -0.007000000 0.3840000033 2.3299999237  -999.250000 108.25816345 127.09999847 0.9058172703 -352.5000000 0.9612067342 0.9459999800
 2147.9655762  -999.250000 8.6800003052 8.5000000000 -0.012000000 0.3670000136 2.3190000057  -999.250000 107.63832092 126.50000000 0.9032211304 -353.2500000 0.9588031769 0.9440000057
 2148.1179199  -999.250000 8.6800003052 8.5000000000 -0.008000000 0.3779999912 2.3190000057  -999.250000 107.29519653 126.19999695 0.9008159637 -353.0000000 0.9568044543 0.9419999719
 2148.2702637  -999.250000 8.6800003052 8.5000000000 -0.006000000 0.3939999938 2.3120000362  -999.250000 107.65252686 126.40000916 0.8994086385 -350.0000000 0.9548044801 0.9390000105
 2148.4226074  -999.250000 8.6800003052 8.5000000000 -0.006000000 0.4040000141 2.3050000668  -999.250000 108.52576447 126.69999695 0.8989999890 -347.0000000 0.9534022212 0.9369999766
 2148.5749512  -999.250000 8.6800003052 8.5000000000 -0.010000000 0.4079999924 2.3010001183  -999.250000 109.53774261 126.30000305 0.9001827240 -347.7500000 0.9541935921 0.9340000153
 2148.7275391  -999.250000 8.6800003052 8.5000000000 -0.007000000 0.4160000086 2.3069999218  -999.250000 110.38288879 126.59999847 0.9027760029 -348.2500000 0.9579887390 0.9380000234
 2148.8798828  -999.250000 8.6800003052 8.5000000000 -0.009000000 0.4189999998 2.3180000782  -999.250000 111.51317596 127.00000000 0.9051827192 -350.7500000 0.9653797746 0.9409999847
 2149.0322266  -999.250000 8.6800003052 8.5000000000 -0.010000000 0.4110000134 2.3250000477  -999.250000 113.53815460 125.79999542 0.9071826935 -350.7500000 0.9725865722 0.9539999962
 2149.1845703  -999.250000 8.6800003052 8.5000000000 -0.008000000 0.4040000141 2.3350000381  -999.250000 116.81518555 126.10000610 0.9085913301 -351.0000000 0.9761936069 0.9620000124
 2149.3371582  -999.250000 8.6800003052 8.5000000000 -0.007000000 0.3950000107 2.3340001106  -999.250000 120.25011444 126.50000000 0.9101858735 -350.7500000 0.9769999981 0.9649999738
 2149.4895020  -999.250000 8.6800003052 8.5000000000 -0.006000000 0.3860000074 2.3369998932  -999.250000 121.54631042 127.50000000 0.9115920067 -349.5000000 0.9764022231 0.9589999914
 2149.6418457  -999.250000 8.6800003052 8.5000000000 -0.006000000 0.3750000000 2.3310000896  -999.250000 121.03765869 126.59999847 0.9125913382 -348.5000000 0.9754022360 0.9599999785
 2149.7941895  -999.250000 8.6800003052 8.5000000000 -0.007000000 0.3750000000 2.3299999237  -999.250000 119.61453247 126.19999695 0.9129999876 -347.2500000 0.9750000238 0.9589999914
 2149.9467773  -999.250000 8.6800003052 8.5000000000 -0.006000000 0.3930000067 2.3310000896  -999.250000 118.23824310 123.29999542 0.9129999876 -350.0000000 0.9750000238 0.9580000043
 2150.0991211  -999.250000 8.6800003052 8.5000000000 -0.003000000 0.3790000081 2.3389999866  -999.250000 116.10861206 126.69999695 0.9129999876 -349.5000000 0.9744022489 0.9589999914
 2150.2514648  -999.250000 8.6800003052 8.5000000000 -0.004000000 0.3670000136 2.3340001106  -999.250000 113.51335144 126.19999695 0.9129999876 -350.5000000 0.9739999771 0.9580000043
 2150.4038086  -999.250000 8.6800003052 8.5000000000 -0.001000000 0.3650000095 2.3399999142  -999.250000 110.62519073 125.59999847 0.9141827226 -227.0000000 0.9751955271 0.9559999704
 2150.5561523  -999.250000 8.6800003052 8.5000000000 0.0030000000 0.3770000041 2.3420000076  -999.250000 105.88201141 124.09999847 0.9173654318 102.62500000 0.9777904153 0.9549999833
 2150.7087402  -999.250000 8.6800003052 8.5000000000 -0.007000000 0.3959999979 2.3980000019  -999.250000 100.26861572 120.30000305 0.9231439829 -248.1250000 0.9825865626 0.9620000124
 2150.8610840  -999.250000 8.7969999313 8.5000000000 -0.003000000 0.3989999890 2.4590001106  -999.250000 98.257530212 118.60000610 0.9313220978 -347.0000000 0.9897820354 0.9710000157
 2151.0134277  -999.250000 8.5469999313 8.5000000000 0.0070000002 0.4050000012 2.5569999218  -999.250000 100.28479767 118.80000305 0.9403221011 -345.2500000 1.0007708073 0.9729999900
 2151.1657715  -999.250000 8.5550003052 8.5000000000 0.0000000000 0.3860000074 2.4890000820  -999.250000 102.53579712 122.99999237 0.9475480914 -69.50000000 1.0155488253 0.9819999933
 2151.3183594  -999.250000 8.5629997253 8.5000000000 -0.008000000 0.3630000055 2.4130001068  -999.250000 102.56491089 122.59999847 0.9535576701 32.905998230 1.0285753012 1.0069999695
 2151.4707031  -999.250000 8.5629997253 8.5000000000 -0.001000000 0.3799999952 2.3489999771  -999.250000 102.10968781 127.00000000 0.9595519900 -349.0000000 1.0353909731 1.0230000019
