# LAS format log file from PETREL
# Project units are specified as depth units
#==================================================================
~Version information
VERS.   2.0:
WRAP.   NO:
#==================================================================
~Well
STRT .m      515.45703125 :
STOP .m      3237.9299316 :
STEP .m     0.00000000 :
NULL .        -999.250000 :
COMP.           : COMPANY
WELL.  33/9-17   : WELL
FLD.            : FIELD
LOC.            : LOCATION
SRVC.           : SERVICE COMPANY
DATE.  2018-09-11 14:48:42   : Log Export Date {yyyy-MM-dd HH:mm:ss}
PROV.           : PROVINCE
UWI.   33/9-17   : UNIQUE WELL ID
API.            : API NUMBER
#==================================================================
~Curve
DEPT .m                   : DEPTH
Lithology_geolink ._      : Lithology_geolink
CALI .in                  : CALI
BS .in                    : BS
DRHO .g/cm3               : DRHO
NPHI .m3/m3               : NPHI
RHOB .g/cm3               : RHOB
PEF .b/e                  : PEF
GR .gAPI                  : GR
DTC .us/ft                : DTC
RDEP .ohm.m               : RDEP
SP .mV                    : SP
RSHA .ohm.m               : RSHA
RMED .ohm.m               : RMED
~Parameter
#==================================================================
~Ascii
 515.45703125  -999.250000 12.413998604 8.5000000000 -1.149000049 0.5049999952 1.6399999857  -999.250000 22.150703430 63.200004578 0.7859206796 256.75000000 0.7807416916 2000.0000000
 515.60943604  -999.250000 12.397999763 8.5000000000 -1.149999976 0.5299999714 1.6289999485  -999.250000 25.451969147 70.800003052 0.8015154600 257.25000000 0.7937417030 2000.0000000
 515.76184082  -999.250000 12.413998604 8.5000000000 -1.148000002 0.5529999733 1.6449999809  -999.250000 28.800584793 71.699996948 0.8228678703 256.75000000 0.8115057945 2000.0000000
 515.91424561  -999.250000 12.375000000 8.5000000000 -1.154999971 0.6119999886 1.6460000277  -999.250000 31.726989746 71.300003052 0.8490572572 256.25000000 0.8348878622 2000.0000000
 516.06665039  -999.250000 12.413998604 8.5000000000 -1.159000039 0.5799999833 1.6619999409  -999.250000 32.727851868 64.599998474 0.8820044398 256.00000000 0.8640564680 2000.0000000
 516.21905518  -999.250000 12.397999763 8.5000000000 -1.151999950 0.5339999795 1.6859999895  -999.250000 32.522186279 63.999996185 0.9719339013 255.75000000 0.9419111013 2000.0000000
 516.37145996  -999.250000 12.413998604 8.5000000000 -1.146000028 0.4699999988 1.7339999676  -999.250000 32.510559082 64.599998474 1.1431322098 255.25000000 1.0884284973 2000.0000000
 516.52386475  -999.250000 12.413998604 8.5000000000 -1.139000058 0.4740000069 1.7619999647  -999.250000 34.985374451 65.000000000 1.3475110531 254.75001526 1.2628105879 2000.0000000
 516.67620850  -999.250000 12.413998604 8.5000000000 -1.139000058 0.5009999871 1.7259999514  -999.250000 39.591838837 64.699996948 1.5308445692 254.75001526 1.4191013575 2000.0000000
 516.82861328  -999.250000 12.397999763 8.5000000000 -1.148000002 0.5339999795 1.6640000343  -999.250000 44.572303772 65.300003052 1.6507052183 255.00000000 1.5186580420 2000.0000000
 516.98101807  -999.250000 12.413998604 8.5000000000 -1.169000030 0.5550000072 1.5959999561  -999.250000 49.247455597 65.300003052 1.7317804098 254.75001526 1.5833020210 2000.0000000
 517.13342285  -999.250000 12.413998604 8.5000000000 -1.154999971 0.5680000186 1.6160000563  -999.250000 53.480674744 64.199996948 1.8129559755 254.50000000 1.6478726864 2000.0000000
 517.28582764  -999.250000 12.413998604 8.5000000000 -1.134999990 0.5490000248 1.6699999571  -999.250000 57.493202209 65.300003052 1.9409648180 253.75000000 1.7434655428 2000.0000000
 517.43823242  -999.250000 12.413998604 8.5000000000 -1.123999953 0.5479999781 1.7200000286  -999.250000 60.948993683 64.800003052 2.1043171883 253.75000000 1.8626527786 2000.0000000
 517.59063721  -999.250000 12.413998604 8.5000000000 -1.116000056 0.5230000019 1.7480000257  -999.250000 62.989643097 64.599998474 2.2683436871 253.75000000 1.9816752672 2000.0000000
 517.74304199  -999.250000 12.413998604 8.5000000000 -1.126999974 0.5400000215 1.7180000544  -999.250000 64.244384766 69.000000000 2.3958501816 253.50001526 2.0724725723 2000.0000000
 517.89538574  -999.250000 12.375000000 8.5000000000 -1.133000016 0.4970000088 1.6809999943  -999.250000 65.319023132 73.500000000 2.4831676483 253.50001526 2.1323509216 2000.0000000
 518.04779053  -999.250000 12.397999763 8.5000000000 -1.152999997 0.5049999952 1.6189999580  -999.250000 65.046020508 64.800003052 2.5514416695 254.12500000 2.1779947281 2000.0000000
 518.20019531  -999.250000 12.413998604 8.5000000000 -1.161000013 0.4920000136 1.5839999914  -999.250000 63.846889496 64.599998474 2.5561990738 254.12500000 2.1789319515 2000.0000000
 518.35260010  -999.250000 12.413998604 8.5000000000 -1.167000055 0.5130000114 1.5690000057  -999.250000 62.650409698 69.000000000 2.4475042820 254.12500000 2.1019423008 2000.0000000
 518.50500488  -999.250000 12.413998604 8.5000000000 -1.141000032 0.5109999776 1.6150000095  -999.250000 61.963859558 69.099998474 2.2807781696 254.12500000 1.9849911928 2000.0000000
 518.65740967  -999.250000 12.397999763 8.5000000000 -1.131000042 0.4889999926 1.6649999619  -999.250000 61.807491302 69.300003052 2.1182870865 253.50001526 1.8705374002 2000.0000000
 518.80981445  -999.250000 12.413998604 8.5000000000 -1.110999942 0.4900000095 1.7230000496  -999.250000 61.827148438 77.400001526 1.9961630106 253.37500000 1.7831517458 2000.0000000
 518.96221924  -999.250000 12.397999763 8.5000000000 -1.103000045 0.4600000083 1.7640000582  -999.250000 62.126110077 77.300003052 1.9019174576 253.50001526 1.7141273022 2000.0000000
 519.11462402  -999.250000 12.413998604 8.5000000000 -1.105000019 0.4769999981 1.7610000372  -999.250000 62.900066376 75.900001526 1.8138686419 253.25000000 1.6495077610 2000.0000000
 519.26702881  -999.250000 12.397999763 8.5000000000 -1.118000031 0.4469999969 1.7589999437  -999.250000 63.884578705 69.099998474 1.7593744993 253.50001526 1.6085270643 2000.0000000
 519.41943359  -999.250000 12.382999420 8.5000000000 -1.111999989 0.4799999893 1.7680000067  -999.250000 64.745903015 68.699996948 1.7341057062 253.75000000 1.5884743929 2000.0000000
 519.57183838  -999.250000 12.382999420 8.5000000000 -1.115000010 0.4519999921 1.8099999428  -999.250000 65.083786011 64.800003052 1.7152950764 254.12500000 1.5730673075 2000.0000000
 519.72424316  -999.250000 12.390999794 8.5000000000 -1.110999942 0.4779999852 1.8489999771  -999.250000 64.818107605 64.800003052 1.7002687454 254.12500000 1.5610449314 2000.0000000
 519.87664795  -999.250000 12.413998604 8.5000000000 -1.101999998 0.4880000055 1.8999999762  -999.250000 59.465076447 65.400001526 1.6896475554 253.75000000 1.5528314114 2000.0000000
 520.02899170  -999.250000 12.413998604 8.5000000000 -1.106999993 0.5030000210 1.8769999743  -999.250000 54.634567261 64.099998474 1.6800568104 253.37500000 1.5464292765 2000.0000000
 520.18139648  -999.250000 12.413998604 8.5000000000 -1.123999953 0.5000000000 1.8380000591  -999.250000 53.451541901 63.900001526 1.6700568199 253.37500000 1.5398341417 2000.0000000
 520.33380127  -999.250000 12.397999763 8.5000000000 -1.136999965 0.4679999948 1.8220000267  -999.250000 54.382820129 63.799999237 1.6588683128 253.37500000 1.5316439867 2000.0000000
 520.48620605  -999.250000 12.366999626 8.5000000000 -1.182000041 0.5090000033 1.8409999609  -999.250000 56.811321259 55.299999237 1.6468682289 252.87500000 1.5226440430 2000.0000000
 520.63861084  -999.250000 12.413998604 8.5000000000 -1.225000024 0.4799999893 1.9019999504  -999.250000 57.409709930 54.799999237 1.6360567808 252.50000000 1.5142390728 2000.0000000
 520.79101563  -999.250000 12.397999763 8.5000000000 -1.217000008 0.4639999866 2.0039999485  -999.250000 56.538051605 56.200000763 1.6343772411 251.75000000 1.5121902227 2000.0000000
 520.94342041  -999.250000 12.375000000 8.5000000000 -1.251999974 0.4410000145 1.8780000210  -999.250000 55.323707581 56.800003052 1.6395658255 251.50001526 1.5147854090 2000.0000000
 521.09582520  -999.250000 12.413998604 8.5000000000 -1.269000053 0.4939999878 1.7089999914  -999.250000 55.565155029 57.500000000 1.6467564106 251.50001526 1.5189756155 2000.0000000
 521.24822998  -999.250000 12.413998604 8.5000000000 -1.208999991 0.5379999876 1.6510000229  -999.250000 56.402214050 57.200000763 1.6648677588 250.87500000 1.5329022408 2000.0000000
 521.40063477  -999.250000 12.413998604 8.5000000000 -1.131999969 0.5320000052 1.6900000572  -999.250000 55.730991364 57.200000763 1.6946254969 250.50000000 1.5570745468 2000.0000000
 521.55303955  -999.250000 12.413998604 8.5000000000 -1.108000040 0.5559999943 1.7100000381  -999.250000 55.664020538 57.099998474 1.7270308733 250.25001526 1.5834833384 2000.0000000
 521.70544434  -999.250000 12.413998604 8.5000000000 -1.118000031 0.5630000234 1.7039999962  -999.250000 56.392047882 56.200000763 1.7507048845 249.87500000 1.6023372412 2000.0000000
 521.85784912  -999.250000 12.413998604 8.5000000000 -1.123999953 0.5249999762 1.6959999800  -999.250000 57.712348938 56.099998474 1.7591894865 249.50000000 1.6091910601 2000.0000000
 522.01019287  -999.250000 12.413998604 8.5000000000 -1.123000026 0.4860000014 1.6940000057  -999.250000 58.107025146 56.700000763 1.7605946064 249.87500000 1.6105951071 2000.0000000
