# LAS format log file from PETREL
# Project units are specified as depth units
#==================================================================
~Version information
VERS.   2.0:
WRAP.   NO:
#==================================================================
~Well
STRT .m      515.45703125 :
STOP .m      3237.9299316 :
STEP .m     0.00000000 :
NULL .        -999.250000 :
COMP.           : COMPANY
WELL.  33/9-17   : WELL
FLD.            : FIELD
LOC.            : LOCATION
SRVC.           : SERVICE COMPANY
DATE.  2018-09-11 14:48:42   : Log Export Date {yyyy-MM-dd HH:mm:ss}
PROV.           : PROVINCE
UWI.   33/9-17   : UNIQUE WELL ID
API.            : API NUMBER
#==================================================================
~Curve
DEPT .m                   : DEPTH
Lithology_geolink ._      : Lithology_geolink
CALI .in                  : CALI
BS .in                    : BS
DRHO .g/cm3               : DRHO
NPHI .m3/m3               : NPHI
RHOB .g/cm3               : RHOB
PEF .b/e                  : PEF
GR .gAPI                  : GR
DTC .us/ft                : DTC
RDEP .ohm.m               : RDEP
SP .mV                    : SP
RSHA .ohm.m               : RSHA
RMED .ohm.m               : RMED
~Parameter
#==================================================================
~Ascii
# ...
 3050.1730957 4.0000000000 7.8979997635 8.5000000000 -0.008000000 0.2080000043 2.4979999065 2.4989905357 103.89725494 85.099998474 3.6140255928 -309.2500000 3.3793511391 3.7909998894
 3050.3254395 1.0000000000 7.8280000687 8.5000000000 -0.012000000 0.1759999990 2.4830000401 2.4840481281 82.002365112 82.900001526 3.1336154938 -306.7500000 2.7282691002 3.3220000267
 3050.4777832 1.0000000000 7.8280000687 8.5000000000 -0.024000000 0.1930000037 2.4230000973 2.4242880344 72.894668579 85.900001526 2.6451282501 -305.2500000 2.0524134636 2.4159998894
 3050.6301270 1.0000000000 7.8280000687 8.5000000000 -0.037000000 0.2210000008 2.3469998837 2.3483655453 70.251434326 90.900001526 2.2495896816 -302.5000000 1.5853456259 1.6849999428
 3050.7827148 1.0000000000 7.8280000687 8.5000000000 -0.050000001 0.2520000041 2.2820000648 2.2832083702 69.002799988 92.599998474 1.9454112053 -300.0000000 1.3465545177 1.3710000515
 3050.9350586 1.0000000000 7.8280000687 8.5000000000 -0.050000001 0.2520000041 2.2679998875 2.2690448761 67.786209106 92.099998474 1.6983590126 -296.5000000 1.2381682396 1.2569999695
 3051.0874023 1.0000000000 7.8280000687 8.5000000000 -0.041999999 0.2430000007 2.2839999199 2.2849233150 67.340538025 90.800003052 1.4842820168 -293.7500000 1.1691458225 1.2150000334
 3051.2397461 1.0000000000 7.8280000687 8.5000000000 -0.037999999 0.2380000055 2.2999999523 2.3009231091 67.598434448 92.199996948 1.3042820692 -291.2500000 1.1006271839 1.1529999971
 3051.3923340 1.0000000000 7.8130002022 8.5000000000 -0.039999999 0.2549999952 2.2950000763 2.2960159779 67.539466858 93.800003052 1.1732367277 -291.7500000 1.0319503546 1.0670000315
 3051.5446777 1.0000000000 7.8010001183 8.5000000000 -0.046000000 0.2639999986 2.2720000744 2.2730736732 67.388900757 95.599998474 1.0983333588 -291.5000000 0.9757099152 0.9919999838
 3051.6970215 1.0000000000 7.7230000496 8.5000000000 -0.048000000 0.2669999897 2.2590000629 2.2600624561 68.334228516 94.699996948 1.0687435865 -290.7500000 0.9386650324 0.9549999833
 3051.8493652 1.0000000000 7.6840000153 8.5000000000 -0.054000001 0.2680000067 2.2479999065 2.2490530014 69.394744873 94.099998474 1.0665384531 -288.7500000 0.9204246998 0.9200000167
 3052.0019531 1.0000000000 7.7340002060 8.5000000000 -0.057000000 0.2689999938 2.2490000725 2.2499969006 69.459144592 92.900001526 1.0784463882 -288.7500000 0.9177952409 0.8939999938
 3052.1542969 1.0000000000 7.8280000687 8.5000000000 -0.064000003 0.2649999857 2.2430000305 2.2440192699 67.833053589 91.900001526 1.0967948437 -287.5000000 0.9315528870 0.8980000019
 3052.3066406 1.0000000000 7.8280000687 8.5000000000 -0.063000001 0.2689999938 2.2449998856 2.2459936142 65.307868958 91.100006104 1.1144359112 -288.0000000 0.9657034874 0.9300000072
 3052.4589844 1.0000000000 7.8280000687 8.5000000000 -0.061000001 0.2709999979 2.2449998856 2.2460000515 62.567127228 90.400001526 1.1286666393 -288.0000000 1.0122900009 0.9779999852
 3052.6113281 1.0000000000 7.8280000687 8.5000000000 -0.059000000 0.2569999993 2.2530000210 2.2539615631 61.119861603 90.499992371 1.1428320408 -290.7500000 1.0510976315 1.0390000343
 3052.7639160 1.0000000000 7.8280000687 8.5000000000 -0.050000001 0.2460000068 2.2569999695 2.2579870224 61.172843933 90.199989319 1.1602051258 -290.0000000 1.0687820911 1.0789999962
 3052.9162598 1.0000000000 7.8280000687 8.5000000000 -0.046999998 0.2380000055 2.2569999695 2.2579998970 62.382259369 90.699996948 1.1792051792 -286.7500000 1.0684134960 1.0800000429
 3053.0686035 1.0000000000 7.8280000687 8.5000000000 -0.044000000 0.2520000041 2.2539999485 2.2550144196 64.033897400 90.599998474 1.1940768957 -285.2500000 1.0594246387 1.0650000572
 3053.2209473 1.0000000000 7.8280000687 8.5000000000 -0.046000000 0.2430000007 2.2639999390 2.2649519444 65.317871094 90.800003052 1.2001794577 -285.5000000 1.0484352112 1.0529999733
 3053.3735352 1.0000000000 7.8280000687 8.5000000000 -0.041999999 0.2349999994 2.2760000229 2.2769615650 65.555770874 90.699996948 1.1956864595 -286.5000000 1.0392179489 1.0420000553
 3053.5258789 1.0000000000 7.7699999809 8.5000000000 -0.045000002 0.2269999981 2.2809998989 2.2819840908 65.078796387 90.499992371 1.1837435961 -289.0000000 1.0336089134 1.0360000134
 3053.6782227 1.0000000000 7.7500000000 8.5000000000 -0.045000002 0.2419999987 2.2750000954 2.2760288715 64.706642151 89.599998474 1.1697436571 -288.7500000 1.0319999456 1.0249999762
 3053.8305664 1.0000000000 7.7340002060 8.5000000000 -0.046000000 0.2500000000 2.2760000229 2.2769951820 65.270690918 89.000000000 1.1575127840 -288.0000000 1.0349887609 1.0219999552
 3053.9831543 1.0000000000 7.6950001717 8.5000000000 -0.046000000 0.2520000041 2.2760000229 2.2769999504 66.642578125 87.900001526 1.1500480175 -285.2500000 1.0417871475 1.0340000391
 3054.1354980 1.0000000000 7.6640000343 8.5000000000 -0.050999999 0.2399999946 2.2730000019 2.2740094662 67.372306824 87.900001526 1.1497691870 -284.7500000 1.0491843224 1.0490000248
 3054.2878418 1.0000000000 7.6560001373 8.5000000000 -0.056000002 0.2440000027 2.2699999809 2.2710094452 65.946769714 87.999992371 1.1568974257 -287.0000000 1.0549888611 1.0509999990
 3054.4401855 1.0000000000 7.6560001373 8.5000000000 -0.059000000 0.2339999974 2.2630000114 2.2640335560 63.193614960 87.900001526 1.1680768728 -286.7500000 1.0581955910 1.0559999943
 3054.5925293 1.0000000000 7.6560001373 8.5000000000 -0.064999998 0.2349999994 2.2560000420 2.2570335865 61.260879517 88.400001526 1.1771215200 -286.5000000 1.0590000153 1.0620000362
 3054.7451172 1.0000000000 7.6560001373 8.5000000000 -0.066000000 0.2329999954 2.2539999485 2.2550065517 61.715305328 88.500000000 1.1805896759 -285.2500000 1.0566089153 1.0629999638
 3054.8974609 1.0000000000 7.6560001373 8.5000000000 -0.059999999 0.2440000027 2.2650001049 2.2659647465 64.282897949 88.699996948 1.1780512333 -285.0000000 1.0490224361 1.0570000410
 3055.0498047 1.0000000000 7.6560001373 8.5000000000 -0.057000000 0.2409999967 2.2699999809 2.2709758282 67.221382141 88.900009155 1.1701025963 -283.5000000 1.0378268957 1.0440000296
 3055.2021484 1.0000000000 7.6560001373 8.5000000000 -0.059999999 0.2430000007 2.2690000534 2.2700047493 68.520431519 89.699996948 1.1583333015 -284.0000000 1.0246448517 1.0329999924
 3055.3547363 1.0000000000 7.6560001373 8.5000000000 -0.063000001 0.2450000048 2.2679998875 2.2690031528 67.245658875 90.000000000 1.1453248262 -285.2500000 1.0124247074 1.0210000277
 3055.5070801 1.0000000000 7.6560001373 8.5000000000 -0.059999999 0.2540000081 2.2739999294 2.2749807835 65.231613159 90.300003052 1.1364614964 -285.5000000 1.0056089163 0.9990000129
 3055.6594238 1.0000000000 7.6560001373 8.5000000000 -0.059000000 0.2450000048 2.2790000439 2.2799758911 64.238204956 89.300003052 1.1345896721 -286.0000000 1.0063910484 0.9950000048
 3055.8117676 1.0000000000 7.6560001373 8.5000000000 -0.061999999 0.2430000007 2.2750000954 2.2760193348 64.492767334 88.500000000 1.1385384798 -286.7500000 1.0139775276 1.0039999485
 3055.9643555 1.0000000000 7.6560001373 8.5000000000 -0.059999999 0.2419999987 2.2760000229 2.2769968510 64.947959900 87.800003052 1.1445423365 -285.0000000 1.0251808167 1.0180000067
 3056.1166992 1.0000000000 7.6560001373 8.5000000000 -0.057000000 0.2500000000 2.2769999504 2.2779970169 65.348052979 87.800003052 1.1487691402 -283.5000000 1.0353797674 1.0310000181
 3056.2690430 1.0000000000 7.6560001373 8.5000000000 -0.057999998 0.2500000000 2.2769999504 2.2780001163 64.987846375 88.500000000 1.1488205194 -283.5000000 1.0413910151 1.0410000086
 3056.4213867 1.0000000000 7.6560001373 8.5000000000 -0.064000003 0.2440000027 2.2709999084 2.2720289230 63.768360138 89.099998474 1.1432820559 -283.5000000 1.0418044329 1.0429999828
 3056.5737305 1.0000000000 7.6560001373 8.5000000000 -0.064999998 0.2430000007 2.2679998875 2.2690143585 62.993808746 88.500000000 1.1294015646 -283.7500000 1.0344351530 1.0420000553
 3056.7263184 1.0000000000 7.6560001373 8.5000000000 -0.061999999 0.2409999967 2.2760000229 2.2769742012 64.832588196 87.699989319 1.1054871082 -286.0000000 1.0150561333 1.0390000343
