# LAS format log file from PETREL
# Project units are specified as depth units
#==================================================================
~Version information
VERS.   2.0:
WRAP.   NO:
#==================================================================
~Well
STRT .m      1740.8350830 :
STOP .m      3359.4750977 :
STEP .m     0.00000000 :
NULL .        -999.250000 :
COMP.           : COMPANY
WELL.  33/9-6   : WELL
FLD.            : FIELD
LOC.            : LOCATION
SRVC.           : SERVICE COMPANY
DATE.  2018-09-11 14:48:43   : Log Export Date {yyyy-MM-dd HH:mm:ss}
PROV.           : PROVINCE
UWI.   33/9-6   : UNIQUE WELL ID
API.            : API NUMBER
#==================================================================
~Curve
DEPT .m                   : DEPTH
Lithology_geolink ._      : Lithology_geolink
CALI .in                  : CALI
DRHO .g/cm3               : DRHO
NPHI .m3/m3               : NPHI
RHOB .g/cm3               : RHOB
GR .gAPI                  : GR
DTC .us/ft                : DTC
RDEP .ohm.m               : RDEP
SP .mV                    : SP
RSHA .ohm.m               : RSHA
RMED .ohm.m               : RMED
~Parameter
#==================================================================
~Ascii
# ...
 3240.9079590 5.0000000000 13.111000061 -0.024000000 0.3385300040 2.5350000858 55.208000183 82.070999146 4.3159999847 84.677001953 5.0440001488 5.0440001488
 3241.0603027 5.0000000000 13.111000061 -0.028999999 0.3323099911 2.5199999809 55.206001282 81.398002625 4.4089999199 84.510002136 5.2610001564 5.2610001564
 3241.2128906 5.0000000000 13.111000061 -0.032000002 0.3318899870 2.5179998875 55.400001526 80.981002808 4.5019998550 84.363998413 5.4809999466 5.4809999466
 3241.3652344 5.0000000000 13.130999565 -0.025000000 0.3265199959 2.5039999485 56.995998383 80.671989441 4.5720000267 84.306999207 5.6469998360 5.6469998360
 3241.5175781 5.0000000000 13.151000023 -0.017000001 0.3303099871 2.5060000420 57.699001312 80.675003052 4.6230001450 84.305000305 5.7170000076 5.7170000076
 3241.6699219 5.0000000000 13.152000427 -0.023000000 0.3387300074 2.5179998875 57.986999512 80.754997253 4.6279997826 84.444000244 5.5689997673 5.5689997673
 3241.8222656 5.0000000000 13.152000427 -0.028000001 0.3402000070 2.5199999809 57.672000885 81.671997070 4.5510001183 84.699996948 5.4079999924 5.4079999924
 3241.9748535 5.0000000000 13.152000427 -0.032000002 0.3401900232 2.4960000515 57.623001099 81.892997742 4.4210000038 84.864997864 5.2690000534 5.2690000534
 3242.1271973 5.0000000000 13.152000427 -0.034000002 0.3401699960 2.4820001125 58.271999359 82.916000366 4.2909998894 85.040000916 5.0879998207 5.0879998207
 3242.2795410 5.0000000000 13.133000374 -0.034000002 0.3502299786 2.4949998856 59.247001648 84.111000061 4.1599998474 85.444000244 4.8260002136 4.8260002136
 3242.4318848 5.0000000000 13.111999512 -0.033000000 0.3649899960 2.5060000420 58.708999634 85.247001648 4.0300002098 86.127998352 4.6510000229 4.6510000229
 3242.5844727 5.0000000000 13.093000412 -0.008000000 0.3726200163 2.5160000324 58.235000610 86.330009460 3.8640000820 86.651000977 4.5980000496 4.5980000496
 3242.7368164 5.0000000000 13.093999863 -0.009000000 0.3776400089 2.5169999599 57.972000122 86.580001831 3.8199999332 86.291999817 4.5809998512 4.5809998512
 3242.8891602 5.0000000000 13.074000359 -0.014000000 0.3799200058 2.5260000229 57.571998596 86.136001587 3.7769999504 86.478996277 4.5809998512 4.5809998512
 3243.0415039 5.0000000000 13.074000359 -0.022000000 0.3747499883 2.5269999504 56.550998688 85.735992432 3.7379999161 86.675003052 4.5799999237 4.5799999237
 3243.1940918 5.0000000000 13.074998856 -0.024000000 0.3655799925 2.5099999905 56.807998657 85.839996338 3.7009999752 86.579002380 4.5539999008 4.5539999008
 3243.3464355 5.0000000000 13.074998856 -0.024000000 0.3722299933 2.5050001144 58.213001251 86.346000671 3.6570000648 86.772003174 4.4899997711 4.4899997711
 3243.4987793 5.0000000000 13.074998856 -0.025000000 0.3797100186 2.5020000935 58.889999390 86.448997498 3.5969998837 86.870002747 4.4260001183 4.4260001183
 3243.6511230 5.0000000000 13.074998856 -0.026000001 0.3813399971 2.5039999485 59.770999908 86.263999939 3.5390000343 86.948997498 4.3590002060 4.3590002060
 3243.8034668 5.0000000000 13.076000214 -0.029999999 0.3781100214 2.5060000420 60.294998169 86.757003784 3.4949998856 86.978996277 4.2909998894 4.2909998894
 3243.9560547 5.0000000000 13.083000183 -0.034000002 0.3765499890 2.4960000515 60.897998810 86.960998535 3.4609999657 87.161003113 4.1999998093 4.1999998093
 3244.1083984 5.0000000000 13.123999596 -0.037000000 0.3816100061 2.4839999676 61.601001740 87.165000916 3.4270000458 86.940002441 4.1079998016 4.1079998016
 3244.2607422 5.0000000000 13.185000420 -0.037999999 0.3847900033 2.4849998951 61.935001373 87.068000793 3.3949999809 86.856002808 4.0180001259 4.0180001259
 3244.4130859 5.0000000000 13.235000610 -0.037999999 0.3819499910 2.4900000095 61.833000183 86.870002747 3.3619999886 86.773002625 3.9779999256 3.9779999256
 3244.5656738 5.0000000000 13.274999619 -0.025000000 0.3729200065 2.5090000629 62.123001099 86.399002075 3.3359999657 86.755996704 3.9379999638 3.9379999638
 3244.7180176 5.0000000000 13.288000107 -0.012000000 0.3708100021 2.5550000668 63.519001007 86.070991516 3.3059999943 86.956001282 3.9059998989 3.9059998989
 3244.8703613 5.0000000000 13.295000076 -0.010000000 0.3752700090 2.5559999943 63.000999451 86.184997559 3.2760000229 87.358001709 3.8940000534 3.8940000534
 3245.0227051 5.0000000000 13.295999527 -0.011000000 0.3779799938 2.5469999313 61.415000916 86.178001404 3.2509999275 87.599998474 3.8819999695 3.8819999695
 3245.1752930 5.0000000000 13.295999527 -0.013000000 0.3617399931 2.5550000668 59.092998505 86.272003174 3.2720000744 87.698997498 3.8840000629 3.8840000629
 3245.3276367 5.0000000000 13.295999527 -0.018999999 0.3641099930 2.5469999313 57.936000824 85.782997131 3.3059999943 87.920997620 3.9760000706 3.9760000706
 3245.4799805 5.0000000000 13.295999527 -0.032000002 0.3691899776 2.5250000954 58.331001282 85.383010864 3.3410000801 88.237998962 4.0789999962 4.0789999962
 3245.6323242 5.0000000000 13.267999649 -0.035999998 0.3597100079 2.5060000420 57.382999420 85.386009216 3.3759999275 88.357002258 4.2350001335 4.2350001335
 3245.7846680 5.0000000000 13.256999969 -0.035000000 0.3507799804 2.5060000420 56.534000397 85.389007568 3.4059998989 86.953002930 4.3039999008 4.3039999008
 3245.9372559 5.0000000000 13.237999916 -0.035999998 0.3448700011 2.5120000839 56.333000183 85.592994690 3.4000000954 87.246002197 4.2909998894 4.2909998894
 3246.0895996 5.0000000000 13.196999550 -0.039000001 0.3555099964 2.5190000534 57.342998505 85.898002625 3.3900001049 87.567001343 4.2049999237 4.2049999237
 3246.2419434 5.0000000000 13.178999901 -0.039000001 0.3622199893 2.4909999371 59.080001831 86.101997375 3.3780000210 87.513000488 4.1199998856 4.1199998856
 3246.3942871 5.0000000000 13.177000999 -0.033000000 0.3497900069 2.4939999580 59.372001648 86.305999756 3.3659999371 87.069000244 4.0430002213 4.0430002213
 3246.5468750 5.0000000000 13.163000107 -0.026000001 0.3565800190 2.5079998970 59.909999847 86.108001709 3.3540000916 86.929000854 3.9760000706 3.9760000706
 3246.6992188 5.0000000000 13.160000801 -0.021000000 0.3662099838 2.5280001163 60.138999939 86.219001770 3.3420000076 86.963996887 3.9749999046 3.9749999046
 3246.8515625 5.0000000000 13.160000801 -0.025000000 0.3758299947 2.5269999504 59.792999268 86.433998108 3.3289999962 87.124000549 3.9749999046 3.9749999046
 3247.0039063 5.0000000000 13.160000801 -0.034000002 0.3785299957 2.5160000324 59.617000580 86.593002319 3.3090000153 87.123001099 4.0120000839 4.0120000839
 3247.1564941 5.0000000000 13.156998634 -0.043000001 0.3678399920 2.4879999161 59.882999420 86.523002625 3.2490000725 87.121002197 4.0679998398 4.0679998398
 3247.3088379 5.0000000000 13.140999794 -0.046999998 0.3610399961 2.4849998951 60.667999268 86.726997375 3.1879999638 87.119003296 4.0209999084 4.0209999084
 3247.4611816 5.0000000000 13.121000290 -0.037000000 0.3581100106 2.4939999580 60.411998749 86.930999756 3.1310000420 87.106002808 3.9909999371 3.9909999371
 3247.6135254 5.0000000000 13.095999718 -0.027000001 0.3641699851 2.4979999065 59.506000519 86.933998108 3.0789999962 87.023002625 3.9179999828 3.9179999828
 3247.7658691 5.0000000000 13.081998825 -0.024000000 0.3662000000 2.5060000420 59.993000031 87.115997314 3.0160000324 86.940002441 3.7860000134 3.7860000134
 3247.9184570 5.0000000000 13.081998825 -0.023000000 0.3622199893 2.5150001049 60.508998871 87.620994568 2.9570000172 87.058998108 3.7139999866 3.7139999866
 3248.0708008 5.0000000000 13.091999054 -0.015000000 0.3680500090 2.5239999294 60.617000580 88.049011230 2.8989999294 87.277000427 3.6119999886 3.6119999886
 3248.2231445 5.0000000000 13.101999283 -0.007000000 0.3798300028 2.5369999409 61.903999329 88.656997681 2.8420000076 87.107002258 3.4119999409 3.4119999409
 3248.3754883 5.0000000000 13.102999687 0.0010000000 0.3818799853 2.5420000553 62.075000763 89.063011169 2.7730000019 87.402999878 3.3459999561 3.3459999561
 3248.5280762 5.0000000000 13.102999687 -0.008000000 0.3883000314 2.5320000648 62.561000824 89.569000244 2.7039999962 87.600997925 3.2839999199 3.2839999199
