# LAS format log file from PETREL
# Project units are specified as depth units
#==================================================================
~Version information
VERS.   2.0:
WRAP.   NO:
#==================================================================
~Well
STRT .m      515.45703125 :
STOP .m      3237.9299316 :
STEP .m     0.00000000 :
NULL .        -999.250000 :
COMP.           : COMPANY
WELL.  33/9-17   : WELL
FLD.            : FIELD
LOC.            : LOCATION
SRVC.           : SERVICE COMPANY
DATE.  2018-09-11 14:48:42   : Log Export Date {yyyy-MM-dd HH:mm:ss}
PROV.           : PROVINCE
UWI.   33/9-17   : UNIQUE WELL ID
API.            : API NUMBER
#==================================================================
~Curve
DEPT .m                   : DEPTH
Lithology_geolink ._      : Lithology_geolink
CALI .in                  : CALI
BS .in                    : BS
DRHO .g/cm3               : DRHO
NPHI .m3/m3               : NPHI
RHOB .g/cm3               : RHOB
PEF .b/e                  : PEF
GR .gAPI                  : GR
DTC .us/ft                : DTC
RDEP .ohm.m               : RDEP
SP .mV                    : SP
RSHA .ohm.m               : RSHA
RMED .ohm.m               : RMED
~Parameter
#==================================================================
~Ascii
# ...
 3231.2243652  -999.250000 7.1409997940 8.5000000000 -0.092000000 0.1920000017 2.2639999390 2.2650001049 79.234924316 87.300003052 1.4584102631 -255.7500000 1.3911999464 1.2869999409
 3231.3767090  -999.250000 7.1409997940 8.5000000000 -0.093000002 0.1899999976 2.2590000629 2.2599999905 81.118278503 87.300003052 1.5076923370 -256.2500000 1.4967564344 1.6139999628
 3231.5290527  -999.250000 7.1409997940 8.5000000000 -0.090000004 0.1850000024 2.2669999599 2.2679998875 84.360153198 87.300003052 1.5258973837 -259.0000000 1.4880384207 1.7189999819
 3231.6813965  -999.250000 7.1409997940 8.5000000000 -0.088000000 0.1829999983 2.2739999294 2.2750000954 88.717407227 87.300003052 1.5341281891 -258.0000000 1.3902788162 1.5060000420
 3231.8339844  -999.250000 7.1409997940 8.5000000000 -0.086999997 0.1829999983 2.2790000439 2.2799999714 93.220939636 87.300003052 1.5399520397 -255.0000000 1.2899999619 1.3070000410
 3231.9863281  -999.250000 7.1409997940 8.5000000000 -0.086999997 0.1829999983 2.2690000534 2.2699999809 97.407539368 87.300003052 1.5366923809 -252.8750000 1.2422147989 1.2100000381
 3232.1386719  -999.250000 7.1409997940 8.5000000000 -0.086000003 0.1829999983 2.2690000534 2.2699999809 101.19279480 87.300003052 1.5046923161 -252.9999847 1.2365961075 1.1909999847
 3232.2910156  -999.250000 7.1409997940 8.5000000000 -0.089000002 0.1829999983 2.2639999390 2.2650001049 104.79556274 87.300003052 1.4354615211 -252.7500153 1.2413973808 1.2460000515
 3232.4436035  -999.250000 7.1409997940 8.5000000000 -0.088000000 0.1829999983 2.2709999084 2.2720000744 108.04341888 87.300003052 1.3596719503 -254.0000153 1.2387999296 1.3250000477
 3232.5959473  -999.250000 7.1409997940 8.5000000000 -0.089000002 0.1829999983 2.2699999809 2.2709999084  -999.250000 87.300003052  -999.250000 -253.7500000  -999.250000 1.3009999990
 3232.7482910  -999.250000 7.1409997940 8.5000000000 -0.090999998 0.1829999983 2.2650001049 2.2660000324  -999.250000 87.300003052  -999.250000 -253.8749847  -999.250000 1.2170000076
 3232.9006348  -999.250000 7.1409997940 8.5000000000 -0.090999998 0.1829999983 2.2660000324 2.2669999599  -999.250000 87.300003052  -999.250000 -254.3750153  -999.250000 1.1870000362
 3233.0532227  -999.250000 7.1409997940 8.5000000000 -0.093999997 0.1829999983 2.2609999180 2.2620000839  -999.250000 87.300003052  -999.250000 -254.8750000  -999.250000 1.2259999514
 3233.2055664  -999.250000 7.1409997940 8.5000000000 -0.093999997 0.1829999983 2.2650001049  -999.250000  -999.250000 87.300003052  -999.250000 -253.1250153  -999.250000 1.2719999552
 3233.3579102  -999.250000 7.1409997940 8.5000000000 -0.092000000 0.1829999983 2.2669999599  -999.250000  -999.250000 87.300003052  -999.250000 -254.2499847  -999.250000 1.2710000277
 3233.5102539  -999.250000 7.1409997940 8.5000000000 -0.089000002 0.1829999983 2.2709999084  -999.250000  -999.250000 87.300003052  -999.250000 -253.7500000  -999.250000 1.2710000277
 3233.6625977  -999.250000 7.1409997940 8.5000000000 -0.093000002 0.1829999983 2.2690000534  -999.250000  -999.250000 87.300003052  -999.250000 -253.2500000  -999.250000 1.2749999762
 3233.8151855  -999.250000 7.1409997940 8.5000000000 -0.090999998 0.1829999983 2.2690000534  -999.250000  -999.250000 87.300003052  -999.250000 -252.5000000  -999.250000 1.3120000362
 3233.9675293  -999.250000 7.1409997940 8.5000000000 -0.090999998 0.1829999983 2.2699999809  -999.250000  -999.250000 87.300003052  -999.250000 -251.8750153  -999.250000 1.3480000496
 3234.1198730  -999.250000 7.1409997940 8.5000000000 -0.090999998 0.1829999983 2.2699999809  -999.250000  -999.250000 87.300003052  -999.250000 -252.5000000  -999.250000 1.3350000381
 3234.2722168  -999.250000 7.1409997940 8.5000000000 -0.088000000 0.1829999983 2.2780001163  -999.250000  -999.250000 87.300003052  -999.250000 -252.5000000  -999.250000 1.2640000582
 3234.4248047  -999.250000 7.1409997940 8.5000000000 -0.085000001 0.1829999983 2.2809998989  -999.250000  -999.250000 87.300003052  -999.250000 -253.1250153  -999.250000 1.1940000057
 3234.5771484  -999.250000 7.1409997940 8.5000000000 -0.085000001 0.1829999983 2.2750000954  -999.250000  -999.250000 87.300003052  -999.250000 -251.8750153  -999.250000 1.1499999762
 3234.7294922  -999.250000 7.1409997940 8.5000000000 -0.086999997 0.1829999983 2.2690000534  -999.250000  -999.250000 87.300003052  -999.250000 -251.3749847  -999.250000 1.1840000153
 3234.8818359  -999.250000 7.1409997940 8.5000000000 -0.086999997 0.1829999983 2.2669999599  -999.250000  -999.250000 87.300003052  -999.250000 -250.0000000  -999.250000 1.2560000420
 3235.0344238  -999.250000 7.1409997940 8.5000000000 -0.090000004 0.1829999983 2.2690000534  -999.250000  -999.250000 87.300003052  -999.250000 -250.0000000  -999.250000 1.3289999962
 3235.1867676  -999.250000 7.1409997940 8.5000000000 -0.090000004 0.1829999983 2.2699999809  -999.250000  -999.250000 87.300003052  -999.250000 -251.1250153  -999.250000 1.3910000324
 3235.3391113  -999.250000 6.4019999504 8.5000000000 -0.090999998 0.1899999976 2.2679998875  -999.250000  -999.250000 87.300003052  -999.250000 -251.7500000  -999.250000 1.5039999485
 3235.4914551  -999.250000 2.0179998875 8.5000000000 -0.092000000 0.2290000021 2.2650001049  -999.250000  -999.250000 87.300003052  -999.250000 -252.9999847  -999.250000 1.7269999981
 3235.6437988  -999.250000 2.0099999905 8.5000000000 -0.092000000 0.2290000021 2.2639999390  -999.250000  -999.250000 87.300003052  -999.250000 -252.6249847  -999.250000 2.0230000019
 3235.7963867  -999.250000 2.0099999905 8.5000000000 -0.090999998 0.2290000021 2.2690000534  -999.250000  -999.250000 87.300003052  -999.250000 -252.8750000  -999.250000 2.3929998875
 3235.9487305  -999.250000 2.0099999905 8.5000000000 -0.093000002 0.2290000021 2.2720000744  -999.250000  -999.250000 87.300003052  -999.250000 -252.7500153  -999.250000 2.7990000248
 3236.1010742  -999.250000 2.0099999905 8.5000000000 -0.092000000 0.2290000021 2.2709999084  -999.250000  -999.250000 87.300003052  -999.250000 -253.2500000  -999.250000 3.2290000916
 3236.2534180  -999.250000 2.0099999905 8.5000000000 -0.093999997 0.2290000021 2.2630000114  -999.250000  -999.250000 87.300003052  -999.250000 -252.9999847  -999.250000 3.2130000591
 3236.4060059  -999.250000 2.0099999905 8.5000000000 -0.096000001 0.2290000021 2.2560000420  -999.250000  -999.250000 87.300003052  -999.250000 -256.5000000  -999.250000 2.7070000172
 3236.5583496  -999.250000 2.0099999905 8.5000000000 -0.094999999 0.2290000021 2.2599999905  -999.250000  -999.250000 87.300003052  -999.250000 -258.0000000  -999.250000 2.4059998989
 3236.7106934  -999.250000 2.0099999905 8.5000000000 -0.092000000 0.2290000021 2.2690000534  -999.250000  -999.250000 87.300003052  -999.250000 -255.1249847  -999.250000 2.7520000935
 3236.8630371  -999.250000 2.0099999905 8.5000000000 -0.090999998 0.2290000021 2.2739999294  -999.250000  -999.250000 87.300003052  -999.250000 -255.1249847  -999.250000 2.9879999161
 3237.0156250  -999.250000 2.0099999905 8.5000000000 -0.090000004 0.2290000021 2.2699999809  -999.250000  -999.250000 87.300003052  -999.250000 -255.1249847  -999.250000 2.7130000591
 3237.1679688  -999.250000 2.0099999905 8.5000000000 -0.090000004 0.2290000021 2.2639999390  -999.250000  -999.250000 87.300003052  -999.250000 -255.0000000  -999.250000 2.5020000935
 3237.3203125  -999.250000 2.0099999905 8.5000000000 -0.090000004 0.2290000021 2.2609999180  -999.250000  -999.250000 87.300003052  -999.250000 -254.3750153  -999.250000 2.3550000191
 3237.4726563  -999.250000 2.0099999905 8.5000000000 -0.090000004 0.2290000021 2.2599999905  -999.250000  -999.250000 87.300003052  -999.250000 -253.6250000  -999.250000 2.1129999161
 3237.6250000  -999.250000 2.0099999905 8.5000000000 -0.090000004 0.2290000021 2.2609999180  -999.250000  -999.250000 87.300003052  -999.250000 -255.1249847  -999.250000 1.8810000420
 3237.7775879  -999.250000 2.0099999905 8.5000000000 -0.090000004 0.2290000021 2.2609999180  -999.250000  -999.250000 87.300003052  -999.250000 -254.5000000  -999.250000 1.7039999962
