# LAS format log file from PETREL
# Project units are specified as depth units
#==================================================================
~Version information
VERS.   2.0:
WRAP.   NO:
#==================================================================
~Well
STRT .m      785.37786865 :
STOP .m      3526.7492676 :
STEP .m     0.00000000 :
NULL .        -999.250000 :
COMP.           : COMPANY
WELL.  33/9-11   : WELL
FLD.            : FIELD
LOC.            : LOCATION
SRVC.           : SERVICE COMPANY
DATE.  2018-09-11 14:48:42   : Log Export Date {yyyy-MM-dd HH:mm:ss}
PROV.           : PROVINCE
UWI.   33/9-11   : UNIQUE WELL ID
API.            : API NUMBER
#==================================================================
~Curve
DEPT .m                   : DEPTH
Lithology_geolink ._      : Lithology_geolink
CALI .in                  : CALI
DRHO .g/cm3               : DRHO
NPHI .m3/m3               : NPHI
RHOB .g/cm3               : RHOB
GR .gAPI                  : GR
DTC .us/ft                : DTC
RDEP .ohm.m               : RDEP
SP .mV                    : SP
RSHA .ohm.m               : RSHA
RMED .ohm.m               : RMED
~Parameter
#==================================================================
~Ascii
# ...
 1337.2182617  -999.250000  -999.250000  -999.250000  -999.250000  -999.250000  -999.250000  -999.250000  -999.250000  -999.250000  -999.250000  -999.250000
 1337.3707275  -999.250000 17.798999786  -999.250000  -999.250000  -999.250000  -999.250000  -999.250000 0.8740064502  -999.250000 0.8429999948 0.8429999948
 1337.5230713  -999.250000 17.638999939  -999.250000  -999.250000  -999.250000 91.313713074 146.26283264 0.8820120096 34.853084564 0.8430016041 0.8430016041
 1337.6755371  -999.250000 17.672000885  -999.250000  -999.250000  -999.250000 89.529434204 152.15927124 0.8970088363 34.818058014 0.8450048566 0.8450048566
 1337.8278809  -999.250000 17.694000244  -999.250000  -999.250000  -999.250000 88.671371460 150.82113647 0.9079903960 34.939704895 0.8510007858 0.8510007858
 1337.9803467  -999.250000 17.635000229  -999.250000  -999.250000  -999.250000 90.674392700 147.77143860 0.8959912062 35.022865295 0.8520088196 0.8520088196
 1338.1326904  -999.250000 17.642999649  -999.250000  -999.250000  -999.250000 91.984947205 152.54417419 0.8849935532 35.106796265 0.8630031943 0.8630031943
 1338.2851563  -999.250000 17.586999893  -999.250000  -999.250000  -999.250000 91.741195679 148.78602600 0.8769887686 35.190868378 0.8670015931 0.8670015931
 1338.4375000  -999.250000 17.565000534  -999.250000  -999.250000  -999.250000 90.317146301 139.35855103  -999.250000 35.274799347  -999.250000  -999.250000
 1338.5899658  -999.250000  -999.250000  -999.250000  -999.250000  -999.250000  -999.250000  -999.250000  -999.250000  -999.250000  -999.250000  -999.250000
 1338.7423096  -999.250000 17.670000076  -999.250000  -999.250000  -999.250000  -999.250000  -999.250000 0.8700032234  -999.250000 0.8679999709 0.8679999709
 1338.8947754  -999.250000 17.916000366  -999.250000  -999.250000  -999.250000 87.632926941 158.83079529 0.8739951849 35.441932678 0.8679375052 0.8679375052
 1339.0471191  -999.250000 17.798000336  -999.250000  -999.250000  -999.250000 86.641792297 159.53042603 0.8709687591 35.525932312 0.8289366961 0.8289366961
 1339.1994629  -999.250000 17.621000290  -999.250000  -999.250000  -999.250000 90.394981384 157.93954468 0.8319848180 35.618850708 0.7500023842 0.7500023842
 1339.3519287  -999.250000 17.534999847  -999.250000  -999.250000  -999.250000 90.007316589 156.50415039 0.8129879832 35.594020844 0.7530064583 0.7530064583
 1339.5042725  -999.250000 17.419000626  -999.250000  -999.250000  -999.250000 88.825889587 156.98123169 0.7979951501 35.570037842 0.7610007524 0.7610007524
 1339.6567383  -999.250000 17.429000854  -999.250000  -999.250000  -999.250000 86.836593628 159.56292725  -999.250000 35.546020508  -999.250000  -999.250000
 1339.8090820  -999.250000  -999.250000  -999.250000  -999.250000  -999.250000  -999.250000  -999.250000  -999.250000  -999.250000  -999.250000  -999.250000
 1339.9615479  -999.250000 17.548999786  -999.250000  -999.250000  -999.250000  -999.250000  -999.250000 0.7940040231  -999.250000 0.7580007911 0.7580007911
 1340.1138916  -999.250000 17.590000153  -999.250000  -999.250000  -999.250000 89.038688660 163.67488098 0.7990160584 35.497020721 0.7590023875 0.7590023875
 1340.2663574  -999.250000 17.788000107  -999.250000  -999.250000  -999.250000 90.006225586 162.98753357 0.8190176487 35.473018646 0.7620080113 0.7620080113
 1340.4187012  -999.250000 18.271999359  -999.250000  -999.250000  -999.250000 89.124710083 160.61590576 0.8410168290 35.409049988 0.7720360756 0.7720360756
 1340.5711670  -999.250000 18.347000122  -999.250000  -999.250000  -999.250000 83.181762695 156.62420654 0.8619999886 35.224147797 0.8170079589 0.8170079589
 1340.7235107  -999.250000 17.763000488  -999.250000  -999.250000  -999.250000 83.651618958 155.95252991 0.8619951606 35.131076813 0.8219920397 0.8219920397
 1340.8759766  -999.250000 17.447999954  -999.250000  -999.250000  -999.250000 84.642204285 157.38984680 0.8559855819 35.056060791 0.8119663596 0.8119663596
 1341.0283203  -999.250000 17.615999222  -999.250000  -999.250000  -999.250000 85.026695251 159.45336914  -999.250000 35.002040863  -999.250000  -999.250000
 1341.1807861  -999.250000  -999.250000  -999.250000  -999.250000  -999.250000  -999.250000  -999.250000  -999.250000  -999.250000  -999.250000  -999.250000
 1341.3331299  -999.250000 17.827999115  -999.250000  -999.250000  -999.250000  -999.250000  -999.250000 0.8409951925  -999.250000 0.7710032463 0.7710032463
 1341.4854736  -999.250000 17.878999710  -999.250000  -999.250000  -999.250000 88.818893433 159.48414612 0.8349967599 34.895088196 0.7750104070 0.7750104070
 1341.6379395  -999.250000 17.721000671  -999.250000  -999.250000  -999.250000 88.212486267 157.79035950 0.8310007453 34.814064026 0.7880232334 0.7880232334
 1341.7902832  -999.250000 17.448999405  -999.250000  -999.250000  -999.250000 90.998527527 142.04325867 0.8320000172 34.649261475 0.8169983625 0.8169983625
 1341.9427490  -999.250000 17.503999710  -999.250000  -999.250000  -999.250000 91.956237793 152.37770081 0.8320000172 34.567066193 0.8149960041 0.8149960041
 1342.0950928  -999.250000 17.680999756  -999.250000  -999.250000  -999.250000 91.119338989 152.43492126 0.8320016265 34.485130310 0.8100032210 0.8100032210
 1342.2475586  -999.250000 18.121999741  -999.250000  -999.250000  -999.250000 91.268875122 154.49035645 0.8340128064 34.403064728 0.8140056133 0.8140056133
 1342.3999023  -999.250000 18.759000778  -999.250000  -999.250000  -999.250000 89.286590576 153.14108276  -999.250000 34.321063995  -999.250000  -999.250000
 1342.5523682  -999.250000  -999.250000  -999.250000  -999.250000  -999.250000  -999.250000  -999.250000  -999.250000  -999.250000  -999.250000  -999.250000
 1342.7047119  -999.250000 19.170999527  -999.250000  -999.250000  -999.250000  -999.250000  -999.250000 0.8600032330  -999.250000 0.8330112100 0.8330112100
 1342.8571777  -999.250000 18.545000076  -999.250000  -999.250000  -999.250000 91.078277588 147.94175720 0.8640000224 34.214042664 0.8469904065 0.8469904065
 1343.0095215  -999.250000 17.591999054  -999.250000  -999.250000  -999.250000 91.878356934 148.49455261 0.8639816046 34.161041260 0.8409799933 0.8409799933
 1343.1619873  -999.250000 17.683000565  -999.250000  -999.250000  -999.250000 88.887397766 154.20341492 0.8410000205 33.923191071 0.8159823418 0.8159823418
 1343.3143311  -999.250000 17.583000183  -999.250000  -999.250000  -999.250000 87.740913391 150.84170532 0.8410000205 33.786109924 0.8049911857 0.8049911857
 1343.4666748  -999.250000 17.646999359  -999.250000  -999.250000  -999.250000 89.052894592 160.79801941 0.8410032392 33.852893829 0.7939935923 0.7939935923
 1343.6191406  -999.250000 17.606000900  -999.250000  -999.250000  -999.250000 88.571388245 157.06700134  -999.250000 33.994884491  -999.250000  -999.250000
 1343.7714844  -999.250000  -999.250000  -999.250000  -999.250000  -999.250000  -999.250000  -999.250000  -999.250000  -999.250000  -999.250000  -999.250000
 1343.9239502  -999.250000 17.604999542  -999.250000  -999.250000  -999.250000  -999.250000  -999.250000 0.8470000029  -999.250000 0.7920072079 0.7920072079
 1344.0762939  -999.250000 17.580999374  -999.250000  -999.250000  -999.250000 88.321563721 138.28472900 0.8469951749 34.277770996 0.7950128317 0.7950128317
 1344.2287598  -999.250000 17.587999344  -999.250000  -999.250000  -999.250000 89.720878601 142.78538513 0.8440095782 34.419883728 0.8030288219 0.8030288219
 1344.3811035  -999.250000 17.575000763  -999.250000  -999.250000  -999.250000 89.527153015 155.81654358 0.8480368257 34.560886383 0.8150288463 0.8150288463
 1344.5335693  -999.250000 17.495000839  -999.250000  -999.250000  -999.250000 85.775009155 151.66632080 0.8709976077 34.843776703 0.8330144286 0.8330144286
 1344.6859131  -999.250000 17.537000656  -999.250000  -999.250000  -999.250000 85.711044312 152.94499207 0.8699935675 34.985885620 0.8389967680 0.8389967680
 1344.8383789  -999.250000 17.545999527  -999.250000  -999.250000  -999.250000 89.514945984 154.03413391 0.8660264015 35.127883911 0.8369808197 0.8369808197
