# LAS format log file from PETREL
# Project units are specified as depth units
#==================================================================
~Version information
VERS.   2.0:
WRAP.   NO:
#==================================================================
~Well
STRT .m      785.37786865 :
STOP .m      3526.7492676 :
STEP .m     0.00000000 :
NULL .        -999.250000 :
COMP.           : COMPANY
WELL.  33/9-11   : WELL
FLD.            : FIELD
LOC.            : LOCATION
SRVC.           : SERVICE COMPANY
DATE.  2018-09-11 14:48:42   : Log Export Date {yyyy-MM-dd HH:mm:ss}
PROV.           : PROVINCE
UWI.   33/9-11   : UNIQUE WELL ID
API.            : API NUMBER
#==================================================================
~Curve
DEPT .m                   : DEPTH
Lithology_geolink ._      : Lithology_geolink
CALI .in                  : CALI
DRHO .g/cm3               : DRHO
NPHI .m3/m3               : NPHI
RHOB .g/cm3               : RHOB
GR .gAPI                  : GR
DTC .us/ft                : DTC
RDEP .ohm.m               : RDEP
SP .mV                    : SP
RSHA .ohm.m               : RSHA
RMED .ohm.m               : RMED
~Parameter
#==================================================================
~Ascii
# ...
 3389.1320801 6.0000000000 13.463999748 -0.027000001 0.3910200000 2.5250000954 72.847000122 85.943000793 2.7769999504 51.740001678 3.3519999981 3.3519999981
 3389.2846680 6.0000000000 13.496000290 -0.022000000 0.3945800066 2.5360000134 80.402000427 94.139007568 2.5420000553 51.548999786 3.0109999180 3.0109999180
 3389.4370117 7.0000000000 13.576999664 -0.029999999 0.3987500072 2.5160000324 83.601997375 100.57399750 2.4170000553 51.296001434 3.0559999943 3.0559999943
 3389.5893555 7.0000000000 13.609000206 -0.035000000 0.4022299945 2.4800000191 83.088996887 99.714996338 2.3359999657 51.294998169 3.1010000706 3.1010000706
 3389.7416992 7.0000000000 13.281999588 -0.030999999 0.4034200013 2.4489998817 79.299003601 101.22200012 2.4130001068 51.648998260 3.3310000896 3.3310000896
 3389.8940430 7.0000000000 13.295000076 -0.030999999 0.3990499973 2.4570000172 78.414001465 103.04799652 2.4419999123 51.217998505 3.4630000591 3.4630000591
 3390.0466309 7.0000000000 13.337000847 -0.030999999 0.3911199868 2.4739999771 79.705001831 103.62799835 2.4600000381 51.453998566 3.6040000916 3.6040000916
 3390.1989746 7.0000000000 13.409000397 -0.028999999 0.3941099942 2.4860000610 80.434997559 103.83900452 2.4769999981 50.950000763 3.8110001087 3.8110001087
 3390.3513184 7.0000000000 13.531998634 -0.026000001 0.4056400061 2.4879999161 81.626998901 103.73799896 2.4949998856 50.689998627 3.8250000477 3.8250000477
 3390.5036621 7.0000000000 13.496000290 -0.025000000 0.4221200049 2.4860000610 83.291999817 103.91400146 2.5399999619 52.375999451 3.7230000496 3.7230000496
 3390.6562500 7.0000000000 13.394999504 -0.022000000 0.4296399951 2.4800000191 84.132003784 104.08999634 2.5999999046 52.515998840 3.5739998817 3.5739998817
 3390.8085938 7.0000000000 13.423000336 -0.020000000 0.4141499996 2.4709999561 84.591003418 105.88800049 2.6600000858 51.876998901 3.4769999981 3.4769999981
 3390.9609375 7.0000000000 13.454000473 -0.023000000 0.3948199749 2.4590001106 84.723999023 107.21199799 2.7230000496 52.058998108 3.6649999619 3.6649999619
 3391.1132813 7.0000000000 13.477999687 -0.022000000 0.4006499946 2.4489998817 83.851997375 107.73600006 2.7869999409 52.270999908 3.8529999256 3.8529999256
 3391.2658691 7.0000000000 13.555001259 -0.017999999 0.4202600121 2.4409999847 85.389999390 108.26000214 2.8519999981 52.567001343 4.0900001526 4.0900001526
 3391.4182129 7.0000000000  -999.250000 -0.011000000 0.4327600002 2.4419999123  -999.250000  -999.250000  -999.250000  -999.250000  -999.250000  -999.250000
 3391.5705566 7.0000000000 13.616000175 -0.009000000 0.4328500032 2.4400000572 86.800003052 108.79000092 2.9170000553 52.471000671 4.3379998207 4.3379998207
 3391.7229004 7.0000000000 13.579999924 -0.012000000 0.4400700033 2.4340000153 87.495002747 109.54400635 2.9809999466 51.073001862 4.5819997787 4.5819997787
 3391.8752441 7.0000000000 13.550999641 -0.015000000 0.4328700006 2.4340000153 87.494003296 110.30000305 3.0460000038 51.074001312 4.6919999123 4.6919999123
 3392.0278320 7.0000000000 13.550000191 -0.014000000 0.4135699868 2.4340000153 87.490997314 111.05500031 3.0810000896 51.071998596 5.1539998055 5.1539998055
 3392.1801758 7.0000000000 13.567000389 -0.016000001 0.4105499983 2.4360001087 87.094001770 111.14499664 3.0639998913 52.062999725 4.9070000648 4.9070000648
 3392.3325195 7.0000000000 13.650999069 -0.021000000 0.4072600305 2.4379999638 85.815002441 109.67600250 3.0309998989 52.229999542 4.1459999084 4.1459999084
 3392.4848633 7.0000000000 13.551999092 -0.023000000 0.4054700136 2.4419999123 85.898002625 108.62400055 3.0460000038 52.021999359 4.0869998932 4.0869998932
 3392.6374512 7.0000000000 13.536999702 -0.018999999 0.4088600278 2.4530000687 82.563003540 107.91899872 3.0620000362 51.977001190 4.2090001106 4.2090001106
 3392.7897949 7.0000000000 13.555001259 -0.013000000 0.4124799967 2.4709999561 80.940002441 107.75799561 3.0769999027 51.632999420 4.0580000877 4.0580000877
 3392.9421387 7.0000000000 13.527000427 -0.011000000 0.4070299864 2.4920001030 82.797996521 107.59799957 3.1280000210 50.962001801 3.9270000458 3.9270000458
 3393.0944824 7.0000000000 13.491000175 -0.017000001 0.3850999773 2.5230000019 82.914001465 103.05500793 3.2339999676 50.632999420 4.0789999962 4.0789999962
 3393.2470703 7.0000000000 13.475000381 -0.021000000 0.3657500148 2.5469999313 82.250000000 98.037002563 3.3410000801 49.439998627 4.2309999466 4.2309999466
 3393.3994141 7.0000000000 13.472000122 -0.018999999 0.3491799831 2.5859999657 84.166000366 93.018997192 3.4479999542 49.198001862 4.3899998665 4.3899998665
 3393.5517578 7.0000000000 13.472000122 -0.017000001 0.3294300139 2.6429998875 88.007003784 88.000999451 3.5539999008 46.827999115 4.6199998856 4.6199998856
 3393.7041016 7.0000000000 13.470999718 -0.022000000 0.3260499835 2.6700000763 89.211997986 82.974998474 3.6610000134 47.537998199 4.9180002213 4.9180002213
 3393.8564453 7.0000000000 13.470999718 -0.030999999 0.3246300220 2.6649999619 86.578002930 80.992996216 3.7799999714 47.479999542 5.4180002213 5.4180002213
 3394.0090332 7.0000000000 13.469999313 -0.032000002 0.3059999943 2.6389999390 81.333000183 81.081001282 3.9349999428 46.931999207 5.6890001297 5.6890001297
 3394.1613770 7.0000000000  -999.250000 -0.026000001 0.2724100053 2.6040000916  -999.250000  -999.250000  -999.250000  -999.250000  -999.250000  -999.250000
 3394.3137207 6.0000000000 13.469999313 -0.014000000 0.2498999983 2.5850000381 72.671997070 80.931007385 4.0900001526 47.436000824 5.6529998779 5.6529998779
 3394.4660645 6.0000000000 13.468999863 -0.012000000 0.2555299997 2.5769999027 69.622001648 80.140998840 4.2439999580 47.872001648 5.1389999390 5.1389999390
 3394.6186523 6.0000000000 13.468999863 -0.023000000 0.2661100030 2.5680000782 66.944999695 79.351989746 4.3920001984 47.870998383 5.1129999161 5.1129999161
 3394.7709961 5.0000000000 13.468999863 -0.017999999 0.2649300098 2.5620000362 63.933998108 78.561996460 4.5289998055 47.745998383 5.4499998093 5.4499998093
 3394.9233398 5.0000000000 13.468000412 -0.017999999 0.2545900047 2.5480000973 61.008998871 77.583999634 4.6659998894 47.669998169 6.1909999847 6.1909999847
 3395.0756836 5.0000000000 13.466999054 -0.027000001 0.2493600100 2.5390000343 55.731998444 75.963996887 4.9689998627 47.808998108 6.6209998131 6.6209998131
 3395.2282715 5.0000000000 13.466999054 -0.035000000 0.2423599958 2.5369999409 55.974998474 76.157997131 5.3220000267 47.665000916 6.2620000839 6.2620000839
 3395.3806152 5.0000000000 13.465999603 -0.024000000 0.2317499965 2.5480000973 55.821998596 76.351997375 5.6750001907 47.905998230 6.1519999504 6.1519999504
 3395.5329590 5.0000000000 13.465999603 -0.016000001 0.2259300053 2.5420000553 55.699001312 76.444999695 5.9229998589 47.401000977 6.6909999847 6.6909999847
 3395.6853027 5.0000000000 13.468000412 -0.017000001 0.2260600030 2.5209999084 55.698001862 75.968994141 6.0560002327 47.064998627 7.5529999733 7.5529999733
 3395.8376465 5.0000000000 13.469999313 -0.020000000 0.2256500125 2.5020000935 56.887001038 75.491996765 6.1890001297 47.063999176 8.4160003662 8.4160003662
 3395.9902344 5.0000000000 13.472000122 -0.023000000 0.2239200026 2.4949998856 57.201999664 75.016006470 6.1160001755 47.360000610 8.8529996872 8.8529996872
 3396.1425781 5.0000000000 13.475000381 -0.025000000 0.2225200087 2.5099999905 56.590999603 74.539001465 6.0409998894 47.452999115 8.8520002365 8.8520002365
 3396.2949219 5.0000000000 13.476999283 -0.024000000 0.2268799990 2.5409998894 57.076999664 74.497001648 5.9629998207 47.456001282 8.3699998856 8.3699998856
 3396.4472656 5.0000000000 13.479999542 -0.014000000 0.2411499918 2.5550000668 57.874000549 74.878997803 5.2439999580 48.451999664 7.6510000229 7.6510000229
 3396.5998535 5.0000000000 13.486999512 -0.007000000 0.2605099976 2.5539999008 59.665000916 75.261001587 4.8899998665 48.651000977 6.7100000381 6.7100000381
 3396.7521973 5.0000000000  -999.250000 -0.016000001 0.2702299953 2.5510001183  -999.250000  -999.250000  -999.250000  -999.250000  -999.250000  -999.250000
