# LAS format log file from PETREL
# Project units are specified as depth units
#==================================================================
~Version information
VERS.   2.0:
WRAP.   NO:
#==================================================================
~Well
STRT .m      1740.8350830 :
STOP .m      3359.4750977 :
STEP .m     0.00000000 :
NULL .        -999.250000 :
COMP.           : COMPANY
WELL.  33/9-6   : WELL
FLD.            : FIELD
LOC.            : LOCATION
SRVC.           : SERVICE COMPANY
DATE.  2018-09-11 14:48:43   : Log Export Date {yyyy-MM-dd HH:mm:ss}
PROV.           : PROVINCE
UWI.   33/9-6   : UNIQUE WELL ID
API.            : API NUMBER
#==================================================================
~Curve
DEPT .m                   : DEPTH
Lithology_geolink ._      : Lithology_geolink
CALI .in                  : CALI
DRHO .g/cm3               : DRHO
NPHI .m3/m3               : NPHI
RHOB .g/cm3               : RHOB
GR .gAPI                  : GR
DTC .us/ft                : DTC
RDEP .ohm.m               : RDEP
SP .mV                    : SP
RSHA .ohm.m               : RSHA
RMED .ohm.m               : RMED
~Parameter
#==================================================================
~Ascii
# ...
 2385.9440918  -999.250000 13.722999573 -0.005000000 0.4109400213 2.3249905109 50.750999451 109.53600311 1.3780000210 70.254997253 1.5440000296 1.5440000296
 2386.0966797  -999.250000 13.645999908 -0.006000000 0.4171282649 2.3220047951 52.524074554 109.36055756 1.4079999924 70.016616821 1.5770256519 1.5770256519
 2386.2490234  -999.250000 13.501999855 -0.005000000 0.4222670496 2.3160095215 53.193168640 109.08266449 1.4479999542 69.779640198 1.5930593014 1.5930593014
 2386.4013672  -999.250000 13.435000420 -0.002000000 0.4141799808 2.3169982433 52.673999786 108.87099457 1.4919999838 69.555000305 1.6299999952 1.6299999952
 2386.5537109  -999.250000 13.463001251 -0.013000000 0.4062400162 2.3219840527 51.027000427 106.01100159 1.5299999714 69.511001587 1.7239999771 1.7239999771
 2386.7062988  -999.250000 13.413000107 -0.020000000 0.3990553617 2.3200030327 49.777156830 106.59741974 1.5650000572 69.466934204 1.7730385065 1.7730385065
 2386.8586426  -999.250000 13.451999664 -0.028000001 0.4086653590 2.3359742165 49.255432129 106.85858154 1.6059999466 69.422927856 1.7970288992 1.7970288992
 2387.0109863  -999.250000 13.397999763 -0.024000000 0.4244416654 2.3340032101 52.017669678 105.97266388 1.6560000181 69.378929138 1.8150000572 1.8150000572
 2387.1633301  -999.250000 13.592000008 -0.017000001 0.4130100012 2.3359935284 53.060001373 105.13999939 1.7079999447 69.334999084 1.8150000572 1.8150000572
 2387.3159180  -999.250000 13.522000313 -0.017999999 0.4034154117 2.3200256824 54.127487183 104.54157257 1.7339999676 69.316993713 1.8630706072 1.8630706072
 2387.4682617  -999.250000 13.317999840 -0.017000001 0.4005372822 2.3070206642 54.429195404 103.02480316 1.7669999599 69.309989929 1.9070864916 1.9070864916
 2387.6206055  -999.250000 13.252000809 -0.003000000 0.3925809860 2.3229742050 53.301666260 102.27252960 1.7790000439 69.302993774 1.9610879421 1.9610879421
 2387.7729492  -999.250000 13.246999741 -0.012000000 0.3807300329 2.3140141964 51.221000671 101.97799683 1.8020000458 69.295997620 2.0160000324 2.0160000324
 2387.9252930  -999.250000 13.394000053 -0.025000000 0.3761399984 2.3080193996 50.527999878 102.08899689 1.8150000572 69.290000916 2.0160000324 2.0160000324
 2388.0778809  -999.250000 13.312999725 -0.014000000 0.3723439276 2.3249728680 50.522953033 103.25025177 1.8250000477 69.282989502 1.9689551592 1.9689551592
 2388.2302246  -999.250000 13.300000191 -0.003000000 0.3685739934 2.3279953003 51.116622925 103.40735626 1.8240000010 69.275993347 1.9409952164 1.9409952164
 2388.3825684  -999.250000 13.300000191 -0.001000000 0.3773099780 2.3260030746 51.505001068 103.01100159 1.8300000429 69.268997192 1.9379999638 1.9379999638
 2388.5349121  -999.250000 13.269001007 -0.002000000 0.3901800215 2.3230094910 50.321998596 102.85600281 1.8329999447 69.004997253 1.9390000105 1.9390000105
 2388.6875000  -999.250000 13.383000374 -0.004000000 0.3906576037 2.3259952068 49.954608917 102.62036133 1.8370000124 68.717544556 1.9800512791 1.9800512791
 2388.8398438  -999.250000 13.397999763 0.0010000000 0.3891529441 2.3230047226 50.338302612 102.22499847 1.8400000334 68.430702209 2.0120530128 2.0120530128
 2388.9919434  -999.250000 13.472000122 0.0079887826 0.3847600222 2.3249936104 53.018001556 102.23100281 1.8290176392 68.245002747 2.0450000763 2.0450000763
 2389.1445313  -999.250000 13.279999733 0.0000000000 0.3869999945 2.3170254230 54.226001740 102.59700012 1.8329999447 68.237998962 2.0490000248 2.0490000248
 2389.2968750  -999.250000 13.387000084 -0.014975999 0.3896499872 2.2930769920 54.755001068 102.49700165 1.8280079365 68.231002808 2.0480000973 2.0480000973
 2389.4492188  -999.250000 13.413000107 -0.020990385 0.3838900030 2.2820353508 55.037998199 102.64299774 1.8270015717 68.332000732 2.0250000954 2.0250000954
 2389.6015625  -999.250000 13.267000198 -0.023995193 0.3830199838 2.2810029984 53.752998352 103.46700287 1.8140208721 68.467002869 1.9889999628 1.9889999628
 2389.7541504  -999.250000 13.232999802 -0.017000001 0.3874599934 2.3029646873 51.119998932 103.67500305 1.8040000200 68.600997925 1.9670000076 1.9670000076
 2389.9064941  -999.250000 13.319000244 -0.006000000 0.3995399773 2.3089807034 49.569999695 103.58100128 1.7769999504 68.736000061 1.9409999847 1.9409999847
 2390.0588379  -999.250000 13.305000305 -0.003004800 0.4057099819 2.3080031872 49.250000000 103.43000031 1.7520400286 69.040000916 1.9029999971 1.9029999971
 2390.2111816  -999.250000 13.411999702 -0.002001603 0.4078299999 2.3179681301 50.129001617 103.09899139 1.7320320606 69.491996765 1.8940000534 1.8940000534
 2390.3637695  -999.250000 13.521000862 -0.014000000 0.4106999934 2.3359711170 49.736999512 103.60000610 1.6959999800 69.944000244 1.8839999437 1.8839999437
 2390.5161133  -999.250000 13.623000145 -0.028000001 0.4149299860 2.3509521484 49.617000580 104.34400177 1.6640000343 70.177001953 1.8580000401 1.8580000401
 2390.6684570  -999.250000 13.352999687 -0.033990402 0.4145299792 2.3390383720 50.588001251 104.62100220 1.6320511103 70.358001709 1.8220000267 1.8220000267
 2390.8208008  -999.250000 13.404000282 -0.034998398 0.4100899994 2.2961378098 52.632999420 105.85900116 1.6080385447 70.316001892 1.7510000467 1.7510000467
 2390.9731445  -999.250000 13.392000198 -0.045982372 0.4049400091 2.2421731949 52.805999756 106.26599884 1.5870336294 70.274002075 1.6959999800 1.6959999800
 2391.1257324  -999.250000 13.392000198 -0.046999998 0.3961800039 2.2429969311 51.278999329 106.35399628 1.5520000458 70.232002258 1.6699999571 1.6699999571
 2391.2780762  -999.250000 13.380000114 -0.038014397 0.3889800012 2.2539646626 51.071998596 106.36000061 1.5230463743 70.190002441 1.6679999828 1.6679999828
 2391.4304199  -999.250000 13.348999977 -0.035004809 0.4047999978 2.2609775066 51.334999084 106.36699677 1.5070255995 70.148002625 1.6699999571 1.6699999571
 2391.5827637  -999.250000 13.295999527 -0.037995189 0.4206499755 2.2829294205 51.576000214 106.67600250 1.4800432920 70.178001404 1.6640000343 1.6640000343
 2391.7353516  -999.250000 13.116000175 -0.026000001 0.4282400012 2.3079600334 51.158000946 107.37300110 1.4689999819 70.293998718 1.6399999857 1.6399999857
 2391.8876953  -999.250000 13.145000458 -0.010000000 0.4311999977 2.3089969158 50.752998352 108.90600586 1.4559999704 70.408996582 1.5980000496 1.5980000496
 2392.0400391  -999.250000 13.151000023 -0.019983999 0.4268800020 2.2611536980 50.547000885 108.97799683 1.4430207014 70.523002625 1.5650000572 1.5650000572
 2392.1923828  -999.250000 13.151000023 -0.028985577 0.4150299728 2.2570128441 52.365001678 107.71299744 1.4290224314 70.627998352 1.5720000267 1.5720000267
 2392.3449707  -999.250000 13.150000572 -0.022000000 0.4225500226 2.2639887333 55.179000854 107.14299774 1.4110000134 70.732002258 1.5939999819 1.5939999819
 2392.4973145  -999.250000 13.180001259 -0.017000001 0.4414099753 2.2769584656 57.358001709 107.20600128 1.4029999971 70.836997986 1.5930000544 1.5930000544
 2392.6496582  -999.250000 13.319000244 -0.015003200 0.4381200075 2.2630448341 58.912998199 109.06099701 1.3970096111 70.779998779 1.5789999962 1.5789999962
 2392.8020020  -999.250000 13.347998619 -0.015998399 0.4292699695 2.2550258636 58.404998779 109.41699982 1.3940048218 70.627998352 1.5460000038 1.5460000038
 2392.9543457  -999.250000 13.409999847 -0.019993590 0.4325899780 2.2510128021 56.688999176 109.20301056 1.3850144148 70.476997375 1.5240000486 1.5240000486
 2393.1069336  -999.250000 13.508999825 -0.026000001 0.4325299859 2.2500030994 55.483001709 109.63300323 1.3819999695 70.375000000 1.5230000019 1.5230000019
 2393.2592773  -999.250000 13.496000290 -0.021008000 0.4246799946 2.2440192699 55.181999207 109.19200134 1.3760097027 70.280998230 1.5390000343 1.5390000343
 2393.4116211  -999.250000 13.543000221 -0.016008014 0.4120199978 2.2430031300 55.687000275 108.87099457 1.3700096607 70.258003235 1.5520000458 1.5520000458
 2393.5639648  -999.250000 13.564999580 -0.014003205 0.4119100273 2.2439968586 55.960998535 109.07900238 1.3700000048 70.282997131 1.5609999895 1.5609999895
