# LAS format log file from PETREL
# Project units are specified as depth units
#==================================================================
~Version information
VERS.   2.0:
WRAP.   NO:
#==================================================================
~Well
STRT .m      457.60995483 :
STOP .m      3127.1992188 :
STEP .m     0.00000000 :
NULL .        -999.250000 :
COMP.           : COMPANY
WELL.  33/9-1   : WELL
FLD.            : FIELD
LOC.            : LOCATION
SRVC.           : SERVICE COMPANY
DATE.  2018-09-11 14:48:42   : Log Export Date {yyyy-MM-dd HH:mm:ss}
PROV.           : PROVINCE
UWI.   33/9-1   : UNIQUE WELL ID
API.            : API NUMBER
#==================================================================
~Curve
DEPT .m                   : DEPTH
Lithology_geolink ._      : Lithology_geolink
CALI .in                  : CALI
BS .in                    : BS
DRHO .g/cm3               : DRHO
NPHI .m3/m3               : NPHI
RHOB .g/cm3               : RHOB
GR .gAPI                  : GR
DTC .us/ft                : DTC
RDEP .ohm.m               : RDEP
SP .mV                    : SP
RSHA .ohm.m               : RSHA
RMED .ohm.m               : RMED
~Parameter
#==================================================================
~Ascii
# ...
 1701.1932373  -999.250000 12.739000320  -999.250000 -0.010004807 0.4683991373 2.1050193310 34.535835266 99.708938599 1.8469687700 54.354003906 1.6259984970 1.6259984970
 1701.3457031  -999.250000 12.822999954  -999.250000 -0.015991995 0.4631627202 2.1050000191 36.825164795 102.17287445 1.8335672617 54.357162476 1.6239999533 1.6239999533
 1701.4980469  -999.250000 12.921999931  -999.250000 -0.010995993 0.4501617253 2.1139712334 36.923927307 107.11190033 1.6987789869 54.459346771 1.6240063906 1.6240063906
 1701.6505127  -999.250000 12.923000336  -999.250000 -0.006003202 0.4442840517 2.1209831238 33.090026855 111.40768433 1.6301538944 54.892543793 1.6319999695 1.6319999695
 1701.8028564  -999.250000 12.866000175  -999.250000 -0.008004007 0.4460642338 2.1130254269 29.362155914 112.11029053 1.6783938408 55.232246399 1.6319670677 1.6319670677
 1701.9552002  -999.250000 12.720999718  -999.250000 -0.013004003 0.4563270211 2.0970511436 25.815406799 114.81157684 1.8010360003 55.540309906 1.5909975767 1.5909975767
 1702.1076660  -999.250000 12.601000786  -999.250000 -0.018002404 0.4635269642 2.0850384235 26.324695587 133.23547363 1.8156445026 55.924804688 1.5880329609 1.5880329609
 1702.2600098  -999.250000 12.713998795  -999.250000 -0.020998398 0.4431954324 2.1039392948 28.437410355 121.69579315 1.7047957182 55.680202484 1.6290303469 1.6290303469
 1702.4124756  -999.250000 12.850999832  -999.250000 -0.018992787 0.4243603051 2.1259293556 27.700437546 124.66640472 1.6202785969 54.685394287 1.6670112610 1.6670112610
 1702.5648193  -999.250000 12.725000381  -999.250000 -0.010003203 0.4369692504 2.1329774857 25.750211716 119.01602936 1.7072932720 53.927001953 1.6809791327 1.6809791327
 1702.7172852  -999.250000 12.608000755  -999.250000 -0.014000000 0.4496894479 2.1190335751 23.517810822 115.97542572 1.8290768862 53.932163239 1.6550167799 1.6550167799
 1702.8696289  -999.250000 12.763999939  -999.250000 -0.014000801 0.4599670768 2.1020543575 23.283338547 141.07168579 1.8531539440 54.137069702 1.6760208607 1.6760208607
 1703.0220947  -999.250000 12.772999763  -999.250000 -0.015004803 0.4599301815 2.1059904099 23.706295013 140.26312256 1.9164332151 54.224838257 1.7020096779 1.7020096779
 1703.1744385  -999.250000 12.680000305  -999.250000 -0.017994391 0.4548861980 2.1000192165 24.514942169 143.61682129 1.7399495840 54.125476837 1.7080191374 1.7080191374
 1703.3269043  -999.250000 12.623999596  -999.250000 -0.010990392 0.4422104955 2.1099758148 25.689826965 131.04981995 1.7192019224 54.719276428 1.7320288420 1.7320288420
 1703.4792480  -999.250000 12.814000130  -999.250000 -0.004995993 0.4338068962 2.1229581833 26.206157684 132.63221741 1.7822785378 54.890140533 1.7500240803 1.7500240803
 1703.6317139  -999.250000 12.969000816  -999.250000 0.0000016013 0.4220083952 2.1299831867 26.403331757 130.27122498 1.8693877459 55.064208984 1.7799935341 1.7799935341
 1703.7840576  -999.250000 12.916000366  -999.250000 0.0009855770 0.4150024354 2.1250159740 25.984746933 127.01055145 1.9894715548 55.195064545 1.7759871483 1.7759871483
 1703.9364014  -999.250000 12.805000305  -999.250000 -0.016997598 0.4053011239 2.1250000000 23.173767090 109.91779327 1.8247644901 55.274780273 1.7600183487 1.7600183487
 1704.0888672  -999.250000 12.694000244  -999.250000 -0.014001603 0.3980431855 2.1489231586 21.636564255 114.77172089 1.7272690535 54.999763489 1.7830135822 1.7830135822
 1704.2412109  -999.250000 12.680999756  -999.250000 -0.015998399 0.4090245962 2.1689357758 21.094924927 112.72355652 1.8111250401 54.702690125 1.7999999523 1.7999999523
 1704.3936768  -999.250000 12.708000183  -999.250000 -0.013994391 0.4177121818 2.1759777069 21.001058578 110.56586456 1.8637174368 54.319362640 1.7999999523 1.7999999523
 1704.5460205  -999.250000 12.785000801  -999.250000 -0.006999200 0.4216573834 2.1670289040 19.824426651 105.52817535 2.0873389244 54.768245697 1.7999871969 1.7999871969
 1704.6984863  -999.250000 12.885999680  -999.250000 -0.006004808 0.4262489676 2.1610143185 19.110353470 108.14260864 2.2271864414 53.825519562 1.7839608192 1.7839608192
 1704.8508301  -999.250000 12.758999825  -999.250000 -0.012000801 0.4226814806 2.1550192833 20.802091599 113.38894653 1.9733004570 53.223834991 1.7349367142 1.7349367142
 1705.0032959  -999.250000 12.619999886  -999.250000 -0.012998397 0.4202358723 2.1510095596 23.415174484 117.72505951 1.6825516224 53.019165039 1.6559414864 1.6559414864
 1705.1556396  -999.250000 12.435000420  -999.250000 -0.011006410 0.4270879626 2.1549870968 26.130037308 121.48583984 1.5429375172 53.222160339 1.5829654932 1.5829654932
 1705.3081055  -999.250000 12.354999542  -999.250000 -0.019012809 0.4432610869 2.1450240612 29.918544769 120.76652527 1.5170255899 53.422340393 1.5399551392 1.5399551392
 1705.4604492  -999.250000 12.465999603  -999.250000 -0.026995193 0.4391533434 2.1270577908 31.505001068 123.06162262 1.5250544548 53.633483887 1.5119510889 1.5119510889
 1705.6129150  -999.250000 12.605999947  -999.250000 -0.020985588 0.4331344962 2.1409664154 31.504800797 124.07276154 1.5420480967 54.238807678 1.4509375095 1.4509375095
 1705.7652588  -999.250000 12.647999763  -999.250000 -0.011995193 0.4449220896 2.1509680748 29.508956909 124.38524628 1.5569808483 54.743228912 1.4119751453 1.4119751453
 1705.9177246  -999.250000 12.649999619  -999.250000 -0.006000000 0.4574199915 2.1480071545 28.211544037 124.53891754 1.5509198904 55.028648376 1.3809856176 1.3809856176
 1706.0700684  -999.250000 12.642999649  -999.250000 -0.006002404 0.4631716013 2.1410224438 30.424001694 125.74783325 1.5258718729 54.809623718 1.3720176220 1.3720176220
 1706.2224121  -999.250000 12.640000343  -999.250000 -0.009003202 0.4512982368 2.1469807625 34.171119690 125.02236938 1.4859230518 54.337600708 1.3940008879 1.3940008879
 1706.3748779  -999.250000 12.623000145  -999.250000 -0.012999199 0.4446711540 2.1440095901 38.069038391 125.87776184 1.4538879395 53.838809967 1.3949791193 1.3949791193
 1706.5272217  -999.250000 12.611001015  -999.250000 -0.011997598 0.4434438944 2.1420063972 41.857975006 127.43858337 1.4189496040 53.602409363 1.3689783812 1.3689783812
 1706.6796875  -999.250000 12.628999710  -999.250000 -0.009002403 0.4493956566 2.1410024166 43.079608917 126.55889893 1.3979198933 54.110458374 1.3419903517 1.3419903517
 1706.8320313  -999.250000 12.659999847  -999.250000 -0.012000000 0.4556499422 2.1429934502 45.091335297 128.18072510 1.3729182482 54.681621552 1.3299968243 1.3299968243
 1706.9844971  -999.250000 12.701999664  -999.250000 -0.011995994 0.4593611360 2.1489856243 48.005836487 129.25291443 1.3390288353 55.457958221 1.3259670734 1.3259670734
 1707.1368408  -999.250000 12.758999825  -999.250000 -0.006995994 0.4721090794 2.1539840698 49.047668457 129.63185120 1.3478726149 56.649467468 1.2849791050 1.2849791050
 1707.2893066  -999.250000 12.869999886  -999.250000 -0.002000000 0.4734767973 2.1559951305 48.630443573 130.16528320 1.2949743271 55.980613708 1.2589855194 1.2589855194
 1707.4416504  -999.250000 13.012000084  -999.250000 -0.002003205 0.4586476684 2.1520128250 47.662406921 130.28979492 1.2870544195 55.117107391 1.2499991655 1.2499991655
 1707.5941162  -999.250000 13.128999710  -999.250000 -0.006009608 0.4662615359 2.1370360851 49.420333862 131.41726685 1.3040512800 54.000675201 1.2489855289 1.2489855289
 1707.7464600  -999.250000 13.215000153  -999.250000 -0.012004007 0.4739354253 2.1250383854 50.250991821 133.19784546 1.3200480938 53.175552368 1.2400032282 1.2400032282
 1707.8989258  -999.250000 13.274999619  -999.250000 -0.016991995 0.4756658971 2.1140265465 48.992385864 136.21957397 1.3350224495 52.618583679 1.2440303564 1.2440303564
 1708.0512695  -999.250000 13.246999741  -999.250000 -0.011999199 0.4541690946 2.1060254574 46.114059448 137.29370117 1.3420192003 52.359058380 1.2630015612 1.2630015612
 1708.2036133  -999.250000 13.164999962  -999.250000 -0.011006405 0.4438230693 2.1010160446 46.194549561 137.73243713 1.3479928970 52.429244995 1.2649840117 1.2649840117
 1708.3560791  -999.250000 13.116000175  -999.250000 -0.018999198 0.4499103427 2.0940225124 49.375102997 138.62527466 1.3449679613 52.734325409 1.2449775934 1.2449775934
