# LAS format log file from PETREL
# Project units are specified as depth units
#==================================================================
~Version information
VERS.   2.0:
WRAP.   NO:
#==================================================================
~Well
STRT .m      127.75000000 :
STOP .m      3459.2514648 :
STEP .m     0.00000000 :
NULL .        -999.250000 :
COMP.           : COMPANY
WELL.  34/10-17   : WELL
FLD.            : FIELD
LOC.            : LOCATION
SRVC.           : SERVICE COMPANY
DATE.  2018-09-11 14:48:44   : Log Export Date {yyyy-MM-dd HH:mm:ss}
PROV.           : PROVINCE
UWI.   34/10-17   : UNIQUE WELL ID
API.            : API NUMBER
#==================================================================
~Curve
DEPT .m                   : DEPTH
Lithology_geolink ._      : Lithology_geolink
CALI .in                  : CALI
DRHO .g/cm3               : DRHO
NPHI .m3/m3               : NPHI
RHOB .g/cm3               : RHOB
GR .gAPI                  : GR
DTC .us/ft                : DTC
RDEP .ohm.m               : RDEP
SP .mV                    : SP
RSHA .ohm.m               : RSHA
RMED .ohm.m               : RMED
~Parameter
#==================================================================
~Ascii
# ...
 2346.2497559  -999.250000 15.307999611 -0.194999993 0.4915700257 1.9789999723 37.641998291 116.89600372 1.2000000477 53.606998444 1.0190000534 0.9599999785
 2346.3750000  -999.250000 15.314999580 -0.206000000 0.4853500128 1.9620000124 36.818000793 116.55699921 1.2130000591 53.641998291 1.0290000439 0.9729999900
 2346.5000000  -999.250000 15.323999405 -0.216000006 0.4756600261 1.9509999752 36.066001892 115.94699860 1.2230000496 53.638000488 1.0369999409 0.9840000272
 2346.6250000  -999.250000 15.331999779 -0.216999993 0.4693099856 1.9550000429 36.013000488 114.68700409 1.2289999723 53.606998444 1.0399999619 0.9900000095
 2346.7500000  -999.250000 15.336000443 -0.203999996 0.4675299823 1.9800000191 36.811000824 112.69599915 1.2339999676 53.575000763 1.0390000343 0.9929999709
 2346.8750000  -999.250000 15.336000443 -0.180999994 0.4667699933 2.0199999809 37.956001282 110.35299683 1.2419999838 53.570999146 1.0420000553 0.9950000048
 2347.0000000  -999.250000 15.335000038 -0.155000001 0.4640800059 2.0599999428 38.555000305 108.58799744 1.2530000210 53.604999542 1.0460000038 0.9950000048
 2347.1252441  -999.250000 15.333999634 -0.142000005 0.4603799880 2.0739998817 38.284000397 108.37300110 1.2649999857 53.658000946 1.0460000038 0.9959999919
 2347.2502441  -999.250000 15.333000183 -0.145999998 0.4574199915 2.0599999428 37.342998505 109.85300446 1.2769999504 53.694000244 1.0390000343 0.9980000257
 2347.3747559  -999.250000 15.333000183 -0.163000003 0.4553200006 2.0299999714 36.548999786 112.44499969 1.2840000391 53.686000824 1.0290000439 1.0000000000
 2347.4997559  -999.250000 15.329000473 -0.182999998 0.4537900090 2.0000000000 36.515998840 114.76399994 1.2849999666 53.651000977 1.0240000486 0.9990000129
 2347.6250000  -999.250000 15.321000099 -0.197999999 0.4553300142 1.9839999676 37.437999725 115.71299744 1.2790000439 53.625000000 1.0230000019 0.9940000176
 2347.7500000  -999.250000 15.310999870 -0.206000000 0.4608300030 1.9769999981 38.761001587 115.30699921 1.2680000067 53.634998322 1.0199999809 0.9850000143
 2347.8750000  -999.250000 15.305000305 -0.208000004 0.4693500102 1.9759999514 39.893001556 114.36100006 1.2580000162 53.683998108 1.0060000420 0.9739999771
 2348.0000000  -999.250000 15.305000305 -0.208000004 0.4790999889 1.9730000496 40.354999542 114.04799652 1.2510000467 53.737998962 0.9869999886 0.9660000205
 2348.1250000  -999.250000 15.310999870 -0.209999993 0.4890100062 1.9680000544 40.138000488 114.88799286 1.2450000048 53.759998322 0.9710000157 0.9629999995
 2348.2500000  -999.250000 15.321000099 -0.213000000 0.4964300096 1.9650000334 38.987998962 116.20499420 1.2400000095 53.742000580 0.9689999819 0.9639999866
 2348.3752441  -999.250000 15.328000069 -0.213000000 0.4975999892 1.9689999819 37.297000885 116.77700043 1.2339999676 53.699001312 0.9779999852 0.9649999738
 2348.5002441  -999.250000 15.331000328 -0.208000004 0.4921699762 1.9830000401 35.465000153 115.91400146 1.2289999723 53.664001465 0.9900000095 0.9649999738
 2348.6247559  -999.250000 15.331999779 -0.197999999 0.4823499918 2.0020000935 34.118000031 113.93099976 1.2280000448 53.661998749 0.9980000257 0.9670000076
 2348.7500000  -999.250000 15.331999779 -0.187000006 0.4744299948 2.0179998875 33.590000153 111.95700073 1.2339999676 53.696998596 1.0000000000 0.9720000029
 2348.8750000  -999.250000 15.333000183 -0.181999996 0.4757899940 2.0230000019 33.986000061 110.96800232 1.2439999580 53.755001068 1.0049999952 0.9819999933
 2349.0000000  -999.250000 15.333999634 -0.180999994 0.4883500040 2.0199999809 34.645999908 110.98300171 1.2560000420 53.806999207 1.0160000324 0.9909999967
 2349.1250000  -999.250000 15.333999634 -0.184000000 0.5099999905 2.0150001049 34.962001801 111.37699127 1.2649999857 53.830001831 1.0299999714 0.9950000048
 2349.2500000  -999.250000 15.331999779 -0.182999998 0.5229099989 2.0139999390 34.777000427 111.48899841 1.2710000277 53.821998596 1.0360000134 0.9909999967
 2349.3750000  -999.250000 15.329000473 -0.182999998 0.5247099996 2.0150001049 34.668998718 111.37599945 1.2769999504 53.785999298 1.0269999504 0.9829999804
 2349.5000000  -999.250000 15.326999664 -0.181999996 0.5265100002 2.0150001049 34.910999298 111.73100281 1.2849999666 53.743000031 1.0069999695 0.9779999852
 2349.6252441  -999.250000 15.326999664 -0.181999996 0.5283100009 2.0160000324 35.265998840 113.05000305 1.2949999571 53.709999084 0.9869999886 0.9789999723
 2349.7497559  -999.250000 15.328000069 -0.180999994 0.5300999880 2.0160000324 35.380001068 114.90599823 1.3029999733 53.683998108 0.9789999723 0.9879999757
 2349.8747559  -999.250000 15.329000473 -0.180999994 0.5318999887 2.0160000324 35.173999786 116.24400330 1.3070000410 53.644001007 0.9860000014 1.0000000000
 2350.0000000  -999.250000 15.329000473 -0.177000001 0.5332199931 2.0199999809 35.215999603 116.16200256 1.3049999475 53.581001282 1.0049999952 1.0110000372
 2350.1250000  -999.250000 15.326000214 -0.169000000 0.5292800069 2.0269999504 35.980998993 114.56600189 1.2999999523 53.500999451 1.0299999714 1.0180000067
 2350.2500000  -999.250000 15.321000099 -0.160999998 0.5171799660 2.0380001068 37.319000244 112.35500336 1.2990000248 53.425998688 1.0470000505 1.0219999552
 2350.3750000  -999.250000 15.313999176 -0.150999993 0.5020700097 2.0550000668 38.451000214 110.52400208 1.3049999475 53.380001068 1.0509999990 1.0249999762
 2350.5000000  -999.250000 15.309000015 -0.138999999 0.4876699746 2.0810000896 38.583999634 109.48500061 1.3209999800 53.368000031 1.0449999571 1.0329999924
 2350.6250000  -999.250000 15.309000015 -0.123999998 0.4737099707 2.1159999371 37.970001221 109.01300049 1.3409999609 53.373001099 1.0399999619 1.0460000038
 2350.7502441  -999.250000 15.314999580 -0.104999997 0.4611999989 2.1589999199 37.415000916 108.52999878 1.3609999418 53.377998352 1.0449999571 1.0629999638
 2350.8752441  -999.250000 15.322999954 -0.083999999 0.4529399872 2.2019999027 37.820999146 107.56199646 1.3710000515 53.386001587 1.0590000153 1.0729999542
 2350.9997559  -999.250000 15.329000473 -0.068000004 0.4499900043 2.2349998951 39.152000427 106.16101074 1.3680000305 53.412998199 1.0729999542 1.0709999800
 2351.1250000  -999.250000 15.329999924 -0.061999999 0.4508900046 2.2449998856 40.411998749 105.12300110 1.3509999514 53.471000671 1.0729999542 1.0529999733
 2351.2500000  -999.250000 15.328000069 -0.072999999 0.4541500211 2.2269999981 40.665000916 105.66799927 1.3259999752 53.551998138 1.0509999990 1.0249999762
 2351.3750000  -999.250000 15.324999809 -0.097000003 0.4590599835 2.1849999428 39.879001617 108.90799713 1.3029999733 53.626998901 1.0180000067 0.9950000048
 2351.5000000  -999.250000 15.321999550 -0.128000006 0.4651599824 2.1319999695 38.876998901 114.29399872 1.2879999876 53.659999847 0.9850000143 0.9689999819
 2351.6250000  -999.250000 15.321000099 -0.155000001 0.4718099833 2.0840001106 38.620998383 120.39600372 1.2829999924 53.623001099 0.9580000043 0.9539999962
 2351.7500000  -999.250000 15.322999954 -0.174999997 0.4783200026 2.0480000973 39.694999695 125.27500153 1.2849999666 53.527999878 0.9449999928 0.9520000219
 2351.8750000  -999.250000 15.324999809 -0.187999994 0.4824800193 2.0220000744 41.298000336 127.16200256 1.2910000086 53.404998779 0.9509999752 0.9629999995
 2352.0002441  -999.250000 15.329000473 -0.207000002 0.4771400094 1.9850000143 42.345001221 125.92400360 1.2940000296 53.305000305 0.9779999852 0.9819999933
 2352.1247559  -999.250000 15.331000328 -0.224000007 0.4579700232 1.9520000219 41.798999786 122.29399872 1.2960000038 53.257999420 1.0199999809 1.0039999485
 2352.2497559  -999.250000 15.333000183 -0.208000004 0.4489699900 1.9659999609 40.124000549 117.78199768 1.2999999523 53.254001617 1.0609999895 1.0230000019
 2352.3750000  -999.250000 15.333999634 -0.164000005 0.4540599883 2.0309998989 38.291999817 113.61299896 1.3079999685 53.251998901 1.0809999704 1.0379999876
 2352.5000000  -999.250000 15.335000038 -0.138999999 0.4613200128 2.0750000477 37.265998840 110.51200104 1.3240000010 53.215999603 1.0759999752 1.0490000248
