# LAS format log file from PETREL
# Project units are specified as depth units
#==================================================================
~Version information
VERS.   2.0:
WRAP.   NO:
#==================================================================
~Well
STRT .m      3455.1030273 :
STOP .m      4235.3911133 :
STEP .m     0.00000000 :
NULL .        -999.250000 :
COMP.           : COMPANY
WELL.  34/11-3 T2   : WELL
FLD.            : FIELD
LOC.            : LOCATION
SRVC.           : SERVICE COMPANY
DATE.  2018-09-11 14:48:48   : Log Export Date {yyyy-MM-dd HH:mm:ss}
PROV.           : PROVINCE
UWI.   34/11-3 T2   : UNIQUE WELL ID
API.            : API NUMBER
#==================================================================
~Curve
DEPT .m                   : DEPTH
Lithology_geolink ._      : Lithology_geolink
CALI .in                  : CALI
NPHI .m3/m3               : NPHI
RHOB .g/cm3               : RHOB
GR .gAPI                  : GR
DTC .us/ft                : DTC
RDEP .ohm.m               : RDEP
RMED .ohm.m               : RMED
~Parameter
#==================================================================
~Ascii
# ...
 4066.5319824 4.0000000000 8.3020000458 0.3282092512 2.4770240784 68.019500732 101.05278778 2.6385321617 2.5829999447
 4066.6843262 4.0000000000 8.2819995880 0.3337320685 2.4800882339 72.158645630 101.42298126 2.4984085560 2.5269999504
 4066.8366699 4.0000000000 8.2790002823 0.3331900537 2.4911761284 77.758949280 100.95571136 2.3522725105 2.3840000629
 4066.9890137 4.0000000000 8.2959995270 0.3274652362 2.5132400990 83.564308167 99.798057556 2.2558414936 2.2990000248
 4067.1413574 4.0000000000 8.3190002441 0.3186743855 2.5431859493 87.375328064 98.269866943 2.2486016750 2.2730000019
 4067.2939453 4.0000000000 8.3330001831 0.3092879057 2.5721843243 87.580169678 96.732467651 2.3397629261 2.2909998894
 4067.4462891 4.0000000000 8.3310003281 0.3012619317 2.5950961113 85.503654480 95.461364746 2.4403798580 2.3940000534
 4067.5986328 4.0000000000 8.3240003586 0.2951638699 2.6070401669 84.175369263 94.580955505 2.5773189068 2.4079999924
 4067.7509766 4.0000000000 8.3269996643 0.2908633053 2.6119999886 85.826217651 94.073028564 2.8237376213 2.5469999313
 4067.9035645 4.0000000000 8.3389997482 0.2876534462 2.6119999886 89.802215576 93.850578308 3.1540482044 2.8589999676
 4068.0559082 4.0000000000 8.3500003815 0.2850027084 2.6119840145 92.948043823 93.829566956 3.7252995968 3.5769999027
 4068.2082520 4.0000000000 8.3509998322 0.2817100286 2.6099038124 93.649108887 93.977905273 4.3681859970 4.7100000381
 4068.3605957 4.0000000000 8.3479995728 0.2759752572 2.5977520943 92.139457703 94.316749573 5.1146163940 6.2659997940
 4068.5131836 4.0000000000 8.3389997482 0.2665480077 2.5665752888 88.304389954 94.874275208 5.7774906158 7.2750000954
 4068.6655273 4.0000000000 8.3120002747 0.2533303797 2.5134630203 81.396919250 95.629035950 6.5901827812 6.9980001450
 4068.8178711 3.0000000000 8.2600002289 0.2368723303 2.4464871883 70.794944763 96.480598450 6.8790178299 6.3920001984
 4068.9702148 3.0000000000 8.2030000687 0.2188773751 2.3826718330 57.626869202 97.246353149 6.8715033531 5.2030000687
 4069.1225586 3.0000000000 8.1669998169 0.2023665458 2.3419487476 44.282669067 97.712226868 6.3788156509 4.3210000992
 4069.2751465 3.0000000000 8.1599998474 0.1909467131 2.3342003822 33.855587006 97.716445923 5.2918524742 4.6560001373
 4069.4274902 3.0000000000 8.1719999313 0.1875107884 2.3593604565 29.308074951 97.225028992 4.3842616081 4.0830001831
 4069.5798340 4.0000000000 8.1859998703 0.1927824169 2.4043767452 31.995206833 96.374519348 3.9458429813 3.6119999886
 4069.7321777 4.0000000000 8.1920003891 0.2048980892 2.4512798786 42.009990692 95.444343567 3.5455214977 3.4140000343
 4069.8847656 4.0000000000 8.1899995804 0.2207149267 2.4860801697 56.254280090 94.792221069 3.4582934380 3.3719999790
 4070.0371094 4.0000000000 8.1829996109 0.2374352217 2.4958398342 69.452095032 94.763488770 3.1889488697 3.4930000305
 4070.1894531 5.0000000000 8.1780004501 0.2536166310 2.4755995274 77.386512756 95.601882935 2.7910113335 3.4059998989
 4070.3417969 5.0000000000 8.1780004501 0.2699233294 2.4254801273 78.162467957 97.367195129 2.5113279819 2.8269999027
 4070.4943848 5.0000000000 8.1809997559 0.2889516652 2.3605272770 73.098152161 99.884712219 2.4169600010 2.3239998817
 4070.6467285 5.0000000000 8.1809997559 0.3129428625 2.3017597198 66.202178955 102.75901794 2.3592996597 2.1779999733
 4070.7990723 5.0000000000 8.1750001907 0.3408935368 2.2721042633 63.496406555 105.47131348 2.3758590221 2.2290000916
 4070.9514160 5.0000000000 8.1579999924 0.3681865633 2.2854080200 67.554573059 107.51326752 2.3671362400 2.2790000439
 4071.1037598 5.0000000000 8.1370000839 0.3875985444 2.3364679813 75.164192200 108.52931213 2.3192112446 2.3559999466
 4071.2563477 5.0000000000 8.1309995651 0.3929187655 2.4095447063 81.343841553 108.41638184 2.3327276707 2.5260000229
 4071.4086914 5.0000000000 8.1479997635 0.3824376464 2.4773526192 82.900314331 107.35003662 2.4308507442 2.7569999695
 4071.5610352 5.0000000000 8.1759996414 0.3606936932 2.5210719109 79.986061096 105.70431519 2.5359213352 2.9479999542
 4071.7133789 5.0000000000 8.1999998093 0.3360309899 2.5298652649 74.888656616 103.91075134 2.6446366310 2.9820001125
 4071.8659668 5.0000000000 8.2110004425 0.3163469136 2.5086956024 70.075485229 102.31198120 2.7370929718 2.9089999199
 4072.0183105 5.0000000000 8.2119998932 0.3049407899 2.4706714153 67.320617676 101.06867218 2.7976298332 2.8299999237
 4072.1706543 5.0000000000 8.2119998932 0.2999097109 2.4297676086 67.614913940 100.14521790 2.7756426334 2.7500000000
 4072.3229980 5.0000000000 8.2069997787 0.2964635789 2.4009521008 69.699028015 99.362022400 2.6983280182 2.5989999771
 4072.4755859 5.0000000000 8.1890001297 0.2915277183 2.3951683044 71.215667725 98.507598877 2.6042773724 2.4360001087
 4072.6279297 5.0000000000 8.1499996185 0.2851670682 2.4163203239 71.649803162 97.460639954 2.5659918785 2.3789999485
 4072.7802734 5.0000000000 8.0959997177 0.2793591321 2.4563927650 72.039802551 96.248489380 2.6827468872 2.5250000954
 4072.9326172 5.0000000000 8.0310001373 0.2753472328 2.5053520203 72.662818909 95.032005310 3.0103332996 2.9679999352
 4073.0849609 5.0000000000 7.9710001945 0.2717380524 2.5491795540 73.881996155 94.017456055 3.4290494919 3.6900000572
 4073.2375488 5.0000000000 7.9340000153 0.2652885020 2.5770318508 77.238113403 93.369102478 4.0044198036 4.5549998283
 4073.3898926 5.0000000000 7.9149999619 0.2537827194 2.5808076859 80.715545654 93.154960632 4.8323268890 5.3810000420
 4073.5422363 5.0000000000 7.8919997215 0.2380384356 2.5565919876 78.304298401 93.326911926 6.2339920998 6.6479997635
 4073.6945801 5.0000000000 7.8590002060 0.2215520442 2.5055577755 66.134902954 93.717910767 8.8790512085 8.7349996567
 4073.8471680 3.0000000000 7.8280000687 0.2081206888 2.4364151955 48.255275726 94.046371460 13.539489746 11.604999542
 4073.9995117 3.0000000000 7.8109998703 0.1997300088 2.3635354042 35.075244904 93.940223694 18.068382263 15.022000313
 4074.1518555 3.0000000000 7.8060002327 0.1957922727 2.3057515621 32.714954376 93.026611328 20.495113373 19.475999832
 4074.3041992 3.0000000000 7.8109998703 0.1936326325 2.2750241756 37.110195160 91.056900024 20.983675003 22.677000046
 4074.4567871 3.0000000000 7.8210000992 0.1903148890 2.2782886028 39.930397034 88.026039124 19.888870239 22.430000305
 4074.6091309 3.0000000000 7.8270001411 0.1837140173 2.3144645691 37.747669220 84.223464966 19.003467560 20.221000671
 4074.7614746 3.0000000000 7.8270001411 0.1731088459 2.3725447655 32.803153992 80.171951294 19.772649765 19.566999435
 4074.9138184 3.0000000000 7.8270001411 0.1594153196 2.4405200481 28.435731888 76.498634338 20.808708191 21.172000885
 4075.0661621 3.0000000000 7.8270001411 0.1450086534 2.5053334236 26.819980621 73.776298523 20.606794357 22.063999176
 4075.2187500 3.0000000000 7.8249998093 0.1331529915 2.5572483540 27.964597702 72.383117676 19.471847534 19.538000107
 4075.3710938 3.0000000000 7.8159999847 0.1272224337 2.5880560875 30.265781403 72.470596313 18.482559204 16.350000381
 4075.5234375 3.0000000000 7.8039999008 0.1291990578 2.5948641300 32.451236725 73.941993713 16.583812714 14.423999786
 4075.6757813 3.0000000000 7.7890000343 0.1388845295 2.5777564049 33.812946320 76.505508423 14.593607903 13.378000259
 4075.8283691 3.0000000000 7.7750000954 0.1539496779 2.5395994186 34.436622620 79.719108582 12.935688972 11.666999817
 4075.9807129 3.0000000000 7.7610001564 0.1709287018 2.4895913601 35.170654297 83.066223145 11.962185860 10.458000183
 4076.1330566 3.0000000000 7.7500000000 0.1866884679 2.4386794567 36.934970856 86.073425293 11.469254494 8.9350004196
 4076.2854004 3.0000000000 7.7500000000 0.1995903701 2.3988239765 40.127567291 88.409194946 11.369676590 9.4370002747
 4076.4379883 3.0000000000 7.7610001564 0.2092138678 2.3769919872 44.314243317 89.941139221 11.242453575 9.3579998016
 4076.5903320 4.0000000000 7.7769999504 0.2156254053 2.3761041164 48.866981506 90.733406067 11.373577118 9.5190000534
 4076.7426758 4.0000000000 7.7880005836 0.2192976773 2.3891360760 53.458606720 90.977760315 11.083711624 9.5970001221
