# LAS format log file from PETREL
# Project units are specified as depth units
#==================================================================
~Version information
VERS.   2.0:
WRAP.   NO:
#==================================================================
~Well
STRT .m      127.75000000 :
STOP .m      3459.2514648 :
STEP .m     0.00000000 :
NULL .        -999.250000 :
COMP.           : COMPANY
WELL.  34/10-17   : WELL
FLD.            : FIELD
LOC.            : LOCATION
SRVC.           : SERVICE COMPANY
DATE.  2018-09-11 14:48:44   : Log Export Date {yyyy-MM-dd HH:mm:ss}
PROV.           : PROVINCE
UWI.   34/10-17   : UNIQUE WELL ID
API.            : API NUMBER
#==================================================================
~Curve
DEPT .m                   : DEPTH
Lithology_geolink ._      : Lithology_geolink
CALI .in                  : CALI
DRHO .g/cm3               : DRHO
NPHI .m3/m3               : NPHI
RHOB .g/cm3               : RHOB
GR .gAPI                  : GR
DTC .us/ft                : DTC
RDEP .ohm.m               : RDEP
SP .mV                    : SP
RSHA .ohm.m               : RSHA
RMED .ohm.m               : RMED
~Parameter
#==================================================================
~Ascii
# ...
 3232.3764648 6.0000000000 6.3189997673 0.1400000006 0.3339699805 2.4660000801 103.96700287 92.643997192 2.0639998913 83.242996216 2.8399999142 1.8639999628
 3232.5014648 6.0000000000 6.3060002327 0.1729999930 0.3333000243 2.4879999161 102.70600128 92.541000366 2.0269999504 83.138999939 2.7019999027 1.8409999609
 3232.6235352 6.0000000000 6.2950000763 0.1930000037 0.3368299901 2.4990000725 101.06600189 92.651000977 2.0069999695 83.095001221 2.5550000668 1.8400000334
 3232.7485352 6.0000000000 6.2870001793 0.1940000057 0.3563899994 2.4949998856 100.53800201 92.918998718 1.9960000515 83.097999573 2.4600000381 1.8589999676
 3232.8732910 6.0000000000 6.2839999199 0.1809999943 0.3647899926 2.4769999981 101.61599731 93.246002197 1.9889999628 83.117996216 2.4440000057 1.8890000582
 3233.0017090 6.0000000000 6.2810001373 0.1580000073 0.3854199946 2.4460000992 103.47599792 93.502998352 1.9830000401 83.120002747 2.4969999790 1.9279999733
 3233.1262207 6.0000000000 6.2799997330 0.1369999945 0.3868100047 2.4140000343 105.07099915 93.628997803 1.9819999933 83.091003418 2.5910000801 1.9680000544
 3233.2514648 6.0000000000 6.2789998055 0.1270000041 0.3833400011 2.3919999599 105.79199982 93.644996643 1.9910000563 83.017997742 2.6779999733 2.0020000935
 3233.3764648 6.0000000000 6.2769999504 0.1260000020 0.3810699880 2.3859999180 105.79799652 93.597999573 2.0109999180 82.950996399 2.7269999981 2.0239999294
 3233.5009766 6.0000000000 6.2760000229 0.1319999993 0.3893999755 2.3959999084 105.15299988 93.518997192 2.0360000134 83.045997620 2.7449998856 2.0350000858
 3233.6259766 6.0000000000 6.2740001678 0.1439999938 0.3949899971 2.4179999828 104.03299713 93.377998352 2.0629999638 83.434997559 2.7469999790 2.0369999409
 3233.7512207 6.0000000000 6.2729997635 0.1589999944 0.3988600075 2.4430000782 103.16000366 93.188003540 2.0859999657 84.028999329 2.7330000401 2.0290000439
 3233.8762207 6.0000000000 6.2719998360 0.1749999970 0.3888600171 2.4649999142 103.27700043 93.059997559 2.1050000191 84.551002502 2.7090001106 2.0179998875
 3234.0012207 6.0000000000 6.2729997635 0.1879999936 0.3758100271 2.4820001125 104.64099884 93.135002136 2.1210000515 84.710998535 2.6819999218 2.0109999180
 3234.1262207 6.0000000000 6.2740001678 0.1959999949 0.3591699898 2.4930000305 106.91600037 93.467002869 2.1359999180 84.411003113 2.6549999714 2.0179998875
 3234.2509766 6.0000000000 6.2760000229 0.2010000050 0.3483000100 2.5000000000 109.15000153 93.909004211 2.1489999294 83.865997314 2.6319999695 2.0399999619
 3234.3759766 6.0000000000 6.2760000229 0.2029999942 0.3468299806 2.5020000935 110.35299683 94.199996948 2.1579999924 83.396003723 2.6150000095 2.0690000057
 3234.5009766 6.0000000000 6.2719998360 0.2029999942 0.3451800048 2.4949998856 110.36000061 94.170997620 2.1600000858 83.178001404 2.6070001125 2.0929999352
 3234.6259766 6.0000000000 6.2670001984 0.1969999969 0.3421099782 2.4820001125 109.40499878 93.880996704 2.1549999714 83.188003540 2.6129999161 2.1050000191
 3234.7509766 6.0000000000 6.2630004883 0.1829999983 0.3359299898 2.4630000591 107.54399872 93.588996887 2.1440000534 83.300003052 2.6349999905 2.1010000706
 3234.8759766 6.0000000000 6.2639999390 0.1599999964 0.3335500062 2.4430000782 105.72299957 93.543998718 2.1310000420 83.428001404 2.6630001068 2.0880000591
 3235.0009766 6.0000000000 6.2690000534 0.1360000074 0.3335599899 2.4279999733 105.12699890 93.793998718 2.1210000515 83.537002563 2.6900000572 2.0659999847
 3235.1259766 6.0000000000 6.2760000229 0.1220000014 0.3372600079 2.4289999008 106.28800201 94.277000427 2.1180000305 83.611999512 2.7060000896 2.0380001068
 3235.2507324 6.0000000000 6.2829999924 0.1220000014 0.3386099935 2.4449999332 108.50499725 94.802001953 2.1199998856 83.646003723 2.7049999237 2.0109999180
 3235.3757324 6.0000000000 6.2890000343 0.1369999945 0.3363399804 2.4719998837 110.31600189 95.171997070 2.1219999790 83.588996887 2.6909999847 1.9960000515
 3235.5007324 6.0000000000 6.2950000763 0.1589999944 0.3363000154 2.5009999275 111.24199677 95.296997070 2.1189999580 83.390998840 2.6740000248 1.9939999580
 3235.6257324 6.0000000000 6.3000001907 0.1749999970 0.3375899792 2.5179998875 111.46399689 95.168998718 2.1110000610 83.119003296 2.6630001068 2.0030000210
 3235.7507324 6.0000000000 6.3040003777 0.1780000031 0.3441099823 2.5209999084 111.47699738 94.916000366 2.0980000496 82.940002441 2.6619999409 2.0109999180
 3235.8757324 6.0000000000 6.3060002327 0.1729999930 0.3531999886 2.5179998875 111.82399750 94.751007080 2.0850000381 82.976997375 2.6659998894 2.0090000629
 3236.0007324 6.0000000000 6.3070001602 0.1620000005 0.3632899821 2.5130000114 112.12799835 94.864997864 2.0759999752 83.182998657 2.6640000343 1.9980000257
 3236.1254883 6.0000000000 6.3060002327 0.1490000039 0.3797999918 2.5020000935 112.02200317 95.292991638 2.0710000992 83.452003479 2.6489999294 1.9869999886
 3236.2504883 7.0000000000 6.3000001907 0.1369999945 0.3857199848 2.4849998951 111.59100342 95.865997314 2.0699999332 83.666999817 2.6240000725 1.9850000143
 3236.3754883 7.0000000000 6.2899999619 0.1299999952 0.3810200095 2.4649999142 111.60700226 96.402000427 2.0710000992 83.721000671 2.6029999256 1.9950000048
 3236.5004883 7.0000000000 6.2799997330 0.1289999932 0.3722000122 2.4460000992 112.89700317 96.808998108 2.0739998817 83.635002136 2.5959999561 2.0109999180
 3236.6254883 7.0000000000 6.2749996185 0.1350000054 0.3636800051 2.4360001087 115.48000336 97.086997986 2.0769999027 83.482002258 2.6059999466 2.0269999504
 3236.7504883 7.0000000000 6.2769999504 0.1420000046 0.3573300242 2.4289999008 118.03900146 97.269996643 2.0789999962 83.246002197 2.6250000000 2.0360000134
 3236.8757324 7.0000000000 6.2789998055 0.1420000046 0.3562900126 2.4219999313 118.90100098 97.363998413 2.0820000172 82.958999634 2.6380000114 2.0369999409
 3237.0007324 7.0000000000 6.2760000229 0.1379999965 0.3582800031 2.4179999828 117.45500183 97.350997925 2.0850000381 82.914001465 2.6359999180 2.0309998989
 3237.1252441 7.0000000000 6.2659997940 0.1379999965 0.3570899963 2.4319999218 114.23000336 97.213996887 2.0869998932 83.365997314 2.6210000515 2.0160000324
 3237.2502441 7.0000000000 6.2550001144 0.1490000039 0.3457099795 2.4649999142 110.85800171 96.975997925 2.0880000591 84.167999268 2.6059999466 1.9919999838
 3237.3754883 6.0000000000 6.2519998550 0.1669999957 0.3332000077 2.5060000420 108.90499878 96.676994324 2.0889999866 84.897003174 2.6040000916 1.9650000334
 3237.5000000 6.0000000000 6.2600002289 0.1759999990 0.3206999898 2.5290000439 108.34899902 96.385002136 2.0899999142 85.126998901 2.6210000515 1.9420000315
 3237.6250000 6.0000000000 6.2769999504 0.1580000073 0.3170599937 2.5130000114 108.12400055 96.183998108 2.0910000801 84.765998840 2.6480000019 1.9290000200
 3237.7502441 6.0000000000 6.2969999313 0.1220000014 0.3186900020 2.4779999256 107.26000214 96.163002014 2.0940001011 84.167999268 2.6679999828 1.9320000410
 3237.8752441 6.0000000000 6.3119997978 0.0930000022 0.3235400021 2.4539999962 106.20300293 96.376991272 2.0959999561 83.793998718 2.6689999104 1.9470000267
 3238.0002441 6.0000000000 6.3220000267 0.0909999982 0.3284299970 2.4579999447 105.73899841 96.692001343 2.0969998837 83.786003113 2.6540000439 1.9689999819
 3238.1250000 6.0000000000 6.3289999962 0.1150000021 0.3334600031 2.4779999256 106.28199768 96.946998596 2.0950000286 83.952003479 2.6340000629 1.9869999886
 3238.2500000 6.0000000000 6.3340001106 0.1389999986 0.3385200202 2.4869999886 107.40899658 97.042999268 2.0920000076 84.099998474 2.6170001030 1.9939999580
 3238.3750000 6.0000000000 6.3400001526 0.1469999999 0.3435499966 2.4769999981 107.61900330 96.981002808 2.0869998932 84.136001587 2.6040000916 1.9950000048
 3238.5000000 6.0000000000 6.3460001945 0.1420000046 0.3468799889 2.4600000381 106.55799866 96.893997192 2.0820000172 84.015998840 2.5920000076 1.9939999580
 3238.6250000 6.0000000000 6.3520002365 0.1410000026 0.3491799831 2.4619998932 105.04399872 96.861999512 2.0759999752 83.775001526 2.5799999237 1.9969999790
