# LAS format log file from PETREL
# Project units are specified as depth units
#==================================================================
~Version information
VERS.   2.0:
WRAP.   NO:
#==================================================================
~Well
STRT .m      127.75000000 :
STOP .m      3459.2514648 :
STEP .m     0.00000000 :
NULL .        -999.250000 :
COMP.           : COMPANY
WELL.  34/10-17   : WELL
FLD.            : FIELD
LOC.            : LOCATION
SRVC.           : SERVICE COMPANY
DATE.  2018-09-11 14:48:44   : Log Export Date {yyyy-MM-dd HH:mm:ss}
PROV.           : PROVINCE
UWI.   34/10-17   : UNIQUE WELL ID
API.            : API NUMBER
#==================================================================
~Curve
DEPT .m                   : DEPTH
Lithology_geolink ._      : Lithology_geolink
CALI .in                  : CALI
DRHO .g/cm3               : DRHO
NPHI .m3/m3               : NPHI
RHOB .g/cm3               : RHOB
GR .gAPI                  : GR
DTC .us/ft                : DTC
RDEP .ohm.m               : RDEP
SP .mV                    : SP
RSHA .ohm.m               : RSHA
RMED .ohm.m               : RMED
~Parameter
#==================================================================
~Ascii
 127.75000000  -999.250000 15.586999893 -0.981999993 0.4543800056 1.9980000257 18.204999924 55.689994812 10000.000000 -83.73600006 0.2049999982 10000.000000
 127.87500000  -999.250000 15.586999893 -0.981999993 0.4543800056 1.9980000257 18.204999924 55.689994812 10000.000000 -83.73600006 0.2049999982 10000.000000
 128.00000000  -999.250000 15.586999893 -0.981999993 0.4543800056 1.9980000257 18.204999924 55.689994812 10000.000000 -83.73600006 0.2049999982 10000.000000
 128.12500000  -999.250000 15.586999893 -0.981999993 0.4543800056 1.9980000257 18.204999924 55.689994812 10000.000000 -83.73600006 0.2049999982 10000.000000
 128.25000000  -999.250000 15.586999893 -0.981999993 0.4543800056 1.9980000257 18.204999924 55.689994812 10000.000000 -83.73600006 0.2049999982 10000.000000
 128.37500000  -999.250000 15.586999893 -0.981999993 0.4543800056 1.9980000257 18.204999924 55.689994812 10000.000000 -83.73600006 0.2049999982 10000.000000
 128.49998474  -999.250000 15.586999893 -0.981999993 0.4543800056 1.9980000257 18.204999924 55.689994812 10000.000000 -83.73600006 0.2049999982 10000.000000
 128.62498474  -999.250000 15.586999893 -0.981999993 0.4543800056 1.9980000257 18.204999924 55.689994812 10000.000000 -83.73600006 0.2049999982 10000.000000
 128.74998474  -999.250000 15.586999893 -0.981999993 0.4543800056 1.9980000257 18.204999924 55.689994812 10000.000000 -83.73600006 0.2049999982 10000.000000
 128.87498474  -999.250000 15.586999893 -0.981999993 0.4543800056 1.9980000257 18.204999924 55.689994812 10000.000000 -83.73600006 0.2049999982 10000.000000
 128.99998474  -999.250000 15.586999893 -0.981999993 0.4543800056 1.9980000257 18.204999924 55.689994812 10000.000000 -83.73600006 0.2049999982 10000.000000
 129.12501526  -999.250000 15.586999893 -0.981999993 0.4543800056 1.9980000257 18.204999924 55.689994812 10000.000000 -83.73600006 0.2049999982 10000.000000
 129.25001526  -999.250000 15.586999893 -0.981999993 0.4543800056 1.9980000257 18.204999924 55.689994812 10000.000000 -83.73600006 0.2049999982 10000.000000
 129.37498474  -999.250000 15.586999893 -0.981999993 0.4543800056 1.9980000257 18.204999924 55.689994812 10000.000000 -83.73600006 0.2049999982 10000.000000
 129.50001526  -999.250000 15.586999893 -0.981999993 0.4543800056 1.9980000257 18.204999924 55.689994812 10000.000000 -83.73600006 0.2049999982 10000.000000
 129.62501526  -999.250000 15.586999893 -0.981999993 0.4543800056 1.9980000257 18.204999924 55.689994812 10000.000000 -83.73600006 0.2049999982 10000.000000
 129.75000000  -999.250000 15.586001396 -0.981999993 0.4543800056 1.9980000257 18.006000519 55.699001312 10000.000000 -84.03800201 0.2039999962 10000.000000
 129.87500000  -999.250000 15.582999229 -0.981999993 0.4543800056 1.9980000257 16.440999985 55.846000671 10000.000000 -85.95099640 0.2020000070 10000.000000
 130.00000000  -999.250000 15.579000473 -0.981999993 0.4543800056 1.9980000257 14.074999809 56.262001038 10000.000000 -88.21099854 0.1990000010 10000.000000
 130.12500000  -999.250000 15.576001167 -0.981999993 0.4543800056 1.9980000257 11.744999886 56.752002716 10000.000000 -91.45500183 0.1979999989 10000.000000
 130.25000000  -999.250000 15.576001167 -0.981999993 0.4543800056 1.9980000257 10.274000168 57.034000397 10000.000000 -95.73000336 0.1979999989 10000.000000
 130.37500000  -999.250000 15.579998970 -0.981999993 0.4543800056 1.9980000257 9.7449998856 56.888996124 10000.000000 -99.87799835 0.2010000050 10000.000000
 130.50000000  -999.250000 15.588999748 -0.981999993 0.4543800056 1.9980000257 9.7399997711 56.429000854 10000.000000 -102.4649963 0.2039999962 10000.000000
 130.62500000  -999.250000 15.598999977 -0.981999993 0.4543800056 1.9980000257 9.8559999466 55.888999939 10000.000000 -103.0339966 0.2060000002 10000.000000
 130.75000000  -999.250000 15.607999802 -0.981999993 0.4543800056 1.9980000257 9.8170003891 55.472999573 10000.000000 -102.1360016 0.2060000002 10000.000000
 130.87500000  -999.250000 15.612000465 -0.981999993 0.4543800056 1.9980000257 9.7340002060 55.284000397 10000.000000 -100.3639984 0.2049999982 10000.000000
 130.99998474  -999.250000 15.609999657 -0.981999993 0.4543800056 1.9980000257 9.9949998856 55.266998291 10000.000000 -98.46800232 0.2029999942 10000.000000
 131.12498474  -999.250000 15.602999687 -0.981999993 0.4543800056 1.9980000257 10.963000298 55.337001801 10000.000000 -97.28700256 0.2000000030 10000.000000
 131.24998474  -999.250000 15.593999863 -0.981999993 0.4543800056 1.9980000257 12.894000053 55.430000305 10000.000000 -97.37000275 0.1979999989 10000.000000
 131.37501526  -999.250000 15.586001396 -0.981999993 0.4543800056 1.9980000257 15.074999809 55.530998230 10000.000000 -98.81500244 0.1959999949 10000.000000
 131.50001526  -999.250000 15.579998970 -0.981999993 0.4543800056 1.9980000257 16.614999771 55.581001282 10000.000000 -100.8389969 0.1949999928 10000.000000
 131.62498474  -999.250000 15.578000069 -0.981999993 0.4543800056 1.9980000257 16.930000305 55.550998688 10000.000000 -102.6429977 0.1940000057 10000.000000
 131.75001526  -999.250000 15.579000473 -0.981999993 0.4543800056 1.9980000257 15.779999733 55.522998810 10000.000000 -103.8079987 0.1949999928 10000.000000
 131.87501526  -999.250000 15.581000328 -0.981999993 0.4543800056 1.9980000257 13.873999596 55.638996124 10000.000000 -104.2829971 0.1969999969 10000.000000
 132.00001526  -999.250000 15.582999229 -0.981999993 0.4543800056 1.9980000257 11.963000298 55.909000397 10000.000000 -104.3529968 0.2000000030 10000.000000
 132.12501526  -999.250000 15.583999634 -0.981999993 0.4543800056 1.9980000257 10.626000404 56.180000305 10000.000000 -104.3259964 0.2029999942 10000.000000
 132.25000000  -999.250000 15.583999634 -0.981999993 0.4543800056 1.9980000257 10.258000374 56.258998871 10000.000000 -104.5739975 0.2049999982 10000.000000
 132.37500000  -999.250000 15.581999779 -0.981999993 0.4543800056 1.9980000257 10.697999954 56.004001617 10000.000000 -105.2180023 0.2049999982 10000.000000
 132.50000000  -999.250000 15.581000328 -0.981999993 0.4543800056 1.9980000257 11.708999634 55.536994934 10000.000000 -105.3700027 0.2039999962 10000.000000
 132.62500000  -999.250000 15.581000328 -0.981999993 0.4543800056 1.9980000257 12.939000130 55.081001282 10000.000000 -103.3219986 0.2020000070 10000.000000
 132.75000000  -999.250000 15.581999779 -0.981999993 0.4543800056 1.9980000257 14.031999588 54.770000458 10000.000000 -98.70300293 0.1990000010 10000.000000
 132.87500000  -999.250000 15.583999634 -0.981999993 0.4543800056 1.9980000257 14.883999825 54.644001007 10000.000000 -93.18900299 0.1959999949 10000.000000
 133.00000000  -999.250000 15.586001396 -0.981999993 0.4543800056 1.9980000257 15.463999748 54.680999756 10000.000000 -89.94499969 0.1940000057 10000.000000
 133.12500000  -999.250000 15.588999748 -0.981999993 0.4543800056 1.9980000257 15.760000229 54.964000702 10000.000000 -90.63300323 0.1930000037 10000.000000
 133.25000000  -999.250000 15.589999199 -0.981999993 0.4543800056 1.9980000257 15.819000244 55.541999817 10000.000000 -93.45400238 0.1940000057 10000.000000
 133.37500000  -999.250000 15.588000298 -0.981999993 0.4543800056 1.9980000257 15.829000473 56.337001801 10000.000000 -94.91699982 0.1959999949 10000.000000
 133.49998474  -999.250000 15.586001396 -0.981999993 0.4543800056 1.9980000257 15.942999840 57.050998688 10000.000000 -92.91999817 0.1979999989 10000.000000
 133.62498474  -999.250000 15.586001396 -0.981999993 0.4543800056 1.9980000257 16.214000702 57.433998108 10000.000000 -89.09400177 0.1990000010 10000.000000
 133.74998474  -999.250000 15.588000298 -0.981999993 0.4543800056 1.9980000257 16.540000916 57.483001709 10000.000000 -87.33599854 0.1979999989 10000.000000
 133.87498474  -999.250000 15.593001366 -0.981999993 0.4543800056 1.9980000257 16.746000290 57.254001617 10000.000000 -90.59400177 0.1979999989 10000.000000
 133.99998474  -999.250000 15.597000122 -0.981999993 0.4543800056 1.9980000257 16.722000122 56.865001678 10000.000000 -97.69400024 0.1979999989 10000.000000
