# LAS format log file from PETREL
# Project units are specified as depth units
#==================================================================
~Version information
VERS.   2.0:
WRAP.   NO:
#==================================================================
~Well
STRT .m      818.46392822 :
STOP .m      2256.5109863 :
STEP .m     0.00000000 :
NULL .        -999.250000 :
COMP.           : COMPANY
WELL.  34/10-7   : WELL
FLD.            : FIELD
LOC.            : LOCATION
SRVC.           : SERVICE COMPANY
DATE.  2018-09-11 14:48:47   : Log Export Date {yyyy-MM-dd HH:mm:ss}
PROV.           : PROVINCE
UWI.   34/10-7   : UNIQUE WELL ID
API.            : API NUMBER
#==================================================================
~Curve
DEPT .m                   : DEPTH
Lithology_geolink ._      : Lithology_geolink
CALI .in                  : CALI
DRHO .g/cm3               : DRHO
NPHI .m3/m3               : NPHI
RHOB .g/cm3               : RHOB
GR .gAPI                  : GR
DTC .us/ft                : DTC
RDEP .ohm.m               : RDEP
SP .mV                    : SP
RSHA .ohm.m               : RSHA
RMED .ohm.m               : RMED
~Parameter
#==================================================================
~Ascii
# ...
 2248.5861816  -999.250000 6.5120000839 -0.071999997 0.3693099916 2.2890000343 43.280998230 104.37500763 1.2319984436 103.22399902 1.3169935942 1.3169935942
 2248.7385254  -999.250000 6.3800001144 -0.061999999 0.3577300012 2.2899999619 43.280998230 104.37500763 1.2310014963 102.60015106 1.3199952841 1.3199952841
 2248.8908691  -999.250000 6.0219998360 -0.068000004 0.3482099771 2.2790000439 43.280998230 104.37500763 1.2300015688 102.69400024 1.3209984303 1.3209984303
 2249.0432129  -999.250000 5.9410004616 -0.056000002 0.3454499841 2.2739999294 43.280998230 104.37500763 1.2300000191 105.06900024 1.3219968081 1.3219968081
 2249.1958008  -999.250000 5.8680000305 -0.057000000 0.3913600147 2.2760000229 43.280998230 104.37500763 1.2300000191 103.06980133 1.3229984045 1.3229984045
 2249.3481445  -999.250000 5.8159999847 -0.059999999 0.4015800059 2.2599999905 43.280998230 104.37500763 1.2290015221 103.57180023 1.3249968290 1.3249968290
 2249.5004883  -999.250000 5.7490000725 -0.067000002 0.3886100054 2.2620000839 43.280998230 104.37500763 1.2309967279 105.31900024 1.3259984255 1.3259984255
 2249.6528320  -999.250000 5.7379999161 -0.077000000 0.3665499985 2.2330000401 43.280998230 104.37500763 1.2349872589 104.06900024 1.3279935122 1.3279935122
 2249.8054199  -999.250000 5.7319998741 -0.079999998 0.3809799850 2.2420001030 43.280998230 104.37500763 1.2369967699 104.28800201 1.3339903355 1.3339903355
 2249.9577637  -999.250000 5.6900000572 -0.079999998 0.4075999856 2.2420001030 43.280998230 104.37500763 1.2399952412 104.91220093 1.3339999914 1.3339999914
 2250.1101074  -999.250000 5.6680002213 -0.097000003 0.4296900034 2.2390000820 43.280998230 104.37500763 1.2419967651 105.03725433 1.3330014944 1.3330014944
 2250.2624512  -999.250000 5.6719999313 -0.082000002 0.4296900034 2.2579998970 43.280998230 104.37500763 1.2429968119 105.19400024 1.3469551802 1.3469551802
 2250.4150391  -999.250000 5.6680002213 -0.079999998 0.4296900034 2.2560000420 43.280998230 104.37500763 1.2420015335 104.84980011 1.3460015059 1.3460015059
 2250.5673828  -999.250000 5.6680002213 -0.052999999 0.4296900034 2.2890000343 43.280998230 104.37500763 1.2419999838 104.72560120 1.3469984531 1.3469984531
 2250.7197266  -999.250000 5.6680002213 -0.052999999 0.4296900034 2.2980000973 43.280998230 104.37500763 1.2419999838 105.10144806 1.3460015059 1.3460015059
 2250.8720703  -999.250000 5.6680002213 -0.048999999 0.4296900034 2.3099999428 43.280998230 104.37500763 1.2419999838 106.00599670 1.3440032005 1.3440032005
 2251.0244141  -999.250000 5.6719999313 -0.050999999 0.4296900034 2.3050000668 43.280998230 104.37500763 1.2419999838 103.97499847 1.3459935188 1.3459935188
 2251.1770020  -999.250000 5.6719999313 -0.048000000 0.4296900034 2.3159999847 43.280998230 104.37500763 1.2419999838 103.72540283 1.3459999561 1.3459999561
 2251.3293457  -999.250000 5.6719999313 -0.050000001 0.4296900034 2.3150000572 43.280998230 104.37500763 1.2439967394 103.97344971 1.3420064449 1.3420064449
 2251.4816895  -999.250000 5.6719999313 -0.064000003 0.4296900034 2.2960000038 43.280998230 104.37500763 1.2420032024 103.00599670 1.3459935188 1.3459935188
 2251.6340332  -999.250000 5.6719999313 -0.070000000 0.4296900034 2.2660000324 43.280998230 104.37500763 1.2419999838 103.63099670 1.3459999561 1.3459999561
 2251.7866211  -999.250000 5.6640000343 -0.074000001 0.4296900034 2.2369999886 43.280998230 104.37500763 1.2419999838 103.50654602 1.3420064449 1.3420064449
 2251.9389648  -999.250000 5.6640000343 -0.066000000 0.4296900034 2.2520000935 43.280998230 104.37500763 1.2419999838 103.85005188 1.3420000076 1.3420000076
 2252.0913086  -999.250000 5.6640000343 -0.068000004 0.4296900034 2.2550001144 43.280998230 104.37500763 1.2410016060 103.88099670 1.3260256052 1.3260256052
 2252.2436523  -999.250000 5.6640000343 -0.066000000 0.4296900034 2.2709999084 43.280998230 104.37500763 1.2410000563 103.72499847 1.3409519196 1.3409519196
 2252.3962402  -999.250000 5.6560001373 -0.066000000 0.4296900034 2.2509999275 43.280998230 104.37500763 1.2419984341 103.85040283 1.3370064497 1.3370064497
 2252.5485840  -999.250000 5.6490001678 -0.075999998 0.4296900034 2.2269999981 43.280998230 104.37500763 1.2410016060 104.10120392 1.3320080042 1.3320080042
 2252.7009277  -999.250000 5.6519999504 -0.079000004 0.4296900034 2.2309999466 43.280998230 104.37500763 1.2419984341 104.84944916 1.3329983950 1.3329983950
 2252.8532715  -999.250000 5.6560001373 -0.079999998 0.4296900034 2.2360000610 43.280998230 104.37500763 1.2410016060 104.50599670 1.3230159283 1.3230159283
 2253.0058594  -999.250000 5.6519999504 -0.066000000 0.4296900034 2.2730000019 43.280998230 104.37500763 1.2419984341 102.97780609 1.3210031986 1.3210031986
 2253.1582031  -999.250000 5.6519999504 -0.066000000 0.4296900034 2.2679998875 43.280998230 104.37500763 1.2410016060 104.72554779 1.3229967356 1.3229967356
 2253.3105469  -999.250000 5.6490001678 -0.071000002 0.4296900034 2.2669999599 43.280998230 104.37500763 1.2410000563 105.06804657 1.3120176792 1.3120176792
 2253.4628906  -999.250000 5.6519999504 -0.089000002 0.4296900034 2.2400000095 43.280998230 104.37500763 1.2410000563 104.47499847 1.3110015392 1.3110015392
 2253.6152344  -999.250000 5.6490001678 -0.101000004 0.4296900034 2.2309999466 43.280998230 104.37500763 1.2410000563 104.28700256 1.3109999895 1.3109999895
 2253.7678223  -999.250000 5.6519999504 -0.104000002 0.4296900034 2.2390000820 43.280998230 104.37500763 1.2410000563 104.28785706 1.3109999895 1.3109999895
 2253.9201660  -999.250000 5.6519999504 -0.082999997 0.4296900034 2.2599999905 43.280998230 104.37500763 1.2410000563 104.81915283 1.3109999895 1.3109999895
 2254.0725098  -999.250000 5.6519999504 -0.063000001 0.4296900034 2.2850000858 43.280998230 104.37500763 1.2410000563 104.91200256 1.3109999895 1.3109999895
 2254.2248535  -999.250000 5.6490001678 -0.055000000 0.4296900034 2.2790000439 43.280998230 104.37500763 1.2410000563 104.78700256 1.3109999895 1.3109999895
 2254.3774414  -999.250000 5.6519999504 -0.063000001 0.4297000170 2.2769999504 43.280998230 104.37500763 1.2410000563 104.06819916 1.3109999895 1.3109999895
 2254.5297852  -999.250000 5.6250000000 -0.067000002 0.4301800132 2.2760000229 43.280998230 104.37500763 1.2410000563 103.56900024 1.3109999895 1.3109999895
 2254.6821289  -999.250000 5.6250000000 -0.068000004 0.4301800132 2.2809998989 43.280998230 104.37500763 1.2410000563 103.56804657 1.3109999895 1.3109999895
 2254.8344727  -999.250000 5.6250000000 -0.068000004 0.4301800132 2.2809998989 43.280998230 104.37500763 1.2410000563 102.97499847 1.3109999895 1.3109999895
 2254.9870605  -999.250000 5.6250000000 -0.068000004 0.4301800132 2.2809998989 43.280998230 104.37500763 1.2410000563  -999.250000 1.3109999895 1.3109999895
 2255.1394043  -999.250000 5.6250000000 -0.068000004 0.4301800132 2.2809998989 43.280998230 104.37500763 1.2410000563  -999.250000 1.3109999895 1.3109999895
 2255.2917480  -999.250000 5.6250000000 -0.068000004 0.4301800132 2.2809998989 43.280998230 104.37500763 1.2410000563  -999.250000 1.3109999895 1.3109999895
 2255.4440918  -999.250000 5.6250000000 -0.068000004 0.4301800132 2.2809998989  -999.250000  -999.250000  -999.250000  -999.250000  -999.250000  -999.250000
 2255.5964355  -999.250000 5.6250000000 -0.068000004 0.4301800132 2.2809998989  -999.250000  -999.250000  -999.250000  -999.250000  -999.250000  -999.250000
 2255.7490234  -999.250000 5.6250000000 -0.068000004 0.4301800132 2.2809998989  -999.250000  -999.250000  -999.250000  -999.250000  -999.250000  -999.250000
 2255.9013672  -999.250000 5.6250000000 -0.068000004 0.4301800132 2.2809998989  -999.250000  -999.250000  -999.250000  -999.250000  -999.250000  -999.250000
 2256.0537109  -999.250000 5.6250000000 -0.068000004 0.4301800132 2.2809998989  -999.250000  -999.250000  -999.250000  -999.250000  -999.250000  -999.250000
 2256.2060547  -999.250000 5.6250000000 -0.068000004 0.4301800132 2.2809998989  -999.250000  -999.250000  -999.250000  -999.250000  -999.250000  -999.250000
