# LAS format log file from PETREL
# Project units are specified as depth units
#==================================================================
~Version information
VERS.   2.0:
WRAP.   NO:
#==================================================================
~Well
STRT .m      3900.0166016 :
STOP .m      4564.4804688 :
STEP .m     0.00000000 :
NULL .        -999.250000 :
COMP.           : COMPANY
WELL.  34/11-1   : WELL
FLD.            : FIELD
LOC.            : LOCATION
SRVC.           : SERVICE COMPANY
DATE.  2018-09-11 14:48:47   : Log Export Date {yyyy-MM-dd HH:mm:ss}
PROV.           : PROVINCE
UWI.   34/11-1   : UNIQUE WELL ID
API.            : API NUMBER
#==================================================================
~Curve
DEPT .m                   : DEPTH
Lithology_geolink ._      : Lithology_geolink
CALI .in                  : CALI
BS .in                    : BS
NPHI .m3/m3               : NPHI
RHOB .g/cm3               : RHOB
GR .gAPI                  : GR
DTC .us/ft                : DTC
DTS .us/ft                : DTS
RDEP .ohm.m               : RDEP
SP .mV                    : SP
RSHA .ohm.m               : RSHA
RMED .ohm.m               : RMED
~Parameter
#==================================================================
~Ascii
# ...
 4338.9287109 5.0000000000 9.9659996033 8.3750000000 0.1825821698 2.4879999161 89.787986755 83.274414063 145.17784119 3.0742018223 -568.2520142 3.6979486942 3.4690001011
 4339.0810547 5.0000000000 9.9519996643 8.3750000000 0.2066619247 2.5020000935 89.081367493 83.303283691 145.40820313 3.1371822357 -68.26200104 3.7763545513 3.5650000572
 4339.2333984 5.0000000000 9.9499988556 8.3750000000 0.1736669242 2.5020000935 87.820220947 83.239685059 145.61280823 3.1940000057 431.41799927 3.8225672245 3.6510000229
 4339.3857422 5.0000000000 9.9219999313 8.3750000000 0.1844591051 2.4860000610 87.852249146 83.117538452 145.36007690 3.2369999886 906.76800537 3.8338749409 3.7190001011
 4339.5380859 5.0000000000 9.9180002213 8.3750000000 0.1808546185 2.4890000820 89.118553162 82.984390259 145.57603455 3.2639999390 1107.1419678 3.8179903030 3.7520000935
 4339.6904297 5.0000000000 9.8990001678 8.3750000000 0.1835496128 2.4939999580 90.355529785 82.882369995 146.23818970 3.2860000134 479.84698486 3.7956347466 3.7339999676
 4339.8432617 5.0000000000 9.8679990768 8.3750000000 0.1708795726 2.4769999981 92.173301697 82.889183044 147.41548157 3.3050289154 -773.7379761 3.7859745026 3.6960000992
 4339.9956055 5.0000000000 9.8540010452 8.3750000000 0.1833546311 2.4909999371 95.937217712 82.952056885 148.56565857 3.3140029907 -1610.024048 3.7904615402 3.6879999638
 4340.1479492 5.0000000000 9.8529996872 8.3750000000 0.1959120482 2.5030000210 98.556243896 82.987136841 149.24623108 3.3149743080 -1543.998047 3.7947564125 3.6970000267
 4340.3002930 5.0000000000 9.8369998932 8.3750000000 0.2299038470 2.4909999371 96.042121887 82.946990967 150.38273621 3.3069453239 -1067.626953 3.7922947407 3.7009999752
 4340.4526367 5.0000000000 9.8249998093 8.3750000000 0.2858098745 2.4949998856 92.056304932 82.864929199 152.08856201 3.2899584770 -567.6270142 3.7869999409 3.6970000267
 4340.6049805 5.0000000000 9.8120002747 8.3750000000 0.1765321791 2.5099999905 91.719734192 82.834144592 153.41145325 3.2769999504 -67.63700104 3.7898845673 3.6900000572
 4340.7573242 5.0000000000 9.8059997559 8.3750000000 0.1643456370 2.5060000420 93.917457581 82.849739075 153.83157349 3.2799999714 432.01998901 3.8038077354 3.6870000362
 4340.9096680 5.0000000000 9.8059997559 8.3750000000 0.1665066630 2.4839999676 95.279762268 82.975128174 153.63151550 3.2960000038 906.91900635 3.8247692585 3.6989998817
 4341.0625000 5.0000000000 9.8009996414 8.3750000000 0.1874667108 2.4630000591 94.952636719 83.304458618 153.19180298 3.3200769424 1104.6860352 3.8473846912 3.7230000496
 4341.2148438 5.0000000000 9.7709999084 8.3750000000 0.2371510714 2.4779999256 94.322189331 83.772811890 152.64910889 3.3440449238 474.26800537 3.8619744778 3.7469999790
 4341.3671875 5.0000000000 9.7659997940 8.3750000000 0.2358507812 2.5090000629 95.463127136 84.135894775 153.39581299 3.3580095768 -778.1110229 3.8623204231 3.7739999294
 4341.5195313 5.0000000000 9.7709999084 8.3750000000 0.2118592262 2.5429999828 97.224052429 84.152389526 155.42845154 3.3610031605 -1610.793945 3.8483974934 3.7780001163
 4341.6718750 5.0000000000 9.7609996796 8.3750000000 0.1973682046 2.5409998894 96.419120789 83.966667175 157.16242981 3.3620064259 -1546.432983 3.8278334141 3.7590000629
 4341.8242188 5.0000000000 9.7559995651 8.3750000000 0.2153797448 2.5039999485 95.850639343 83.765945435 157.52052307 3.3640160561 -1070.206055 3.8192141056 3.7369999886
 4341.9765625 5.0000000000 9.7629995346 8.3750000000 0.1987848729 2.5000000000 98.635063171 83.586364746 156.79692078 3.3689999580 -570.2059937 3.8246827126 3.7190001011
 4342.1289063 5.0000000000 9.7679996490 8.3750000000 0.2214993685 2.5050001144 102.65971375 83.423690796 155.69665527 3.3710000515 -70.21600342 3.8290383816 3.7219998837
 4342.2812500 5.0000000000 9.7569999695 8.3750000000 0.2116853893 2.5230000019 103.63282776 83.312385559 154.71672058 3.3659999371 429.45800781 3.8235962391 3.7320001125
 4342.4340820 5.0000000000 9.7639999390 8.3750000000 0.2231637537 2.5320000648 101.53884888 83.289871216 155.02186584 3.3569681644 904.68902588 3.8142948151 3.7260000706
 4342.5864258 5.0000000000 9.7799997330 8.3750000000 0.2231399715 2.5179998875 101.60129547 83.340591431 155.85467529 3.3469710350 1104.3750000 3.8075385094 3.7100000381
 4342.7387695 5.0000000000 9.8179998398 8.3750000000 0.2419123054 2.5009999275 104.40628052 83.429023743 155.93943787 3.3379840851 476.23199463 3.8008077145 3.7060000896
 4342.8911133 5.0000000000 9.8540010452 8.3750000000 0.2600164115 2.5050001144 104.87545013 83.500747681 155.26570129 3.3329839706 -777.2559814 3.7910768986 3.7019999027
 4343.0434570 5.0000000000 9.8540010452 8.3750000000 0.2122383416 2.5060000420 101.52220154 83.514259338 154.71685791 3.3279776573 -1612.626953 3.7793290615 3.6949999332
 4343.1958008 5.0000000000 9.8529996872 8.3750000000 0.2114106417 2.5250000954 99.219802856 83.516136169 154.84786987 3.3210000992 -1546.003052 3.7695577145 3.6830000877
 4343.3481445 5.0000000000 9.8360004425 8.3750000000 0.2074023038 2.5329999924 101.12577057 83.534347534 155.19068909 3.3139998913 -1069.581055 3.7635576725 3.6719999313
 4343.5004883 5.0000000000 9.8240003586 8.3750000000 0.2014058977 2.5269999504 103.31201172 83.556518555 155.07565308 3.3059999943 -569.5809937 3.7577981949 3.6659998894
 4343.6528320 5.0000000000 9.8369998932 8.3750000000 0.2219393551 2.5380001068 102.76828766 83.582214355 154.92913818 3.2990000248 -69.59100342 3.7537596226 3.6619999409
 4343.8056641 5.0000000000 9.8290004730 8.3750000000 0.1868227273 2.5299999714 101.26621246 83.628356934 154.95938110 3.2919871807 430.05999756 3.7537307739 3.6589999199
 4343.9580078 5.0000000000 9.8269996643 8.3750000000 0.2009300143 2.4900000095 100.59362793 83.682632446 155.31082153 3.2879936695 904.99499512 3.7564871311 3.6570000648
 4344.1103516 5.0000000000 9.8179998398 8.3750000000 0.1981114149 2.4890000820 100.97256470 83.729194641 155.95704651 3.2859935760 1104.0629883 3.7575128078 3.6579999924
 4344.2626953 5.0000000000 9.7980003357 8.3750000000 0.2180593610 2.4930000305 102.90798950 83.725837708 157.35760498 3.2839839458 478.28399658 3.7535641193 3.6619999409
 4344.4150391 5.0000000000 9.7709999084 8.3750000000 0.2509623170 2.4820001125 106.72098541 83.700469971 158.79522705 3.2789840698 -775.4739990 3.7447860241 3.6619999409
 4344.5673828 5.0000000000 9.7629995346 8.3750000000 0.2392969280 2.5190000534 110.19828796 83.689018250 159.47874451 3.2739999294 -1613.396973 3.7405192852 3.6549999714
 4344.7197266 5.0000000000 9.7580003738 8.3750000000 0.1861765385 2.5269999504 110.86883545 83.678688049 158.52247620 3.2690000534 -1548.437988 3.7380385399 3.6489999294
 4344.8720703 5.0000000000 9.7679996490 8.3750000000 0.1695369184 2.4920001030 109.15222168 83.655639648 156.81330872 3.2639999390 -1072.160034 3.7369229794 3.6449999809
 4345.0249023 5.0000000000 9.7550001144 8.3750000000 0.2126678824 2.4869999886 108.67745972 83.615371704 155.72724915 3.2670447826 -572.1599731 3.7525000572 3.6410000324
 4345.1772461 5.0000000000 9.7550001144 8.3750000000 0.2030505836 2.5090000629 110.10074615 83.552879333 155.40956116 3.2810640335 -72.16999817 3.7963719368 3.6500000954
 4345.3295898 5.0000000000 9.7480001450 8.3750000000 0.2105338424 2.5339999199 109.66230774 83.479339600 155.58161926 3.3010642529 427.49798584 3.8519616127 3.6849999428
 4345.4819336 5.0000000000 9.7220001221 8.3750000000 0.1759578288 2.5230000019 107.35072327 83.412170410 155.93083191 3.3210482597 902.60998535 3.8889229298 3.7430000305
 4345.6342773 5.0000000000 9.7220001221 8.3750000000 0.2178714126 2.5220000744 105.00802612 83.370521545 156.34767151 3.3360257149 1101.6070557 3.8948433399 3.7939999104
 4345.7866211 5.0000000000 9.7220001221 8.3750000000 0.2206998616 2.5239999294 102.90225983 83.365898132 155.85000610 3.3440160751 472.61700439 3.8794710636 3.8069999218
 4345.9389648 5.0000000000 9.7220001221 8.3750000000 0.2304267883 2.5220000744 102.10948181 83.355216980 154.79783630 3.3489999771 -780.7739868 3.8552691936 3.7820000648
 4346.0913086 5.0000000000 9.7209997177 8.3750000000 0.2103294879 2.5109999180 101.04558563 83.328964233 154.16163635 3.3540000916 -1615.229980 3.8253462315 3.7520000935
