# LAS format log file from PETREL
# Project units are specified as depth units
#==================================================================
~Version information
VERS.   2.0:
WRAP.   NO:
#==================================================================
~Well
STRT .m      492.56594849 :
STOP .m      2784.8139648 :
STEP .m     0.00000000 :
NULL .        -999.250000 :
COMP.           : COMPANY
WELL.  34/10-5   : WELL
FLD.            : FIELD
LOC.            : LOCATION
SRVC.           : SERVICE COMPANY
DATE.  2018-09-11 14:48:46   : Log Export Date {yyyy-MM-dd HH:mm:ss}
PROV.           : PROVINCE
UWI.   34/10-5   : UNIQUE WELL ID
API.            : API NUMBER
#==================================================================
~Curve
DEPT .m                   : DEPTH
Lithology_geolink ._      : Lithology_geolink
CALI .in                  : CALI
DRHO .g/cm3               : DRHO
NPHI .m3/m3               : NPHI
RHOB .g/cm3               : RHOB
GR .gAPI                  : GR
DTC .us/ft                : DTC
RDEP .ohm.m               : RDEP
SP .mV                    : SP
RSHA .ohm.m               : RSHA
RMED .ohm.m               : RMED
~Parameter
#==================================================================
~Ascii
# ...
 2777.6511230  -999.250000 5.3949999809 0.0549999997 0.3002899885 2.3929998875 86.438003540 114.37500763 1.7240047455 82.688392639  -999.250000 2.1740000248
 2777.8037109  -999.250000 5.3790001869 0.0410000011 0.3056600094 2.3670001030 86.438003540 114.37500763 1.7269903421 83.442596436  -999.250000 2.1759936810
 2777.9560547  -999.250000 5.3670001030 0.0370000005 0.3090800047 2.3459999561 86.438003540 114.37500763 1.7240096331 83.943397522  -999.250000 2.1760001183
 2778.1083984  -999.250000 5.3670001030 0.0439999998 0.3081099987 2.3499999046 86.438003540 114.37500763 1.7269855738 84.815795898  -999.250000 2.1740095615
 2778.2607422  -999.250000 5.3629999161 0.0799999982 0.3002899885 2.3829998970 86.438003540 114.37500763 1.7240144014 85.441993713  -999.250000 2.1740000248
 2778.4133301  -999.250000 5.3629999161 0.0750000030 0.3032200038 2.3910000324 86.438003540 114.37500763 1.7259935141 85.694198608  -999.250000 2.1740000248
 2778.5656738  -999.250000 5.3670001030 0.0399999991 0.3032200038 2.3550000191 86.438003540 114.37500763 1.7240064144 85.694999695  -999.250000 2.1740000248
 2778.7180176  -999.250000 5.3629999161 0.0240000002 0.3032200038 2.3340001106 86.438003540 114.37500763 1.7269903421 85.819595337  -999.250000 2.1740000248
 2778.8703613  -999.250000 5.3629999161 0.0280000009 0.3032200038 2.3459999561 86.438003540 114.37500763 1.7260047197 85.571197510  -999.250000 2.1779806614
 2779.0229492  -999.250000 5.3629999161 0.0359999985 0.3032200038 2.3519999981 86.438003540 114.37500763 1.7269967794 85.196205139  -999.250000 2.1760065556
 2779.1752930  -999.250000 5.3590002060 0.0379999988 0.3032200038 2.3550000191 86.438003540 114.37500763 1.7269999981 84.696601868  -999.250000 2.1760001183
 2779.3276367  -999.250000 5.3670001030 0.0390000008 0.3032200038 2.3550000191 86.438003540 114.37500763 1.7269999981 84.134803772  -999.250000 2.1740064621
 2779.4799805  -999.250000 5.3670001030 0.0390000008 0.3032200038 2.3499999046 86.438003540 114.37500763 1.7260047197 83.884201050  -999.250000 2.1740000248
 2779.6323242  -999.250000 5.3670001030 0.0370000005 0.3032200038 2.3610000610 86.438003540 114.37500763 1.7240096331 83.758605957  -999.250000 2.1779806614
 2779.7849121  -999.250000 5.3670001030 0.0439999998 0.3032200038 2.3629999161 86.438003540 114.37500763 1.7269903421 83.758003235  -999.250000 2.1760065556
 2779.9372559  -999.250000 5.3590002060 0.0640000030 0.3032200038 2.3889999390 86.438003540 114.37500763 1.7269999981 83.882598877  -999.250000 2.1740064621
 2780.0895996  -999.250000 5.3479995728 0.0680000037 0.3032200038 2.3849999905 86.438003540 114.37500763 1.7269999981 83.634201050  -999.250000 2.1779806614
 2780.2419434  -999.250000 5.3479995728 0.0630000010 0.3032200038 2.3870000839 86.438003540 114.37500763 1.7269999981 83.633003235  -999.250000 2.1740193367
 2780.3945313  -999.250000 5.3439998627 0.0619999990 0.3032200038 2.3929998875 86.438003540 114.37500763 1.7240096331 83.882202148  -999.250000 2.1759936810
 2780.5468750  -999.250000 5.3400001526 0.0659999996 0.3032200038 2.4019999504 86.438003540 114.37500763 1.7269903421 84.505996704  -999.250000 2.1760001183
 2780.6992188  -999.250000 5.3319997787 0.0610000007 0.3032200038 2.3829998970 86.438003540 114.37500763 1.7269999981 84.882194519  -999.250000 2.1740095615
 2780.8515625  -999.250000 5.3319997787 0.0460000001 0.3032200038 2.3670001030 86.438003540 114.37500763 1.7269999981 85.193504333  -999.250000 2.1759905815
 2781.0041504  -999.250000 5.3360004425 0.0520000011 0.3032200038 2.3650000095 86.438003540 114.37500763 1.7260031700 85.693397522  -999.250000 2.1760001183
 2781.1564941  -999.250000 5.3360004425 0.0579999983 0.3032200038 2.3750000000 86.438003540 114.37500763 1.7240064144 86.007003784  -999.250000 2.1740064621
 2781.3088379  -999.250000 5.3360004425 0.0829999968 0.3032200038 2.3959999084 86.438003540 114.37500763 1.7259935141 86.008003235  -999.250000 2.1779870987
 2781.4611816  -999.250000 5.3360004425 0.0890000015 0.3032200038 2.4079999924 86.438003540 114.37500763 1.7259999514 86.008003235  -999.250000 2.1779999733
 2781.6135254  -999.250000 5.3360004425 0.0909999982 0.3032200038 2.4079999924 86.438003540 114.37500763 1.7240096331 85.883605957  -999.250000 2.1740193367
 2781.7661133  -999.250000 5.3319997787 0.0630000010 0.3032200038 2.3729999065 86.438003540 114.37500763 1.7269903421 85.260009766  -999.250000 2.1740000248
 2781.9184570  -999.250000 5.3090000153 0.0549999997 0.3037100136 2.3610000610 86.438003540 114.37500763 1.7260031700 85.133407593  -999.250000 2.1759936810
 2782.0708008  -999.250000 5.3049998283 0.0430000015 0.3037100136 2.3519999981 86.438003540 114.37500763 1.7269952297 85.008605957  -999.250000 2.1740095615
 2782.2231445  -999.250000 5.3049998283 0.0619999990 0.3037100136 2.3810000420 86.438003540 114.37500763 1.7240144014 85.008003235  -999.250000 2.1740000248
 2782.3757324  -999.250000 5.3090000153 0.0590000004 0.3037100136 2.3829998970 86.438003540 114.37500763 1.7259935141 84.385009766  -999.250000 2.1740000248
 2782.5280762  -999.250000 5.3049998283 0.0590000004 0.3037100136 2.3829998970 86.438003540 114.37500763 1.7240064144 83.884605408  -999.250000 2.1740000248
 2782.6804199  -999.250000 5.3090000153 0.0450000018 0.3037100136 2.3589999676 86.438003540 114.37500763 1.7239999771 83.758605957  -999.250000 2.1740000248
 2782.8327637  -999.250000 5.3049998283 0.0350000001 0.3037100136 2.3320000172 86.438003540 114.37500763 1.7239999771 83.882400513  -999.250000 2.1740000248
 2782.9853516  -999.250000 5.3049998283 0.0250000004 0.3037100136 2.3139998913 86.438003540 114.37500763 1.7239999771 84.132202148  -999.250000 2.1740000248
 2783.1376953  -999.250000 5.3049998283 0.0250000004 0.3037100136 2.3139998913 86.438003540 114.37500763 1.7239999771 84.382202148  -999.250000 2.1740000248
 2783.2900391  -999.250000 5.3049998283 0.0250000004 0.3037100136 2.3139998913 86.438003540 114.37500763 1.7239999771 85.005996704  -999.250000 2.1740000248
 2783.4423828  -999.250000 5.3049998283 0.0250000004 0.3037100136 2.3139998913 86.438003540 114.37500763 1.7239999771 85.008003235  -999.250000 2.1740000248
 2783.5947266  -999.250000 5.3049998283 0.0250000004 0.3037100136 2.3139998913 86.438003540 114.37500763 1.7239999771 85.505599976  -999.250000 2.1740000248
 2783.7473145  -999.250000 5.3049998283 0.0250000004 0.3037100136 2.3139998913 86.438003540 114.37500763 1.7239999771 85.757202148  -999.250000 2.1740000248
 2783.8996582  -999.250000 5.3049998283 0.0250000004 0.3037100136 2.3139998913 86.438003540 114.37500763 1.7239999771 85.758003235  -999.250000 2.1740000248
 2784.0520020  -999.250000 5.3049998283 0.0250000004 0.3037100136 2.3139998913 86.438003540 114.37500763 1.7239999771 85.509201050  -999.250000 2.1740000248
 2784.2043457  -999.250000 5.3049998283 0.0250000004 0.3037100136 2.3139998913 86.438003540 114.37500763 1.7239999771 85.259208679  -999.250000 2.1740000248
 2784.3569336  -999.250000 5.3049998283 0.0250000004 0.3037100136 2.3139998913  -999.250000 114.37500763  -999.250000  -999.250000  -999.250000  -999.250000
 2784.5092773  -999.250000 5.3049998283 0.0250000004 0.3037100136 2.3139998913  -999.250000  -999.250000  -999.250000  -999.250000  -999.250000  -999.250000
 2784.6616211  -999.250000 5.3049998283 0.0250000004 0.3037100136 2.3139998913  -999.250000  -999.250000  -999.250000  -999.250000  -999.250000  -999.250000
 2784.8139648  -999.250000 5.3049998283 0.0250000004 0.3037100136 2.3139998913  -999.250000  -999.250000  -999.250000  -999.250000  -999.250000  -999.250000
