# LAS format log file from PETREL
# Project units are specified as depth units
#==================================================================
~Version information
VERS.   2.0:
WRAP.   NO:
#==================================================================
~Well
STRT .m      3900.0166016 :
STOP .m      4564.4804688 :
STEP .m     0.00000000 :
NULL .        -999.250000 :
COMP.           : COMPANY
WELL.  34/11-1   : WELL
FLD.            : FIELD
LOC.            : LOCATION
SRVC.           : SERVICE COMPANY
DATE.  2018-09-11 14:48:47   : Log Export Date {yyyy-MM-dd HH:mm:ss}
PROV.           : PROVINCE
UWI.   34/11-1   : UNIQUE WELL ID
API.            : API NUMBER
#==================================================================
~Curve
DEPT .m                   : DEPTH
Lithology_geolink ._      : Lithology_geolink
CALI .in                  : CALI
BS .in                    : BS
NPHI .m3/m3               : NPHI
RHOB .g/cm3               : RHOB
GR .gAPI                  : GR
DTC .us/ft                : DTC
DTS .us/ft                : DTS
RDEP .ohm.m               : RDEP
SP .mV                    : SP
RSHA .ohm.m               : RSHA
RMED .ohm.m               : RMED
~Parameter
#==================================================================
~Ascii
# ...
 4163.3637695 2.0000000000 7.9910001755 8.3750000000 0.3185647726 1.9299999475 52.380165100 89.430496216 166.34934998 6.5099396706 -1401.832031 9.4038658142 8.6700000763
 4163.5161133 2.0000000000 8.0900001526 8.3750000000 0.3543138504 2.0109999180 46.367935181 91.509292603 160.22120667 6.1789999008 -925.3969727 8.6622018814 8.1669998169
 4163.6684570 1.0000000000 8.1789999008 8.3750000000 0.2628413439 2.2070000172 46.486095428 92.407913208 152.46342468 5.8200001717 -425.3959961 8.1772499084 7.7259998322
 4163.8208008 1.0000000000 8.1420001984 8.3750000000 0.2410411388 2.3380000591 48.275218964 91.955680847 147.61509705 5.3619999886 74.594001770 7.7788367271 7.2020001411
 4163.9736328 1.0000000000 8.1239995956 8.3750000000 0.1435583383 2.3099999428 50.389980316 90.271644592 147.24378967 4.8736729622 574.21099854 7.3312816620 6.6710000038
 4164.1259766 1.0000000000 8.0329999924 8.3750000000 0.1458271742 2.2790000439 50.969867706 87.808830261 148.42402649 4.4599199295 1048.8449707 6.8153843880 6.1830000877
 4164.2783203 1.0000000000 7.8049998283 8.3750000000 0.1566274315 2.2620000839 48.621967316 85.765579224 148.25695801 4.1230387688 1247.9599609 6.2990770340 5.7189998627
 4164.4306641 1.0000000000 7.7649998665 8.3750000000 0.1652867943 2.2379999161 44.045646667 85.791938782 147.44610596 3.8231279850 621.92498779 5.8319869041 5.2769999504
 4164.5830078 1.0000000000 7.7529997826 8.3750000000 0.1651265919 2.2290000916 39.049037933 87.350509644 147.22773743 3.5512084961 -631.7709961 5.4138178825 4.8790001869
 4164.7353516 1.0000000000 7.7830004692 8.3750000000 0.1317008734 2.1919999123 34.995521545 88.795616150 147.78567505 3.3042907715 -1469.397949 5.0258941650 4.5029997826
 4164.8876953 1.0000000000 7.7989997864 8.3750000000 0.1398077905 2.1830000877 32.817371368 89.378166199 148.57122803 3.0829999447 -1404.266968 4.6495385170 4.1599998474
 4165.0400391 1.0000000000 7.7989997864 8.3750000000 0.1445427984 2.2000000477 33.116905212 89.240356445 148.89207458 2.8949999809 -927.9760132 4.2892308235 3.8859999180
 4165.1923828 1.0000000000 7.7979998589 8.3750000000 0.1455082744 2.2409999371 33.514328003 88.891098022 149.23753357 2.7500000000 -427.9750061 3.9678940773 3.6919999123
 4165.3452148 1.0000000000 7.7989997864 8.3750000000 0.1324161589 2.2379999161 33.325393677 88.412902832 150.35791016 2.6427209377 72.014999390 3.7139358521 3.5569999218
 4165.4975586 1.0000000000 7.7989997864 8.3750000000 0.1398658901 2.2219998837 34.974655151 87.826736450 152.47926331 2.5557596684 571.68103027 3.5476922989 3.4730000496
 4165.6499023 1.0000000000 7.7989997864 8.3750000000 0.1242710277 2.2369999886 37.516376495 87.016860962 154.67662048 2.4808075428 1046.7440186 3.4470000267 3.4119999409
 4165.8022461 1.0000000000 7.7989997864 8.3750000000 0.1346664131 2.2449998856 39.514038086 86.226234436 154.38731384 2.4208238125 1245.5040283 3.3728973866 3.3459999561
 4165.9545898 1.0000000000 7.7989997864 8.3750000000 0.1885783374 2.2509999275 40.310428619 85.659049988 154.02571106 2.3658401966 616.25799561 3.3099744320 3.2599999905
 4166.1069336 1.0000000000 7.7989997864 8.3750000000 0.1704842299 2.2520000935 39.676769257 85.725158691 153.65243530 2.3159999847 -637.0700073 3.2402884960 3.1540000439
 4166.2592773 1.0000000000 7.7989997864 8.3750000000 0.1372326910 2.2300000191 38.528736115 86.449668884 150.40364075 2.2829999924 -1471.230957 3.1592500210 3.0450000763
 4166.4116211 1.0000000000 7.7989997864 8.3750000000 0.1379041374 2.2019999027 36.910709381 87.739692688 143.34930420 2.2679998875 -1403.837036 3.0850961208 2.9739999771
 4166.5639648 1.0000000000 7.7989997864 8.3750000000 0.1595117301 2.1930000782 36.015678406 88.416755676 139.74185181 2.2660000324 -927.3510132 3.0293462276 2.9769999981
 4166.7167969 1.0000000000 7.7989997864 8.3750000000 0.1715034544 2.2509999275 38.242576599 88.592491150 140.24787903 2.2690193653 -427.6789856 3.0034615993 3.0320000648
 4166.8691406 1.0000000000 7.7839999199 8.3750000000 0.1462689787 2.2890000343 43.859565735 88.264137268 142.14299011 2.2750546932 69.435997009 3.0218844414 3.1150000095
 4167.0214844 1.0000000000 7.6919999123 8.3750000000 0.1426352561 2.2760000229 49.514812469 87.684242249 143.20341492 2.2921283245 569.11798096 3.0917949677 3.2179999352
 4167.1738281 2.0000000000 7.6669998169 8.3750000000 0.1373146176 2.2950000763 51.715938568 86.534225464 143.20010376 2.3322308064 1044.5140381 3.2159230709 3.3429999352
 4167.3261719 2.0000000000 7.7029995918 8.3750000000 0.1455520242 2.3050000668 50.312244415 85.238876343 142.80888367 2.4042651653 1245.1929932 3.3852491379 3.5039999485
 4167.4785156 2.0000000000 7.7579998970 8.3750000000 0.1502823234 2.2579998970 45.975402832 84.488075256 142.75399780 2.4869999886 618.30999756 3.5465672016 3.6760001183
 4167.6308594 2.0000000000 7.7509999275 8.3750000000 0.1683038473 2.2349998951 40.979782104 85.113914490 143.17671204 2.5539999008 -635.2880249 3.6664423943 3.8120000362
 4167.7832031 2.0000000000 7.6779999733 8.3750000000 0.1713302881 2.2430000305 41.119941711 85.699256897 143.73478699 2.5899999142 -1472.000977 3.7730770111 3.8849999905
 4167.9360352 2.0000000000 7.6119999886 8.3750000000 0.1628189832 2.2430000305 46.802719116 85.778114319 144.28730774 2.5959517956 -1406.272949 3.8598845005 3.9059998989
 4168.0883789 2.0000000000 7.5780000687 8.3750000000 0.1665951163 2.2650001049 51.205615997 85.352958679 144.50273132 2.5809230804 -929.9299927 3.9086027145 3.8729999065
 4168.2407227 2.0000000000 7.5840001106 8.3750000000 0.1232205108 2.2869999409 51.104801178 84.744293213 144.83863831 2.5568940639 -429.9289856 3.9211282730 3.7899999619
 4168.3930664 2.0000000000 7.6450004578 8.3750000000 0.1402144879 2.2799999714 48.713264465 84.175880432 145.28039551 2.5238974094 70.060997009 3.8889486790 3.6960000992
 4168.5454102 5.0000000000 7.7039999962 8.3750000000 0.1666947603 2.2990000248 47.599952698 83.841964722 146.07768250 2.4919042587 569.72100830 3.8148753643 3.6059999466
 4168.6977539 5.0000000000 7.7420005798 8.3750000000 0.1415805668 2.3159999847 56.527912140 83.475685120 146.69345093 2.4619998932 1044.6650391 3.7285673618 3.5309998989
 4168.8500977 5.0000000000 7.7509999275 8.3750000000 0.1328985542 2.3039999008 77.225898743 83.216705322 146.83172607 2.4249999523 1242.7370605 3.6440482140 3.4749999046
 4169.0024414 5.0000000000 7.7500000000 8.3750000000 0.1574074030 2.2609999180 92.933822632 82.998130798 146.65269470 2.3849999905 612.64398193 3.5622501373 3.4200000763
 4169.1547852 5.0000000000 7.7489995956 8.3750000000 0.1509323120 2.2739999294 97.677337646 82.898841858 146.46124268 2.3440001011 -640.5880127 3.4866538048 3.3710000515
 4169.3076172 5.0000000000 7.7410001755 8.3750000000 0.1663211435 2.3719999790 98.648345947 82.870643616 146.36622620 2.2968173027 -1474.124023 3.4216024876 3.3389999866
 4169.4599609 2.0000000000 7.7519998550 8.3750000000 0.2117632031 2.3889999390 93.154296875 82.914009094 146.71783447 2.2397692204 -1408.708008 3.3712308407 3.2990000248
 4169.6123047 2.0000000000 7.7890000343 8.3750000000 0.1933994889 2.3629999161 81.049385071 82.966751099 146.98789978 2.1677019596 -932.5089722 3.3357179165 3.2290000916
 4169.7646484 2.0000000000 7.7569999695 8.3750000000 0.2126951218 2.3589999676 70.979820251 83.005622864 147.11784363 2.0746474266 -432.5079956 3.2946538925 3.1040000916
 4169.9169922 1.0000000000 7.7550001144 8.3750000000 0.2135199606 2.3410000801 66.615783691 83.058784485 147.09658813 1.9646421671 67.482002258 3.2256326675 2.9309999943
 4170.0693359 1.0000000000 7.7179999352 8.3750000000 0.1924183667 2.3139998913 62.188507080 83.130836487 146.95999146 1.8530000448 567.15802002 3.1272692680 2.7290000916
 4170.2216797 1.0000000000 7.5780000687 8.3750000000 0.1578184664 2.2699999809 53.209358215 83.221107483 146.83435059 1.7519999743 1042.4350586 2.9791634083 2.5190000534
 4170.3740234 1.0000000000 7.5780000687 8.3750000000 0.1937664598 2.2599999905 43.669235229 83.416618347 146.73429871 1.6640000343 1242.4260254 2.7755961418 2.3239998817
 4170.5268555 1.0000000000 7.5780000687 8.3750000000 0.1927107871 2.2609999180 37.329662323 83.810951233 146.68798828 1.6079199314 614.69598389 2.5607948303 2.1770000458
