# LAS format log file from PETREL
# Project units are specified as depth units
#==================================================================
~Version information
VERS.   2.0:
WRAP.   NO:
#==================================================================
~Well
STRT .m      3166.7685547 :
STOP .m      4692.7500000 :
STEP .m     0.00000000 :
NULL .        -999.250000 :
COMP.           : COMPANY
WELL.  34/12-1   : WELL
FLD.            : FIELD
LOC.            : LOCATION
SRVC.           : SERVICE COMPANY
DATE.  2018-09-11 14:48:48   : Log Export Date {yyyy-MM-dd HH:mm:ss}
PROV.           : PROVINCE
UWI.   34/12-1   : UNIQUE WELL ID
API.            : API NUMBER
#==================================================================
~Curve
DEPT .m                   : DEPTH
Lithology_geolink ._      : Lithology_geolink
CALI .in                  : CALI
BS .in                    : BS
ROP .m/h                  : ROP
DRHO .g/cm3               : DRHO
THOR .ppm                 : THOR
SGR .gAPI                 : SGR
NPHI .m3/m3               : NPHI
RHOB .g/cm3               : RHOB
PEF .b/e                  : PEF
GR .gAPI                  : GR
URAN .ppm                 : URAN
DTC .us/ft                : DTC
DTS .us/ft                : DTS
RDEP .ohm.m               : RDEP
RSHA .ohm.m               : RSHA
RMED .ohm.m               : RMED
~Parameter
#==================================================================
~Ascii
# ...
 4388.2548828 3.0000000000 8.3570995331 8.3750000000 59953.656250 -0.003609936 4.9557552338 0.0164971147 0.1536365449 2.4388103485 3.1623942852  -999.250000 1.2818936110  -999.250000 126.46149445 9.8757705688 8.8376970291 9.9877824783
 4388.4072266 3.0000000000 8.3600997925 8.3750000000 62517.046875 -0.006707372 4.5675749779 0.0155990385 0.1649791747 2.4108045101 3.0985267162  -999.250000 1.2179361582  -999.250000 128.64221191 10.958971977 9.7079038620 11.074632645
 4388.5595703 3.0000000000 8.3631000519 8.3750000000 61559.636719 -0.009006410 4.2165999413 0.0153012825 0.1584689170 2.3810684681 3.1381430626  -999.250000 1.2915999889  -999.250000 130.45449829 12.133561134 9.7716999054 12.268055916
 4388.7119141 3.0000000000 8.3239002228 8.3750000000 60599.523438 -0.010996154 4.1703000069 0.0157028846 0.1487541646 2.3713586330 3.2145619392  -999.250000 1.6037000418  -999.250000 130.72729492 12.588793755 10.521499634 12.721805573
 4388.8642578 3.0000000000 8.3178997040 8.3750000000 60599.523438 -0.009795833 3.8273000717 0.0166012812 0.1344730705 2.3896532059 3.4824602604  -999.250000 1.7961000204  -999.250000 129.81820679 12.865368843 10.439299583 12.971219063
 4389.0170898 3.0000000000 8.3239002228 8.3750000000 53818.253906 -0.008492949 3.9042713642 0.0169961546 0.1261192411 2.4062428474 3.4387724400  -999.250000 1.7298269272  -999.250000 128.35864258 12.481634140 9.4023694992 12.571981430
 4389.1694336 3.0000000000 8.3149003983 8.3750000000 50591.582031 -0.007416613 3.7395241261 0.0163942501 0.1291434467 2.4128155708 3.4019289017  -999.250000 1.7071313858  -999.250000 126.81498718 12.367293358 11.011990547 12.433666229
 4389.3217773 3.0000000000 8.3208999634 8.3750000000 51635.097656 -0.010001603 3.6225938797 0.0154999997 0.1359108984 2.3996903896 3.1571662426  -999.250000 1.7166830301  -999.250000 125.81674194 13.052878380 11.594396591 13.052913666
 4389.4741211 3.0000000000 8.3570995331 8.3750000000 56740.234375 -0.010504807 3.6205110550 0.0155003201 0.1393157095 2.3967030048 3.0222823620  -999.250000 1.6493396759  -999.250000 125.36359406 13.789447784 9.8837432861 13.800833702
 4389.6264648 3.0000000000 8.3751001358 8.3750000000 48765.242188 -0.011999680 3.5599799156 0.0156009607 0.1442137808 2.3977234364 3.0171051025  -999.250000 1.6942952871  -999.250000 125.36708832 12.810575485 10.175761223 12.910870552
 4389.7788086 3.0000000000 8.3690996170 8.3750000000 48807.898438 -0.011893270 2.9933741093 0.0159006417 0.1485147327 2.4051308632 3.1127038002  -999.250000 2.1588249207  -999.250000 126.46001434 13.225405693 9.7528305054 13.355398178
 4389.9311523 3.0000000000 8.3720998764 8.3750000000 62116.199219 -0.009792949 2.8292999268 0.0161025655 0.1531092972 2.4146723747 3.3320281506  -999.250000 2.0106000900  -999.250000 128.18179321 9.2397279739 7.7031002045 9.3362464905
 4390.0834961 3.0000000000 8.3690996170 8.3750000000 53867.519531 -0.007594872 3.0926001072 0.0168999992 0.1560233980 2.4060680866 3.4654631615  -999.250000 1.9120000601  -999.250000 129.54550171 7.1676735878 6.7460999489 7.2698311806
 4390.2358398 3.0000000000 8.3600997925 8.3750000000 45618.839844 -0.005988141 3.2706999779 0.0169012807 0.1633003205 2.3961000443 3.5473937988  -999.250000 1.8241000175  -999.250000 130.00000000 8.0962734222 7.3442997932 8.2161846161
 4390.3886719 3.0000000000 8.3643999100 8.3750000000 45630.035156 -0.002273077 3.7685394287 0.0172955133 0.1634358913 2.3962018490 3.5762178898  -999.250000 1.7760134935  -999.250000 129.54345703 9.2718582153 8.3054218292 9.3640737534
 4390.5410156 3.0000000000 8.3701000214 8.3750000000 49109.199219 0.0019089457 3.6246466637 0.0166031942 0.1689923257 2.4120881557 3.5335364342  -999.250000 1.7802772522  -999.250000 128.90997314 9.5925264359 8.9330959320 9.6723489761
 4390.6933594 3.0000000000 8.3677997589 8.3750000000 48372.277344 0.0032987180 3.4221758842 0.0171009619 0.1677692235 2.4257981777 3.6956205368  -999.250000 1.8037034273  -999.250000 129.18441772 9.8608655930 8.6209707260 10.021872520
 4390.8457031 3.0000000000 8.3631000519 8.3750000000 47649.171875 0.0029003206 3.6323323250 0.0173996799 0.1581650525 2.4252309799 3.9826216698  -999.250000 1.6181088686  -999.250000 130.00378418 9.8189172745 8.6418018341 9.9818840027
 4390.9980469 3.0000000000 8.3631000519 8.3750000000 51192.660156 0.0029862181 3.6123483181 0.0173006412 0.1473028958 2.4349155426 4.2066888809  -999.250000 1.5897009373  -999.250000 131.18818665 9.7890663147 8.3287668228 9.9413518906
 4391.1503906 3.0000000000 8.3631000519 8.3750000000 45894.597656 -0.001299680 3.9393999577 0.0174980778 0.1482041776 2.4397480488 4.0779290199  -999.250000 1.5587999821  -999.250000 133.18179321 8.5005264282 7.5696997643 8.6170825958
 4391.3027344 3.0000000000 8.3631000519 8.3750000000 45894.597656 -0.001204808 3.9509000778 0.0169028845 0.1495153755 2.4547026157 3.8069586754  -999.250000 1.5878000259  -999.250000 135.36360168 7.5433268547 6.8667998314 7.6149425507
 4391.4550781 3.0000000000 8.3631000519 8.3750000000 45686.519531 -0.002709616 4.4977998734 0.0177958328 0.1542814076 2.4554522038 3.7937395573  -999.250000 1.3097000122  -999.250000 137.00000000 7.1171417236 6.3653998375 7.1625862122
 4391.6074219 3.0000000000 8.3631000519 8.3750000000 45478.441406 -0.005705769 4.1413002014 0.0165016018 0.1485150605 2.4405517578 3.6816952229  -999.250000 1.3892999887  -999.250000 138.63639832 7.3821511269 6.5534000397 7.4103727341
 4391.7602539 3.0000000000 8.3661003113 8.3750000000 43144.375000 -0.007482748 4.5732951164 0.0169936121 0.1532172561 2.4255247116 3.7110104561  -999.250000 1.2662776709  -999.250000 140.00262451 8.3966426849 7.2189593315 8.4002971649
 4391.9125977 3.0000000000 8.3570995331 8.3750000000 50910.660156 -0.004804808 4.2614083290 0.0160022452 0.1559003294 2.4138016701 3.6665711403  -999.250000 1.3209518194  -999.250000 140.82025146 8.9173707962 7.6724977493 8.8826408386
 4392.0649414 3.0000000000 8.3570995331 8.3750000000 46821.050781 -0.006303846 4.4512691498 0.0166987181 0.1559823751 2.4142861366 3.8441171646  -999.250000 1.1508240700  -999.250000 141.45402527 9.2196102142 7.5778779984 9.1131744385
 4392.2172852 3.0000000000 8.3781003952 8.3750000000 45977.757813 -0.007499679 4.6298651695 0.0162993595 0.1504990309 2.4100148678 3.8186929226  -999.250000 1.2522346973  -999.250000 141.26892090 9.2856454849 7.3838706017 9.1683311462
 4392.3696289 3.0000000000 8.3751001358 8.3750000000 45967.957031 -0.007400962 5.0850877762 0.0161006413 0.1502044797 2.4145886898 3.9095544815  -999.250000 1.4504313469  -999.250000 140.08421326 9.5167636871 7.1869492531 9.3949050903
 4392.5219727 3.0000000000 8.3600997925 8.3750000000 42909.839844 -0.007699680 4.9253001213 0.0162987188 0.1516054571 2.4110682011 3.8332381248  -999.250000 1.7098000050  -999.250000 138.00000000 9.2565441132 6.8278999329 9.1163349152
 4392.6743164 3.0000000000 8.3600997925 8.3750000000 42909.839844 -0.007608334 4.9327998161 0.0159000009 0.1532740444 2.4011647701 3.8448719978  -999.250000 1.6734000444  -999.250000 135.54550171 9.1778049469 6.6908998489 9.0342321396
 4392.8266602 3.0000000000 8.3751001358 8.3750000000 42909.839844 -0.010202885 4.7407999039 0.0159009621 0.1452153772 2.3901898861 3.7740318775  -999.250000 1.7335000038  -999.250000 134.18179321 9.3645896912 6.7094001770 9.1672897339
 4392.9794922 3.0000000000 8.3992004395 8.3750000000 42972.781250 -0.011089102 4.3560853004 0.0162019227 0.1499942392 2.3872077465 3.7837121487  -999.250000 1.5774669647  -999.250000 134.00115967 8.9859180450 6.5999660492 8.7884883881
 4393.1318359 3.0000000000 8.3962001801 8.3750000000 62547.121094 -0.009404473 4.2270836830 0.0165031943 0.1491031945 2.4039919376 3.7407209873  -999.250000 1.8468916416  -999.250000 134.36796570 8.6135988235 6.5263209343 8.3963270187
 4393.2841797 3.0000000000 8.4125003815 8.3750000000 62552.066406 -0.010099038 4.2223405838 0.0170006417 0.1495852619 2.4183762074 3.9928550720  -999.250000 1.7820227146  -999.250000 135.73457336 8.1291618347 6.2519040108 7.9629163742
 4393.4365234 5.0000000000 8.3690996170 8.3750000000 64090.167969 -0.009783975 4.2961959839 0.0171987191 0.1449826956 2.4421761036 4.0115714073  -999.250000 1.7578208447  -999.250000 138.00553894 7.4303889275 5.9714221954 7.2811894417
