# LAS format log file from PETREL
# Project units are specified as depth units
#==================================================================
~Version information
VERS.   2.0:
WRAP.   NO:
#==================================================================
~Well
STRT .m      211.00001526 :
STOP .m      2222.9851074 :
STEP .m     0.00000000 :
NULL .        -999.250000 :
COMP.           : COMPANY
WELL.  34/10-19   : WELL
FLD.            : FIELD
LOC.            : LOCATION
SRVC.           : SERVICE COMPANY
DATE.  2018-09-11 14:48:44   : Log Export Date {yyyy-MM-dd HH:mm:ss}
PROV.           : PROVINCE
UWI.   34/10-19   : UNIQUE WELL ID
API.            : API NUMBER
#==================================================================
~Curve
DEPT .m                   : DEPTH
Lithology_geolink ._      : Lithology_geolink
CALI .in                  : CALI
DRHO .g/cm3               : DRHO
NPHI .m3/m3               : NPHI
RHOB .g/cm3               : RHOB
GR .gAPI                  : GR
DTC .us/ft                : DTC
RDEP .ohm.m               : RDEP
SP .mV                    : SP
RSHA .ohm.m               : RSHA
RMED .ohm.m               : RMED
~Parameter
#==================================================================
~Ascii
# ...
 1283.5914307  -999.250000 14.359998703 -0.005001602 0.4087221026 2.0429518223 49.420032501 195.28144836 1.0330240726 59.767295837 1.5027492046 1.5027492046
 1283.7437744  -999.250000 14.315999985 -0.007000801 0.4487425387 1.9829728603 48.178672791 234.49179077 1.0630055666 59.859458923 1.1898022890 1.1898022890
 1283.8962402  -999.250000 13.968999863 -0.008009615 0.4643807411 1.9489967823 45.549419403 224.30628967 1.0699824095 59.634803772 0.9429503679 0.9429503679
 1284.0485840  -999.250000 13.904000282 -0.020000800 0.4902139604 1.9450160265 44.436721802 294.32907104 1.0479295254 59.577205658 0.8810392022 0.8810392022
 1284.2010498  -999.250000 13.800000191 -0.021000000 0.4702068567 1.9650071859 45.153770447 81.080528259 0.9599639177 60.900493622 0.9300392866 0.9300392866
 1284.3533936  -999.250000 13.597999573 -0.020990385 0.4662853479 1.9740103483 46.014759064 181.48918152 0.9149679542 58.870536804 0.9790104032 0.9790104032
 1284.5058594  -999.250000 13.051000595 -0.008995196 0.4355984628 1.9870047569 45.498722076 167.97598267 0.8749759793 57.014274597 0.9919471145 0.9919471145
 1284.6582031  -999.250000 13.357000351 -0.006000000 0.4658125639 1.9900008440 45.101806641 153.01782227 0.8599976301 55.850318909 0.9589534998 0.9589534998
 1284.8106689  -999.250000 13.614999771 -0.005995196 0.4565947056 1.9910097122 45.346336365 175.20315552 0.8570032120 54.390563965 0.9009311795 0.9009311795
 1284.9630127  -999.250000 13.753999710 -0.002997596 0.4907125533 1.9970088005 43.572433472 146.01562500 0.8589912057 53.329296112 0.8579887748 0.8579887748
 1285.1154785  -999.250000 13.890999794 0.0000112090 0.4814710915 2.0080270767 39.958774567 165.49639893 0.8479695916 55.588043213 0.8440319896 0.8440319896
 1285.2678223  -999.250000 13.918999672 0.0069975965 0.4945904911 2.0250031948 35.838005066 163.24159241 0.8289815784 51.553852081 0.8640368581 0.8640368581
 1285.4201660  -999.250000 13.845999718 0.0040040035 0.4452998340 2.0290081501 33.344348907 152.70236206 0.8059880137 50.259243011 0.9100216627 0.9100216627
 1285.5726318  -999.250000 13.630999565 0.0090032043 0.4325996637 2.0390048027 31.409515381 93.303085327 0.7909935713 48.695480347 0.9370055795 0.9370055795
 1285.7249756  -999.250000 13.600000381 0.0130016012 0.4072276354 2.0450081825 29.698047638 159.42314148 0.7830032110 47.287982941 0.9439839721 0.9439839721
 1285.8774414  -999.250000 13.642000198 0.0150032043 0.4043003917 2.0550031662 28.057674408 63.559295654 0.7870007753 46.864475250 0.9239671826 0.9239671826
 1286.0297852  -999.250000 13.727000237 0.0189903919 0.4048111141 2.0589919090 27.952672958 137.49839783 0.7879967690 46.390377045 0.8829696178 0.8829696178
 1286.1822510  -999.250000 13.763999939 0.0070000002 0.4311770201 2.0490064621 26.567665100 135.50460815 0.7839943767 46.960021973 0.8449863791 0.8449863791
 1286.3345947  -999.250000 13.920999527 0.0070040068 0.4648118615 2.0570135117 25.217004776 141.24499512 0.7769935727 46.346176147 0.8279992342 0.8279992342
 1286.4870605  -999.250000 14.338000298 0.0120112095 0.4297048450 2.0739967823 24.801162720 134.99879456 0.7689759731 47.245731354 0.8270080090 0.8270080090
 1286.6394043  -999.250000 14.748001099 0.0189967938 0.4389643073 2.0719671249 23.916597366 134.24940491 0.7540023923 46.227451324 0.8319735527 0.8319735527
 1286.7918701  -999.250000 15.067000389 0.0149711762 0.4443994164 2.0309631824 23.334011078 133.51321411 0.7569952011 46.000171661 0.7989295721 0.7989295721
 1286.9442139  -999.250000 15.444000244 -0.003001603 0.4814343452 2.0080080032 23.027782440 141.75581360 0.7539944053 46.053791046 0.7550016046 0.7550016046
 1287.0966797  -999.250000 15.798000336 -0.004990392 0.4619248807 2.0180175304 23.281244278 148.98399353 0.7469936013 46.296379089 0.7570464611 0.7570464611
 1287.2490234  -999.250000 15.949999809 0.0010136218 0.4711872637 2.0289952755 26.471508026 139.00180054 0.7429959774 45.182380676 0.7860304713 0.7860304713
 1287.4013672  -999.250000 14.802000046 0.0180024020 0.4677805603 2.0229895115 27.878839493 141.25559998 0.7379935980 48.721843719 0.8240296245 0.8240296245
 1287.5538330  -999.250000 14.239000320 0.0209975950 0.4809439778 2.0100030899 29.472688675 148.24398804 0.7300048470 47.824726105 0.8610448837 0.8610448837
 1287.7061768  -999.250000 13.897999763 0.0179975964 0.4609310031 2.0140016079 29.685699463 140.76260376 0.7360112071 47.118297577 0.9170415998 0.9170415998
 1287.8586426  -999.250000 13.685999870 0.0150048072 0.4497190118 2.0160105228 29.147706985 156.48838806 0.7500192523 47.670417786 0.9690007567 0.9690007567
 1288.0109863  -999.250000 13.484999657 0.0210048035 0.4609360993 2.0290031433 29.684110641 142.03523254 0.7740352154 52.153224945 0.9699760079 0.9699760079
 1288.1634521  -999.250000 13.203999519 0.0270064101 0.4560590088 2.0330016613 31.815271378 186.02061462 0.8180601001 49.766696930 0.9400376678 0.9400376678
 1288.3157959  -999.250000 12.998000145 0.0350016020 0.4672946930 2.0349881649 35.018177032 211.69136047 0.8930664659 52.785789490 0.9871200919 0.9871200919
 1288.4682617  -999.250000 12.784000397 0.0370040052 0.4731310010 2.0199983120 37.583621979 138.54948425 0.9760625362 53.115024567 1.1370232105 1.1370232105
 1288.6206055  -999.250000 12.545999527 0.0419967957 0.4619193971 2.0179934502 38.401496887 200.21694946 1.0541514158 53.747821808 1.1659743786 1.1659743786
 1288.7730713  -999.250000 12.545999527 0.0380144119 0.4735729098 2.0100431442 39.437770844 159.00520325 1.2435011864 54.507480621 1.1340335608 1.1340335608
 1288.9254150  -999.250000 12.725999832 0.0470032021 0.4379786551 2.0370175838 39.369003296 162.23577881 1.5563381910 55.288688660 1.1553485394 1.1553485394
 1289.0778809  -999.250000 12.927000046 0.0510048047 0.4237838686 2.0590143204 40.315052032 144.42955017 1.9785573483 58.300128937 1.5939279795 1.5939279795
 1289.2302246  -999.250000 12.878999710 0.0539919883 0.3950133324 2.0679864883 43.774955750 100.50079346 2.3262348175 57.111305237 4.0446186066 4.0446186066
 1289.3826904  -999.250000 12.930000305 0.0440032035 0.3868013024 2.0510001183 50.943000793 101.50640869 2.6191313267 61.864830017 6.0582075119 6.0582075119
 1289.5350342  -999.250000 13.253000259 0.0459847748 0.4375082254 2.0509841442 58.110183716 105.51741791 2.7008733749 58.699680328 3.0692195892 3.0692195892
 1289.6873779  -999.250000 14.307999611 0.0269879904 0.4477765858 2.0309743881 62.220584869 127.32165527 2.5427062511 57.978706360 2.0956892967 2.0956892967
 1289.8398438  -999.250000 14.767999649 0.0119927889 0.4809670448 1.9989807606 64.959815979 216.72937012 2.1757164001 58.272457123 1.7078733444 1.7078733444
 1289.9921875  -999.250000 14.371000290 0.0029975981 0.4897687435 1.9749816656 67.085792542 190.97856140 1.8218126297 58.727191925 1.5498437881 1.5498437881
 1290.1446533  -999.250000 13.321000099 -0.000000801 0.5131705999 1.9519799948 69.070686340 164.25820923 1.5878822803 59.230121613 1.3548766375 1.3548766375
 1290.2969971  -999.250000 13.147000313 -0.001001601 0.5014334321 1.9269735813 68.033462524 174.48318481 1.4408855438 62.067882538 1.2009407282 1.2009407282
 1290.4494629  -999.250000 12.989000320 -0.003000000 0.4682678282 1.8939824104 65.308525085 153.50099182 1.2978821993 61.596607208 1.1269847155 1.1269847155
 1290.6018066  -999.250000 13.430999756 -0.003001603 0.4780488014 1.8720111847 62.040336609 154.76141357 1.1509343386 59.294769287 1.1080265045 1.1080265045
 1290.7542725  -999.250000 13.760000229 -0.005012810 0.5014975667 1.8860592842 58.851566315 168.97677612 1.0689663887 59.208538055 1.1409679651 1.1409679651
 1290.9066162  -999.250000 14.071000099 -0.012999199 0.5249105692 1.9230384827 56.219131470 154.58734131 1.0479959249 62.179798126 1.1209992170 1.1209992170
 1291.0590820  -999.250000 14.189001083 -0.012000000 0.5380250812 1.9710592031 53.136714935 263.55966187 1.0429984331 63.667781830 1.1200801134 1.1200801134
 1291.2114258  -999.250000 14.166999817 -0.011996795 0.4975455105 2.0080182552 49.931163788 300.72796631 1.0420024395 61.724819183 1.1700384617 1.1700384617
