# LAS format log file from PETREL
# Project units are specified as depth units
#==================================================================
~Version information
VERS.   2.0:
WRAP.   NO:
#==================================================================
~Well
STRT .m      818.46392822 :
STOP .m      2256.5109863 :
STEP .m     0.00000000 :
NULL .        -999.250000 :
COMP.           : COMPANY
WELL.  34/10-7   : WELL
FLD.            : FIELD
LOC.            : LOCATION
SRVC.           : SERVICE COMPANY
DATE.  2018-09-11 14:48:47   : Log Export Date {yyyy-MM-dd HH:mm:ss}
PROV.           : PROVINCE
UWI.   34/10-7   : UNIQUE WELL ID
API.            : API NUMBER
#==================================================================
~Curve
DEPT .m                   : DEPTH
Lithology_geolink ._      : Lithology_geolink
CALI .in                  : CALI
DRHO .g/cm3               : DRHO
NPHI .m3/m3               : NPHI
RHOB .g/cm3               : RHOB
GR .gAPI                  : GR
DTC .us/ft                : DTC
RDEP .ohm.m               : RDEP
SP .mV                    : SP
RSHA .ohm.m               : RSHA
RMED .ohm.m               : RMED
~Parameter
#==================================================================
~Ascii
# ...
 1961.0072021 5.0000000000 8.3750000000 -0.082999997 0.5497999787 2.2439999580 67.382408142 132.12820435 0.9299871922 90.293998718 0.9289423227 0.9289423227
 1961.1595459 5.0000000000 8.3280000687 -0.083999999 0.5014600158 2.2400000095 65.255104065 129.01000977 0.9349880219 91.074996948 1.1295171976 1.1295171976
 1961.3120117 5.0000000000 8.2889995575 -0.094999999 0.4121099710 2.2400000095 59.478267670 126.19700623 0.9609583616 91.043998718 1.4315160513 1.4315160513
 1961.4643555 5.0000000000 8.4219999313 -0.086000003 0.3852500021 2.2520000935 59.001125336 125.75140381 1.0019015074 91.324996948 1.6075773239 1.6075773239
 1961.6168213 5.0000000000 8.5629997253 -0.046999998 0.3837900162 2.3090000153 56.878406525 125.00240326 1.0509214401 91.824996948 1.5750529766 1.5750529766
 1961.7691650 4.0000000000 8.5699996948 -0.037999999 0.4316999912 2.2850000858 60.304740906 124.56440735 1.1138486862 92.074996948 1.5161417723 1.5161417723
 1961.9216309 4.0000000000 8.6169996262 -0.033000000 0.4702099860 2.2730000019 62.839946747 126.74473572 1.1848862171 93.074996948 1.3592516184 1.3592516184
 1962.0739746 4.0000000000 8.7110004425 -0.041999999 0.4608899951 2.2579998970 58.853610992 127.74679565 1.2298918962 93.574996948 1.3031344414 1.3031344414
 1962.2264404 4.0000000000 8.6409997940 -0.030999999 0.4296900034 2.3010001183 53.602416992 121.76441193 1.2260063887 93.262001038 1.3109871149 1.3109871149
 1962.3787842 4.0000000000 8.7030000687 -0.029999999 0.3891699910 2.3380000591 49.728309631 122.37300110 1.2060480118 93.043998718 1.4825868607 1.4825868607
 1962.5312500 4.0000000000 8.6169996262 -0.025000000 0.3935500085 2.3589999676 54.492336273 120.19325256 1.1710561514 93.043998718 1.6677035093 1.6677035093
 1962.6835938 4.0000000000 8.6560001373 -0.024000000 0.4150400162 2.3540000916 55.560447693 121.55860901 1.1440649033 93.074996948 1.5782160759 1.5782160759
 1962.8360596 4.0000000000 8.7500000000 -0.027000001 0.4365200102 2.3340001106 58.089946747 126.73752594 1.1260288954 92.574996948 1.4302371740 1.4302371740
 1962.9884033 4.0000000000 8.6560001373 -0.022000000 0.4428699911 2.3259999752 54.943058014 126.00240326 1.0810720921 92.574996948 1.4260064363 1.4260064363
 1963.1407471 4.0000000000 8.6879997253 -0.013000000 0.4370099902 2.3220000267 59.832218170 127.55799103 1.0301225185 93.043998718 1.4000624418 1.4000624418
 1963.2932129 4.0000000000 8.7969999313 0.0070000002 0.4213899970 2.3340001106 59.813049316 127.74940491 0.9860705137 93.824996948 1.3450881243 1.3450881243
 1963.4455566 4.0000000000 8.7969999313 0.0250000004 0.4389599860 2.3459999561 63.709621429 128.74679565 0.9480912685 93.824996948 1.2442425489 1.2442425489
 1963.5980225 4.0000000000 8.8199996948 0.0230000000 0.4399400055 2.3480000496 60.380359650 129.74679565 0.9160512686 94.074996948 1.2310208082 1.2310208082
 1963.7503662 4.0000000000 8.8280000687 0.0120000001 0.4438399971 2.3399999142 60.437847137 131.12059021 0.8970456719 94.293998718 1.2369855642 1.2369855642
 1963.9028320 4.0000000000 8.8280000687 0.0099999998 0.4418900013 2.3220000267 60.437999725 133.12019348 0.8850192428 94.074996948 1.2320079803 1.2320079803
 1964.0551758 4.0000000000 8.8280000687 -0.003000000 0.4394699931 2.3010001183 61.777770996 132.50199890 0.8810095787 93.387001038 1.2080576420 1.2080576420
 1964.2076416 4.0000000000 8.7810001373 -0.022000000 0.4506800175 2.2639999390 63.622043610 132.12590027 0.8899855614 93.887001038 1.2070015669 1.2070015669
 1964.3599854 4.0000000000 8.7270002365 -0.039000001 0.4331200123 2.2709999084 60.507507324 132.00039673 0.9029687643 93.106002808 1.2199687958 1.2199687958
 1964.5124512 4.0000000000 8.6879997253 -0.048999999 0.4433599710 2.2790000439 58.004005432 131.50120544 0.9179759622 93.356002808 1.2539454699 1.2539454699
 1964.6647949 4.0000000000 8.6639995575 -0.045000002 0.4375000000 2.3010001183 58.686347961 131.12620544 0.9349591732 93.106002808 1.2909110785 1.2909110785
 1964.8172607 4.0000000000 8.5860004425 -0.048000000 0.4291999936 2.2929999828 59.373897552 128.75570679 0.9559662938 92.606002808 1.3519022465 1.3519022465
 1964.9696045 4.0000000000 8.5939998627 -0.041999999 0.4272499979 2.3129999638 60.029945374 128.99920654 0.9809599519 92.606002808 1.3599871397 1.3599871397
 1965.1220703 4.0000000000 8.7270002365 -0.041000001 0.4331099987 2.3159999847 56.318954468 128.37649536 1.0069583654 92.324996948 1.4099198580 1.4099198580
 1965.2744141 4.0000000000 8.6879997253 -0.034000002 0.4511699975 2.3359999657 57.810596466 128.12579346 1.0369518995 92.793998718 1.4139935970 1.4139935970
 1965.4267578 4.0000000000 8.5699996948 -0.041999999 0.4389599860 2.3069999218 59.402172089 128.99719238 1.0838871002 93.543998718 1.4359471798 1.4359471798
 1965.5792236 4.0000000000 8.3520002365 -0.043000001 0.4262699783 2.3050000668 58.657199860 128.00318909 1.1239358187 93.293998718 1.3960641623 1.3960641623
 1965.7315674 4.0000000000 8.2340002060 -0.048000000 0.4453099966 2.3010001183 56.286701202 126.56761932 1.1509351730 93.043998718 1.4329110384 1.4329110384
 1965.8840332 4.0000000000 8.2580003738 -0.041999999 0.4492200017 2.3180000782 56.843097687 125.37785339 1.1679726839 91.574996948 1.6087179184 1.6087179184
 1966.0363770 4.0000000000 8.3979997635 -0.033000000 0.4379900098 2.3359999657 60.241817474 125.00119781 1.1699951887 91.824996948 1.7007789612 1.7007789612
 1966.1888428 4.0000000000 8.5860004425 -0.023000000 0.4208999872 2.3420000076 64.617988586 124.75060272 1.1709984541 92.824996948 1.7019984722 1.7019984722
 1966.3411865 4.0000000000 8.7030000687 -0.021000000 0.4155300260 2.3280000687 62.474182129 126.18339539 1.1719976664 93.356002808 1.6152089834 1.6152089834
 1966.4936523 4.0000000000 8.7729997635 -0.017000001 0.4140599966 2.3259999752 62.968200684 126.74864197 1.1560256481 93.606002808 1.4981875420 1.4981875420
 1966.6459961 4.0000000000 8.8439998627 -0.024000000 0.4130899906 2.3180000782 62.470203400 127.18659973 1.1230792999 93.387001038 1.4132041931 1.4132041931
 1966.7984619 4.0000000000 8.7810001373 -0.017999999 0.4340800047 2.3359999657 62.655696869 127.37454987 1.0880562067 93.168998718 1.4139984846 1.4139984846
 1966.9508057 4.0000000000 8.8199996948 -0.030999999 0.4780300260 2.3220000267 61.159599304 128.37179565 1.0480960608 93.168998718 1.4120047092 1.4120047092
 1967.1032715 4.0000000000 8.7810001373 -0.024000000 0.4633800089 2.3180000782 63.152793884 127.00330353 1.0290304422 94.137001038 1.4030144215 1.4030144215
 1967.2556152 4.0000000000 8.8520002365 -0.028999999 0.4672900140 2.3180000782 66.931945801 127.99678802 1.0299984217 94.637001038 1.3730480671 1.3730480671
 1967.4079590 4.0000000000 8.8520002365 -0.016000001 0.4706999958 2.3239998817 68.434402466 128.12460327 1.0499519110 93.981002808 1.3201273680 1.3201273680
 1967.5604248 4.0000000000 8.8909997940 -0.014000000 0.4833999872 2.3239998817 67.689208984 126.00680542 1.0779551268 93.699996948 1.3110144138 1.3110144138
 1967.7127686 4.0000000000 8.8979997635 -0.009000000 0.4794900119 2.3320000172 65.380554199 126.74758911 1.1228919029 94.137001038 1.3538967371 1.3538967371
 1967.8652344 4.0000000000 8.8909997940 -0.011000000 0.4428699911 2.3280000687 64.314704895 124.00660706 1.1689263582 93.887001038 1.4708124399 1.4708124399
 1968.0175781 4.0000000000 8.8050003052 -0.018999999 0.4174800217 2.3180000782 60.977035522 123.00319672 1.2298535109 92.918998718 1.6086684465 1.6086684465
 1968.1700439 4.0000000000 8.5860004425 -0.037000000 0.4018599987 2.2809998989 55.821262360 121.37890625 1.3018846512 93.731002808 1.7318028212 1.7318028212
 1968.3223877 4.0000000000 8.5389995575 -0.046000000 0.4081999958 2.2750000954 55.937698364 120.37820435 1.3838030100 93.449996948 1.7908582687 1.7908582687
 1968.4748535 4.0000000000 8.2889995575 -0.059000000 0.4326200187 2.2709999084 55.064403534 119.75150299 1.4758524895 92.981002808 1.8578926325 1.8578926325
 1968.6271973 4.0000000000 8.1250000000 -0.068999998 0.4311500192 2.2699999809 53.877853394 120.99599457 1.5627909899 91.699996948 1.9408006668 1.9408006668
