# LAS format log file from PETREL
# Project units are specified as depth units
#==================================================================
~Version information
VERS.   2.0:
WRAP.   NO:
#==================================================================
~Well
STRT .m      3455.1030273 :
STOP .m      4235.3911133 :
STEP .m     0.00000000 :
NULL .        -999.250000 :
COMP.           : COMPANY
WELL.  34/11-3 T2   : WELL
FLD.            : FIELD
LOC.            : LOCATION
SRVC.           : SERVICE COMPANY
DATE.  2018-09-11 14:48:48   : Log Export Date {yyyy-MM-dd HH:mm:ss}
PROV.           : PROVINCE
UWI.   34/11-3 T2   : UNIQUE WELL ID
API.            : API NUMBER
#==================================================================
~Curve
DEPT .m                   : DEPTH
Lithology_geolink ._      : Lithology_geolink
CALI .in                  : CALI
NPHI .m3/m3               : NPHI
RHOB .g/cm3               : RHOB
GR .gAPI                  : GR
DTC .us/ft                : DTC
RDEP .ohm.m               : RDEP
RMED .ohm.m               : RMED
~Parameter
#==================================================================
~Ascii
# ...
 3962.8999023 4.0000000000 12.829999924 0.2332416922 2.5479362011 44.258483887 117.02452850 1.7499423027 2.2860081196
 3963.0522461 4.0000000000 12.798998833 0.3363093436 2.5399615765 47.938503265 117.39694977 1.7470384836 2.2909870148
 3963.2048340 4.0000000000 12.829999924 0.4238300622 2.5339517593 52.809677124 117.90886688 1.7489999533 2.2829840183
 3963.3571777 4.0000000000 12.812001228 0.4822702110 2.5279359818 55.212398529 118.58457947 1.7490961552 2.2780208588
 3963.5095215 4.0000000000 12.743999481 0.5090798736 2.5199198723 56.590171814 119.41322327 1.7539037466 2.2909917831
 3963.6618652 4.0000000000 12.598999977 0.5117065310 2.5099039078 57.643463135 120.33277130 1.7489999533 2.2860000134
 3963.8144531 5.0000000000 12.616000175 0.5029901266 2.4979197979 59.978931427 121.22577667 1.7488960028 2.2860319614
 3963.9667969 5.0000000000 12.618000984 0.4945550263 2.4879517555 64.352073669 121.94537354 1.7440576553 2.2960112095
 3964.1191406 5.0000000000 12.597998619 0.4897489548 2.4820001125 69.205520630 122.35684967 1.7466731071 2.3029246330
 3964.2714844 5.0000000000 12.571000099 0.4856893420 2.4820241928 72.373146057 122.39913940 1.7280769348 2.2558126450
 3964.4240723 5.0000000000 12.612000465 0.4799226224 2.4850399494 73.382301331 122.12017059 1.6298335791 2.1389806271
 3964.5764160 5.0000000000 12.605999947 0.4715210199 2.4900400639 73.166801453 121.67671967 1.6218653917 2.1329774857
 3964.7287598 5.0000000000 12.609999657 0.4608465135 2.4950480461 72.646400452 121.26735687 1.6141153574 2.1189053059
 3964.8811035 5.0000000000 12.612000465 0.4528836906 2.5010478497 72.216194153 121.06537628 1.5693268776 2.0600383282
 3965.0334473 5.0000000000 12.607000351 0.4550241530 2.5070192814 71.831047058 121.14773560 1.5862499475 2.0840258598
 3965.1860352 5.0000000000 12.607000351 0.4702070057 2.5100159645 71.510513306 121.47579193 1.5991247892 2.1000127792
 3965.3383789 5.0000000000 12.564000130 0.4950306714 2.5119760036 72.187553406 121.91704559 1.6053462029 2.1040577888
 3965.4907227 5.0000000000 12.593000412 0.5216289759 2.5089359283 74.212242126 122.31433105 1.6235384941 2.1400432587
 3965.6430664 5.0000000000 12.604000092 0.5423765779 2.5009198189 76.638954163 122.55709076 1.6527115107 2.1671860218
 3965.7956543 5.0000000000 12.586999893 0.5528081656 2.4908957481 77.532417297 122.61670685 1.7411856651 2.2832016945
 3965.9479980 4.0000000000 12.612000465 0.5537408590 2.4779117107 74.492424011 122.54279327 1.7975577116 2.3460769653
 3966.1003418 4.0000000000 12.592000008 0.5492075086 2.4669280052 68.277938843 122.41829681 1.8237307072 2.3937211037
 3966.2526855 4.0000000000 12.601000786 0.5422261357 2.4579758644 62.197795868 122.32259369 1.7074422836 2.2199535370
 3966.4052734 4.0000000000 12.597998619 0.5334475040 2.4550158978 58.955471039 122.30091858 1.6772943735 2.1906864643
 3966.5576172 4.0000000000 12.618000984 0.5224869251 2.4570400715 59.368656158 122.35369110 1.5989615917 2.0931713581
 3966.7099609 4.0000000000 12.571000099 0.5092787743 2.4620158672 62.367713928 122.44960022 1.6990000010 2.2000064850
 3966.8623047 4.0000000000 12.595000267 0.4967999756 2.4639279842 66.028152466 122.53975677 1.6990191936 2.2039856911
 3967.0146484 5.0000000000 12.637000084 0.4883581698 2.4548139572 69.091033936 122.58140564 1.7001154423 2.1950094700
 3967.1672363 5.0000000000 12.722000122 0.4837364256 2.4255914688 71.642730713 122.54550934 1.7062703371 2.2010576725
 3967.3195801 5.0000000000 12.770000458 0.4806944728 2.3744471073 73.773963928 122.40202332 1.7191730738 2.2190418243
 3967.4719238 5.0000000000 12.792000771 0.4775263369 2.3054399490 75.396270752 122.11711884 1.7302308083 2.2451682091
 3967.6242676 5.0000000000 8.6820001602 0.4733147323 2.2356410027 75.831977844 121.66738892 1.8403846025 2.3496041298
 3967.7768555 5.0000000000 8.6800003052 0.4673245549 2.1797356606 74.396606445 121.06283569 1.6559792757 2.1029903889
 3967.9291992 5.0000000000 8.6770000458 0.4608089030 2.1469440460 72.231727600 120.37366486 1.6549999714 2.0999982357
 3968.0815430 5.0000000000 8.6750001907 0.4563035667 2.1400482655 70.795829773 119.73438263 1.6549999714 2.0989806652
 3968.2338867 5.0000000000 8.6770000458 0.4572481513 2.1460399628 69.242240906 119.30850220 1.6549614668 2.0870079994
 3968.3864746 5.0000000000 8.6770000458 0.4681667387 2.1509680748 67.002922058 119.23051453 1.6529792547 2.0920255184
 3968.5388184 5.0000000000 8.6759996414 0.4919595718 2.1469039917 65.907058716 119.54951477 1.6519999504 2.0999951363
 3968.6911621 5.0000000000 8.6750001907 0.5242539048 2.1348717213 67.246559143 120.20608521 1.6520768404 2.0969998837
 3968.8435059 5.0000000000 8.6750001907 0.5554912686 2.1188960075 70.336235046 121.06275940 1.6559615135 2.0969822407
 3968.9958496 5.0000000000 8.6759996414 0.5762690306 2.1059486866 73.096755981 121.95504761 1.6541728973 2.0860080719
 3969.1484375 5.0000000000 8.6770000458 0.5810425878 2.0979599953 74.024665833 122.75003052 1.6658077240 2.0915119648
 3969.3007813 5.0000000000 8.6800003052 0.5696451068 2.0929999352 73.609741211 123.37265015 1.8256345987 2.2527081966
 3969.4531250 5.0000000000 8.6809997559 0.5471712947 2.0930318832 73.256469727 123.80356598 2.6761155128 3.3171682358
 3969.6054688 5.0000000000 8.6780004501 0.5206157565 2.0970447063 72.993667603 124.06004333 2.7839038372 3.4219951630
 3969.7580566 5.0000000000 8.6750001907 0.4960263669 2.1040720940 72.409523010 124.17410278 2.7790625095 3.4190127850
 3969.9104004 5.0000000000 8.6739997864 0.4760504663 2.1130800247 71.983161926 124.17877960 2.7815961838 3.4229888916
 3970.0627441 5.0000000000 8.6759996414 0.4608445466 2.1230399609 71.407958984 124.10906219 2.7614037991 3.4160382748
 3970.2150879 5.0000000000 8.6789999008 0.4504587650 2.1279680729 69.857566833 123.99858856 2.7820770741 3.4399583340
 3970.3676758 4.0000000000 8.6809997559 0.4477010071 2.1239199638 67.389526367 123.86074066 2.7860832214 3.4140863419
 3970.5200195 4.0000000000 8.6809997559 0.4535344839 2.1138958931 64.941780090 123.67351532 2.7899999619 3.4409792423
 3970.6723633 4.0000000000 8.6800003052 0.4651524723 2.1009199619 63.539699554 123.35819244 2.7900192738 3.4280064106
 3970.8247070 4.0000000000 8.6820001602 0.4777064621 2.0909681320 63.767257690 122.79589081 2.7909421921 3.4320495129
 3970.9770508 4.0000000000 8.6850004196 0.4864592254 2.0870318413 64.978248596 121.87583160 2.7881536484 3.4629807472
 3971.1296387 4.0000000000 8.6859998703 0.4875077903 2.0921201706 66.485427856 120.54686737 2.7960770130 3.4509391785
 3971.2819824 4.0000000000 8.6850004196 0.4799131155 2.1071603298 67.510276794 118.89283752 2.7999422550 3.4320559502
 3971.4343262 4.0000000000 8.6859998703 0.4670542181 2.1271522045 67.393272400 117.12837219 2.7970383167 3.4669711590
 3971.5866699 4.0000000000 8.6909999847 0.4548929036 2.1460704803 66.208961487 115.57070923 2.7990193367 3.4490079880
 3971.7392578 4.0000000000 8.6899995804 0.4471892118 2.1570081711 64.575340271 114.54523468 2.8000414371 3.4540479183
 3971.8916016 4.0000000000 8.6870002747 0.4443548620 2.1579518318 63.897022247 114.29008484 2.8020384312 3.4689712524
 3972.0439453 4.0000000000 8.6890001297 0.4440948665 2.1519198418 65.465171814 114.87470245 2.8040382862 3.4510464668
 3972.1962891 4.0000000000 8.6890001297 0.4455503821 2.1419198513 68.991546631 116.17043304 2.8064231873 3.4800031185
 3972.3488770 4.0000000000 8.6850004196 0.4495848715 2.1319518089 72.466400146 117.90131378 2.8278336525 3.4818816185
 3972.5012207 5.0000000000 8.6829996109 0.4555315375 2.1259758472 74.672523499 119.73093414 2.8178460598 3.4448475838
 3972.6535645 5.0000000000 8.6840000153 0.4612347484 2.1229758263 75.253501892 121.36533356 2.7041344643 3.3496282101
 3972.8059082 5.0000000000 8.6840000153 0.4636742175 2.1199598312 74.944480896 122.62490845 2.5059423447 3.1178894043
 3972.9582520 5.0000000000 8.6850004196 0.4604809880 2.1149551868 74.802589417 123.46470642 2.4519231319 3.0489888191
 3973.1108398 5.0000000000 8.6870002747 0.4557017386 2.1079359055 74.716705322 123.94180298 2.4480576515 3.0419857502
