# LAS format log file from PETREL
# Project units are specified as depth units
#==================================================================
~Version information
VERS.   2.0:
WRAP.   NO:
#==================================================================
~Well
STRT .m      586.57812500 :
STOP .m      4014.2067871 :
STEP .m     0.00000000 :
NULL .        -999.250000 :
COMP.           : COMPANY
WELL.  34/10-21   : WELL
FLD.            : FIELD
LOC.            : LOCATION
SRVC.           : SERVICE COMPANY
DATE.  2018-09-11 14:48:44   : Log Export Date {yyyy-MM-dd HH:mm:ss}
PROV.           : PROVINCE
UWI.   34/10-21   : UNIQUE WELL ID
API.            : API NUMBER
#==================================================================
~Curve
DEPT .m                   : DEPTH
Lithology_geolink ._      : Lithology_geolink
CALI .in                  : CALI
DRHO .g/cm3               : DRHO
NPHI .m3/m3               : NPHI
RHOB .g/cm3               : RHOB
PEF .b/e                  : PEF
GR .gAPI                  : GR
DTC .us/ft                : DTC
RDEP .ohm.m               : RDEP
SP .mV                    : SP
RSHA .ohm.m               : RSHA
RMED .ohm.m               : RMED
~Parameter
#==================================================================
~Ascii
# ...
 3095.6918945 6.0000000000 15.503999710 0.0120224357 0.4091908336 2.3739216328 8.9320001602 81.410003662 90.807998657 1.6840000153 38.625000000 1.1619999409 1.7480000257
 3095.8442383 6.0000000000 14.679999352 0.0100063998 0.4143135250 2.3859615326 11.156000137 76.625000000 90.875000000 1.6770000458 38.750000000 1.0509999990 1.6950000525
 3095.9968262 6.0000000000 12.965000153 0.0169887822 0.4433334470 2.3390753269 13.222999573 71.938003540 87.813011169 1.6629999876 38.625000000 1.1809999943 1.6419999599
 3096.1491699 6.0000000000 13.128999710 0.0279823728 0.4624094367 2.2860848904 12.720000267 70.780998230 86.375000000 1.6540000439 38.500000000 0.9300000072 1.7380000353
 3096.3015137 6.0000000000 13.190999985 0.0389823727 0.4647662938 2.2540512085 12.019000053 71.154998779 80.322998047 1.6499999762 38.625000000 0.9380000234 1.8509999514
 3096.4538574 5.0000000000 13.923999786 0.0429935902 0.4447720945 2.2450141907 15.185000420 69.694000244 80.665992737 1.6799999475 38.625000000 1.0440000296 1.8509999514
 3096.6062012 5.0000000000 14.284998894 0.0220672004 0.4387990534 2.1891791821 22.520999908 66.813003540 92.313003540 1.7430000305 38.750000000 0.5159999728 1.7369999886
 3096.7587891 5.0000000000 14.293000221 0.0050272434 0.4380611479 2.1231057644 30.669000626 66.219001770 92.563003540 1.8059999943 39.125000000 0.2310000062 1.6480000019
 3096.9111328 5.0000000000 15.241000175 -0.005982372 0.4441801608 2.1020336151 31.865999222 69.152000427 90.745002747 1.8719999790 39.375000000 0.2590000033 1.6460000277
 3097.0634766 5.0000000000 14.753999710 -0.009993589 0.4416340888 2.1139807701 28.610000610 71.314002991 101.03899384 1.8769999743 39.500000000 0.5239999890 1.6319999695
 3097.2158203 5.0000000000 13.508000374 -0.010996800 0.4513587654 2.1538720131 25.180999756 69.500000000 105.00000000 1.8179999590 39.375000000 0.6899999976 1.6480000019
 3097.3684082 5.0000000000 13.727000237 -0.008004808 0.4558827877 2.1689758301 21.434999466 65.703002930 94.938003540 1.8029999733 39.250000000 0.6890000105 1.7029999495
 3097.5207520 5.0000000000 14.104999542 0.0029823717 0.4590649307 2.1919629574 15.489000320 63.030998230 87.938003540 1.8200000525 39.250000000 0.7070000172 1.8029999733
 3097.6730957 5.0000000000 14.324000359 0.0229679495 0.4551762342 2.2209534645 14.715999603 64.107002258 87.561996460 1.8329999447 39.375000000 0.6209999919 1.8550000191
 3097.8254395 5.0000000000 14.293000221 0.0439327992 0.4505149126 2.2389423847 17.222999573 66.063003540 91.000000000 1.8919999599 39.375000000 0.4620000124 1.8400000334
 3097.9780273 5.0000000000 14.090001106 0.0459967963 0.4553921819 2.2020592690 18.493999481 67.405998230 96.938003540 1.9090000391 39.125000000 0.4020000100 1.7810000181
 3098.1303711 5.0000000000 14.402000427 0.0410080142 0.4537426531 2.1510818005 13.987999916 68.405998230 97.750000000 1.8159999847 39.250000000 0.7429999709 1.6809999943
 3098.2827148 5.0000000000 15.432999611 0.0310160257 0.4643829167 2.1250417233 9.6899995804 70.808998108 95.813003540 1.7489999533 39.625000000 0.9029999971 1.6160000563
 3098.4350586 5.0000000000 14.991999626 0.0329967961 0.4765804410 2.1359822750 10.142000198 73.777999878 99.301002502 1.7319999933 39.500999451 0.7659999728 1.6009999514
 3098.5874023 5.0000000000 13.953000069 0.0429680012 0.4672898948 2.1529457569 15.482000351 75.438003540 98.750000000 1.6569999456 39.125000000 0.9810000062 1.5559999943
 3098.7399902 5.0000000000 14.086000443 0.0509871803 0.4391051531 2.1190545559 27.836000443 76.094001770 95.750000000 1.5650000572 38.875000000 1.1369999647 1.5240000486
 3098.8923340 5.0000000000 13.991998672 0.0450096168 0.4186028242 2.0501105785 35.055999756 75.188003540 96.313003540 1.5690000057 38.750000000 0.7139999866 1.5420000553
 3099.0446777 5.0000000000 13.796999931 0.0260304492 0.4429608285 1.9920929670 26.545999527 74.219001770 96.623001099 1.5900000334 38.875000000 0.3219999969 1.5880000591
 3099.1970215 5.0000000000 13.996000290 0.0220128000 0.4812073410 2.0298783779 18.701999664 74.155998230 96.500000000 1.5599999428 39.125000000 0.8040000200 1.6139999628
 3099.3496094 5.0000000000 14.137000084 0.0379743576 0.5007088780 2.1228508949 18.497999191 75.844001770 98.563003540 1.5379999876 39.125000000 1.1390000582 1.5740000010
 3099.5019531 5.0000000000 14.147999763 0.0569695495 0.4875611663 2.1759152412 22.722999573 76.688003540 103.68800354 1.5039999485 39.000000000 0.7480000257 1.6050000191
 3099.6542969 5.0000000000 13.993000031 0.0530064106 0.4500900805 2.1420545578 22.964000702 75.813003540 106.31099701 1.4989999533 39.125000000 0.5400000215 1.6640000343
 3099.8066406 5.0000000000 13.956000328 0.0390448011 0.4133975804 2.1120960712 17.417999268 73.663002014 100.76999664 1.5670000315 39.250000000 0.6179999709 1.6670000553
 3099.9592285 5.0000000000 13.906001091 0.0250224359 0.4023075998 2.1399552822 14.812000275 71.813003540 95.563003540 1.6180000305 39.000000000 0.5680000186 1.6820000410
 3100.1115723 5.0000000000 13.812999725 0.0150160249 0.4195922315 2.1679551601 17.340999603 71.655998230 98.063003540 1.6250000000 38.500000000 0.6290000081 1.7649999857
 3100.2639160 5.0000000000 13.836000443 0.0149999997 0.4299234450 2.1600129604 22.072000504 73.469001770 97.813011169 1.6649999619 38.500000000 1.1660000086 1.7539999485
 3100.4162598 5.0000000000 13.376000404 0.0169967953 0.4206149876 2.1450240612 21.622999191 75.686996460 95.625999451 1.7070000172 39.000000000 0.9789999723 1.7139999866
 3100.5686035 5.0000000000 13.031000137 0.0150063997 0.4053190649 2.1599521637 14.526000023 76.875000000 96.250000000 1.6900000572 39.250000000 0.4979999959 1.7760000229
 3100.7211914 5.0000000000 13.640999794 0.0080112182 0.4142456055 2.1909503937 11.807999611 76.500000000 99.313003540 1.7079999447 39.375000000 0.7120000124 1.8179999590
 3100.8735352 5.0000000000 13.613000870 0.0119935898 0.4277583361 2.2089712620 11.404999733 76.905998230 101.68800354 1.7819999456 39.500000000 0.8619999886 1.7500000000
 3101.0258789 5.0000000000 13.160000801 0.0259775650 0.4173567295 2.2439439297 12.072999954 77.283996582 101.37599945 1.8159999847 39.500000000 0.6899999976 1.6440000534
 3101.1782227 5.0000000000 12.906000137 0.0429456010 0.4046008885 2.2958335876 11.215999603 76.125000000 100.25000000 1.7740000486 39.500000000 0.6610000134 1.7150000334
 3101.3308105 5.0000000000 12.586000443 0.0410032049 0.4310674369 2.2999935150 9.9569997787 73.594001770 99.063011169 1.6929999590 39.250000000 0.8489999771 1.9370000362
 3101.4831543 5.0000000000 12.937999725 0.0360080115 0.4635379612 2.2460865974 11.451999664 69.530998230 96.625000000 1.6109999418 39.250000000 1.0000000000 2.1280000210
 3101.6354980 5.0000000000 13.171999931 0.0230208337 0.4593068957 2.1551458836 17.356000900 67.780998230 97.813011169 1.5509999990 39.500000000 0.7570000291 2.0810000896
 3101.7878418 5.0000000000 13.315999985 0.0170192011 0.4395135045 2.0882143974 24.787000656 68.841003418 99.875999451 1.5299999714 39.250000000 0.4269999862 1.8769999743
 3101.9404297 5.0000000000 13.727000237 0.0130064106 0.4337890744 2.0360834599 25.611000061 72.594001770 100.68800354 1.5449999571 38.875000000 0.4000000060 1.7539999485
 3102.0927734 5.0000000000 13.796999931 0.0020176284 0.4416373968 1.9740992785 23.902999878 77.280998230 101.56301117 1.5460000038 39.000000000 0.4110000134 1.7359999418
 3102.2451172 5.0000000000 13.359000206 -0.007983975 0.4323748946 1.9290721416 23.103000641 81.438003540 101.31300354 1.4960000515 39.250000000 0.4000000060 1.6979999542
 3102.3974609 6.0000000000 13.065999985 -0.016985578 0.4222961664 1.9280015230 18.679000854 82.189002991 102.37400055 1.4509999752 39.250000000 0.3389999866 1.6469999552
 3102.5500488 6.0000000000 13.434000015 -0.014004800 0.4246861637 2.0048768520 13.137999535 81.969001770 102.43800354 1.4500000477 39.250000000 0.3750000000 1.6000000238
 3102.7023926 6.0000000000 13.500000000 -0.008009615 0.4247998297 2.1218125820 11.807000160 80.405998230 104.68800354 1.4429999590 39.250000000 0.6409999728 1.5620000362
 3102.8547363 6.0000000000 13.421999931 -0.000012821 0.4179210365 2.1908893585 13.857000351 78.155998230 104.18800354 1.4149999619 39.375000000 0.9750000238 1.5909999609
