# LAS format log file from PETREL
# Project units are specified as depth units
#==================================================================
~Version information
VERS.   2.0:
WRAP.   NO:
#==================================================================
~Well
STRT .m      3455.1030273 :
STOP .m      4235.3911133 :
STEP .m     0.00000000 :
NULL .        -999.250000 :
COMP.           : COMPANY
WELL.  34/11-3 T2   : WELL
FLD.            : FIELD
LOC.            : LOCATION
SRVC.           : SERVICE COMPANY
DATE.  2018-09-11 14:48:48   : Log Export Date {yyyy-MM-dd HH:mm:ss}
PROV.           : PROVINCE
UWI.   34/11-3 T2   : UNIQUE WELL ID
API.            : API NUMBER
#==================================================================
~Curve
DEPT .m                   : DEPTH
Lithology_geolink ._      : Lithology_geolink
CALI .in                  : CALI
NPHI .m3/m3               : NPHI
RHOB .g/cm3               : RHOB
GR .gAPI                  : GR
DTC .us/ft                : DTC
RDEP .ohm.m               : RDEP
RMED .ohm.m               : RMED
~Parameter
#==================================================================
~Ascii
# ...
 3610.5510254  -999.250000 12.989998817 0.0000000000 2.5750193596 79.254028320 89.020874023 1.9592050314 2.3108220100
 3610.7033691  -999.250000 12.979001045 0.0000000000 2.5770094395 75.590621948 86.745330811 2.3065311909 2.8230640888
 3610.8559570  -999.250000 13.003999710 0.0000000000 2.5779776573 69.997917175 84.501029968 2.3961250782 2.8630671501
 3611.0083008  -999.250000 12.984000206 0.0000000000 2.5759327412 64.322776794 82.819419861 2.6395735741 2.8859150410
 3611.1606445  -999.250000 13.003001213 0.0000000000 2.5689229965 62.016643524 82.184936523 3.4015526772 4.0792899132
 3611.3129883  -999.250000 12.956000328 0.0000000000 2.5609424114 64.733909607 82.824775696 3.7077035904 4.2590899467
 3611.4653320  -999.250000 12.994999886 0.0000000000 2.5549807549 71.442100525 84.581909180 3.5186319351 3.6911103725
 3611.6179199  -999.250000 12.987000465 0.0000000000 2.5530288219 79.202995300 86.962966919 3.2056908607 3.1349425316
 3611.7702637  -999.250000 13.001000404 0.0000000000 2.5560576916 85.253593445 89.334762573 2.4550976753 2.4933733940
 3611.9226074  -999.250000 13.012000084 0.0000000000 2.5620577335 87.021606445 91.179870605 1.9570256472 2.1031217575
 3612.0749512  -999.250000 12.987000465 0.0000000000 2.5680384636 84.258361816 92.295959473 1.8476687670 2.1790480614
 3612.2275391  -999.250000 12.996001244 0.0000000000 2.5720095634 80.520759583 92.799201965 1.8860224485 2.2088432312
 3612.3798828  -999.250000 12.998000145 0.0000000000 2.5729711056 79.541633606 92.980377197 1.9431939125 2.1603605747
 3612.5322266  -999.250000 13.008999825 0.0000000000 2.5699615479 81.670799255 93.116668701 1.9538413286 2.3851377964
 3612.6845703  -999.250000 12.949999809 0.0000000000 2.5659615993 83.432121277 93.324539185 1.9446305037 2.4708316326
 3612.8371582  -999.250000 12.984000206 0.0000000000 2.5619888306 82.793479919 93.521759033 1.9228541851 2.3658080101
 3612.9895020  -999.250000 13.001000404 0.0000000000 2.5610384941 81.040580750 93.500267029 1.8585063219 2.3055896759
 3613.1418457  -999.250000 13.006999969 0.0000000000 2.5650961399 81.267517090 93.052467346 1.8308589458 2.0499582291
 3613.2941895  -999.250000 12.999999046 0.0000000000 2.5751249790 82.781311035 92.108184814 1.8231233358 2.0239982605
 3613.4465332  -999.250000 13.006999969 0.0000000000 2.5881152153 81.625549316 90.814186096 1.8303872347 2.0230689049
 3613.5991211  -999.250000 12.967000008 0.0000000000 2.6000769138 78.322471619 89.525672913 1.8573589325 2.0671486855
 3613.7514648  -999.250000 12.972998619 0.0000000000 2.6080193520 76.073364258 88.668388367 2.1603541374 2.4252130985
 3613.9038086  -999.250000 12.965000153 0.0000000000 2.6099517345 76.624794006 88.533493042 2.4020304680 2.5575819016
 3614.0561523  -999.250000 12.956000328 0.0000000000 2.6049137115 78.303817749 89.136810303 2.3444447517 2.2967467308
 3614.2087402  -999.250000 12.940999985 0.0000000000 2.5959327221 79.366775513 90.206474304 2.1407818794 2.1383118629
 3614.3610840  -999.250000 12.986001015 0.0000000000 2.5889616013 80.096504211 91.305099487 1.8492243290 1.9240096807
 3614.5134277  -999.250000 13.009999275 0.0000000000 2.5850000381 81.097045898 92.038269043 1.8067227602 1.9301713705
 3614.6657715  -999.250000 13.012000084 0.0000000000 2.5850384235 82.503784180 92.214302063 1.8474576473 2.0369646549
 3614.8183594  -999.250000 12.951000214 0.0000000000 2.5890672207 83.096023560 91.885002136 1.8732997179 2.0149552822
 3614.9707031  -999.250000 12.984000206 0.0000000000 2.5950384140 82.524383545 91.260276794 1.8916041851 2.0012130737
 3615.1230469  -999.250000 12.967000008 0.0000000000 2.5990288258 81.641502380 90.597801208 1.9817227125 2.1340866089
 3615.2753906  -999.250000 13.005999565 0.0000000000 2.6019999981 80.933753967 90.078788757 2.0223696232 2.1878268719
 3615.4277344  -999.250000 13.016999245 0.0000000000 2.6020095348 80.305564880 89.726875305 2.0439774990 2.0800607204
 3615.5803223  -999.250000 13.013999939 0.0000000000 2.6030576229 80.299339294 89.403366089 2.1033301353 2.1183841228
 3615.7326660  -999.250000 12.982998848 0.0000000000 2.6091153622 81.433807373 88.908142090 2.0650656223 2.2379693985
 3615.8850098  -999.250000 12.989998817 0.0000000000 2.6211249828 81.419799805 88.118835449 2.0129647255 2.2188317776
 3616.0373535  -999.250000 12.970000267 0.0000000000 2.6340672970 78.019325256 87.148025513 2.0127599239 2.1139681339
 3616.1899414  -999.250000 12.965000153 0.0000000000 2.6409616470 72.260658264 86.365089417 2.1187741756 2.0955936909
 3616.3422852  -999.250000 12.947999954 0.0000000000 2.6368269920 67.619453430 86.216293335 2.5552964211 2.5918428898
 3616.4946289  -999.250000 13.003999710 0.0000000000 2.6187596321 67.899414063 86.985679626 2.7385594845 2.4945497513
 3616.6469727  -999.250000 13.012000084 0.0000000000 2.5937500000 72.875495911 88.621170044 2.7066257000 2.8362627029
 3616.7995605  -999.250000 12.998000145 0.0000000000 2.5677759647 78.779655457 90.732276917 2.2859921455 2.3751184940
 3616.9519043  -999.250000 13.003999710 0.0000000000 2.5478942394 82.832321167 92.781410217 1.7808798552 1.7888157368
 3617.1042480  -999.250000 12.976000786 0.0000000000 2.5369517803 86.204673767 94.324142456 1.6058012247 1.6739054918
 3617.2565918  -999.250000 12.979001045 0.0000000000 2.5320096016 89.963783264 95.171852112 1.5395984650 1.6150224209
 3617.4089355  -999.250000 12.959000587 0.0000000000 2.5330288410 92.404777527 95.383476257 1.5740256310 1.6291567087
 3617.5615234  -999.250000 13.013999939 0.0000000000 2.5360577106 92.148529053 95.159118652 1.6382515430 1.7270079851
 3617.7138672  -999.250000 13.022999763 0.0000000000 2.5420866013 88.816505432 94.710868835 1.7089518309 1.7321650982
 3617.8662109  -999.250000 12.967000008 0.0000000000 2.5510866642 84.676490784 94.193595886 1.7627227306 1.8349920511
 3618.0185547  -999.250000 12.946999550 0.0000000000 2.5600767136 82.187500000 93.719100952 1.8037391901 1.8300273418
 3618.1711426  -999.250000 12.934000015 0.0000000000 2.5680384636 81.720016479 93.388076782 1.8452291489 1.8466992378
 3618.3234863  -999.250000 12.992999077 0.0000000000 2.5719904900 82.105392456 93.283782959 1.8576650620 1.7531074286
 3618.4758301  -999.250000 12.999999046 0.0000000000 2.5709617138 81.772636414 93.445983887 1.8389470577 1.8200562000
 3618.6281738  -999.250000 12.987000465 0.0000000000 2.5669615269 80.625892639 93.844360352 1.8357183933 1.8548589945
 3618.7807617  -999.250000 12.998000145 0.0000000000 2.5629775524 79.970092773 94.376396179 1.8194006681 1.7664911747
 3618.9331055  -999.250000 13.012000084 0.0000000000 2.5610194206 81.138702393 94.907371521 1.7851538658 1.6080513000
 3619.0854492  -999.250000 13.012000084 0.0000000000 2.5630383492 83.906410217 95.322334290 1.7369247675 1.6403268576
 3619.2377930  -999.250000 12.956000328 0.0000000000 2.5670576096 86.910232544 95.565513611 1.6761376858 1.8437756300
 3619.3903809  -999.250000 13.013999939 0.0000000000 2.5730559826 88.413604736 95.649452209 1.6275945902 1.7040767670
 3619.5427246  -999.250000 13.055000305 0.0000000000 2.5780384541 87.458358765 95.616363525 1.6052997112 1.7281330824
 3619.6950684  -999.250000 13.006999969 0.0000000000 2.5820384026 85.110572815 95.462409973 1.6221762896 1.8109343052
 3619.8474121  -999.250000 12.961000443 0.0000000000 2.5860671997 83.601654053 95.081588745 1.6320705414 1.7698862553
 3619.9997559  -999.250000 12.907999039 0.0000000000 2.5931055546 84.741630554 94.312103271 1.6358944178 1.6989198923
 3620.1523438  -999.250000 12.927999496 0.0000000000 2.6041154861 87.224502563 93.061523438 1.6299823523 1.6491280794
 3620.3046875  -999.250000 12.920000076 0.0000000000 2.6160671711 86.655540466 91.446243286 1.6302162409 1.6891089678
 3620.4570313  -999.250000 12.920000076 0.0000000000 2.6229903698 81.205810547 89.823387146 1.7045753002 1.7578381300
 3620.6093750  -999.250000 12.899999619 0.0000000000 2.6218652725 73.878135681 88.668106079 2.0741152763 2.2800257206
 3620.7619629  -999.250000 12.946999550 0.0000000000 2.6077537537 69.842041016 88.349540710 2.2473652363 2.2962048054
