# LAS format log file from PETREL
# Project units are specified as depth units
#==================================================================
~Version information
VERS.   2.0:
WRAP.   NO:
#==================================================================
~Well
STRT .m      211.00001526 :
STOP .m      2222.9851074 :
STEP .m     0.00000000 :
NULL .        -999.250000 :
COMP.           : COMPANY
WELL.  34/10-19   : WELL
FLD.            : FIELD
LOC.            : LOCATION
SRVC.           : SERVICE COMPANY
DATE.  2018-09-11 14:48:44   : Log Export Date {yyyy-MM-dd HH:mm:ss}
PROV.           : PROVINCE
UWI.   34/10-19   : UNIQUE WELL ID
API.            : API NUMBER
#==================================================================
~Curve
DEPT .m                   : DEPTH
Lithology_geolink ._      : Lithology_geolink
CALI .in                  : CALI
DRHO .g/cm3               : DRHO
NPHI .m3/m3               : NPHI
RHOB .g/cm3               : RHOB
GR .gAPI                  : GR
DTC .us/ft                : DTC
RDEP .ohm.m               : RDEP
SP .mV                    : SP
RSHA .ohm.m               : RSHA
RMED .ohm.m               : RMED
~Parameter
#==================================================================
~Ascii
# ...
 1687.7562256  -999.250000 12.137998581 -0.003003203 0.3118783832 2.3339593410 33.097965240 99.569557190 1.8198214769 76.879844666 1.8375805616 1.8375805616
 1687.9086914  -999.250000  -999.250000 -0.007001603 0.3473534286 2.2829992771 39.010353088 107.75981903 1.5968477726 76.520492554 1.3138101101 1.3138101101
 1688.0610352  -999.250000 11.649999619 -0.008997598 0.4015495479 2.2820231915 42.337566376 120.00270081 1.4068814516 76.392021179 1.0769535303 1.0769535303
 1688.2135010  -999.250000 11.887999535 -0.005998398 0.4259347022 2.3110201359 44.068706512 123.37660217 1.2589030266 75.776542664 1.0190056562 1.0190056562
 1688.3658447  -999.250000 12.057000160 -0.003999200 0.4192792177 2.3359968662 43.997375488 125.37369537 1.1379271746 75.414253235 1.0260392427 1.0260392427
 1688.5183105  -999.250000 12.149999619 -0.003002404 0.3808505833 2.3319799900 44.340892792 123.74970245 1.0469591618 75.477935791 1.0750336647 1.0750336647
 1688.6706543  -999.250000 12.282999992 -0.005999199 0.3691519201 2.3069782257 44.569324493 123.37500000 0.9959791303 75.959358215 1.1170064211 1.1170064211
 1688.8231201  -999.250000 12.479000092 -0.005003202 0.3839944601 2.2799680233 46.152870178 123.37850189 0.9699856043 75.797531128 1.1249439716 1.1249439716
 1688.9754639  -999.250000 12.522000313 -0.007000802 0.3992343545 2.2599928379 48.608737946 125.56445313 0.9609928131 75.180915833 1.0899808407 1.0899808407
 1689.1279297  -999.250000 12.559999466 -0.007998399 0.3796865642 2.2509999275 49.285907745 127.37102509 0.9519968033 74.664253235 1.0659471750 1.0659471750
 1689.2802734  -999.250000 12.534000397 -0.007000802 0.3650726080 2.2510046959 48.264656067 124.89166260 0.9500032067 74.977699280 1.0329807997 1.0329807997
 1689.4327393  -999.250000 12.516000748 -0.007998399 0.3683743775 2.2570319176 47.432209015 123.21679688 0.9540176392 75.652824402 1.0089743137 1.0089743137
 1689.5850830  -999.250000 12.539999008 -0.007000000 0.3898399472 2.2770359516 47.471649170 118.72146606 0.9650200009 76.356964111 0.9929895401 0.9929895401
 1689.7374268  -999.250000 12.557999611 -0.006997598 0.4147496521 2.3220920563 44.385215759 114.31063080 0.9900135994 76.843383789 0.9800063968 0.9800063968
 1689.8898926  -999.250000 12.541999817 -0.004000802 0.4393041730 2.4370985031 40.396255493 110.10112762 1.0069999695 76.649002075 0.9880928993 0.9880928993
 1690.0422363  -999.250000 12.437999725 -0.004999199 0.4444677830 2.5600142479 36.981178284 105.26299286 1.0069984198 76.399848938 1.1041232347 1.1041232347
 1690.1947021  -999.250000 12.345001221 -0.004002404 0.4042424858 2.5778982639 38.291229248 102.76479340 1.0050103664 76.354896545 1.2580409050 1.2580409050
 1690.3470459  -999.250000 12.623000145 -0.006995997 0.3699549735 2.4509158134 41.099346161 105.00603485 1.0180079937 76.829269409 1.3088974953 1.3088974953
 1690.4995117  -999.250000 12.727001190 -0.002001603 0.3761820495 2.3459653854 45.166782379 112.54311371 1.0280191898 77.142700195 1.1809014082 1.1809014082
 1690.6518555  -999.250000 12.768000603 -0.004000801 0.4036643505 2.3029952049 45.362201691 113.93810272 1.0520056486 76.573715210 1.0579534769 1.0579534769
 1690.8043213  -999.250000 12.890998840 -0.005000000 0.4215625823 2.2969942093 45.652378082 119.06466675 1.0589776039 77.004043579 1.0000032187 1.0000032187
 1690.9566650  -999.250000 13.013999939 -0.005000801 0.4247844815 2.2899911404 43.505222321 121.12454224 1.0309759378 77.761283875 1.0040063858 1.0040063858
 1691.1091309  -999.250000 13.097000122 -0.006004804 0.4053786099 2.2789793015 42.571117401 120.55233002 1.0009791851 78.079139709 1.0120143890 1.0120143890
 1691.2614746  -999.250000 13.116000175 -0.009000000 0.3795430660 2.2659935951 43.844726563 120.75011444 0.9879887700 77.612480164 1.0209856033 1.0209856033
 1691.4139404  -999.250000 13.173998833 -0.008998399 0.3584122360 2.2580029964 44.276039124 120.89776611 0.9739871621 76.735260010 1.0029679537 1.0029679537
 1691.5662842  -999.250000 13.284000397 -0.007996796 0.3660665751 2.2600064278 44.543334961 122.00095367 0.9659928083 76.303230286 0.9829959869 0.9829959869
 1691.7187500  -999.250000 13.324000359 -0.003993595 0.3867547512 2.2680127621 46.878826141 124.44083405 0.9569823742 76.361206055 0.9780015945 0.9780015945
 1691.8710938  -999.250000 13.355999947 0.0000032051 0.4021845460 2.2759983540 50.070251465 126.20877838 0.9459871650 76.414451599 0.9790064096 0.9790064096
 1692.0234375  -999.250000 13.420999527 0.0039991997 0.4078728259 2.2740006447 50.869266510 127.18725586 0.9299904108 76.774475098 0.9869943857 0.9869943857
 1692.1759033  -999.250000 13.230999947 0.0029943911 0.3989233673 2.2750017643 47.831329346 127.49948883 0.9179967642 76.297966003 0.9799895883 0.9799895883
 1692.3282471  -999.250000 12.737001419 -0.004004003 0.3906223178 2.2770030499 45.179321289 126.86514282 0.9140023589 75.542854309 0.9669992328 0.9669992328
 1692.4807129  -999.250000 12.539999008 -0.008999199 0.3810265362 2.2809991837 45.265110016 127.04216766 0.9170072079 75.260337830 0.9659951925 0.9659951925
 1692.6330566  -999.250000 12.792000771 -0.007992795 0.3891678452 2.2800016403 46.778800964 127.24932861 0.9260104299 75.838897705 0.9599863887 0.9599863887
 1692.7855225  -999.250000 13.088999748 0.0010056091 0.3989531100 2.2820024490 45.477401733 126.41623688 0.9390208721 75.567138672 0.9429960251 0.9429960251
 1692.9378662  -999.250000 13.253999710 0.0079991994 0.4028408825 2.2850143909 43.588897705 126.70733643 0.9650360346 75.849868774 0.9380056262 0.9380056262
 1693.0903320  -999.250000 13.430000305 0.0069919936 0.4164009392 2.3030753136 43.808864594 125.87091827 1.0100640059 76.066520691 0.9450624585 0.9450624585
 1693.2426758  -999.250000 13.543999672 0.0019959938 0.4169582129 2.3500423431 43.019618988 123.32202911 1.0500408411 75.949485779 0.9840841889 0.9840841889
 1693.3951416  -999.250000 13.527000427 -0.002998399 0.3772705197 2.4030401707 40.671146393 118.37004852 1.1011040211 76.568710327 1.0891824961 1.0891824961
 1693.5474854  -999.250000 13.529999733 -0.001996795 0.3588741124 2.4279942513 36.968761444 114.65683746 1.1660320759 76.746833801 1.2031080723 1.2031080723
 1693.6999512  -999.250000 13.430999756 0.0020080064 0.3390746415 2.4209711552 34.670501709 111.95606232 1.2060176134 76.952407837 1.3383363485 1.3383363485
 1693.8522949  -999.250000 13.253999710 0.0069991988 0.3482071459 2.4029777050 34.809295654 108.87950134 1.2170056105 76.806304932 1.5480617285 1.5480617285
 1694.0046387  -999.250000 13.053999901 0.0059943954 0.3321936131 2.3749599457 38.126602173 110.75140381 1.2239903212 77.379188538 1.6248126030 1.6248126030
 1694.1571045  -999.250000 13.095001221 -0.001002404 0.3242101967 2.3249654770 41.116188049 112.50360870 1.2119864225 77.440666199 1.3907948732 1.3907948732
 1694.3094482  -999.250000 13.121999741 -0.004000000 0.3369798958 2.2819776535 41.914222717 117.00440216 1.1949824095 77.857231140 1.1349151134 1.1349151134
 1694.4619141  -999.250000 13.145000458 -0.003996795 0.3742991984 2.2539942265 43.231731415 122.50300598 1.1729607582 78.549461365 1.0289976597 1.0289976597
 1694.6142578  -999.250000 13.130999565 -0.000002402 0.3857292533 2.2469952106 44.162853241 126.24960327 1.1239615679 78.163932800 1.0260071754 1.0260071754
 1694.7667236  -999.250000 13.058000565 -0.003003205 0.3723225594 2.2410023212 45.119159698 125.75040436 1.0759840012 77.648559570 1.0350135565 1.0350135565
 1694.9190674  -999.250000 12.880000114 -0.007001603 0.3880227506 2.2440087795 44.661975861 126.24839783 1.0560008287 77.289230347 1.0520129204 1.0520129204
 1695.0715332  -999.250000 12.904999733 -0.008990392 0.4163887799 2.2550306320 44.654956818 124.24719238 1.0570384264 77.094474792 1.0680320263 1.0680320263
 1695.2238770  -999.250000 12.987000465 -0.002992789 0.4093873501 2.2740142345 44.385459900 122.49939728 1.0810432434 76.214744568 1.0880136490 1.0880136490
 1695.3763428  -999.250000 13.038999557 0.0060080066 0.3810984790 2.2920207977 41.757686615 121.74999237 1.1350976229 75.405265808 1.1050080061 1.1050080061
