# LAS format log file from PETREL
# Project units are specified as depth units
#==================================================================
~Version information
VERS.   2.0:
WRAP.   NO:
#==================================================================
~Well
STRT .m      3455.1030273 :
STOP .m      4235.3911133 :
STEP .m     0.00000000 :
NULL .        -999.250000 :
COMP.           : COMPANY
WELL.  34/11-3 T2   : WELL
FLD.            : FIELD
LOC.            : LOCATION
SRVC.           : SERVICE COMPANY
DATE.  2018-09-11 14:48:48   : Log Export Date {yyyy-MM-dd HH:mm:ss}
PROV.           : PROVINCE
UWI.   34/11-3 T2   : UNIQUE WELL ID
API.            : API NUMBER
#==================================================================
~Curve
DEPT .m                   : DEPTH
Lithology_geolink ._      : Lithology_geolink
CALI .in                  : CALI
NPHI .m3/m3               : NPHI
RHOB .g/cm3               : RHOB
GR .gAPI                  : GR
DTC .us/ft                : DTC
RDEP .ohm.m               : RDEP
RMED .ohm.m               : RMED
~Parameter
#==================================================================
~Ascii
# ...
 3558.7348633  -999.250000 13.086000443 0.0000000000 2.5549600124 71.692237854 83.698287964 4.4508609772 4.1100001335
 3558.8874512  -999.250000 13.104999542 0.0000000000 2.5499999523 68.268249512 83.436157227 3.9607884884 4.0970001221
 3559.0397949  -999.250000 13.083000183 0.0000000000 2.5500319004 66.789245605 82.881057739 3.8330128193 3.9630000591
 3559.1921387  -999.250000 13.055000305 0.0000000000 2.5540800095 65.479148865 82.136848450 4.3435091972 4.6589999199
 3559.3444824  -999.250000 13.043000221 0.0000000000 2.5641038418 63.262126923 81.445732117 5.4838562012 5.3810000420
 3559.4968262  -999.250000 13.060000420 0.0000000000 2.5770959854 62.323081970 81.060531616 5.7070817947 5.4689998627
 3559.6494141  -999.250000 13.034999847 0.0000000000 2.5920720100 64.905738831 81.103576660 4.7352628708 4.7090001106
 3559.8017578  -999.250000 13.048999786 0.0000000000 2.6009840965 67.879234314 81.516311646 3.4487147331 3.5439999104
 3559.9541016  -999.250000 13.107000351 0.0000000000 2.5988879204 66.638900757 82.096229553 2.6340718269 2.7430000305
 3560.1064453  -999.250000 13.121999741 0.0000000000 2.5848588943 61.140647888 82.606948853 2.7123894691 3.1050000191
 3560.2590332  -999.250000 13.121000290 0.0000000000 2.5628316402 55.632389069 82.876754761 3.5926377773 3.9660000801
 3560.4113770  -999.250000 13.128000259 0.0000000000 2.5418717861 54.602249146 82.857963562 5.7285127640 6.3109998703
 3560.5637207  -999.250000 13.145000458 0.0000000000 2.5259439945 57.793273926 82.603820801 10.046383858 8.8489999771
 3560.7160645  -999.250000 13.090999603 0.0000000000 2.5190000534 60.508987427 82.217620850 9.3125000000 7.3159999847
 3560.8686523  -999.250000 13.086999893 0.0000000000 2.5190320015 59.977596283 81.774108887 7.9707369804 6.5029997826
 3561.0209961  -999.250000 13.130000114 0.0000000000 2.5230400562 56.680416107 81.280334473 7.4292917252 6.5219998360
 3561.1733398  -999.250000 13.147000313 0.0000000000 2.5280320644 51.729991913 80.674270630 9.2049837112 7.6510000229
 3561.3256836  -999.250000 13.145000458 0.0000000000 2.5320241451 47.806205750 79.877304077 15.395296097 11.743000031
 3561.4780273  -999.250000 13.100000381 0.0000000000 2.5350065231 48.270774841 78.898254395 18.442157745 12.177000046
 3561.6306152  -999.250000 13.128000259 0.0000000000 2.5359919071 54.067237854 77.951698303 10.990756035 7.4679999352
 3561.7829590  -999.250000 13.098999977 0.0000000000 2.5349600315 62.813785553 77.513252258 5.9124102592 4.6310000420
 3561.9353027  -999.250000 13.079000473 0.0000000000 2.5299360752 71.249366760 78.177703857 4.1403441429 3.4590001106
 3562.0876465  -999.250000 13.131999969 0.0000000000 2.5219423771 77.356857300 80.364715576 3.1079230309 2.7790000439
 3562.2402344  -999.250000 13.088999748 0.0000000000 2.5129358768 81.374916077 84.038856506 2.5530834198 2.4809999466
 3562.3925781  -999.250000 13.111999512 0.0000000000 2.5049519539 85.443161011 88.517578125 2.3704264164 2.2730000019
 3562.5449219  -999.250000 13.140999794 0.0000000000 2.4989840984 90.590385437 92.712425232 2.1458799839 2.0750000477
 3562.6972656  -999.250000 13.093999863 0.0000000000 2.4969918728 96.983749390 95.517326355 1.8287500143 1.7139999866
 3562.8498535  -999.250000 13.088001251 0.0000000000 2.4959919453 103.67828369 96.272163391 1.6753364801 1.4980000257
 3563.0021973  -999.250000 13.095999718 0.0000000000 2.4949758053 108.84043121 95.012611389 1.6986441612 1.6039999723
 3563.1545410  -999.250000 13.128000259 0.0000000000 2.4919760227 111.82826233 92.425682068 1.8694639206 1.7289999723
 3563.3068848  -999.250000 13.104999542 0.0000000000 2.4890081882 112.68779755 89.544837952 2.3984086514 2.2269999981
 3563.4592285  -999.250000 13.112999916 0.0000000000 2.4900512695 111.47230530 87.333641052 2.9746153355 2.5539999008
 3563.6118164  -999.250000 13.150000572 0.0000000000 2.4981441498 108.72155762 86.428878784 3.0799520016 2.7520000935
 3563.7641602  -999.250000 13.133999825 0.0000000000 2.5162003040 106.34938049 87.002845764 2.7622275352 2.3080000877
 3563.9165039  -999.250000 13.038000107 0.0000000000 2.5412077904 105.64483643 88.814865112 2.2785041332 1.9249999523
 3564.0688477  -999.250000 13.059000015 0.0000000000 2.5671153069 106.18364716 91.367309570 1.8764326572 1.7610000372
 3564.2214355  -999.250000 13.076000214 0.0000000000 2.5850481987 105.85348511 94.091316223 1.6999422312 1.5260000229
 3564.3737793  -999.250000 13.026999474 0.0000000000 2.5909519196 103.83016205 96.472007751 1.6348077059 1.5290000439
 3564.5261230  -999.250000 13.071001053 0.0000000000 2.5848958492 102.18631744 98.208374023 1.6230000257 1.5379999876
 3564.6784668  -999.250000 13.079999924 0.0000000000 2.5719039440 102.47633362 99.220466614 1.6230577230 1.4889999628
 3564.8310547  -999.250000 13.079999924 0.0000000000 2.5599598885 104.16996002 99.591598511 1.6267596483 1.4520000219
 3564.9833984  -999.250000 13.048999786 0.0000000000 2.5550320148 106.09356689 99.433662415 1.6111506224 1.4919999838
 3565.1357422  -999.250000 13.079999924 0.0000000000 2.5590481758 107.48377991 98.779464722 1.5592720509 1.4429999590
 3565.2880859  -999.250000 13.079999924 0.0000000000 2.5650401115 107.78227234 97.550254822 1.5776298046 1.5549999475
 3565.4406738  -999.250000 13.031999588 0.0000000000 2.5699839592 108.09978485 95.611000061 1.6936634779 1.6399999857
 3565.5930176  -999.250000 13.019999504 0.0000000000 2.5679519176 109.71793365 92.917716980 1.9915224314 1.8769999743
 3565.7453613  -999.250000 13.064998627 0.0000000000 2.5619440079 111.88298035 89.587425232 2.7201216221 2.6449999809
 3565.8977051  -999.250000 13.079999924 0.0000000000 2.5549600124 113.11962891 85.933921814 4.0520243645 4.0729999542
 3566.0500488  -999.250000 13.029999733 0.0000000000 2.5499870777 113.70276642 82.379348755 6.2533507347 5.8049998283
 3566.2026367  -999.250000 13.008999825 0.0000000000 2.5480000973 112.98238373 79.289352417 9.5120935440 8.4200000763
 3566.3549805  -999.250000 13.053999901 0.0000000000 2.5479760170 107.26029205 76.888351440 10.930593491 8.5629997253
 3566.5073242  -999.250000 13.019999504 0.0000000000 2.5449681282 93.446205139 75.172111511 10.969623566 8.2709999084
 3566.6596680  -999.250000 12.991999626 0.0000000000 2.5409758091 73.261901855 73.999908447 11.136220932 9.0089998245
 3566.8122559  -999.250000 13.057000160 0.0000000000 2.5380001068 54.572048187 73.236343384 11.505468369 8.7989997864
 3566.9645996  -999.250000 13.081998825 0.0000000000 2.5380561352 44.441101074 72.892730713 12.290678978 8.6649999619
 3567.1169434  -999.250000 13.062999725 0.0000000000 2.5450961590 44.384010315 73.138847351 13.533815384 10.286000252
 3567.2692871  -999.250000 13.079999924 0.0000000000 2.5571119785 51.995830536 74.203704834 15.699664116 11.576000214
 3567.4218750  -999.250000 13.060000420 0.0000000000 2.5710883141 63.787044525 76.209709167 17.270368576 11.432000160
 3567.5742188  -999.250000 13.081998825 0.0000000000 2.5820159912 75.310752869 79.006233215 10.152705193 6.9120001793
 3567.7265625  -999.250000 13.081998825 0.0000000000 2.5839519501 81.516746521 82.201271057 5.2548971176 4.4390001297
 3567.8789063  -999.250000 13.079999924 0.0000000000 2.5779280663 82.733383179 85.266708374 3.4530718327 3.2630000114
 3568.0312500  -999.250000 13.041000366 0.0000000000 2.5689551830 83.023986816 87.732452393 2.5318703651 2.4509999752
 3568.1838379  -999.250000 13.071001053 0.0000000000 2.5619759560 84.481605530 89.347335815 2.3178877831 2.3340001106
 3568.3361816  -999.250000 13.076999664 0.0000000000 2.5590081215 85.930274963 90.106811523 2.3107597828 2.4210000038
 3568.4885254  -999.250000 13.068000793 0.0000000000 2.5600399971 85.864318848 90.213729858 2.2973120213 2.3699998856
 3568.6408691  -999.250000 13.024000168 0.0000000000 2.5650320053 84.504241943 89.945388794 2.3789231777 2.5060000420
 3568.7934570  -999.250000 13.022999763 0.0000000000 2.5690081120 82.659835815 89.556724548 2.4422242641 2.4530000687
 3568.9458008  -999.250000 13.019999504 0.0000000000 2.5700080395 81.667884827 89.230308533 2.4566571712 2.4560000896
