# LAS format log file from PETREL
# Project units are specified as depth units
#==================================================================
~Version information
VERS.   2.0:
WRAP.   NO:
#==================================================================
~Well
STRT .m      586.57812500 :
STOP .m      4014.2067871 :
STEP .m     0.00000000 :
NULL .        -999.250000 :
COMP.           : COMPANY
WELL.  34/10-21   : WELL
FLD.            : FIELD
LOC.            : LOCATION
SRVC.           : SERVICE COMPANY
DATE.  2018-09-11 14:48:44   : Log Export Date {yyyy-MM-dd HH:mm:ss}
PROV.           : PROVINCE
UWI.   34/10-21   : UNIQUE WELL ID
API.            : API NUMBER
#==================================================================
~Curve
DEPT .m                   : DEPTH
Lithology_geolink ._      : Lithology_geolink
CALI .in                  : CALI
DRHO .g/cm3               : DRHO
NPHI .m3/m3               : NPHI
RHOB .g/cm3               : RHOB
PEF .b/e                  : PEF
GR .gAPI                  : GR
DTC .us/ft                : DTC
RDEP .ohm.m               : RDEP
SP .mV                    : SP
RSHA .ohm.m               : RSHA
RMED .ohm.m               : RMED
~Parameter
#==================================================================
~Ascii
# ...
 4010.0920410  -999.250000 7.4180002213 0.2009903938 0.1215799972 2.5949983597 12.041992188 71.375000000 56.375000000 27.172050476 57.546001434 11.366999626 32.344001770
 4010.2443848  -999.250000 7.4180002213 0.1990032047 0.1215799972 2.5920047760 11.352105141 71.375000000 56.375000000 27.218925476 56.984001160 11.366999626 32.515998840
 4010.3967285  -999.250000 7.4180002213 0.2049903870 0.1215799972 2.5989887714 10.651123047 71.375000000 56.375000000 27.249950409 56.757999420 11.366999626 32.327999115
 4010.5490723  -999.250000 7.4180002213 0.2109808028 0.1215799972 2.6079711914 10.682893753 71.375000000 56.375000000 27.257974625 58.995998383 11.366999626 31.976999283
 4010.7016602  -999.250000 7.4180002213 0.2139951885 0.1215799972 2.6139905453 11.288028717 71.375000000 56.375000000 27.390787125 59.460998535 11.366999626 32.069999695
 4010.8540039  -999.250000 7.4180002213 0.2090080231 0.1215799972 2.6100063324 13.067145348 71.375000000 56.375000000 27.336088181 57.109001160 11.366999626 32.344001770
 4011.0063477  -999.250000 7.4180002213 0.2050064057 0.1215799972 2.6030111313 13.940603256 71.375000000 56.375000000 27.366950989 58.145999908 11.366999626 32.344001770
 4011.1586914  -999.250000 7.4180002213 0.2079951912 0.1215799972 2.5970094204 14.320392609 71.375000000 56.375000000 27.538722992 58.722000122 11.366999626 32.250000000
 4011.3112793  -999.250000 7.4180002213 0.2099967897 0.1215799972 2.5930063725 13.023079872 71.375000000 56.375000000 27.632848740 58.492000580 11.366999626 32.250000000
 4011.4636230  -999.250000 7.4180002213 0.2109983861 0.1215799972 2.5920016766 11.685143471 71.375000000 56.375000000 27.632999420 59.219001770 11.366999626 32.155998230
 4011.6159668  -999.250000 7.4180002213 0.2129967958 0.1215799972 2.6029822826 11.034041405 71.375000000 56.375000000 27.500213623 57.041999817 11.366999626 32.062999725
 4011.7683105  -999.250000 7.4180002213 0.2149967998 0.1215799972 2.6119856834 10.813352585 71.375000000 56.375000000 27.538936615 55.778999329 11.366999626 32.155998230
 4011.9206543  -999.250000 7.4180002213 0.2130063921 0.1215799972 2.6139936447 10.812999725 71.375000000 56.375000000 27.593824387 58.773998260 11.366999626 32.250000000
 4012.0732422  -999.250000 7.4180002213 0.2110031992 0.1215799972 2.6130015850 10.812999725 71.375000000 56.375000000 27.563049316 58.585998535 11.366999626 32.250000000
 4012.2255859  -999.250000 7.4180002213 0.2100016028 0.1215799972 2.6110031605 10.812999725 71.375000000 56.375000000 27.555013657 55.882999420 11.366999626 32.250000000
 4012.3779297  -999.250000 7.4180002213 0.2099999934 0.1215799972 2.6110000610 10.812999725 71.375000000 56.375000000 27.508073807 56.812999725 11.366999626 32.155998230
 4012.5302734  -999.250000 7.4180002213  -999.250000  -999.250000  -999.250000 10.623608589 71.375000000 56.375000000 27.461151123 58.397998810 11.366999626 32.155998230
 4012.6828613  -999.250000 7.4180002213  -999.250000  -999.250000  -999.250000  -999.250000 71.375000000 56.375000000 27.406087875 59.007999420 11.366999626 32.155998230
 4012.8352051  -999.250000 7.4180002213  -999.250000  -999.250000  -999.250000  -999.250000 71.375000000 56.375000000 27.413986206 58.382999420 11.366999626 32.250000000
 4012.9875488  -999.250000 7.4180002213  -999.250000  -999.250000  -999.250000  -999.250000 71.375000000 56.375000000 27.460926056 56.897998810 11.366999626 32.344001770
 4013.1398926  -999.250000 7.4180002213  -999.250000  -999.250000  -999.250000  -999.250000 71.375000000 56.375000000 26.605745316 58.020999908 11.366999626 32.250000000
 4013.2924805  -999.250000 7.4180002213  -999.250000  -999.250000  -999.250000  -999.250000 71.375000000 56.375000000 25.751367569 57.569999695 11.366999626 32.250000000
 4013.4448242  -999.250000 7.4180002213  -999.250000  -999.250000  -999.250000  -999.250000 71.375000000 56.375000000 25.750000000 55.359001160 11.366999626 32.250000000
 4013.5971680  -999.250000 7.4180002213  -999.250000  -999.250000  -999.250000  -999.250000 71.375000000 56.375000000 25.750000000 58.522998810 11.366999626 32.250000000
 4013.7495117  -999.250000 7.4180002213  -999.250000  -999.250000  -999.250000  -999.250000 71.375000000 56.375000000 25.750000000 58.319999695 11.366999626 32.250000000
 4013.9018555  -999.250000 7.4180002213  -999.250000  -999.250000  -999.250000  -999.250000 71.375000000 56.375000000 25.750000000 56.085998535 11.366999626 32.250000000
 4014.0544434  -999.250000 7.4180002213  -999.250000  -999.250000  -999.250000  -999.250000 71.375000000 56.375000000 25.750000000 56.584999084 11.366999626 32.250000000
 4014.2067871  -999.250000 7.4180002213  -999.250000  -999.250000  -999.250000  -999.250000 71.375000000 56.375000000 25.750000000 56.007999420 11.366999626 32.250000000
