# LAS format log file from PETREL
# Project units are specified as depth units
#==================================================================
~Version information
VERS.   2.0:
WRAP.   NO:
#==================================================================
~Well
STRT .m      818.46392822 :
STOP .m      2256.5109863 :
STEP .m     0.00000000 :
NULL .        -999.250000 :
COMP.           : COMPANY
WELL.  34/10-7   : WELL
FLD.            : FIELD
LOC.            : LOCATION
SRVC.           : SERVICE COMPANY
DATE.  2018-09-11 14:48:47   : Log Export Date {yyyy-MM-dd HH:mm:ss}
PROV.           : PROVINCE
UWI.   34/10-7   : UNIQUE WELL ID
API.            : API NUMBER
#==================================================================
~Curve
DEPT .m                   : DEPTH
Lithology_geolink ._      : Lithology_geolink
CALI .in                  : CALI
DRHO .g/cm3               : DRHO
NPHI .m3/m3               : NPHI
RHOB .g/cm3               : RHOB
GR .gAPI                  : GR
DTC .us/ft                : DTC
RDEP .ohm.m               : RDEP
SP .mV                    : SP
RSHA .ohm.m               : RSHA
RMED .ohm.m               : RMED
~Parameter
#==================================================================
~Ascii
# ...
 911.73272705  -999.250000 20.452999115 -0.115000002  -999.250000 1.6289999485 20.677883148 179.61305237 1.0390321016 49.149200439 0.7619639635 0.7619639635
 911.88513184  -999.250000 20.437997818 -0.120999999  -999.250000 1.6130000353 17.155141830 179.60603333 1.0310320854 49.150001526 0.7729559541 0.7729559541
 912.03753662  -999.250000 20.452999115 -0.116999999  -999.250000 1.6189999580 19.101118088 179.59902954 1.0230320692 49.648601532 0.7789759636 0.7789759636
 912.18994141  -999.250000 20.437997818 -0.128000006  -999.250000 1.6069999933 20.618928909 179.59202576 1.0160280466 49.400703430 0.7770079970 0.7770079970
 912.34234619  -999.250000 20.437997818 -0.119999997  -999.250000 1.6160000563 22.632926941 179.58503723 1.0030521154 49.150703430 0.7700279951 0.7700279951
 912.49475098  -999.250000 20.437997818 -0.127000004  -999.250000 1.6089999676 19.263580322 179.57704163 0.9830800891 48.402103424 0.7590440512 0.7590440512
 912.64715576  -999.250000 20.437997818 -0.118000001  -999.250000 1.6180000305 17.756008148 179.57003784 0.9620841146 47.901401520 0.7400761247 0.7400761247
 912.79956055  -999.250000 20.437997818 -0.108000003  -999.250000 1.6299999952 18.232254028 179.56303406 0.9400793314 48.398601532 0.7180793285 0.7180793285
 912.95196533  -999.250000 20.437997818 -0.103000000  -999.250000 1.6319999695 19.230394363 179.55603027 0.9190757275 48.400001526 0.7000648379 0.7000648379
 913.10437012  -999.250000 20.437997818 -0.100000001  -999.250000 1.6360000372 18.378095627 179.54806519 0.9020612836 47.901401520 0.6980072260 0.6980072260
 913.25671387  -999.250000 20.452999115 -0.105999999  -999.250000 1.6299999952 16.491571426 179.54103088 0.8890520334 47.152404785 0.6989960074 0.6989960074
 913.40911865  -999.250000 20.437997818 -0.115999997  -999.250000 1.6150000095 15.589596748 179.53402710 0.8860120177 46.900802612 0.6950160265 0.6950160265
 913.56152344  -999.250000 20.437997818 -0.123000003  -999.250000 1.6089999676 16.916650772 179.52702332 0.8909799457 48.893592834 0.6890240312 0.6890240312
 913.71392822  -999.250000 20.437997818 -0.136999995  -999.250000 1.5900000334 17.887119293 179.52003479 0.9039479494 49.149200439 0.6880040169 0.6880040169
 913.86633301  -999.250000 20.437997818 -0.141000003  -999.250000 1.5889999866 20.365051270 179.51203918 0.9229238629 49.897899628 0.6909879446 0.6909879446
 914.01873779  -999.250000 20.437997818 -0.131999999  -999.250000 1.6039999723 18.927820206 179.50503540 0.9439159036 50.897197723 0.7019559741 0.7019559741
 914.17114258  -999.250000 20.437997818 -0.112000003  -999.250000 1.6369999647 19.777559280 179.49803162 0.9649158716 49.902805328 0.7209239006 0.7209239006
 914.32354736  -999.250000 20.437997818 -0.103000000  -999.250000 1.6579999924 17.229259491 179.49102783 0.9849199057 49.900001526 0.7468958497 0.7468958497
 914.47595215  -999.250000 20.437997818 -0.104000002  -999.250000 1.6590000391 18.603431702 179.48402405 1.0029278994 49.650703430 0.7728958726 0.7728958726
 914.62835693  -999.250000 20.437997818 -0.114000000  -999.250000 1.6430000067 17.302255630 179.47604370 1.0169439316 48.902103424 0.7849519849 0.7849519849
 914.78076172  -999.250000 20.437997818 -0.108999997  -999.250000 1.6360000372 17.919746399 179.46902466 1.0319458246 48.401401520 0.7780252099 0.7780252099
 914.93316650  -999.250000 20.437997818 -0.103000000  -999.250000 1.6380000114 16.100587845 179.46203613 1.0399711132 49.895797729 0.7650468349 0.7650468349
 915.08557129  -999.250000 20.452999115 -0.090000004  -999.250000 1.6540000439 17.478988647 179.45504761 1.0449819565 48.154907227 0.7540396452 0.7540396452
 915.23797607  -999.250000 20.437997818 -0.088000000  -999.250000 1.6519999504 17.811813354 179.44705200 1.0519747734 48.399299622 0.7480216622 0.7480216622
 915.39031982  -999.250000 20.437997818 -0.104000002  -999.250000 1.6349999905 18.170562744 179.44003296 1.0649479628 48.150802612 0.7400320768 0.7400320768
 915.54272461  -999.250000 20.437997818 -0.115000002  -999.250000 1.6239999533 17.658065796 179.43302917 1.0769519806 48.150001526 0.7400000095 0.7400000095
 915.69512939  -999.250000 20.437997818 -0.114000000  -999.250000 1.6289999485 19.057365417 179.42602539 1.0760040283 48.399200439 0.7648998499 0.7648998499
 915.84753418  -999.250000 20.437997818 -0.112999998  -999.250000 1.6260000467 19.560997009 179.41903687 1.0590680838 49.396797180 0.8038438559 0.8038438559
 915.99993896  -999.250000 20.437997818 -0.111000001  -999.250000 1.6280000210 19.531127930 179.41104126 1.0410721302 50.397197723 0.8318879008 0.8318879008
 916.15234375  -999.250000 20.452999115 -0.116999999  -999.250000 1.6210000515 18.769063950 179.40403748 1.0220760107 49.402805328 0.8180561066 0.8180561066
 916.30474854  -999.250000 20.437997818 -0.116999999  -999.250000 1.6200000048 19.839683533 179.39701843 1.0000880957 49.400001526 0.7791561484 0.7791561484
 916.45715332  -999.250000 20.437997818 -0.115000002  -999.250000 1.6189999580 19.019317627 179.39002991 0.9751001596 49.150703430 0.7301962376 0.7301962376
 916.60955811  -999.250000 20.437997818 -0.115000002  -999.250000 1.6310000420 16.977197647 179.38302612 0.9431281686 48.402103424 0.6921521425 0.6921521425
 916.76196289  -999.250000 20.437997818 -0.112000003  -999.250000 1.6330000162 15.444130898 179.37504578 0.9101321697 47.901401520 0.6631160975 0.6631160975
 916.91436768  -999.250000 20.437997818 -0.125000000  -999.250000 1.6219999790 18.223917007 179.36804199 0.8821009994 47.650703430 0.6420757174 0.6420757174
 917.06677246  -999.250000 20.437997818 -0.123999998  -999.250000 1.6130000353 20.585493088 179.36102295 0.8670540452 47.650001526 0.6350252032 0.6350252032
 917.21917725  -999.250000 20.437997818 -0.127000004  -999.250000 1.6109999418 21.559507370 179.35403442 0.8650072217 47.899299622 0.6429711580 0.6429711580
 917.37152100  -999.250000 20.437997818 -0.125000000  -999.250000 1.6109999418 19.134763718 179.34603882 0.8699799776 48.149200439 0.6629198790 0.6629198790
 917.52392578  -999.250000 20.437997818 -0.131999999  -999.250000 1.6039999723 18.720624924 179.33903503 0.8799599409 48.399200439 0.6819238663 0.6819238663
 917.67633057  -999.250000 20.437997818 -0.127000004  -999.250000 1.6039999723 18.251878738 179.33203125 0.8939439058 49.022998810 0.6989319324 0.6989319324
 917.82873535  -999.250000 20.437997818 -0.120999999  -999.250000 1.6059999466 18.250000000 179.32502747 0.9069479704 50.644794464 0.7059719563 0.7059719563
 917.98114014  -999.250000 20.437997818 -0.135000005  -999.250000 1.5950000286 18.188247681 179.31802368 0.9199479818 50.276203156 0.7079920173 0.7079920173
 918.13354492  -999.250000 20.437997818 -0.140000001  -999.250000 1.5950000286 19.090372086 179.31002808 0.9289639592 49.402454376 0.7020240426 0.7020240426
 918.28594971  -999.250000 20.437997818 -0.142000005  -999.250000 1.5980000496 19.063123703 179.30302429 0.9299960136 49.773948669 0.6960240006 0.6960240006
 918.43835449  -999.250000 20.437997818 -0.130999997  -999.250000 1.6059999466 18.969375610 179.29603577 0.9230279922 48.528507233 0.6840480566 0.6840480566
 918.59075928  -999.250000 20.437997818 -0.120999999  -999.250000 1.6180000305 18.003881454 179.28903198 0.9090560675 48.400352478 0.6700561047 0.6700561047
 918.74316406  -999.250000 20.437997818 -0.115000002  -999.250000 1.6319999695 19.540805817 179.28202820 0.8950560689 48.649299622 0.6630280018 0.6630280018
 918.89556885  -999.250000 20.437997818 -0.115000002  -999.250000 1.6280000210 18.644628525 179.27404785 0.8760761023 48.899299622 0.6620039940 0.6620039940
 919.04797363  -999.250000 20.437997818 -0.126000002  -999.250000 1.6109999418 18.189632416 179.26702881 0.8600577116 48.650703430 0.6669819951 0.6669819951
 919.20025635  -999.250000 20.437997818 -0.136000007  -999.250000 1.5959999561 17.129682541 179.26004028 0.8480528593 47.902706146 0.6580396295 0.6580396295
 919.35266113  -999.250000 20.437997818 -0.128999993  -999.250000 1.6039999723 17.171792984 179.25305176 0.8460088372 48.896396637 0.6470484734 0.6470484734
