# LAS format log file from PETREL
# Project units are specified as depth units
#==================================================================
~Version information
VERS.   2.0:
WRAP.   NO:
#==================================================================
~Well
STRT .m      211.00001526 :
STOP .m      2222.9851074 :
STEP .m     0.00000000 :
NULL .        -999.250000 :
COMP.           : COMPANY
WELL.  34/10-19   : WELL
FLD.            : FIELD
LOC.            : LOCATION
SRVC.           : SERVICE COMPANY
DATE.  2018-09-11 14:48:44   : Log Export Date {yyyy-MM-dd HH:mm:ss}
PROV.           : PROVINCE
UWI.   34/10-19   : UNIQUE WELL ID
API.            : API NUMBER
#==================================================================
~Curve
DEPT .m                   : DEPTH
Lithology_geolink ._      : Lithology_geolink
CALI .in                  : CALI
DRHO .g/cm3               : DRHO
NPHI .m3/m3               : NPHI
RHOB .g/cm3               : RHOB
GR .gAPI                  : GR
DTC .us/ft                : DTC
RDEP .ohm.m               : RDEP
SP .mV                    : SP
RSHA .ohm.m               : RSHA
RMED .ohm.m               : RMED
~Parameter
#==================================================================
~Ascii
# ...
 2084.1486816 6.0000000000 8.5299997330 -0.007000000 0.3901399970 2.4059998989 55.160263062 106.62500000 1.3689999580 73.013839722 1.5670000315 1.5670000315
 2084.3010254 6.0000000000 8.5120000839 -0.023000000 0.3579100072 2.3550000191 47.949729919 106.50000000 1.2289999723 70.085906982 1.4670000076 1.4670000076
 2084.4536133 5.0000000000 8.5179996490 -0.031998400 0.3407769799 2.3200128078 43.732704163 105.36357880 1.1298542023 70.681747437 1.2208445072 1.2208445072
 2084.6059570 5.0000000000 8.5570001602 -0.030987199 0.3139248192 2.3280129433 40.769519806 98.250801086 1.0388560295 69.355865479 1.1240303516 1.1240303516
 2084.7583008 5.0000000000 8.5710000992 -0.023000000 0.2919899821 2.3359999657 40.050369263 98.750000000 0.9490000010 63.152183533 1.1430000067 1.1430000067
 2084.9106445 5.0000000000 8.5819997787 -0.017999999 0.2822299898 2.3239998817 40.331737518 98.750000000 0.8560000062 70.227035522 1.1569999456 1.1569999456
 2085.0632324 5.0000000000 8.5450000763 -0.014000000 0.2802926898 2.2969710827 39.856559753 100.64043427 0.7668926716 70.228439331 1.0458542109 1.0458542109
 2085.2155762 5.0000000000 8.4949998856 -0.014001603 0.2944433093 2.2789728642 38.506172180 110.25080109 0.6999198794 68.856651306 0.9549471140 0.9549471140
 2085.3679199 5.0000000000 8.4530000687 -0.015006400 0.3027386069 2.2619681358 34.816719055 110.75219727 0.6499343514 66.084587097 0.9219295979 0.9219295979
 2085.5202637 5.0000000000 8.4110002518 -0.018999999 0.3081099987 2.2420001030 34.970325470 112.12500000 0.6090000272 64.356689453 0.8780000210 0.8780000210
 2085.6728516 5.0000000000 8.4060001373 -0.020993590 0.3095661104 2.2249870300 36.089801788 116.37480164 0.5829615593 67.371078491 0.7989262938 0.7989262938
 2085.8251953 5.0000000000 8.4060001373 -0.016993592 0.3071127534 2.2170031071 38.706314087 116.25340271 0.5589615703 63.339065552 0.7529663444 0.7529663444
 2085.9775391 5.0000000000 8.4060001373 -0.013004808 0.2964150310 2.2189807892 40.413619995 118.37120056 0.5349712372 61.935230255 0.7319632173 0.7319632173
 2086.1298828 5.0000000000 8.4060001373 -0.016012821 0.3120084405 2.2069807053 37.633396149 116.00000000 0.5170000196 68.417785645 0.7089999914 0.7089999914
 2086.2822266 5.0000000000 8.4060001373 -0.024000000 0.3110611439 2.1949887276 35.426689148 115.37500000 0.5059999824 72.076934814 0.6830000281 0.6830000281
 2086.4348145 3.0000000000 8.4060001373 -0.023993600 0.3241965473 2.1879870892 33.085105896 118.36878967 0.4969919920 67.492660522 0.6330112219 0.6330112219
 2086.5871582 3.0000000000 8.4060001373 -0.021998398 0.3169197440 2.1840000153 33.729236603 114.50000000 0.4919920266 65.351142883 0.6400255561 0.6400255561
 2086.7395020 3.0000000000 8.4060001373 -0.021006409 0.3354586065 2.1839969158 33.984310150 114.50000000 0.4869999886 65.169853210 0.6560000181 0.6560000181
 2086.8918457 3.0000000000 8.4060001373 -0.024995193 0.3408129811 2.1820094585 33.833393097 112.99999237 0.4850000143 64.335426331 0.6669999957 0.6669999957
 2087.0444336 3.0000000000 8.4060001373 -0.021996800 0.3363940716 2.1880095005 32.250144958 111.37199402 0.4920224547 69.376777649 0.6769983768 0.6769983768
 2087.1967773 3.0000000000 8.4060001373 -0.021008013 0.3251874447 2.1910030842 31.042995453 109.49599457 0.5060176253 64.573814392 0.6759983897 0.6759983897
 2087.3491211 3.0000000000 8.4060001373 -0.026003206 0.3173627853 2.1930193901 32.082454681 106.99939728 0.5170048475 65.613899231 0.6750832200 0.6750832200
 2087.5014648 3.0000000000 8.4060001373 -0.028000001 0.3066102862 2.2050430775 33.227111816 106.62500000 0.5199999809 74.460929871 0.7269999981 0.7269999981
 2087.6540527 3.0000000000 8.4060001373 -0.027996801 0.2880712450 2.2320320606 36.348873138 104.25179291 0.5190079808 67.604530334 0.8511378169 0.8511378169
 2087.8063965 3.0000000000 8.4060001373 -0.027000001 0.2822605073 2.2419905663 35.393024445 105.37279510 0.5240448713 65.980278015 0.9368701577 0.9368701577
 2087.9587402 3.0000000000 8.4060001373 -0.027003206 0.3012973964 2.2359857559 34.354354858 103.99819946 0.5520831943 66.249389648 0.8557392359 0.8557392359
 2088.1110840 3.0000000000 8.4060001373 -0.029006409 0.3183521926 2.2270207405 32.565662384 102.87500000 0.6039999723 66.953132629 0.6930000186 0.6930000186
 2088.2634277 3.0000000000 8.4049997330 -0.032996796 0.3134408593 2.2400593758 32.695457458 100.49999237 0.6859999895 67.601928711 0.6719999909 0.6719999909
 2088.4160156 16.000000000 8.3929996490 -0.031006400 0.2889834642 2.2770576477 31.127735138 89.364593506 0.7771570683 67.380432129 0.7581939101 0.7581939101
 2088.5683594 16.000000000 8.3889999390 -0.033001602 0.2651039958 2.2950496674 30.243995667 82.861602783 0.8752335906 67.469810486 0.8792735934 0.8792735934
 2088.7207031 16.000000000 8.3850002289 -0.034000002 0.2426189631 2.3260881901 30.046657562 74.500000000 1.0210000277 67.224174500 1.0499999523 1.0499999523
 2088.8730469 3.0000000000 8.3909997940 -0.033990387 0.2045273930 2.3811507225 32.270931244 67.250000000 1.2580000162 67.474060059 1.5199999809 1.5199999809
 2089.0256348 3.0000000000 8.4029998779 -0.027961601 0.1654299945 2.4751918316 36.025562286 75.008216858 1.5274678469 68.940765381 3.1192724705 3.1192724705
 2089.1779785 5.0000000000 8.4440002441 -0.015980771 0.1342933178 2.5349407196 43.633934021 80.142028809 1.8193029165 69.508872986 5.7787837982 5.7787837982
 2089.3303223 5.0000000000 8.5520000458 -0.003983974 0.1426606029 2.4979085922 51.953044891 90.768997192 2.0079662800 68.657279968 4.3942847252 4.3942847252
 2089.4826660 6.0000000000 8.7969999313 0.0060048075 0.1930030286 2.4409198761 62.950801849 102.62500000 1.9869999886 69.396850586 2.0759999752 2.0759999752
 2089.6352539 6.0000000000 8.9519996643 0.0089935996 0.2761659026 2.3909361362 66.647415161 109.76081848 1.8466778994 81.775062561 1.5537164211 1.5537164211
 2089.7875977 6.0000000000 8.9270000458 0.0069967951 0.3653113842 2.3709664345 68.409851074 116.50621033 1.6456634998 79.918846130 1.3768733740 1.3768733740
 2089.9399414 6.0000000000 8.8070001602 0.0049999999 0.4160661697 2.3499646187 66.506622314 120.37840271 1.4357615709 79.477790833 1.2979072332 1.2979072332
 2090.0922852 6.0000000000 8.7679996490 0.0049967947 0.4448105991 2.3279728889 64.565658569 122.50000000 1.2869999409 80.466857910 1.2400000095 1.2400000095
 2090.2446289 6.0000000000 8.7500000000 0.0029951923 0.4389740825 2.3109970093 64.503852844 120.37500000 1.2100000381 80.006820679 1.2439999580 1.2439999580
 2090.3972168 6.0000000000 8.7220001221 -0.000012800 0.4476578534 2.3090128899 66.348625183 118.12120056 1.1930320263 76.657585144 1.2771056890 1.2771056890
 2090.5495605 6.0000000000 8.7189998627 -0.004001603 0.4189906716 2.3130304813 68.559020996 115.74720001 1.2130768299 77.832054138 1.3430896997 1.3430896997
 2090.7019043 7.0000000000 8.7139997482 -0.004995192 0.4443321526 2.3320369720 70.631813049 114.00000000 1.2610000372 81.565025330 1.3990000486 1.3990000486
 2090.8542480 7.0000000000 8.7089996338 -0.001988782 0.4394844472 2.3550577164 70.583480835 113.37500000 1.3209999800 80.735549927 1.4149999619 1.4149999619
 2091.0068359 6.0000000000 8.7860002518 0.0050063999 0.4608696699 2.3911375999 68.807624817 112.12179565 1.3891186714 79.394073486 1.4692083597 1.4692083597
 2091.1591797 6.0000000000 8.8090000153 0.0069887824 0.4389138222 2.4340529442 66.859565735 110.12279510 1.4631395340 78.408950806 1.5993093252 1.5993093252
 2091.3115234 6.0000000000 8.8129997253 -0.000004808 0.4101286829 2.4670159817 65.533164978 108.74819946 1.5501919985 85.642051697 1.7922033072 1.7922033072
 2091.4638672 6.0000000000 8.8129997253 -0.003001603 0.3906354606 2.4769518375 66.599975586 107.62500000 1.6699999571 85.408157349 1.9190000296 1.9190000296
 2091.6164551 6.0000000000 8.8129997253 -0.003961600 0.3941868544 2.4469807148 65.977592468 105.61940002 1.8132002354 77.393775940 1.9049758911 1.9049758911
 2091.7687988 6.0000000000 8.8129997253 0.0080032051 0.4399470687 2.4410657883 66.707885742 102.12319946 1.9381121397 85.396324158 1.8902611732 1.8902611732
