# LAS format log file from PETREL
# Project units are specified as depth units
#==================================================================
~Version information
VERS.   2.0:
WRAP.   NO:
#==================================================================
~Well
STRT .m      3455.1030273 :
STOP .m      4235.3911133 :
STEP .m     0.00000000 :
NULL .        -999.250000 :
COMP.           : COMPANY
WELL.  34/11-3 T2   : WELL
FLD.            : FIELD
LOC.            : LOCATION
SRVC.           : SERVICE COMPANY
DATE.  2018-09-11 14:48:48   : Log Export Date {yyyy-MM-dd HH:mm:ss}
PROV.           : PROVINCE
UWI.   34/11-3 T2   : UNIQUE WELL ID
API.            : API NUMBER
#==================================================================
~Curve
DEPT .m                   : DEPTH
Lithology_geolink ._      : Lithology_geolink
CALI .in                  : CALI
NPHI .m3/m3               : NPHI
RHOB .g/cm3               : RHOB
GR .gAPI                  : GR
DTC .us/ft                : DTC
RDEP .ohm.m               : RDEP
RMED .ohm.m               : RMED
~Parameter
#==================================================================
~Ascii
 3455.1030273  -999.250000 12.683000565 0.0000000000 2.0699999332 55.121406555 85.846099854 2.2151441574 1.8599759340
 3455.2553711  -999.250000 12.727999687 0.0000000000 2.0700192451 56.024623871 85.852073669 2.2240478992 1.8450256586
 3455.4077148  -999.250000 12.694000244 0.0000000000 2.0720193386 57.183280945 85.857086182 2.2269568443 1.8610014915
 3455.5603027  -999.250000 12.678999901 0.0000000000 2.0740382671 58.090774536 85.863075256 2.2239999771 1.8619648218
 3455.7126465  -999.250000 12.723999023 0.0000000000 2.0780577660 58.069210052 85.868095398 2.2240159512 1.8509870768
 3455.8649902  -999.250000 12.739000320 0.0000000000 2.0840482712 57.593208313 85.874099731 2.2251598835 1.8430129290
 3456.0173340  -999.250000 12.689000130 0.0000000000 2.0889999866 57.736946106 85.880065918 2.2347979546 1.8510272503
 3456.1699219  -999.250000 12.729999542 0.0000000000 2.0889711380 58.275512695 85.885101318 2.2209517956 1.8680064678
 3456.3222656  -999.250000 12.750000000 0.0000000000 2.0859518051 57.979934692 85.891075134 2.2180800438 1.8699871302
 3456.4746094  -999.250000 12.706000328 0.0000000000 2.0809712410 56.720527649 85.896095276 2.2229361534 1.8619887829
 3456.6269531  -999.250000 12.763999939 0.0000000000 2.0780096054 55.011108398 85.902061462 2.2190721035 1.8549888134
 3456.7795410  -999.250000 12.739000320 0.0000000000 2.0790448189 53.644020081 85.907096863 2.2240319252 1.8479872942
 3456.9318848  -999.250000 12.725999832 0.0000000000 2.0830576420 53.153518677 85.913101196 2.2251508236 1.8439614773
 3457.0842285  -999.250000 12.732999802 0.0000000000 2.0890672207 53.115169525 85.919082642 2.1732404232 1.8200048208
 3457.2365723  -999.250000 12.736000061 0.0000000000 2.0960769653 52.557800293 85.924102783 2.1884799004 1.8230624199
 3457.3889160  -999.250000 12.733999252 0.0000000000 2.1040673256 51.619697571 85.930068970 2.2182307243 1.8620223999
 3457.5415039  -999.250000 12.763999939 0.0000000000 2.1110482216 51.408569336 85.935096741 2.2342243195 1.8760704994
 3457.6938477  -999.250000 12.733999252 0.0000000000 2.1159999371 52.334461212 85.941078186 2.2472145557 1.8979455233
 3457.8461914  -999.250000 12.767000198 0.0000000000 2.1159517765 54.296016693 85.946098328 2.1987438202 1.8639278412
 3457.9985352  -999.250000 12.740999222 0.0000000000 2.1109232903 56.149860382 85.952087402 2.1833605766 1.8190128803
 3458.1511230  -999.250000 12.772000313 0.0000000000 2.1029229164 56.676261902 85.958076477 2.2084968090 1.8271024227
 3458.3034668  -999.250000 12.792000771 0.0000000000 2.0949423313 56.007991791 85.963096619 2.2394487858 1.8590544462
 3458.4558105  -999.250000 12.793000221 0.0000000000 2.0889904499 55.446456909 85.969070435 2.2672078609 1.8930288553
 3458.6081543  -999.250000 12.788998604 0.0000000000 2.0880095959 54.906433105 85.974082947 2.2803461552 1.9110032320
 3458.7607422  -999.250000 12.758999825 0.0000000000 2.0890223980 53.890918732 85.980079651 2.3039357662 1.9129711390
 3458.9130859  -999.250000 12.772999763 0.0000000000 2.0910000801 52.640693665 85.985099792 2.2999198437 1.9040273428
 3459.0654297  -999.250000 12.765000343 0.0000000000 2.0909807682 51.572128296 85.991096497 2.2946960926 1.9209855795
 3459.2177734  -999.250000 12.781000137 0.0000000000 2.0889616013 51.208793640 85.997070313 2.2759134769 1.9119582176
 3459.3701172  -999.250000 12.795001030 0.0000000000 2.0849521160 51.049011230 86.002082825 2.2699999809 1.8860224485
 3459.5227051  -999.250000 12.755999565 0.0000000000 2.0799615383 50.423782349 86.008079529 2.2700159550 1.8999935389
 3459.6750488  -999.250000 12.782999992 0.0000000000 2.0759711266 49.745784760 86.013099670 2.2712242603 1.8959791660
 3459.8273926  -999.250000 12.793000221 0.0000000000 2.0730192661 50.443984985 86.019081116 2.2778000832 1.8827804327
 3459.9797363  -999.250000 12.781998634 0.0000000000 2.0750768185 52.695381165 86.024093628 1.8351010084 1.7461410761
 3460.1323242  -999.250000 12.786000252 0.0000000000 2.0831346512 55.343784332 86.030105591 1.8423205614 1.8341407776
 3460.2846680  -999.250000 12.765000343 0.0000000000 2.0971634388 56.922496796 86.036079407 1.8621922731 1.8779487610
 3460.4370117  -999.250000 12.758999825 0.0000000000 2.1141538620 56.622879028 86.041099548 1.8741919994 1.8459358215
 3460.5893555  -999.250000 12.765000343 0.0000000000 2.1301155090 55.177261353 86.047065735 1.8858702183 1.8060417175
 3460.7419434  -999.250000 12.793000221 0.0000000000 2.1420559883 53.541172028 86.052101135 1.8767596483 1.8319808245
 3460.8942871  -999.250000 12.795001030 0.0000000000 2.1469712257 52.710414886 86.058082581 1.8617275953 1.8258380890
 3461.0466309  -999.250000 12.795001030 0.0000000000 2.1439328194 53.880199432 86.063102722 1.8447920084 1.7248637676
 3461.1989746  -999.250000 12.793000221 0.0000000000 2.1369423866 56.322948456 86.069068909 1.8320000172 1.6400400400
 3461.3515625  -999.250000 12.784000397 0.0000000000 2.1309888363 58.520694733 86.074089050 1.8319679499 1.6652239561
 3461.5039063  -999.250000 12.795001030 0.0000000000 2.1300384998 59.407566071 86.080101013 1.8298077583 1.7350336313
 3461.6562500  -999.250000 12.760000229 0.0000000000 2.1340482235 58.423061371 86.086082458 1.8181762695 1.7559952736
 3461.8085938  -999.250000 12.788998604 0.0000000000 2.1390287876 56.119064331 86.091110229 1.8292239904 1.7530273199
 3461.9609375  -999.250000 12.750999451 0.0000000000 2.1419904232 53.886657715 86.097076416 1.8433173895 1.7700335979
 3462.1135254  -999.250000 12.776000023 0.0000000000 2.1409616470 52.346252441 86.102096558 1.8657692671 1.7912399769
 3462.2658691  -999.250000 12.781998634 0.0000000000 2.1369423866 51.504371643 86.108078003 1.9130159616 1.8659712076
 3462.4182129  -999.250000 12.770000458 0.0000000000 2.1309616566 51.659343719 86.113098145 1.9138560295 1.8479552269
 3462.5705566  -999.250000 12.775000572 0.0000000000 2.1269807816 52.243679047 86.119087219 1.9051442146 1.8200032711
 3462.7231445  -999.250000 12.770999908 0.0000000000 2.1250224113 52.929054260 86.125076294 1.9148397446 1.8218560219
 3462.8754883  -999.250000 12.737001419 0.0000000000 2.1270577908 54.440933228 86.130096436 1.9033012390 1.7768012285
 3463.0278320  -999.250000 12.762000084 0.0000000000 2.1330864429 56.602748871 86.136077881 1.7975599766 1.6528429985
 3463.1801758  -999.250000 12.755999565 0.0000000000 2.1421248913 57.614437103 86.141075134 1.7090432644 1.5549983978
 3463.3327637  -999.250000 12.727001190 0.0000000000 2.1551680565 56.289813995 86.147079468  -999.250000  -999.250000
 3463.4851074  -999.250000 12.743999481 0.0000000000 2.1701443195 52.782596588 86.152099609  -999.250000  -999.250000
 3463.6374512  -999.250000 12.743999481 0.0000000000 2.1851153374 49.251316071 86.158096313  -999.250000  -999.250000
 3463.7897949  -999.250000 12.740999222 0.0000000000 2.1970770359 48.881416321 86.164085388  -999.250000  -999.250000
 3463.9421387  -999.250000 12.740999222 0.0000000000 2.2050094604 51.406074524 86.169067383  -999.250000  -999.250000
 3464.0947266  -999.250000 12.758999825 0.0000000000 2.2059328556 54.096817017 86.174163818  -999.250000  -999.250000
 3464.2470703  -999.250000 12.718999863 0.0000000000 2.1988556385 55.372196198 86.184783936  -999.250000  -999.250000
 3464.3994141  -999.250000 12.765999794 0.0000000000 2.1837885380 55.178802490 86.235366821  -999.250000  -999.250000
 3464.5517578  -999.250000 12.762000084 0.0000000000 2.1617696285 53.848606110 86.385269165  -999.250000  -999.250000
 3464.7043457  -999.250000 12.765000343 0.0000000000 2.1377980709 52.026329041 86.683952332  -999.250000  -999.250000
 3464.8566895  -999.250000 12.781998634 0.0000000000 2.1169040203 50.883159637 87.118827820  -999.250000  -999.250000
 3465.0090332  -999.250000 12.784000397 0.0000000000 2.1070194244 51.107719421 87.605651855  -999.250000  -999.250000
 3465.1613770  -999.250000 12.741999626 0.0000000000 2.1090960503 53.035552979 88.018836975  -999.250000  -999.250000
 3465.3139648  -999.250000 12.725000381 0.0000000000 2.1190671921 55.689277649 88.283164978  -999.250000  -999.250000
