# LAS format log file from PETREL
# Project units are specified as depth units
#==================================================================
~Version information
VERS.   2.0:
WRAP.   NO:
#==================================================================
~Well
STRT .m      586.57812500 :
STOP .m      4014.2067871 :
STEP .m     0.00000000 :
NULL .        -999.250000 :
COMP.           : COMPANY
WELL.  34/10-21   : WELL
FLD.            : FIELD
LOC.            : LOCATION
SRVC.           : SERVICE COMPANY
DATE.  2018-09-11 14:48:44   : Log Export Date {yyyy-MM-dd HH:mm:ss}
PROV.           : PROVINCE
UWI.   34/10-21   : UNIQUE WELL ID
API.            : API NUMBER
#==================================================================
~Curve
DEPT .m                   : DEPTH
Lithology_geolink ._      : Lithology_geolink
CALI .in                  : CALI
DRHO .g/cm3               : DRHO
NPHI .m3/m3               : NPHI
RHOB .g/cm3               : RHOB
PEF .b/e                  : PEF
GR .gAPI                  : GR
DTC .us/ft                : DTC
RDEP .ohm.m               : RDEP
SP .mV                    : SP
RSHA .ohm.m               : RSHA
RMED .ohm.m               : RMED
~Parameter
#==================================================================
~Ascii
# ...
 1040.1206055  -999.250000 23.452999115 0.0659711733  -999.250000 1.8459398746 8.2209997177 30.382999420 154.94190979 0.9300160408 17.325000763 0.8658863306 0.7890063524
 1040.2729492  -999.250000 23.523000717 0.0779711530  -999.250000 1.8729351759 8.6756353378 27.899990082 153.75192261 0.9500048161 17.200000763 0.8110881448 0.7919951677
 1040.4252930  -999.250000 23.647998810 0.0780000016  -999.250000 1.8650192022 8.4441862106 26.391208649 153.99940491 0.9559999704 17.200000763 0.7042570114 0.8029735684
 1040.5777588  -999.250000 23.711000443 0.0720144063  -999.250000 1.8340744972 8.1752157211 26.383005142 154.00000000 0.9529936314 17.200000763 0.6530817151 0.8069935441
 1040.7301025  -999.250000 23.016000748 0.0550408661  -999.250000 1.8100576401 7.4595737457 26.359018326 153.43934631 0.9449999928 17.325000763 0.6669663787 0.7990192175
 1040.8825684  -999.250000 22.327999115 0.0490144119  -999.250000 1.8209735155 7.3099999428 26.000000000 152.68920898 0.9289839864 17.450000763 0.6769839525 0.7930095792
 1041.0349121  -999.250000 21.952999115 0.0489999987  -999.250000 1.8369615078 7.3070025444 25.617307663 153.24964905 0.9089999795 17.700000763 0.6550528407 0.7920023799
 1041.1873779  -999.250000 21.944999695 0.0450096093  -999.250000 1.8240312338 7.6550002098 25.422000885 155.37159729 0.8909927607 17.950000763 0.6709743738 0.7830144167
 1041.3397217  -999.250000 22.305002213 0.0350240394  -999.250000 1.8100335598 7.4711475372 25.789707184 157.86997986 0.8820000291 17.950000763 0.7867213488 0.7770144343
 1041.4921875  -999.250000 22.992000580 0.0300080124  -999.250000 1.8199840784 7.7350001335 25.819999695 159.43548584 0.8820024133 18.075000763 0.8199471235 0.7919759750
 1041.6445313  -999.250000 23.694999695 0.0389783829  -999.250000 1.8579087257 8.5493478775 24.282232285 159.68640137 0.8849999905 18.200000763 0.8379567862 0.8079615831
 1041.7969971  -999.250000 23.202999115 0.0559727587  -999.250000 1.8759711981 9.3520002365 22.891000748 158.12750244 0.8859951496 18.325000763 0.8020576835 0.8030079603
 1041.9493408  -999.250000 22.430000305 0.0560000017  -999.250000 1.8331031799 9.4009609222 22.570257187 155.31776428 0.8799855709 18.325000763 0.6723122597 0.7870384455
 1042.1018066  -999.250000 22.258001328 0.0510080121  -999.250000 1.7850768566 8.9300003052 23.483999252 153.06660461 0.8619863391 18.200000763 0.6969599724 0.7870000005
 1042.2541504  -999.250000 22.281000137 0.0420144238  -999.250000 1.7620368004 8.3094968796 24.405261993 152.68859863 0.8449976444 18.450000763 0.7988365889 0.7929903865
 1042.4064941  -999.250000 22.312999725 0.0469879881  -999.250000 1.8098846674 7.9402956963 25.515111923 154.30909729 0.8420000076 18.450000763 0.9406589270 0.7870144248
 1042.5589600  -999.250000 22.319999695 0.0609775633  -999.250000 1.8788893223 8.0139408112 25.890701294 156.18399048 0.8480079770 17.700000763 0.9210320711 0.7720240355
 1042.7113037  -999.250000 22.288999557 0.0769615695  -999.250000 1.9029422998 8.8323440552 23.939563751 156.99804688 0.8579999804 17.825000763 0.7115043998 0.7540432215
 1042.8637695  -999.250000 22.343999863 0.0690128207  -999.250000 1.8460912704 9.2100000381 21.070999146 156.43890381 0.8660007715 18.700000763 0.6890352964 0.7460128069
 1043.0161133  -999.250000 22.516002655 0.0550336279  -999.250000 1.8041008711 8.9572019577 19.774040222 155.12815857 0.8669999838 18.825000763 0.8845292330 0.7450023890
 1043.1685791  -999.250000 22.367000580 0.0470128171  -999.250000 1.8199744225 8.2360000610 20.281000137 154.87538147 0.8609936237 18.450000763 0.9908301234 0.7509903908
 1043.3209229  -999.250000 22.163999557 0.0589711778  -999.250000 1.8888343573 7.9951930046 20.616731644 155.12440491 0.8529999852 17.700000763 0.9820216298 0.7519975901
 1043.4733887  -999.250000 22.266000748 0.0739759654  -999.250000 1.9339278936 8.0220003128 22.497999191 156.30909729 0.8530032039 17.075000763 0.9300833344 0.7430143952
 1043.6257324  -999.250000 22.297000885 0.0819807872  -999.250000 1.9389879704 8.5695610046 25.442640305 157.93409729 0.8569999933 17.075000763 0.8272474408 0.7350192070
 1043.7781982  -999.250000 22.218999863 0.0720160231  -999.250000 1.8970673084 8.9540004730 26.507999420 158.31140137 0.8610023856 17.450000763 0.7281586528 0.7260144353
 1043.9305420  -999.250000 22.547000885 0.0490552410  -999.250000 1.8391393423 9.0199480057 25.336938858 157.56480408 0.8640000224 17.700000763 0.6761248708 0.7210119963
 1044.0830078  -999.250000 22.797000885 0.0290320497  -999.250000 1.8040561676 8.6590003967 22.923000336 154.75650024 0.8639960289 17.575000763 0.7518782020 0.7239951491
 1044.2353516  -999.250000 22.922000885 0.0349903852  -999.250000 1.8119871616 8.0394964218 22.063688278 153.37721252 0.8589944243 17.450000763 0.7510015965 0.7259967923
 1044.3876953  -999.250000 23.389997482 0.0489663705  -999.250000 1.8439230919 6.9149012566 21.719276428 154.80854797 0.8519999981 17.450000763 0.8148462772 0.7269976139
 1044.5401611  -999.250000 23.321001053 0.0669711530  -999.250000 1.8929214478 6.3064870834 22.918039322 157.36788940 0.8439951539 17.450000763 0.9358060956 0.7329903841
 1044.6925049  -999.250000 23.141000748 0.0809663758  -999.250000 1.9458726645 6.2990055084 24.459764481 161.11399841 0.8379999995 17.700000763 0.8801345229 0.7369903922
 1044.8449707  -999.250000 23.305000305 0.0959759653  -999.250000 1.9759519100 7.6579999924 24.093999863 162.56069946 0.8360048532 17.950000763 0.8111105561 0.7250192761
 1044.9973145  -999.250000 23.093999863 0.0940048024  -999.250000 1.9440768957 8.8420515060 23.742282867 161.06660461 0.8420000076 17.950000763 0.6404107213 0.7090384364
 1045.1497803  -999.250000 23.288999557 0.0740320534  -999.250000 1.8481539488 9.5369997025 23.882999420 159.50250244 0.8460007906 18.075000763 0.5002243519 0.7020112276
 1045.3021240  -999.250000 24.163999557 0.0480624512  -999.250000 1.7642017603 9.3651371002 23.859018326 156.44335938 0.8470000029 18.325000763 0.5788102150 0.7000048161
 1045.4545898  -999.250000 24.211000443 0.0390144251  -999.250000 1.7550144196 8.2950000763 23.180000305 153.44281006 0.8449944258 18.575000763 0.7147819996 0.7059903741
 1045.6069336  -999.250000 23.906000137 0.0489759780  -999.250000 1.8298199177 7.3737382889 22.883237839 151.87776184 0.8379999995 18.450000763 0.7748558521 0.7189687490
 1045.7593994  -999.250000 24.172002792 0.0739599392  -999.250000 1.9388253689 7.0359997749 24.141000748 151.31390381 0.8330016136 18.200000763 0.8319086432 0.7239919901
 1045.9117432  -999.250000 24.586000443 0.0889639705  -999.250000 1.9918726683 6.6243300438 26.233324051 152.31060791 0.8349999785 18.200000763 0.8738991618 0.7249976397
 1046.0642090  -999.250000 24.742000580 0.0860048085  -999.250000 1.9979903698 6.2259998322 27.305000305 154.30979919 0.8380007744 18.075000763 0.8520352840 0.7190095782
 1046.2165527  -999.250000 24.733999252 0.0869983956  -999.250000 1.9930080175 5.6964244843 27.156120300 156.80899048 0.8390015960 17.950000763 0.8300352693 0.7199984193
 1046.3690186  -999.250000 24.492000580 0.0869999975  -999.250000 1.9770256281 5.6919999123 24.547000885 159.37089539 0.8410000205 17.700000763 0.8160223961 0.7259904146
 1046.5213623  -999.250000 24.211000443 0.0939887762  -999.250000 1.9660176039 6.4274106026 22.259832382 161.74519348 0.8410024047 17.575000763 0.7870464921 0.7240031958
 1046.6737061  -999.250000 24.266000748 0.0880144089  -999.250000 1.9320816994 7.7099719048 21.001007080 161.00178528 0.8439999819 17.825000763 0.6553170085 0.7160192132
 1046.8261719  -999.250000 23.891000748 0.0830080062  -999.250000 1.8681025505 8.8630771637 20.632293701 157.13320923 0.8509984016 17.700000763 0.4792820513 0.7060160041
 1046.9785156  -999.250000 23.375001907 0.0630480424  -999.250000 1.7492858171 9.1427764893 20.273288727 153.63340759 0.8489999771 17.200000763 0.4510672688 0.7050023675
 1047.1309814  -999.250000 23.452999115 0.0360432677  -999.250000 1.6950865984 7.6459999084 19.266000748 151.37960815 0.8439999819 17.200000763 0.6996009350 0.7179791331
 1047.2833252  -999.250000 24.078001022 0.0180432331  -999.250000 1.7269231081 5.8174653053 18.461645126 150.75151062 0.8439999819 17.325000763 0.9015148282 0.7399471402
