# LAS format log file from PETREL
# Project units are specified as depth units
#==================================================================
~Version information
VERS.   2.0:
WRAP.   NO:
#==================================================================
~Well
STRT .m      3900.0166016 :
STOP .m      4564.4804688 :
STEP .m     0.00000000 :
NULL .        -999.250000 :
COMP.           : COMPANY
WELL.  34/11-1   : WELL
FLD.            : FIELD
LOC.            : LOCATION
SRVC.           : SERVICE COMPANY
DATE.  2018-09-11 14:48:47   : Log Export Date {yyyy-MM-dd HH:mm:ss}
PROV.           : PROVINCE
UWI.   34/11-1   : UNIQUE WELL ID
API.            : API NUMBER
#==================================================================
~Curve
DEPT .m                   : DEPTH
Lithology_geolink ._      : Lithology_geolink
CALI .in                  : CALI
BS .in                    : BS
NPHI .m3/m3               : NPHI
RHOB .g/cm3               : RHOB
GR .gAPI                  : GR
DTC .us/ft                : DTC
DTS .us/ft                : DTS
RDEP .ohm.m               : RDEP
SP .mV                    : SP
RSHA .ohm.m               : RSHA
RMED .ohm.m               : RMED
~Parameter
#==================================================================
~Ascii
# ...
 4295.0375977 1.0000000000 7.6500005722 8.3750000000 0.1808325499 2.3780000210 33.649719238 83.692741394 140.74305725 2.5799999237 467.75000000 3.9075481892 3.7829999924
 4295.1899414 1.0000000000 7.6960005760 8.3750000000 0.1746850014 2.4040000439 30.323297501 83.461372375 140.45671082 2.6310000420 942.86901855 3.9810290337 3.9319999218
 4295.3422852 1.0000000000 7.7329998016 8.3750000000 0.1460119188 2.3980000019 28.034252167 83.451766968 140.17965698 2.6719999313 1141.9050293 4.0632405281 4.0560002327
 4295.4946289 1.0000000000 7.6810002327 8.3750000000 0.1554375738 2.3889999390 26.543487549 83.503112793 138.89810181 2.6900000572 512.96301270 4.1506924629 4.1250000000
 4295.6469727 1.0000000000 7.6729998589 8.3750000000 0.1677134484 2.3759999275 27.726499557 83.419410706 137.13887024 2.6860001087 -740.4340210 4.1391830444 4.1009998322
 4295.7993164 1.0000000000 7.6389999390 8.3750000000 0.1866875887 2.3750000000 31.029979706 83.036941528 136.21824646 2.6679999828 -1574.942017 3.9733557701 3.9830000401
 4295.9516602 1.0000000000 7.6389999390 8.3750000000 0.1855358630 2.3970000744 33.900119781 82.649650574 136.58325195 2.6380000114 -1507.754028 3.7745480537 3.8380000591
 4296.1040039 1.0000000000 7.6389999390 8.3750000000 0.1599575877 2.3980000019 35.556396484 82.303733826 137.47717285 2.5980000496 -1031.284058 3.6563749313 3.7200000286
 4296.2563477 1.0000000000 7.6389999390 8.3750000000 0.1766112447 2.3780000210 35.713596344 82.031066895 138.74327087 2.5629999638 -531.3200073 3.5974154472 3.6359999180
 4296.4091797 1.0000000000 7.6389999390 8.3750000000 0.1800010204 2.3610000610 34.596778870 81.744873047 139.73316956 2.5399999619 -31.94300079 3.5636346340 3.6029999256
 4296.5615234 1.0000000000 7.6409997940 8.3750000000 0.1898046136 2.3529999256 33.709472656 81.730873108 139.52894592 2.5309998989 465.18701172 3.5604519844 3.6199998856
 4296.7138672 1.0000000000 7.6389999390 8.3750000000 0.1719373018 2.3540000916 33.607803345 82.031875610 138.64877319 2.5409998894 940.63800049 3.6159713268 3.6840000153
 4296.8662109 1.0000000000 7.6389999390 8.3750000000 0.1795647442 2.3910000324 34.101947784 82.581771851 137.90577698 2.5780000687 1141.5939941 3.7780575752 3.8159999847
 4297.0185547 1.0000000000 7.6389999390 8.3750000000 0.1511261314 2.4130001068 34.844551086 82.971740723 137.57569885 2.6340000629 515.01501465 4.0306153297 4.0019998550
 4297.1708984 1.0000000000 7.6339998245 8.3750000000 0.1831068099 2.4330000877 34.038333893 83.017112732 137.03169250 2.7060000896 -738.6519775 4.2528939247 4.1750001907
 4297.3232422 1.0000000000 7.5949997902 8.3750000000 0.1839117259 2.4890000820 32.275619507 82.420989990 136.17062378 2.7920000553 -1575.711060 4.3835577965 4.3070001602
 4297.4755859 1.0000000000 7.5879998207 8.3750000000 0.1343387514 2.5109999180 32.152923584 80.989410400 135.15409851 2.8840000629 -1510.188965 4.4826807976 4.4079999924
 4297.6279297 1.0000000000 7.6430001259 8.3750000000 0.1508844197 2.4609999657 33.476619720 78.838569641 134.21734619 2.9790000916 -1033.863037 4.6233782768 4.4829998016
 4297.7807617 1.0000000000 7.6220002174 8.3750000000 0.1506938487 2.4370000362 34.346286774 77.267051697 133.12892151 3.0669999123 -533.8629761 4.9196729660 4.5749998093
 4297.9331055 1.0000000000 7.5460000038 8.3750000000 0.1470453888 2.4619998932 33.868961334 76.732109070 132.07415771 3.1159999371 -33.87200165 5.2073364258 4.6799998283
 4298.0854492 1.0000000000 7.5859999657 8.3750000000 0.1166429445 2.4600000381 33.565586090 77.045967102 131.61238098 3.1150000095 465.79000854 5.0273461342 4.7129998207
 4298.2377930 1.0000000000 7.6440000534 8.3750000000 0.1247226894 2.5120000839 33.298339844 77.378746033 132.29438782 3.0720000267 940.78997803 4.4987502098 4.6199998856
 4298.3901367 1.0000000000 7.7049999237 8.3750000000 0.1426019073 2.5399999619 32.497539520 77.327682495 134.03271484 2.9949998856 1139.1379395 4.1091537476 4.4130001068
 4298.5424805 2.0000000000 7.8290004730 8.3750000000 0.1608652920 2.4760000706 34.335845947 76.479049683 135.59338379 2.8929998875 509.34796143 3.8844325542 4.1149997711
 4298.6948242 2.0000000000 8.0369997025 8.3750000000 0.1564834714 2.4319999218 41.573822021 75.057151794 136.50862122 2.7829999924 -743.9520264 3.6648845673 3.7349998951
 4298.8471680 2.0000000000 8.3699998856 8.3750000000 0.1943397075 2.4049999714 55.043605804 74.151382446 137.68658447 2.6900000572 -1577.545044 3.5203130245 3.3719999790
 4299.0000000 2.0000000000 8.3819999695 8.3750000000 0.2153532058 2.3959999084 69.544624329 73.906326294 139.60902405 2.6389999390 -1510.088013 3.5827980042 3.1889998913
 4299.1523438 2.0000000000 7.9050002098 8.3750000000 0.2068824470 2.4219999313 72.290779114 74.492393494 141.64230347 2.6319999695 -1036.442017 3.7701730728 3.2179999352
 4299.3046875 2.0000000000 8.0909996033 8.3750000000 0.1914023161 2.4719998837 61.577373505 75.869499207 142.82038879 2.6489999294 -536.4409790 3.8913462162 3.3959999084
 4299.4570313 2.0000000000 8.2040004730 8.3750000000 0.1720848680 2.4730000496 50.889167786 77.405311584 143.40663147 2.6630001068 -36.45100021 3.9562211037 3.5910000801
 4299.6093750 2.0000000000 8.3070001602 8.3750000000 0.1971782446 2.4800000191 47.114929199 79.204566956 144.33944702 2.6710000038 463.22698975 3.9960768223 3.7139999866
 4299.7617188 2.0000000000 8.4569997787 8.3750000000 0.1795409620 2.4549999237 46.825859070 81.192024231 145.08554077 2.7030000687 938.55902100 3.9647595882 3.7929999828
 4299.9140625 2.0000000000 8.4899997711 8.3750000000 0.1915509701 2.4110000134 47.151161194 82.535018921 144.89195251 2.7709999084 1138.8260498 3.8369231224 3.8900001049
 4300.0664063 2.0000000000 8.2620000839 8.3750000000 0.1769305766 2.4019999504 47.714294434 83.169235229 143.80657959 2.8499999046 511.39999390 3.6390864849 3.9749999046
 4300.2187500 2.0000000000 8.3879995346 8.3750000000 0.1850226074 2.4010000229 47.512767792 83.162063599 142.42335510 2.9079999924 -742.1699829 3.4767475128 3.9909999371
 4300.3715820 2.0000000000 8.3079996109 8.3750000000 0.2040023059 2.3810000420 46.183998108 83.006103516 141.56622314 2.9260001183 -1578.313965 3.4229614735 3.9509999752
 4300.5239258 2.0000000000 8.2840003967 8.3750000000 0.2034214139 2.3629999161 44.476184845 82.961677551 141.36979675 2.9019999504 -1512.194946 3.4425866604 3.8949999809
 4300.6762695 2.0000000000 8.2840003967 8.3750000000 0.1865387261 2.3640000820 44.360141754 83.041511536 141.52249146 2.8440001011 -1035.817017 3.5250480175 3.7969999313
 4300.8286133 2.0000000000 8.2849998474 8.3750000000 0.2015066594 2.3619999886 48.695667267 83.134819031 142.29319763 2.7720000744 -535.8159790 3.6317787170 3.6189999580
 4300.9809570 2.0000000000 8.2939996719 8.3750000000 0.1946347952 2.4110000134 56.770973206 83.152610779 143.51768494 2.7170000076 -35.82600021 3.6608269215 3.4660000801
 4301.1333008 2.0000000000 8.3400001526 8.3750000000 0.1787373126 2.4630000591 64.692443848 83.119941711 144.76649475 2.7000000477 463.82998657 3.6292307377 3.4449999332
 4301.2856445 2.0000000000 8.3450002670 8.3750000000 0.2371748090 2.4579999447 66.207244873 83.151481628 145.20220947 2.7009999752 938.71002197 3.6110000610 3.5450000763
 4301.4379883 2.0000000000 8.3879995346 8.3750000000 0.1908557713 2.4100000858 59.275390625 83.240539551 145.40104675 2.6919999123 1136.3709717 3.6150734425 3.6500000954
 4301.5908203 2.0000000000 8.4670000076 8.3750000000 0.1988782138 2.3910000324 52.799922943 83.190765381 146.28659058 2.6689999104 506.52499390 3.6380960941 3.6670000553
 4301.7431641 2.0000000000 8.5790004730 8.3750000000 0.2066055238 2.4110000134 52.148250580 83.013847351 147.34606934 2.6540000439 -740.3880005 3.6812982559 3.6270000935
 4301.8955078 2.0000000000 8.5609998703 8.3750000000 0.2054005116 2.3989999294 55.223613739 82.888038635 148.13175964 2.6640000343 -1579.083984 3.7215673923 3.6050000191
 4302.0478516 2.0000000000 8.4779996872 8.3750000000 0.1939306408 2.3870000839 59.293190002 82.957939148 148.43859863 2.6970000267 -1514.630005 3.7316730022 3.6119999886
 4302.2001953 2.0000000000 8.3970003128 8.3750000000 0.1983137131 2.4119999409 59.820262909 83.240516663 148.40046692 2.7309999466 -1038.395996 3.7103075981 3.6480000019
