# LAS format log file from PETREL
# Project units are specified as depth units
#==================================================================
~Version information
VERS.   2.0:
WRAP.   NO:
#==================================================================
~Well
STRT .m      586.57812500 :
STOP .m      4014.2067871 :
STEP .m     0.00000000 :
NULL .        -999.250000 :
COMP.           : COMPANY
WELL.  34/10-21   : WELL
FLD.            : FIELD
LOC.            : LOCATION
SRVC.           : SERVICE COMPANY
DATE.  2018-09-11 14:48:44   : Log Export Date {yyyy-MM-dd HH:mm:ss}
PROV.           : PROVINCE
UWI.   34/10-21   : UNIQUE WELL ID
API.            : API NUMBER
#==================================================================
~Curve
DEPT .m                   : DEPTH
Lithology_geolink ._      : Lithology_geolink
CALI .in                  : CALI
DRHO .g/cm3               : DRHO
NPHI .m3/m3               : NPHI
RHOB .g/cm3               : RHOB
PEF .b/e                  : PEF
GR .gAPI                  : GR
DTC .us/ft                : DTC
RDEP .ohm.m               : RDEP
SP .mV                    : SP
RSHA .ohm.m               : RSHA
RMED .ohm.m               : RMED
~Parameter
#==================================================================
~Ascii
# ...
 1500.9782715  -999.250000 23.937999725 -0.010988782  -999.250000 1.5899711847 7.1250000000 24.250999451 143.87936401 0.6299759746 17.200000763 0.5998165011 0.6149911880
 1501.1306152  -999.250000 24.781000137 -0.002021617  -999.250000 1.6907573938 4.8000001907 26.101999283 135.51339722 0.5999936461 17.200000763 0.8785532713 0.6299759746
 1501.2830811  -999.250000 24.944999695 0.0089823715  -999.250000 1.8367660046 4.4239997864 27.266000748 132.37750244 0.5920048356 17.325000763 0.9669294953 0.6319984198
 1501.4354248  -999.250000 24.952999115 0.0329423547  -999.250000 1.9227933884 4.9120001793 26.913999557 135.31065369 0.5980128050 17.575000763 0.8920601010 0.6190104485
 1501.5878906  -999.250000 24.952999115 0.0359951891  -999.250000 1.9150128365 5.7870001793 25.766000748 137.12455750 0.6140256524 17.700000763 0.8040704727 0.6140040159
 1501.7402344  -999.250000 24.952999115 0.0509639718  -999.250000 1.9219832420 5.1989998817 23.483999252 136.00090027 0.6300016046 17.200000763 0.8529607058 0.6219935417
 1501.8927002  -999.250000 24.952999115 0.0529967956  -999.250000 1.9489567280 3.6099998951 20.899000168 135.68824768 0.6319904327 16.575000763 0.9379319549 0.6200016141
 1502.0450439  -999.250000 24.952999115 0.0549967960  -999.250000 1.9929294586 3.0039999485 19.898000717 135.31330872 0.6259959936 16.700000763 1.0369206667 0.6200000048
 1502.1975098  -999.250000 24.952999115 0.0569967963  -999.250000 2.0299406052 2.7309999466 21.124000549 135.87355042 0.6209936142 16.575000763 1.0799655914 0.6160032153
 1502.3498535  -999.250000 24.843999863 0.0560016036  -999.250000 2.0290017128 3.0320000648 22.680000305 137.18695068 0.6169975996 16.200000763 1.0450279713 0.6110039949
 1502.5021973  -999.250000 24.663997650 0.0550024025  -999.250000 2.0270047188 3.3350000381 22.288999557 138.55979919 0.6139976382 16.450000763 1.0000720024 0.6060079932
 1502.6546631  -999.250000 24.641000748 0.0480112173  -999.250000 2.0100271702 3.8710000515 22.125000000 139.43730164 0.6109960079 16.700000763 0.9860112071 0.6010040045
 1502.8070068  -999.250000 24.250000000 0.0410168134  -999.250000 1.9910457134 4.9850001335 23.437000275 140.24769592 0.6059967875 16.575000763 0.9430688620 0.5960080028
 1502.9594727  -999.250000 23.968997955 0.0350096151  -999.250000 1.9500657320 6.5789999962 24.867000580 140.31295776 0.6019951701 16.200000763 0.7761338353 0.5930023789
 1503.1118164  -999.250000 24.125001907 0.0290144105  -999.250000 1.9011176825 8.2209997177 24.851999283 140.00050354 0.5959967971 16.450000763 0.6681728959 0.5929999948
 1503.2642822  -999.250000 24.242000580 0.0170192309  -999.250000 1.8620624542 8.3310003281 23.283000946 140.12489319 0.5919992328 16.825000763 0.7199583650 0.5860056281
 1503.4166260  -999.250000 24.351999283 0.0140072061  -999.250000 1.8500288725 8.1210002899 21.750000000 140.06204224 0.5910024047 16.575000763 0.7249960303 0.5780064464
 1503.5690918  -999.250000 24.319999695 0.0159967951  -999.250000 1.8480032682 8.5869998932 20.493999481 140.18789673 0.5940079689 15.451999664 0.6810352206 0.5710055828
 1503.7214355  -999.250000 24.319999695 0.0349543653  -999.250000 1.8619663715 8.6379995346 21.281000137 139.62545776 0.5990015864 15.449999809 0.6969872117 0.5650048256
 1503.8739014  -999.250000 24.266000748 0.0469807684  -999.250000 1.8739807606 8.1660003662 22.702999115 138.06425476 0.6010016203 17.075000763 0.7249776125 0.5669983625
 1504.0262451  -999.250000 24.062000275 0.0529855862  -999.250000 1.8949495554 7.2069997787 23.024000168 136.25044250 0.6020016074 17.075000763 0.7569743991 0.5779911876
 1504.1787109  -999.250000 23.562999725 0.0450128205  -999.250000 1.9169647694 5.7280001640 22.413999557 135.12590027 0.6040063500 16.200000763 0.8219479918 0.5869928002
 1504.3310547  -999.250000 23.007997513 0.0440016016  -999.250000 1.9509454966 5.1620001793 21.461000443 135.81245422 0.6080031991 15.949999809 0.9009367228 0.5999895930
 1504.4833984  -999.250000 22.656000137 0.0489879884  -999.250000 1.9799304008 5.7239999771 21.593999863 137.74690247 0.6120048165 15.824999809 0.9219663739 0.6109823585
 1504.6358643  -999.250000 22.500000000 0.0609807707  -999.250000 1.9929791689 7.3680000305 21.547000885 139.56155396 0.6180047989 16.075000763 0.8540544510 0.6090016365
 1504.7882080  -999.250000 22.608999252 0.0699783862  -999.250000 1.9880120754 8.3540000916 21.233999252 139.87449646 0.6240016222 16.450000763 0.8020832539 0.6060048342
 1504.9406738  -999.250000 22.843997955 0.0719967932  -999.250000 1.9770176411 8.2290000916 21.156999588 138.62500000 0.6259983778 16.450000763 0.8049976230 0.5990055799
 1505.0930176  -999.250000 23.312999725 0.0729975998  -999.250000 1.9740071297 6.9580001831 21.391000748 137.00259399 0.6239976287 16.200000763 0.8129872084 0.5950064063
 1505.2454834  -999.250000 23.811998367 0.0749967992  -999.250000 1.9789919853 6.3020000458 21.898000717 135.68905640 0.6209983826 15.949999809 0.8769487143 0.5959992409
 1505.3978271  -999.250000 24.327999115 0.0769951940  -999.250000 1.9919687510 5.4330000877 22.180000305 135.93780518 0.6189984083 16.075000763 0.9179671407 0.5930023789
 1505.5502930  -999.250000 24.765998840 0.0670160279  -999.250000 1.9919999838 5.4730000496 22.117000580 137.31089783 0.6169983745 16.075000763 0.8860256076 0.5949984193
 1505.7026367  -999.250000 24.891000748 0.0640072078  -999.250000 1.9929976463 5.7859997749 22.250000000 138.87374878 0.6159999967 16.075000763 0.8610200286 0.5969983935
 1505.8551025  -999.250000 24.906000137 0.0610048100  -999.250000 1.9850128889 6.8619999886 22.889999390 139.43754578 0.6159999967 16.575000763 0.8110400438 0.5880072117
 1506.0074463  -999.250000 24.922002792 0.0749663785  -999.250000 1.9820071459 7.9539999962 24.031000137 139.12524414 0.6159967780 16.575000763 0.7390577197 0.5810055733
 1506.1599121  -999.250000 24.952999115 0.0740016028  -999.250000 1.9570400715 8.9540004730 25.288000107 138.25170898 0.6119887829 16.325000763 0.7340040207 0.5790016055
 1506.3122559  -999.250000 24.944999695 0.0690080076  -999.250000 1.9330384731 9.8940000534 25.547000885 138.62469482 0.6049968004 16.075000763 0.7290039659 0.5750032067
 1506.4645996  -999.250000 24.944999695 0.0570288226  -999.250000 1.8980840445 10.362000465 24.360000610 141.61819458 0.6010023952 15.574999809 0.6850704551 0.5720048547
 1506.6170654  -999.250000 24.952999115 0.0460176282  -999.250000 1.8390945196 10.755000114 22.757999420 143.99809265 0.6040055752 15.449999809 0.6080616713 0.5670039654
 1506.7694092  -999.250000 24.952999115 0.0270456374  -999.250000 1.7472209930 10.640000343 22.023000717 143.87519836 0.6110032201 15.324999809 0.4951809347 0.5570160151
 1506.9218750  -999.250000 24.952999115 0.0130224358  -999.250000 1.6751153469 10.156999588 21.422000885 141.25210571 0.6150023937 15.324999809 0.4550320506 0.5520039797
 1507.0742188  -999.250000 24.952999115 0.0110048037  -999.250000 1.6560456753 10.085000038 19.649000168 137.50700378 0.6180031896 15.324999809 0.5298798680 0.5629823804
 1507.2266846  -999.250000 24.952999115 0.0139951929  -999.250000 1.6729726791 9.5139999390 18.320999146 135.62651062 0.6220048070 15.449999809 0.5290007591 0.5729920268
 1507.3790283  -999.250000 24.952999115 0.0130024021  -999.250000 1.6919543743 9.4440002441 18.444999695 138.37080383 0.6280040145 15.699999809 0.5050192475 0.5779960155
 1507.5314941  -999.250000 24.952999115 0.0120016029  -999.250000 1.7209534645 8.1929998398 19.367000580 142.99328613 0.6330024004 15.824999809 0.5859351754 0.5859936476
 1507.6838379  -999.250000 24.952999115 0.0169879906  -999.250000 1.7758679390 7.7649998665 18.673000336 144.56175232 0.6359999776 16.075000763 0.7298846245 0.5860000253
 1507.8363037  -999.250000 24.952999115 0.0399631411  -999.250000 1.8359037638 8.2189998627 18.833999634 145.24844360 0.6359951496 16.200000763 0.6960272193 0.5810039639
 1507.9886475  -999.250000 24.952999115 0.0390024036  -999.250000 1.8010840416 9.2569999695 20.163999557 150.49578857 0.6329960227 16.325000763 0.5421233773 0.5770032406
 1508.1411133  -999.250000 24.952999115 0.0290160254  -999.250000 1.7381010056 10.553000450 20.500000000 152.93605042 0.6279888153 16.450000763 0.5400016308 0.5730032325
