# LAS format log file from PETREL
# Project units are specified as depth units
#==================================================================
~Version information
VERS.   2.0:
WRAP.   NO:
#==================================================================
~Well
STRT .m      586.57812500 :
STOP .m      4014.2067871 :
STEP .m     0.00000000 :
NULL .        -999.250000 :
COMP.           : COMPANY
WELL.  34/10-21   : WELL
FLD.            : FIELD
LOC.            : LOCATION
SRVC.           : SERVICE COMPANY
DATE.  2018-09-11 14:48:44   : Log Export Date {yyyy-MM-dd HH:mm:ss}
PROV.           : PROVINCE
UWI.   34/10-21   : UNIQUE WELL ID
API.            : API NUMBER
#==================================================================
~Curve
DEPT .m                   : DEPTH
Lithology_geolink ._      : Lithology_geolink
CALI .in                  : CALI
DRHO .g/cm3               : DRHO
NPHI .m3/m3               : NPHI
RHOB .g/cm3               : RHOB
PEF .b/e                  : PEF
GR .gAPI                  : GR
DTC .us/ft                : DTC
RDEP .ohm.m               : RDEP
SP .mV                    : SP
RSHA .ohm.m               : RSHA
RMED .ohm.m               : RMED
~Parameter
#==================================================================
~Ascii
# ...
 1727.7495117  -999.250000 18.101999283 0.0029887820  -999.250000 1.8379856348 5.0929999352 37.062000275 184.62449646 0.5220000148 21.325000763 0.6680055857 0.6369960308
 1727.9018555  -999.250000 16.593999863 0.0099887820  -999.250000 1.8380000591 5.8080000877 38.484001160 184.81285095 0.5139999986 21.450000763 0.6260336637 0.6250095963
 1728.0541992  -999.250000 15.090000153 0.0199759807  -999.250000 1.8300192356 5.9310002327 38.798000336 184.37570190 0.5090000033 21.450000763 0.5750816464 0.6130191684
 1728.2066650  -999.250000 15.082000732 0.0199999996  -999.250000 1.8050400019 5.6710000038 37.405998230 183.37580872 0.5030000210 21.325000763 0.5490208864 0.5880200267
 1728.3590088  -999.250000 15.062999725 0.0170072075  -999.250000 1.7890384197 5.3350000381 36.687999725 182.50140381 0.4939999878 21.200000763 0.5450063944 0.5780160427
 1728.5114746  -999.250000 14.930000305 0.0179983974  -999.250000 1.7880015373 5.2490000725 36.405998230 181.93844604 0.4860000014 20.950000763 0.5569903851 0.5819967985
 1728.6638184  -999.250000 15.015000343 0.0179999992  -999.250000 1.7989735603 4.9349999428 36.515998840 181.06440735 0.4790000021 20.950000763 0.5430223942 0.5879904032
 1728.8162842  -999.250000 15.602000237 0.0140064107  -999.250000 1.8069871664 4.2119998932 36.219001770 180.31359863 0.4720000029 20.950000763 0.5879639387 0.5919967890
 1728.9686279  -999.250000 15.992000580 0.0070168138  -999.250000 1.8070000410 3.9500000477 35.922000885 180.56179810 0.4659999907 21.075000763 0.6019887924 0.5790104270
 1729.1210938  -999.250000 16.281000137 0.0070000002  -999.250000 1.8089967966 3.8180000782 35.922000885 181.56021118 0.4560000002 20.701000214 0.5680272579 0.5570176244
 1729.2734375  -999.250000 16.750000000 0.0070000002  -999.250000 1.8030143976 3.9279999733 35.640998840 182.93589783 0.4480000138 20.325000763 0.5789911747 0.5480071902
 1729.4259033  -999.250000 16.968999863 0.0070000002  -999.250000 1.7950128317 3.9389998913 34.048999786 183.87324524 0.4440000057 20.450000763 0.5660104156 0.5549944043
 1729.5782471  -999.250000 16.781000137 0.0060024019  -999.250000 1.7930047512 3.8210000992 31.281999588 183.99989319 0.4399999976 20.450000763 0.5640016198 0.5569983721
 1729.7307129  -999.250000 16.586000443 0.0020064104  -999.250000 1.7880079746 4.1649999619 29.266000748 183.18865967 0.4370000064 20.700000763 0.5400192142 0.5480071902
 1729.8830566  -999.250000 16.726999283 0.0059935898  -999.250000 1.7860032320 4.4219999313 29.172000885 182.00094604 0.4350000024 20.950000763 0.5100240111 0.5350104570
 1730.0354004  -999.250000 16.913999557 0.0040048040  -999.250000 1.7660480738 4.6329998970 29.062999725 181.06449890 0.4339999855 20.825000763 0.5030112267 0.5290095806
 1730.1878662  -999.250000 17.047000885 0.0069951927  -999.250000 1.7550176382 4.5390000343 28.319999695 180.93811035 0.4350000024 20.825000763 0.5459655523 0.5339959860
 1730.3402100  -999.250000 17.148000717 0.0020120097  -999.250000 1.7440264225 4.3949999809 28.336000443 181.62390137 0.4370000064 21.075000763 0.5519903898 0.5349984169
 1730.4926758  -999.250000 17.132999420 0.0000032051  -999.250000 1.7370111942 4.7290000916 30.361000061 182.93695068 0.4390000105 20.950000763 0.4920480847 0.5320023894
 1730.6450195  -999.250000 17.101999283 0.0059855883  -999.250000 1.7419879436 4.6420001984 32.484001160 184.12309265 0.4410000145 20.575000763 0.4640448093 0.5369920135
 1730.7974854  -999.250000 17.202999115 0.0060000001  -999.250000 1.7370079756 4.9460000992 32.765998840 184.24989319 0.4420000017 20.575000763 0.5239518881 0.5499895811
 1730.9498291  -999.250000 17.211000443 0.0050024018  -999.250000 1.7379976511 5.2800002098 31.742000580 182.87609863 0.4410000145 20.825000763 0.5080128312 0.5629895926
 1731.1022949  -999.250000 17.047000885 0.0030032052  -999.250000 1.7330080271 6.3520002365 31.288999557 181.18936157 0.4390000105 20.950000763 0.4310616553 0.5620007515
 1731.2546387  -999.250000 16.766000748 0.0079879910  -999.250000 1.7449711561 6.6250000000 31.898000717 180.31370544 0.4379999936 21.200000763 0.4609759450 0.5560048223
 1731.4071045  -999.250000 16.406000137 0.0089983968  -999.250000 1.7619726658 6.1519999504 32.959999084 180.06217957 0.4359999895 21.450000763 0.4949727952 0.5430104136
 1731.5594482  -999.250000 16.141000748 0.0050096074  -999.250000 1.7749687433 5.9749999046 33.922000885 180.06300354 0.4329999983 21.325000763 0.4790128171 0.5280120373
 1731.7119141  -999.250000 16.117000580 0.0059983977  -999.250000 1.7759984732 6.2090001106 33.844001770 179.75024414 0.4289999902 21.325000763 0.4550192356 0.5270007849
 1731.8642578  -999.250000 16.266000748 0.0139871798  -999.250000 1.7740032673 6.5370001793 32.969001770 180.37449646 0.4250000119 21.700000763 0.4220264256 0.5329951644
 1732.0167236  -999.250000 16.273000717 0.0279775821  -999.250000 1.7740000486 5.9949998856 32.265998840 180.25010681 0.4219999909 21.950000763 0.3800336123 0.5369967818
 1732.1690674  -999.250000 16.172000885 0.0389823727  -999.250000 1.7869790792 5.3639998436 30.919000626 175.68566895 0.4189999998 21.700000763 0.3949880004 0.5310048461
 1732.3214111  -999.250000 16.023000717 0.0300216172  -999.250000 1.7889952660 5.0529999733 28.593000412 173.44258118 0.4189999998 21.075000763 0.4039855897 0.5260080099
 1732.4738770  -999.250000 15.934000969 0.0210144222  -999.250000 1.7899984121 5.2210001945 26.802999496 173.99855042 0.4230000079 20.700000763 0.3710264266 0.5250007510
 1732.6262207  -999.250000 15.918000221 0.0130192153  -999.250000 1.7800239325 5.3319997787 26.562999725 171.93930054 0.4329999983 20.575000763 0.3550256193 0.5309904218
 1732.7786865  -999.250000 15.550999641 0.0130000003  -999.250000 1.7760064602 4.7560000420 27.483999252 162.19583130 0.4490000010 20.575000763 0.4019623399 0.5429903865
 1732.9310303  -999.250000 15.336000443 0.0130000003  -999.250000 1.7809879780 4.6040000916 27.711000443 149.14192200 0.4720000029 20.575000763 0.4668959379 0.5479919910
 1733.0834961  -999.250000 15.550999641 0.0080080135  -999.250000 1.7929807901 4.7509999275 28.827999115 141.94375610 0.4909999967 20.450000763 0.5209567547 0.5569927692
 1733.2358398  -999.250000 15.819999695 0.0070024021  -999.250000 1.8249231577 5.9970002174 29.242000580 138.37684631 0.4959999919 20.575000763 0.5329903960 0.6039623022
 1733.3883057  -999.250000 16.069999695 0.0109935896  -999.250000 1.8888975382 6.5260000229 27.211000443 149.11639404 0.4930000007 20.575000763 0.5359976292 0.6859343648
 1733.5406494  -999.250000 16.202999115 0.0070096077  -999.250000 1.9259110689 7.1640000343 25.554000854 162.49029541 0.4909999967 20.575000763 0.5999487638 0.6979904175
 1733.6931152  -999.250000 16.003999710 0.0020080130  -999.250000 1.8880609274 7.2659997940 27.375000000 167.30915833 0.4930000007 20.825000763 0.5280576348 0.6280560493
 1733.8454590  -999.250000 15.589999199 -0.001990392  -999.250000 1.7672905922 7.5149998665 30.805999756 170.56039429 0.4939999878 20.950000763 0.3821169734 0.5700464845
 1733.9979248  -999.250000 15.491999626 0.0099807689  -999.250000 1.7090929747 7.0050001144 33.250000000 171.06260681 0.4819999933 21.075000763 0.3660128117 0.5460191965
 1734.1502686  -999.250000 15.621000290 0.0149919866  -999.250000 1.7139919996 6.2810001373 33.592998505 171.06199646 0.4560000002 21.075000763 0.4369431138 0.5350088477
 1734.3026123  -999.250000 15.503999710 0.0110096075  -999.250000 1.7718605995 5.5809998512 34.937999725 180.85928345 0.4309999943 21.200000763 0.5498190522 0.5130352378
 1734.4550781  -999.250000 15.491999626 0.0070064105  -999.250000 1.8149311543 4.8330001831 34.130001068 187.42974854 0.4160000086 21.450000763 0.6089527607 0.5080040097
 1734.6074219  -999.250000 15.913998604 0.0040072058  -999.250000 1.8229807615 4.3639998436 31.867000580 182.44599915 0.4120000005 21.575000763 0.6349583864 0.5169855952
 1734.7598877  -999.250000 16.257999420 0.0040000002  -999.250000 1.8140144348 4.2439999580 31.055999756 180.62644958 0.4180000126 21.575000763 0.6759671569 0.5150015950
 1734.9122314  -999.250000 16.413999557 0.0010072058  -999.250000 1.8060191870 4.4149999619 30.577999115 180.25059509 0.4300000072 21.325000763 0.6330688596 0.5159983635
