# LAS format log file from PETREL
# Project units are specified as depth units
#==================================================================
~Version information
VERS.   2.0:
WRAP.   NO:
#==================================================================
~Well
STRT .m      492.56594849 :
STOP .m      2784.8139648 :
STEP .m     0.00000000 :
NULL .        -999.250000 :
COMP.           : COMPANY
WELL.  34/10-5   : WELL
FLD.            : FIELD
LOC.            : LOCATION
SRVC.           : SERVICE COMPANY
DATE.  2018-09-11 14:48:46   : Log Export Date {yyyy-MM-dd HH:mm:ss}
PROV.           : PROVINCE
UWI.   34/10-5   : UNIQUE WELL ID
API.            : API NUMBER
#==================================================================
~Curve
DEPT .m                   : DEPTH
Lithology_geolink ._      : Lithology_geolink
CALI .in                  : CALI
DRHO .g/cm3               : DRHO
NPHI .m3/m3               : NPHI
RHOB .g/cm3               : RHOB
GR .gAPI                  : GR
DTC .us/ft                : DTC
RDEP .ohm.m               : RDEP
SP .mV                    : SP
RSHA .ohm.m               : RSHA
RMED .ohm.m               : RMED
~Parameter
#==================================================================
~Ascii
# ...
 2622.2031250 3.0000000000 6.1479997635 -0.009000000 0.2822299898 2.2070000172 34.643630981 98.372398376 0.6270720959 58.603202820  -999.250000 0.9322115183
 2622.3557129 3.0000000000 6.1130003929 -0.009000000 0.2631800175 2.2009999752 32.911506653 99.373405457 0.6190256476 58.228202820  -999.250000 0.8821603060
 2622.5080566 3.0000000000 6.0510001183 -0.004000000 0.2666000128 2.1949999332 35.460788727 99.562705994 0.6229872108 57.821304321  -999.250000 0.8740256429
 2622.6604004 3.0000000000 6.0510001183 0.0130000003 0.2558600008 2.2090001106 36.619449615 100.56140137 0.6309615970 57.478649139  -999.250000 0.9357023835
 2622.8127441 3.0000000000 6.0390000343 0.0270000007 0.2675800025 2.2109999657 35.070510864 100.18919373 0.6528941989 57.445152283  -999.250000 0.9549086094
 2622.9653320 3.0000000000 5.9840002060 0.0299999993 0.2758799791 2.2070000172 35.716899872 100.56240082 0.6819070578 57.383197784  -999.250000 0.9619776011
 2623.1176758 3.0000000000 5.9609999657 0.0439999998 0.2880899906 2.2130000591 37.898986816 99.002502441 0.7019359469 56.884601593  -999.250000 1.0277884007
 2623.2700195 3.0000000000 5.9569997787 0.0430000015 0.3027299941 2.2170000076 40.491687775 100.74719238 0.7189455032 57.630596161  -999.250000 1.1376473904
 2623.4223633 3.0000000000 5.8670001030 0.0270000007 0.3002899885 2.2090001106 36.145999908 99.377212524 0.7339280248 58.783451080  -999.250000 1.3161408901
 2623.5747070 3.0000000000 5.8550000191 0.0049999999 0.2773399949 2.1949999332 36.498195648 99.562400818 0.7479327321 59.535396576  -999.250000 1.1697115898
 2623.7272949 3.0000000000 5.8790001869 0.0160000008 0.2446299940 2.2269999981 36.998397827 98.376907349 0.7629519105 59.508098602  -999.250000 1.0593526363
 2623.8796387 3.0000000000 5.9489998817 0.0230000000 0.2334000021 2.2420001030 40.302379608 97.564308167 0.7639967799 58.635803223  -999.250000 1.0211218596
 2624.0319824 3.0000000000 5.9609999657 0.0489999987 0.2426799983 2.2909998894 40.561798096 95.191802979 0.7490720153 58.539451599  -999.250000 1.0906639099
 2624.1843262 3.0000000000 5.9689998627 0.0359999985 0.2587899864 2.2769999504 39.535961151 93.754600525 0.7281009555 58.290203094  -999.250000 1.1755913496
 2624.3369141 3.0000000000 5.9140000343 0.0340000018 0.2641600072 2.2769999504 38.441501617 93.750000000 0.7100576758 58.102600098  -999.250000 1.1411122084
 2624.4892578 3.0000000000 5.8790001869 0.0070000002 0.2587899864 2.2269999981 36.724510193 94.187301636 0.6950480938 57.603603363  -999.250000 1.0652436018
 2624.6416016 3.0000000000 5.8590006828 0.0089999996 0.2509799898 2.2290000916 36.749851227 95.373100281 0.6810671687 57.353202820  -999.250000 1.0172303915
 2624.7939453 3.0000000000 5.8550000191 0.0080000004 0.2475600094 2.2269999981 33.546474457 95.375000000 0.6680625081 57.352001190  -999.250000 1.0209808350
 2624.9465332 3.0000000000 5.8320002556 0.0099999998 0.2495100051 2.2400000095 29.700317383 95.749397278 0.6520512700 57.725799561  -999.250000 0.9791345596
 2625.0988770 3.0000000000 5.8320002556 -0.002000000 0.2495100051 2.2130000591 28.628406525 95.750000000 0.6420320868 57.727001190  -999.250000 0.9490961432
 2625.2512207 3.0000000000 5.8320002556 -0.001000000 0.2465800047 2.2130000591 29.762344360 96.187301636 0.6320320964 57.228603363  -999.250000 0.9709295034
 2625.4035645 3.0000000000 5.7969999313 -0.006000000 0.2412099987 2.1989998817 29.346025467 94.752304077 0.6310048103 57.227001190  -999.250000 0.9501007795
 2625.5559082 3.0000000000 5.7969999313 -0.002000000 0.2343799919 2.2170000076 30.976114273 93.379402161 0.6319952011 57.351398468  -999.250000 0.9360672832
 2625.7084961 3.0000000000 5.7890000343 -0.003000000 0.2246100008 2.2249999046 30.859399796 92.750999451 0.6329967976 57.227401733  -999.250000 0.9080897570
 2625.8608398 3.0000000000 5.7729997635 0.0109999999 0.2216799855 2.2460000515 33.896232605 92.750000000 0.6389807463 56.728603363  -999.250000 0.9947211742
 2626.0131836 3.0000000000 5.7969999313 0.0179999992 0.2241200060 2.2479999065 30.624824524 93.374000549 0.6479567885 56.975799561  -999.250000 1.0756112337
 2626.1655273 3.0000000000 5.7969999313 0.0289999992 0.2275400013 2.2479999065 29.536182404 94.185401917 0.6669086218 56.852603912  -999.250000 1.0789855719
 2626.3181152 3.0000000000 5.7890000343 0.0280000009 0.2299799919 2.2400000095 27.974006653 95.186393738 0.6998941898 56.852001190  -999.250000 1.0451089144
 2626.4704590 3.0000000000 5.7379999161 0.0120000001 0.2192399949 2.2230000496 29.137245178 94.376312256 0.7488429546 56.976600647  -999.250000 1.0310448408
 2626.6228027 3.0000000000 5.7379999161 0.0060000001 0.2075200081 2.2420001030 28.160728455 93.375000000 0.8196591735 57.007850647  -999.250000 1.0429424047
 2626.7751465 3.0000000000 5.7420001030 0.0120000001 0.1894499958 2.2790000439 30.395183563 90.563003540 0.9165336490 57.381195068  -999.250000 1.1305769682
 2626.9277344 3.0000000000 5.7459998131 0.0140000004 0.1811500043 2.3029999733 32.431488037 87.188003540 1.0356185436 57.601299286  -999.250000 1.4101026058
 2627.0800781 3.0000000000 5.7459998131 0.0060000001 0.1826199889 2.2969999313 34.524288177 86.375000000 1.1785416603 57.757499695  -999.250000 1.6831250191
 2627.2324219 3.0000000000 5.7459998131 0.0080000004 0.1845700145 2.3129999638 38.113479614 84.563003540 1.3494518995 57.633399963  -999.250000 1.7757050991
 2627.3847656 3.0000000000 5.7459998131 -0.001000000 0.1791999936 2.3139998913 38.653450012 82.750000000 1.5191839933 57.663852692  -999.250000 2.1860222816
 2627.5371094 3.0000000000 5.7459998131 0.0030000000 0.1621100008 2.3399999142 43.570262909 83.188003540 1.6722644567 57.757549286  -999.250000 2.6129472256
 2627.6896973 3.0000000000 5.7459998131 0.0049999999 0.1581999958 2.3420000076 40.042419434 81.188003540 1.8015866280 56.761203766  -999.250000 2.8193428516
 2627.8420410 3.0000000000 5.7459998131 0.0219999999 0.1640599966 2.3629999161 40.716796875 82.000000000 1.9146378040 57.879394531  -999.250000 2.6684870720
 2627.9943848 4.0000000000 5.7459998131 0.0399999991 0.1816399992 2.3689999580 45.601451874 81.749992371 1.9846639633 58.131797791  -999.250000 2.4560222626
 2628.1467285 4.0000000000 5.7379999161 0.0340000018 0.2250999957 2.3670001030 55.856571198 83.188003540 1.9362355471 58.288249969  -999.250000 2.6590144634
 2628.2993164 4.0000000000 5.7150001526 0.0520000011 0.2836900055 2.3810000420 67.587440491 85.187995911 1.8133941889 58.881095886  -999.250000 3.0746667385
 2628.4516602 4.0000000000 5.7150001526 0.0359999985 0.3037100136 2.3519999981 66.441810608 86.375000000 1.6754422188 58.509201050  -999.250000 3.9362337589
 2628.6040039 3.0000000000 5.7109994888 0.0250000004 0.2690399885 2.3129999638 57.076152802 87.375000000 1.5496047735 58.507999420  -999.250000 3.4473712444
 2628.7563477 3.0000000000 5.7109994888 0.0149999997 0.2060499936 2.2929999828 43.098304749 87.188003540 1.4504760504 57.886005402  -999.250000 2.4249279499
 2628.9089355 3.0000000000 5.7379999161 0.0060000001 0.1787099987 2.2969999313 42.875499725 84.750000000 1.3662692308 58.007598877  -999.250000 1.6933364868
 2629.0612793 3.0000000000 5.7379999161 0.0149999997 0.1674799919 2.3220000267 46.270080566 82.750000000 1.2683141232 58.132598877  -999.250000 1.5673974752
 2629.2136230 3.0000000000 5.7379999161 0.0070000002 0.1606399864 2.3420000076 53.913459778 82.188003540 1.1593494415 58.008399963  -999.250000 1.7065513134
 2629.3659668 3.0000000000 5.7459998131 0.0160000008 0.1630900055 2.3499999046 56.456851959 81.375000000 1.0833647251 57.759201050  -999.250000 1.9388816357
 2629.5183105 3.0000000000 5.7420001030 0.0160000008 0.1870100051 2.3239998817 57.339794159 84.750000000 1.0571250916 57.384803772  -999.250000 2.1241104603
 2629.6708984 3.0000000000 5.7420001030 0.0419999994 0.2002000064 2.3139998913 55.038410187 86.563011169 1.0739455223 56.915504456  -999.250000 1.9156730175
 2629.8232422 3.0000000000 5.7379999161 0.0419999994 0.2060499936 2.2929999828 49.299427032 87.999992371 1.1248365641 56.883098602  -999.250000 1.6787595749
