# LAS format log file from PETREL
# Project units are specified as depth units
#==================================================================
~Version information
VERS.   2.0:
WRAP.   NO:
#==================================================================
~Well
STRT .m      211.00001526 :
STOP .m      2222.9851074 :
STEP .m     0.00000000 :
NULL .        -999.250000 :
COMP.           : COMPANY
WELL.  34/10-19   : WELL
FLD.            : FIELD
LOC.            : LOCATION
SRVC.           : SERVICE COMPANY
DATE.  2018-09-11 14:48:44   : Log Export Date {yyyy-MM-dd HH:mm:ss}
PROV.           : PROVINCE
UWI.   34/10-19   : UNIQUE WELL ID
API.            : API NUMBER
#==================================================================
~Curve
DEPT .m                   : DEPTH
Lithology_geolink ._      : Lithology_geolink
CALI .in                  : CALI
DRHO .g/cm3               : DRHO
NPHI .m3/m3               : NPHI
RHOB .g/cm3               : RHOB
GR .gAPI                  : GR
DTC .us/ft                : DTC
RDEP .ohm.m               : RDEP
SP .mV                    : SP
RSHA .ohm.m               : RSHA
RMED .ohm.m               : RMED
~Parameter
#==================================================================
~Ascii
# ...
 1151.4605713  -999.250000 16.528999329 -0.043995995 0.4291894436 2.2150046825 15.801279068 144.24920654 0.8540007472 43.568740845 0.8580063581 0.8580063581
 1151.6130371  -999.250000 16.500999451 -0.039008006 0.4160715938 2.2209775448 16.749149323 143.25039673 0.8549960256 42.648307800 0.8660016060 0.8660016060
 1151.7653809  -999.250000 16.500999451 -0.043998398 0.4482615292 2.2069888115 17.417282104 143.75000000 0.8500032425 47.718891144 0.8680031896 0.8680031896
 1151.9177246  -999.250000 16.533000946 -0.041997597 0.4750995934 2.1929929256 17.119935989 143.75000000 0.8539999723 45.596961975 0.8719999790 0.8719999790
 1152.0701904  -999.250000 16.618999481 -0.038994391 0.4745857120 2.1840000153 17.096067429 144.74940491 0.8589976430 44.751171112 0.8719951510 0.8719951510
 1152.2225342  -999.250000 16.691999435 -0.032000002 0.4443282485 2.1839935780 18.370252609 144.00000000 0.8560000062 44.821826935 0.8659999967 0.8659999967
 1152.3750000  -999.250000 16.702999115 -0.032001603 0.4296966493 2.1760017872 18.890481949 143.75059509 0.8610007763 44.745265961 0.8580023646 0.8580023646
 1152.5273438  -999.250000 16.691999435 -0.034002405 0.4380056560 2.1779983044 18.672302246 144.50000000 0.8619999886 42.786701202 0.8610000014 0.8610000014
 1152.6798096  -999.250000 16.631000519 -0.036997598 0.4575219452 2.1760106087 17.550733566 143.25039673 0.8610007763 45.572181702 0.8689864278 0.8689864278
 1152.8321533  -999.250000 16.572000504 -0.034004811 0.4599920809 2.1890029907 17.025259018 143.75000000 0.8619999886 46.469757080 0.8519999981 0.8519999981
 1152.9846191  -999.250000 16.506999969 -0.040003203 0.4999405742 2.1930160522 17.128883362 143.50059509 0.8630031943 43.046539307 0.8629992008 0.8629992008
 1153.1369629  -999.250000 16.496999741 -0.042004004 0.4628955126 2.2030081749 15.421570778 144.25000000 0.8669999838 43.268180847 0.8619999886 0.8619999886
 1153.2894287  -999.250000 16.455999374 -0.046991993 0.4696854055 2.2130224705 15.658613205 143.74919128 0.8709959984 42.926372528 0.8720039725 0.8720039725
 1153.4416504  -999.250000 16.444000244 -0.041999999 0.4418900013 2.2269999981 15.500394821 142.75000000 0.8659999967 42.664710999 0.8769999743 0.8769999743
 1153.5941162  -999.250000 16.500000000 -0.035999998 0.4457988441 2.2229871750 16.995578766 145.25000000 0.8690000176 41.865562439 0.8769999743 0.8769999743
 1153.7464600  -999.250000 16.577999115 -0.035999998 0.4443399906 2.2070000172 18.482736588 143.00000000 0.8640000224 43.346530914 0.8709999919 0.8709999919
 1153.8989258  -999.250000 16.672000885 -0.035003204 0.4502230585 2.1929984093 18.941329956 144.25000000 0.8600000143 44.302856445 0.8709999919 0.8709999919
 1154.0512695  -999.250000 16.794000626 -0.039000001 0.4790000021 2.1909999847 18.662212372 143.75000000 0.8650000095 45.904888153 0.8610000014 0.8610000014
 1154.2037354  -999.250000 16.760999680 -0.036998399 0.5097715855 2.2050127983 18.172155380 142.50000000 0.8659999967 46.457675934 0.8719999790 0.8719999790
 1154.3560791  -999.250000 16.739999771 -0.035000000 0.5117200017 2.2209999561 18.236536026 145.00000000 0.8569999933 46.325099945 0.8759999871 0.8759999871
 1154.5085449  -999.250000 16.673000336 -0.037001602 0.4960771203 2.2170000076 18.457283020 144.00000000 0.8600000143 47.188770294 0.8709999919 0.8709999919
 1154.6608887  -999.250000 16.611999512 -0.039000001 0.4799800217 2.2170000076 17.743144989 145.25000000 0.8650000095 43.772132874 0.8539999723 0.8539999723
 1154.8133545  -999.250000 16.562000275 -0.041996796 0.4589725733 2.2150135040 16.970026016 144.25000000 0.8560000062 42.996353149 0.8529999852 0.8529999852
 1154.9656982  -999.250000 16.534000397 -0.038002402 0.4496932030 2.2320048809 16.152460098 144.75000000 0.8640000224 42.727081299 0.8590000272 0.8590000272
 1155.1181641  -999.250000 16.579000473 -0.041002404 0.4287029505 2.2380063534 16.760114670 144.00000000 0.8610000014 42.761505127 0.8809999824 0.8809999824
 1155.2705078  -999.250000 16.660999298 -0.044006404 0.4199430645 2.2459864616 17.220975876 144.00000000 0.8529999852 42.971530914 0.8820000291 0.8820000291
 1155.4228516  -999.250000 16.771999359 -0.052000001 0.4487300217 2.2290000916 16.792787552 144.00000000 0.8550000191 43.197772980 0.8709999919 0.8709999919
 1155.5753174  -999.250000 16.837999344 -0.044998400 0.4756107032 2.2189953327 15.459331512 143.50000000 0.8590000272 46.014888763 0.8690000176 0.8690000176
 1155.7276611  -999.250000 16.832000732 -0.043000001 0.5014600158 2.2130000591 15.600728035 144.75000000 0.8529999852 48.048618317 0.8769999743 0.8769999743
 1155.8801270  -999.250000 16.826999664 -0.035002403 0.5014572740 2.2209968567 17.153524399 144.50000000 0.8510000110 49.542747498 0.8719999790 0.8719999790
 1156.0324707  -999.250000 16.775999069 -0.037999999 0.4980500042 2.2170000076 19.031057358 143.25000000 0.8529999852 45.699558258 0.8690000176 0.8690000176
 1156.1849365  -999.250000 16.715999603 -0.034001604 0.4951051474 2.2089936733 19.056135178 144.00000000 0.8489999771 43.853607178 0.8560000062 0.8560000062
 1156.3372803  -999.250000 16.679000854 -0.035999998 0.4765599966 2.2009999752 19.525552750 143.25000000 0.8479999900 43.276371002 0.8560000062 0.8560000062
 1156.4897461  -999.250000 16.628999710 -0.036004003 0.4697354436 2.2110016346 18.922672272 143.50000000 0.8529999852 43.428161621 0.8569999933 0.8569999933
 1156.6420898  -999.250000 16.631000519 -0.041000001 0.4765599966 2.2130000591 18.367404938 144.50000000 0.8510000110 42.664009094 0.8610000014 0.8610000014
 1156.7945557  -999.250000 16.687000275 -0.038002402 0.5224631429 2.2229969501 16.457086563 145.00000000 0.8550000191 42.257999420 0.8629999757 0.8629999757
 1156.9468994  -999.250000 16.743999481 -0.041000001 0.5263699889 2.2190001011 15.663591385 144.75000000 0.8579999804 44.751216888 0.8740000129 0.8740000129
 1157.0993652  -999.250000 16.778999329 -0.043001603 0.5102285147 2.2089953423 15.907536507 144.25000000 0.8590000272 45.666561127 0.8690000176 0.8690000176
 1157.2517090  -999.250000 16.795999527 -0.044993598 0.4834050834 2.2030096054 15.298356056 144.75000000 0.8629999757 43.409687042 0.8769999743 0.8769999743
 1157.4041748  -999.250000 16.763000488 -0.036994390 0.4897597730 2.2150094509 14.614078522 144.00000000 0.8690000176 43.695743561 0.8679999709 0.8679999709
 1157.5565186  -999.250000 16.725000381 -0.029999198 0.5019266009 2.2270057201 14.018651009 145.00000000 0.8690000176 43.928020477 0.8719999790 0.8719999790
 1157.7088623  -999.250000 16.686000824 -0.028999999 0.4726599753 2.2339999676 15.122396469 144.75000000 0.8719999790 44.352321625 0.8730000257 0.8730000257
 1157.8613281  -999.250000 16.597999573 -0.034003206 0.4692110717 2.2290024757 16.536073685 144.50000000 0.8750000000 44.071323395 0.8780000210 0.8780000210
 1158.0136719  -999.250000 16.537000656 -0.037999999 0.4331099987 2.2320001125 17.812231064 144.00000000 0.8740000129 44.626911163 0.8830000162 0.8830000162
 1158.1661377  -999.250000 16.544000626 -0.037000000 0.4501757622 2.2379951477 18.323490143 144.00000000 0.8719999790 47.493949890 0.8880000114 0.8880000114
 1158.3184814  -999.250000 16.575000763 -0.037000000 0.4199199975 2.2320001125 18.526956558 144.50000000 0.8759999871 45.809528351 0.8880000114 0.8880000114
 1158.4709473  -999.250000 16.670999527 -0.035002403 0.4731368721 2.2289919853 18.504308701 143.50000000 0.8750000000 44.781436920 0.8849999905 0.8849999905
 1158.6232910  -999.250000 16.718999863 -0.037999999 0.4692400098 2.2190001011 16.556415558 143.00000000 0.8740000129 44.132858276 0.8909999728 0.8909999728
 1158.7757568  -999.250000 16.773000717 -0.035997596 0.4853332043 2.2250015736 16.312133789 142.50000000 0.8719999790 44.074100494 0.8909999728 0.8909999728
 1158.9281006  -999.250000 16.781000137 -0.033000000 0.4643599987 2.2269999981 15.538158417 141.00000000 0.8719999790 43.701164246 0.8960000277 0.8960000277
 1159.0805664  -999.250000 16.777999878 -0.030004006 0.4673068225 2.2209968567 15.604146957 142.00000000 0.8719999790 44.191600800 0.8880000114 0.8880000114
