# LAS format log file from PETREL
# Project units are specified as depth units
#==================================================================
~Version information
VERS.   2.0:
WRAP.   NO:
#==================================================================
~Well
STRT .m      3900.0166016 :
STOP .m      4564.4804688 :
STEP .m     0.00000000 :
NULL .        -999.250000 :
COMP.           : COMPANY
WELL.  34/11-1   : WELL
FLD.            : FIELD
LOC.            : LOCATION
SRVC.           : SERVICE COMPANY
DATE.  2018-09-11 14:48:47   : Log Export Date {yyyy-MM-dd HH:mm:ss}
PROV.           : PROVINCE
UWI.   34/11-1   : UNIQUE WELL ID
API.            : API NUMBER
#==================================================================
~Curve
DEPT .m                   : DEPTH
Lithology_geolink ._      : Lithology_geolink
CALI .in                  : CALI
BS .in                    : BS
NPHI .m3/m3               : NPHI
RHOB .g/cm3               : RHOB
GR .gAPI                  : GR
DTC .us/ft                : DTC
DTS .us/ft                : DTS
RDEP .ohm.m               : RDEP
SP .mV                    : SP
RSHA .ohm.m               : RSHA
RMED .ohm.m               : RMED
~Parameter
#==================================================================
~Ascii
# ...
 4075.5815430 3.0000000000 8.8990001678 8.3750000000 0.3235339522 2.3189918995 71.086059570 111.52145386 185.46484375 5.9788751602 639.38201904 8.6466941833 7.7891330719
 4075.7338867 3.0000000000 8.7370004654 8.3750000000 0.2678889930 2.3139886856 71.810989380 112.65683746 178.31640625 7.1487641335 1040.3179932 9.2312326431 8.4957866669
 4075.8862305 3.0000000000 8.0740003586 8.3750000000 0.2287703156 2.3071024418 74.831878662 111.76998138 172.99176025 8.2492227554 876.07702637 9.7026586533 8.9866151810
 4076.0388184 3.0000000000 8.0799999237 8.3750000000 0.2205811143 2.3712112904 76.905166626 108.72311401 169.26251221 9.0119915009 -165.5269928 10.340802193 9.3718366623
 4076.1911621 3.0000000000 8.1459999084 8.3750000000 0.2362792641 2.4370017052 78.171401978 104.17606354 166.28373718 9.3209676743 -1341.140991 11.169316292 9.9453210831
 4076.3435059 3.0000000000 8.2670001984 8.3750000000 0.2669308484 2.4380207062 80.115776062 99.460159302 163.27233887 9.3009243011 -1710.699951 11.899235725 10.769304276
 4076.4958496 3.0000000000 8.3879995346 8.3750000000 0.2436163425 2.4508941174 78.565086365 96.002578735 160.26698303 9.2540416718 -1356.901978 12.307555199 11.582871437
 4076.6484375 3.0000000000 8.2650003433 8.3750000000 0.2257884741 2.3847408295 72.449264526 94.094711304 157.48652649 9.2802047729 -856.9019775 12.296315193 12.126205444
 4076.8007813 3.0000000000 8.2589998245 8.3750000000 0.2157203704 2.3041296005 67.181755066 93.248901367 154.88458252 9.3441553116 -356.9119873 11.795701981 12.189092636
 4076.9531250 3.0000000000 8.1899995804 8.3750000000 0.1999722421 2.3850882053 67.587631226 93.052078247 152.69093323 9.4411506653 143.06300354 11.029929161 11.622749329
 4077.1054688 3.0000000000 8.0799999237 8.3750000000 0.1925101876 2.4399454594 72.545242310 93.110069275 151.09500122 9.5349168777 638.16900635 10.319935799 10.843111992
 4077.2578125 3.0000000000 8.1569995880 8.3750000000 0.2055934668 2.4059469700 77.131042480 93.085525513 149.85375977 9.4825048447 1038.5670166 9.7155294418 10.289124489
 4077.4104004 3.0000000000 8.3079996109 8.3750000000 0.2025122344 2.3729007244 80.472152710 92.843338013 148.81665039 9.1723871231 874.45202637 9.1712341309 9.7422914505
 4077.5627441 5.0000000000 8.0769996643 8.3750000000 0.2644480765 2.3420319557 82.548553467 92.336044312 148.70716858 8.6691188812 -167.3869934 8.7475814819 9.2093353271
 4077.7150879 5.0000000000 8.1140003204 8.3750000000 0.2259995490 2.3620736599 83.662284851 91.565490723 150.14369202 8.1192417145 -1342.687012 8.4783611298 8.7946262360
 4077.8674316 5.0000000000 8.2010002136 8.3750000000 0.2396176904 2.4080336094 85.793479919 90.660408020 153.61047363 7.6464309692 -1711.807007 8.2809906006 8.5617771149
 4078.0200195 5.0000000000 8.2720003128 8.3750000000 0.2505730689 2.4290637970 87.158355713 89.967697144 158.90641785 7.2911868095 -1357.879028 8.0991430283 8.4226608276
 4078.1723633 5.0000000000 8.4320001602 8.3750000000 0.2625861764 2.4490270615 85.281898499 89.773231506 163.83781433 7.0376954079 -857.8790283 7.9269905090 8.3167467117
 4078.3247070 5.0000000000 8.6319999695 8.3750000000 0.2515884340 2.4659664631 82.145393372 90.097229004 167.24183655 6.8477435112 -357.9060059 7.7327628136 8.1586494446
 4078.4770508 5.0000000000 8.6949996948 8.3750000000 0.3035965264 2.4449822903 80.891242981 90.837814331 168.30535889 6.6877355576 141.78399658 7.4810624123 7.9396219254
 4078.6296387 5.0000000000 8.7119998932 8.3750000000 0.2698453367 2.4340863228 82.602508545 91.643264771 168.16850281 6.5222606659 635.89501953 7.0394096375 7.7031102180
 4078.7819824 5.0000000000 8.7180004120 8.3750000000 0.2351303548 2.4609999657 86.269989014 92.258132935 168.49609375 6.2914085388 1037.3959961 6.2335896492 7.4252629280
 4078.9343262 5.0000000000 8.7569999695 8.3750000000 0.2541443408 2.4609103203 89.425460815 92.695289612 169.22950745 5.9221038818 872.82800293 5.1608638763 6.9646987915
 4079.0866699 6.0000000000 8.7559995651 8.3750000000 0.3530423939 2.4049680233 91.066680908 93.061073303 170.70642090 5.3629179001 -169.2480011 4.1574921608 6.1523489952
 4079.2390137 6.0000000000 8.7489995956 8.3750000000 0.2656880915 2.3850593567 92.012351990 93.520561218 172.92353821 4.6880464554 -1344.232056 3.4573135376 5.1224951744
 4079.3916016 6.0000000000 8.7419996262 8.3750000000 0.3261886537 2.4221279621 96.573448181 94.158615112 176.19676208 4.0923581123 -1712.915039 3.0454854965 4.1827793121
 4079.5439453 7.0000000000 8.6949996948 8.3750000000 0.3539995849 2.4620192051 107.93994141 94.786872864 181.04954529 3.5802886486 -1358.855957 2.7819728851 3.4902772903
 4079.6962891 7.0000000000 8.6730003357 8.3750000000 0.3757206798 2.4739918709 121.22624969 95.139656067 187.03916931 3.1364841461 -859.0209961 2.5790719986 3.0395672321
 4079.8486328 7.0000000000 8.6579999924 8.3750000000 0.3835851252 2.4690177441 131.23471069 95.313674927 192.96128845 2.8145849705 -360.4679871 2.4140720367 2.7697322369
 4080.0012207 7.0000000000 8.6569995880 8.3750000000 0.4278542399 2.4799935818 136.81291199 95.857627869 198.40432739 2.5552415848 139.52400208 2.2459535599 2.6025264263
 4080.1535645 7.0000000000 8.6569995880 8.3750000000 0.4320851266 2.4780287743 138.06492615 97.096641541 202.85231018 2.3187019825 634.90301514 2.0827195644 2.4547226429
 4080.3059082 7.0000000000 8.6560001373 8.3750000000 0.3445376456 2.4960658550 137.61985779 98.768287659 206.72450256 2.1328172684 1036.2259521 1.9834984541 2.2817420959
 4080.4582520 7.0000000000 8.6479997635 8.3750000000 0.4184079170 2.5370223522 139.44155884 100.55712891 211.24232483 2.0189342499 871.20300293 1.9817788601 2.1207964420
 4080.6108398 7.0000000000 8.6479997635 8.3750000000 0.3181788027 2.5510704517 143.96369934 102.42341614 216.15042114 1.9780768156 -171.1080017 2.1115295887 1.9939455986
 4080.7631836 7.0000000000 8.6330003738 8.3750000000 0.4068491161 2.5729999542 147.76336670 104.23124695 220.94793701 2.0021412373 -1345.776978 2.3971328735 1.9772243500
 4080.9155273 7.0000000000 8.6000003815 8.3750000000 0.2959591746 2.5729968548 144.80383301 105.77558136 225.26899719 2.0902371407 -1714.040039 2.8096055984 2.1175737381
 4081.0678711 7.0000000000 8.6090002060 8.3750000000 0.3913379014 2.5709519386 128.05503845 107.12212372 229.20288086 2.2382931709 -1360.151978 3.3135128021 2.4758219719
 4081.2202148 7.0000000000 8.6610002518 8.3750000000 0.5053311586 2.5406713486 104.50832367 108.41450500 231.56286621 2.4213604927 -861.4349976 3.8904495239 2.9888620377
 4081.3728027 7.0000000000 8.6750001907 8.3750000000 0.4682163000 2.3351294994 90.580963135 109.71586609 230.48103333 2.6470558643 -361.4450073 4.5650095940 3.5276129246
 4081.5251465 7.0000000000 8.6829996109 8.3750000000 0.4281143844 2.0640959740 86.143684387 111.25382996 226.85746765 2.9768269062 138.54699707 5.4372000694 4.0309410095
 4081.6774902 5.0000000000 8.7390003204 8.3750000000 0.3862486482 2.1242084503 83.715911865 112.78083801 220.95306396 3.4932467937 633.91101074 6.5240430832 4.6182661057
 4081.8298340 5.0000000000 8.8009996414 8.3750000000 0.3726846874 2.2542130947 82.081916809 113.31455231 213.41694641 4.2716088295 1035.0550537 7.6377129555 5.4085659981
 4081.9824219 5.0000000000 8.7939996719 8.3750000000 0.3642182648 2.3872721195 79.865180969 112.21206665 204.87042236 5.2770752907 869.57897949 8.5662946701 6.3873052597
 4082.1347656 5.0000000000 8.7989997864 8.3750000000 0.3284458518 2.4719662666 75.852844238 109.41957855 197.01708984 6.2360115051 -172.9680023 9.1555786133 7.4185109138
 4082.2871094 3.0000000000 8.7829999924 8.3750000000 0.3388920128 2.4509871006 69.798606873 105.71227264 191.38311768 6.8664712906 -1347.329956 9.3447866440 8.3611106873
 4082.4394531 3.0000000000 8.7729997635 8.3750000000 0.2959502041 2.4429471493 63.291721344 101.77390289 186.39370728 7.1601071358 -1715.355957 9.2397947311 9.0534038544
 4082.5920410 3.0000000000 8.7550001144 8.3750000000 0.2070474923 2.4097599983 60.027866364 98.225021362 180.66964722 7.2270770073 -1362.411987 9.0306015015 9.3045940399
 4082.7443848 3.0000000000 8.6870002747 8.3750000000 0.2287885845 2.3348765373 60.868278503 95.684509277 172.49003601 7.2512068748 -862.4119873 8.9138078690 9.1775808334
