# LAS format log file from PETREL
# Project units are specified as depth units
#==================================================================
~Version information
VERS.   2.0:
WRAP.   NO:
#==================================================================
~Well
STRT .m      3166.7685547 :
STOP .m      4692.7500000 :
STEP .m     0.00000000 :
NULL .        -999.250000 :
COMP.           : COMPANY
WELL.  34/12-1   : WELL
FLD.            : FIELD
LOC.            : LOCATION
SRVC.           : SERVICE COMPANY
DATE.  2018-09-11 14:48:48   : Log Export Date {yyyy-MM-dd HH:mm:ss}
PROV.           : PROVINCE
UWI.   34/12-1   : UNIQUE WELL ID
API.            : API NUMBER
#==================================================================
~Curve
DEPT .m                   : DEPTH
Lithology_geolink ._      : Lithology_geolink
CALI .in                  : CALI
BS .in                    : BS
ROP .m/h                  : ROP
DRHO .g/cm3               : DRHO
THOR .ppm                 : THOR
SGR .gAPI                 : SGR
NPHI .m3/m3               : NPHI
RHOB .g/cm3               : RHOB
PEF .b/e                  : PEF
GR .gAPI                  : GR
URAN .ppm                 : URAN
DTC .us/ft                : DTC
DTS .us/ft                : DTS
RDEP .ohm.m               : RDEP
RSHA .ohm.m               : RSHA
RMED .ohm.m               : RMED
~Parameter
#==================================================================
~Ascii
# ...
 4286.9086914 6.0000000000 8.3720998764 8.3750000000 16925.435547 -0.001904487 17.655199051 0.0210964736 0.2598996758 2.6305437088 5.9998402596  -999.250000 1.8289999962  -999.250000 177.18180847 2.7789318562 2.8441998959 2.8737142086
 4287.0610352 6.0000000000 8.3570995331 8.3750000000 18280.080078 -0.003297444 18.330699921 0.0200006403 0.2598028481 2.6130034924 5.4526753426  -999.250000 1.7513999939  -999.250000 179.36360168 2.6333031654 2.6658999920 2.7226178646
 4287.2133789 6.0000000000 8.3029003143 8.3750000000 18280.080078 -0.002500000 18.261999130 0.0201974344 0.2606999874 2.6140999794 5.4449000359  -999.250000 1.3148000240  -999.250000 181.36360168 2.6342999935 2.7665998936 2.7281999588
 4287.3657227 6.0000000000 8.2999000549 8.3750000000 16997.400391 -0.000500000 18.279399872 0.0194041673 0.2433000058 2.6268999577 5.6687998772  -999.250000 1.3522000313  -999.250000 182.18180847 2.6654999256 2.7690999508 2.7644999027
 4287.5180664 6.0000000000 8.3004999161 8.3750000000 14974.200195 -0.000400000 18.509500504 0.0206980780 0.2325000018 2.6310000420 6.0170001984  -999.250000 0.9158999920  -999.250000 181.81820679 2.6642000675 2.8092000484 2.7620999813
 4287.6708984 5.0000000000 8.2968997955 8.3750000000 13607.033203 -0.004199359 19.321899414 0.0200987179 0.2303836495 2.6165933609 5.9609789848  -999.250000 0.8041999936  -999.250000 181.09089661 2.7007913589 2.9426000118 2.8058049679
 4287.8232422 5.0000000000 8.3029003143 8.3750000000 14991.566406 -0.004005129 18.989599228 0.0199044719 0.2564471066 2.6144719124 5.8004703522  -999.250000 0.9648999572  -999.250000 180.81820679 2.7603285313 3.0132999420 2.8696184158
 4287.9755859 5.0000000000 8.3029003143 8.3750000000 16808.757813 -0.005594231 19.579299927 0.0205983985 0.2710439265 2.6057026386 6.2893528938  -999.250000 1.0082000494  -999.250000 180.36360168 2.7695176601 2.9776000977 2.8756389618
 4288.1279297 5.0000000000 8.3178997040 8.3750000000 16583.710938 -0.003800000 20.109300613 0.0201038457 0.2535682619 2.6065056324 6.4613223076  -999.250000 0.9283999801  -999.250000 179.63639832 2.8687131405 3.0471999645 2.9815349579
 4288.2802734 5.0000000000 8.2968997955 8.3750000000 16566.478516 -0.003787500 21.448499680 0.0212983973 0.2437355816 2.6083269119 6.4366450310  -999.250000 0.7807999849  -999.250000 179.27268982 2.9975326061 3.1508998871 3.1171619892
 4288.4326172 5.0000000000 8.3029003143 8.3750000000 16007.718750 0.0001031949 21.767999649 0.0208038464 0.2548533380 2.6167001724 6.2940187454  -999.250000 0.5976999998  -999.250000 178.63638306 3.1010694504 3.3232998848 3.2297623158
 4288.5849609 5.0000000000 8.2999000549 8.3750000000 16556.039063 0.0011000000 22.762300491 0.0220022444 0.2714999914 2.6168000698 5.9254999161  -999.250000 0.2176000029  -999.250000 177.36360168 3.1226999760 3.2695999146 3.2492001057
 4288.7373047 5.0000000000 8.3299999237 8.3750000000 17825.759766 -0.000500000 22.570999146 0.0227009617 0.2687000036 2.6103999615 5.7867999077  -999.250000 -0.057599999  -999.250000 175.90910339 3.0334999561 3.2054998875 3.1496000290
 4288.8896484 5.0000000000 8.3690996170 8.3750000000 17825.759766 -0.001700000 22.357700348 0.0230019223 0.2450000048 2.6112999916 5.4910998344  -999.250000 0.1291999966  -999.250000 174.54551697 3.0596001148 3.2602999210 3.1767001152
 4289.0424805 16.000000000 8.3600997925 8.3750000000 18431.248047 -0.001997116 23.052499771 0.0235987194 0.2070753276 2.6171109676 5.5885558128  -999.250000 -0.145999998  -999.250000 173.09091187 3.1201224327 3.3438999653 3.2374970913
 4289.1948242 16.000000000 8.3570995331 8.3750000000 18756.718750 -0.001106410 22.612899780 0.0233980827 0.1994785219 2.6204724312 5.6357102394  -999.250000 0.2515000105  -999.250000 171.72729492 3.1892702579 3.4858999252 3.2987782955
 4289.3471680 5.0000000000 8.3690996170 8.3750000000 18751.689453 -0.003091987 20.988000870 0.0230961535 0.2239951938 2.6119074821 5.2359452248  -999.250000 0.5376999974  -999.250000 171.45460510 3.1800856590 3.3303999901 3.2920448780
 4289.4995117 5.0000000000 8.3514003754 8.3750000000 17186.544922 -0.000596154 20.695299149 0.0218971148 0.2535801232 2.6142017841 5.6542201042  -999.250000 0.7870000005  -999.250000 171.81820679 3.2065660954 3.3454999924 3.3059086800
 4289.6518555 5.0000000000 8.3720998764 8.3750000000 16899.738281 0.0006089457 19.313699722 0.0210032053 0.2474044710 2.6147105694 5.6299180984  -999.250000 1.2731000185  -999.250000 172.54550171 3.1650619507 3.2592000961 3.2776858807
 4289.8041992 6.0000000000 8.3420000076 8.3750000000 18103.679688 0.0034000000 18.766199112 0.0220019221 0.2487999946 2.6180000305 5.8228001595  -999.250000 1.5630999804  -999.250000 173.54550171 3.2156000137 3.3171999454 3.3357000351
 4289.9565430 6.0000000000 8.3239002228 8.3750000000 16881.119141 0.0010000000 18.482299805 0.0225987192 0.2531999946 2.6063001156 5.1133999825  -999.250000 1.7111999989  -999.250000 174.63639832 3.2611999512 3.4324998856 3.3884000778
 4290.1088867 6.0000000000 8.3208999634 8.3750000000 17306.281250 -0.001600000 18.792499542 0.0222012810 0.2578999996 2.5927999020 4.9572000504  -999.250000 1.9878000021  -999.250000 175.81820679 3.2118000984 3.3125998974 3.3366999626
 4290.2612305 6.0000000000 8.3208999634 8.3750000000 21562.560547 -0.001100000 18.452400208 0.0225977562 0.2574999928 2.5910000801 4.6571002007  -999.250000 2.4672000408  -999.250000 176.45460510 3.2007000446 3.1798999310 3.3234000206
 4290.4140625 6.0000000000 8.3269996643 8.3750000000 22292.640625 0.0000977564 16.945299149 0.0218993593 0.2691298127 2.5950183868 4.6387977600  -999.250000 3.0160000324  -999.250000 176.45460510 3.1454410553 3.1935999393 3.2631452084
 4290.5664063 6.0000000000 8.3239002228 8.3750000000 22285.263672 -0.000608974 17.821800232 0.0217993613 0.2784048021 2.6007835865 4.4850730896  -999.250000 2.7258000374  -999.250000 175.63639832 3.3139510155 3.4261000156 3.4329214096
 4290.7187500 6.0000000000 8.3088998795 8.3750000000 19991.716797 -0.003388782 17.460100174 0.0216948725 0.2798503339 2.6269152164 5.2272920609  -999.250000 2.6756000519  -999.250000 173.72729492 3.3922336102 3.6949999332 3.5020554066
 4290.8710938 5.0000000000 8.3088998795 8.3750000000 20164.679688 0.0001054487 16.871000290 0.0200948715 0.2643561065 2.6627895832 6.5084733963  -999.250000 2.8060998917  -999.250000 171.63639832 3.4652807713 3.5729000568 3.5818810463
 4291.0234375 5.0000000000 8.3058996201 8.3750000000 20171.638672 0.0017942492 16.005300522 0.0184964743 0.2507162988 2.6906621456 9.1778545380  -999.250000 2.6745998859  -999.250000 170.27270508 3.5843870640 3.5771999359 3.7011535168
 4291.1757813 5.0000000000 8.3119001389 8.3750000000 22343.039063 0.0000000000 15.054300308 0.0174003206 0.2558000088 2.6788001060 10.130900383  -999.250000 2.3029000759  -999.250000 169.63639832 3.7987999916 3.6159000397 3.9361999035
 4291.3281250 5.0000000000 8.3029003143 8.3750000000 21751.199219 -0.001300000 15.568599701 0.0175028853 0.2617000043 2.6508998871 8.0902004242  -999.250000 2.1131999493  -999.250000 169.81820679 4.0441999435 3.8550000191 4.2038002014
 4291.4804688 5.0000000000 8.3088998795 8.3750000000 22860.359375 0.0017000000 17.647499084 0.0184022449 0.2610000074 2.6296000481 6.6791000366  -999.250000 2.2167999744  -999.250000 170.72729492 3.8301000595 3.8343000412 3.9763998985
 4291.6333008 5.0000000000 8.3570995331 8.3750000000 23034.814453 -0.000510897 19.070600510 0.0191096142 0.2611224353 2.6052730083 5.4795994759  -999.250000 2.2715001106  -999.250000 171.63639832 3.6010096073 3.6712000370 3.7240872383
 4291.7856445 6.0000000000 8.4128999710 8.3750000000 19865.121094 -0.003902884 19.092199326 0.0206063893 0.2681432664 2.5968923569 5.1052894592  -999.250000 2.4191000462  -999.250000 171.63639832 3.4793887138 3.5717999935 3.5954747200
 4291.9379883 6.0000000000 8.4442996979 8.3750000000 23214.419922 -0.004804487 18.730899811 0.0215987191 0.2815634608 2.5945158005 4.8214058876  -999.250000 2.1731998920  -999.250000 170.81820679 3.4136145115 3.4946999550 3.5252881050
 4292.0903320 6.0000000000 8.4263000488 8.3750000000 23942.160156 -0.006204167 17.923700333 0.0212003198 0.2701551318 2.5993981361 4.6058096886  -999.250000 2.6533999443  -999.250000 170.18179321 3.3869645596 3.5090000629 3.4904885292
