# LAS format log file from PETREL
# Project units are specified as depth units
#==================================================================
~Version information
VERS.   2.0:
WRAP.   NO:
#==================================================================
~Well
STRT .m      211.00001526 :
STOP .m      2222.9851074 :
STEP .m     0.00000000 :
NULL .        -999.250000 :
COMP.           : COMPANY
WELL.  34/10-19   : WELL
FLD.            : FIELD
LOC.            : LOCATION
SRVC.           : SERVICE COMPANY
DATE.  2018-09-11 14:48:44   : Log Export Date {yyyy-MM-dd HH:mm:ss}
PROV.           : PROVINCE
UWI.   34/10-19   : UNIQUE WELL ID
API.            : API NUMBER
#==================================================================
~Curve
DEPT .m                   : DEPTH
Lithology_geolink ._      : Lithology_geolink
CALI .in                  : CALI
DRHO .g/cm3               : DRHO
NPHI .m3/m3               : NPHI
RHOB .g/cm3               : RHOB
GR .gAPI                  : GR
DTC .us/ft                : DTC
RDEP .ohm.m               : RDEP
SP .mV                    : SP
RSHA .ohm.m               : RSHA
RMED .ohm.m               : RMED
~Parameter
#==================================================================
~Ascii
 211.00001526  -999.250000 23.108999252  -999.250000  -999.250000  -999.250000 10.616999626 38.280998230 2000.0000000 -35.02500153 2.7320001125 2.7320001125
 211.15240479  -999.250000 23.038000107  -999.250000  -999.250000  -999.250000 9.4989995956 14.062999725 0.9499999881 -91.10800171 11.430000305 11.430000305
 211.30480957  -999.250000 23.023000717  -999.250000  -999.250000  -999.250000 8.9239997864 13.563000679 5.1519999504 -77.58100128 9.0000000000 9.0000000000
 211.45721436  -999.250000 22.739999771  -999.250000  -999.250000  -999.250000 8.9809999466 17.906000137 2000.0000000 -62.88500214 1.7460000515 1.7460000515
 211.60960388  -999.250000 20.856000900  -999.250000  -999.250000  -999.250000 9.2470455170 18.500000000 2000.0000000 -52.04840469 0.1870000064 0.1870000064
 211.76199341  -999.250000 20.278999329  -999.250000  -999.250000  -999.250000 9.7069997787 20.688001633 2000.0000000 -46.10599899 0.7139999866 0.7139999866
 211.91439819  -999.250000 20.079000473  -999.250000  -999.250000  -999.250000 11.439999580 21.406000137 0.4350000024 -39.75899887 0.1469999999 0.1469999999
 212.06678772  -999.250000 19.944000244  -999.250000  -999.250000  -999.250000 11.583999634 16.718999863 2000.0000000 -32.57799911 0.1389999986 0.1389999986
 212.21919250  -999.250000 19.841999054  -999.250000  -999.250000  -999.250000 10.895999908 24.093999863 2000.0000000 -25.72599983 0.1509999931 0.1509999931
 212.37159729  -999.250000 19.926998138  -999.250000  -999.250000  -999.250000 8.6940002441 -98.43800354 2000.0000000 -19.70899963 0.3379999995 0.3379999995
 212.52398682  -999.250000 19.641000748  -999.250000  -999.250000  -999.250000 10.604999542 -122.1880035 3.0179998875 -28.62500000 1.0829999447 1.0829999447
 212.67639160  -999.250000 20.341999054  -999.250000  -999.250000  -999.250000 11.130000114 -103.8750000 2000.0000000 -42.71699905 0.9509999752 0.9509999752
 212.82879639  -999.250000 22.590999603  -999.250000  -999.250000  -999.250000 11.711999893 -102.8130112 2000.0000000 -50.88199997 0.9599999785 0.9599999785
 212.98118591  -999.250000 23.362001419  -999.250000  -999.250000  -999.250000 11.642999649 -66.81300354 3.1150000095 -56.05199814 1.0470000505 1.0470000505
 213.13359070  -999.250000 23.361000061  -999.250000  -999.250000  -999.250000 12.571999550 -103.1250076 3.9430000782 -59.40000153 0.3680000007 0.3680000007
 213.28599548  -999.250000 23.371999741  -999.250000  -999.250000  -999.250000 12.758999825 -81.50000000 7.0590000153 -62.74599457 0.2709999979 0.2709999979
 213.43840027  -999.250000 23.371999741  -999.250000  -999.250000  -999.250000 12.138999939 -72.81300354 36.594001770 -66.28299713 0.2300000042 0.2300000042
 213.59078979  -999.250000 23.362001419  -999.250000  -999.250000  -999.250000 10.711000443 -67.31300354 6.5900001526 -68.59700012 0.2080000043 0.2080000043
 213.74319458  -999.250000 23.360000610  -999.250000  -999.250000  -999.250000 8.6330003738 45.469001770 3.3550000191 -72.25000000 0.1630000025 0.1630000025
 213.89559937  -999.250000 23.371000290  -999.250000  -999.250000  -999.250000 8.9320001602 39.405998230 2.6659998894 -74.27100372 0.1439999938 0.1439999938
 214.04798889  -999.250000 23.362001419  -999.250000  -999.250000  -999.250000 10.491000175 33.312999725 3.8420000076 -74.42600250 0.1449999958 0.1449999958
 214.20039368  -999.250000 23.362001419  -999.250000  -999.250000  -999.250000 12.390999794 30.062999725 9.8360004425 -74.81400299 0.1679999977 0.1679999977
 214.35279846  -999.250000 23.372999191  -999.250000  -999.250000  -999.250000 12.942999840 33.030998230 15.921999931 -76.29900360 0.1659999937 0.1659999937
 214.50520325  -999.250000 23.375001907  -999.250000  -999.250000  -999.250000 12.930999756 43.000000000 26.343999863 -74.02899933 0.1589999944 0.1589999944
 214.65759277  -999.250000 23.372999191  -999.250000  -999.250000  -999.250000 12.246999741 -92.00000000 13.437999725 -77.69200134 0.1560000032 0.1560000032
 214.80999756  -999.250000 23.363000870  -999.250000  -999.250000  -999.250000 12.782999992 -81.06300354 13.015999794 -79.61199951 0.1550000012 0.1550000012
 214.96240234  -999.250000 23.358999252  -999.250000  -999.250000  -999.250000 12.394000053 28.500000000 16.827999115 -82.29000092 0.1539999992 0.1539999992
 215.11479187  -999.250000 23.360000610  -999.250000  -999.250000  -999.250000 12.211999893 30.437999725 20.327999115 -84.77200317 0.1539999992 0.1539999992
 215.26719666  -999.250000 23.371999741  -999.250000  -999.250000  -999.250000 9.7889995575 -106.1250000 16.422000885 -85.96800232 0.1539999992 0.1539999992
 215.41960144  -999.250000 23.362001419  -999.250000  -999.250000  -999.250000 10.395000458 -102.8750000 15.203000069 -85.54000092 0.1550000012 0.1550000012
 215.57199097  -999.250000 23.363000870  -999.250000  -999.250000  -999.250000 11.696999550 -96.50000000 15.944999695 -85.32599640 0.1539999992 0.1539999992
 215.72439575  -999.250000 23.371000290  -999.250000  -999.250000  -999.250000 13.050000191 -72.62500000 26.047000885 -86.09500122 0.1539999992 0.1539999992
 215.87680054  -999.250000 23.360000610  -999.250000  -999.250000  -999.250000 12.522999763 87.875000000 5.9140000343 -84.03700256 0.1509999931 0.1509999931
 216.02920532  -999.250000 23.362001419  -999.250000  -999.250000  -999.250000 11.477000237 85.375000000 6.6840000153 -82.66799927 0.1959999949 0.1959999949
 216.18159485  -999.250000 23.369001389  -999.250000  -999.250000  -999.250000 10.340999603 56.094001770 7.2969999313 -82.50599670 0.1899999976 0.1899999976
 216.33399963  -999.250000 23.364999771  -999.250000  -999.250000  -999.250000 10.555000305 49.187999725 5.5859999657 -81.90899658 0.1870000064 0.1870000064
 216.48640442  -999.250000 23.372999191  -999.250000  -999.250000  -999.250000 11.001999855 58.750000000 5.1599998474 -82.09100342 0.1920000017 0.1920000017
 216.63879395  -999.250000 23.361000061  -999.250000  -999.250000  -999.250000 12.107999802 84.063011169 4.9180002213 -80.74299622 0.2010000050 0.2010000050
 216.79119873  -999.250000 23.358999252  -999.250000  -999.250000  -999.250000 13.008999825 77.563003540 5.2189998627 -79.26399994 0.2080000043 0.2080000043
 216.94360352  -999.250000 23.358999252  -999.250000  -999.250000  -999.250000 13.453000069 56.000000000 6.1409997940 -77.69999695 0.2099999934 0.2099999934
 217.09600830  -999.250000 23.358999252  -999.250000  -999.250000  -999.250000 14.555000305 45.125000000 5.5430002213 -77.48200226 0.2090000063 0.2090000063
 217.24839783  -999.250000 23.360000610  -999.250000  -999.250000  -999.250000 13.892000198 47.250000000 5.1989998817 -74.57599640 0.2140000015 0.2140000015
 217.40080261  -999.250000 23.372999191  -999.250000  -999.250000  -999.250000 14.699000359 61.499996185 5.0900001526 -75.68699646 0.2160000056 0.2160000056
 217.55320740  -999.250000 23.371999741  -999.250000  -999.250000  -999.250000 14.421999931 83.438003540 4.8870000839 -76.01100159 0.2160000056 0.2160000056
 217.70559692  -999.250000 23.362001419  -999.250000  -999.250000  -999.250000 15.598999977 -37.87500000 3.8629999161 -75.05799866 0.2150000036 0.2150000036
 217.85800171  -999.250000 23.358999252  -999.250000  -999.250000  -999.250000 15.475999832 71.250000000 3.8320000172 -75.80899811 0.2230000049 0.2230000049
 218.01040649  -999.250000 23.358999252  -999.250000  -999.250000  -999.250000 15.286000252 67.500000000 3.5859999657 -74.18099976 0.2280000001 0.2280000001
 218.16281128  -999.250000 23.358999252  -999.250000  -999.250000  -999.250000 13.718000412 67.500000000 3.6760001183 -74.13200378 0.2389999926 0.2389999926
 218.31520081  -999.250000 23.358999252  -999.250000  -999.250000  -999.250000 12.798999786 64.875000000 3.5980000496 -73.74400330 0.2430000007 0.2430000007
 218.46760559  -999.250000 23.358999252  -999.250000  -999.250000  -999.250000 12.916999817 73.625000000 4.1880002022 -73.78500366 0.2460000068 0.2460000068
 218.62001038  -999.250000 23.360000610  -999.250000  -999.250000  -999.250000 13.064999580 66.125000000 4.6599998474 -73.32599640 0.2450000048 0.2450000048
