# LAS format log file from PETREL
# Project units are specified as depth units
#==================================================================
~Version information
VERS.   2.0:
WRAP.   NO:
#==================================================================
~Well
STRT .m      492.56594849 :
STOP .m      2784.8139648 :
STEP .m     0.00000000 :
NULL .        -999.250000 :
COMP.           : COMPANY
WELL.  34/10-5   : WELL
FLD.            : FIELD
LOC.            : LOCATION
SRVC.           : SERVICE COMPANY
DATE.  2018-09-11 14:48:46   : Log Export Date {yyyy-MM-dd HH:mm:ss}
PROV.           : PROVINCE
UWI.   34/10-5   : UNIQUE WELL ID
API.            : API NUMBER
#==================================================================
~Curve
DEPT .m                   : DEPTH
Lithology_geolink ._      : Lithology_geolink
CALI .in                  : CALI
DRHO .g/cm3               : DRHO
NPHI .m3/m3               : NPHI
RHOB .g/cm3               : RHOB
GR .gAPI                  : GR
DTC .us/ft                : DTC
RDEP .ohm.m               : RDEP
SP .mV                    : SP
RSHA .ohm.m               : RSHA
RMED .ohm.m               : RMED
~Parameter
#==================================================================
~Ascii
# ...
 2171.4040527 7.0000000000 8.7659997940 0.0049999999 0.4228500128 2.2890000343 99.379806519 118.37790680 1.2169567347 48.501998901  -999.250000 1.4389166832
 2171.5563965 6.0000000000 8.7729997635 0.0240000002 0.4033200145 2.3239998817 94.710540771 117.56430817 1.2150096893 48.128803253  -999.250000 1.5476505756
 2171.7087402 6.0000000000 8.8129997253 0.0240000002 0.4399400055 2.3459999561 88.592453003 115.56620789 1.2179856300 47.567699432  -999.250000 1.6236351728
 2171.8613281 6.0000000000 8.7969999313 0.0329999998 0.4868199825 2.3770000935 90.615104675 114.19020081 1.2229760885 47.813796997  -999.250000 1.6359615326
 2172.0136719 6.0000000000 8.8199996948 0.0030000000 0.4970700145 2.3440001011 94.854568481 114.18800354 1.2369326353 48.063796997  -999.250000 1.6250352859
 2172.1660156 6.0000000000 8.8360004425 0.0109999999 0.4404299855 2.3480000496 94.999397278 114.99869537 1.2469519377 48.438194275  -999.250000 1.5741634369
 2172.3183594 6.0000000000 8.7729997635 0.0030000000 0.4086900055 2.3420000076 90.894828796 115.99839783 1.2430192232 48.439998627  -999.250000 1.5411584377
 2172.4707031 6.0000000000 8.8129997253 0.0040000002 0.4145500064 2.3299999237 91.684097290 116.56121063 1.2350385189 48.999298096  -999.250000 1.5549325943
 2172.6232910 6.0000000000 8.7969999313 0.0080000004 0.4248000085 2.3440001011 90.817207336 117.74810028 1.2270383835 49.189094543  -999.250000 1.5699520111
 2172.7756348 6.0000000000 8.7969999313 0.0250000004 0.4184600115 2.3610000610 93.300987244 116.37720490 1.2140624523 49.065601349  -999.250000 1.5929263830
 2172.9279785 6.0000000000 8.7969999313 0.0579999983 0.4213899970 2.4159998894 92.691009521 116.99900055 1.2110143900 48.877902985  -999.250000 1.5800623894
 2173.0803223 6.0000000000 8.7969999313 0.0619999990 0.4272499979 2.4360001087 92.563606262 117.56120300 1.2139855623 48.939697266  -999.250000 1.5690529346
 2173.2329102 6.0000000000 8.8129997253 0.0350000001 0.4101599753 2.4019999504 92.127105713 118.18700409 1.2169855833 49.064399719  -999.250000 1.5281313658
 2173.3852539 6.0000000000 8.7969999313 0.0130000003 0.3989300132 2.3670001030 87.958129883 117.00190735 1.2269519567 49.002300262  -999.250000 1.5030801296
 2173.5375977 6.0000000000 8.8669996262 0.0140000004 0.4062500000 2.3519999981 86.009315491 117.74879456 1.2429231405 49.126396179  -999.250000 1.4970191717
 2173.6899414 6.0000000000 8.6800003052 0.0179999992 0.4208999872 2.3629999161 85.751205444 116.37940216 1.2479759455 49.500194550  -999.250000 1.5656688213
 2173.8425293 6.0000000000 8.6800003052 0.0199999996 0.4194300175 2.3729999065 85.376800537 115.56430817 1.2489951849 49.253200531  -999.250000 1.6108556986
 2173.9948730 6.0000000000 8.7419996262 0.0040000002 0.4145500064 2.3750000000 90.226562500 114.19020844 1.2480047941 48.754402161  -999.250000 1.6718045473
 2174.1472168 6.0000000000 8.6800003052 0.0309999995 0.4130899906 2.4019999504 90.063903809 109.57041168 1.2420288324 47.508007050  -999.250000 1.6331250668
 2174.2995605 6.0000000000 8.7030000687 0.0240000002 0.4541000128 2.4040000439 89.565406799 111.74649048 1.2390143871 47.501998901  -999.250000 1.6469327211
 2174.4519043 6.0000000000 8.8439998627 0.0280000009 0.4467800260 2.4000000954 83.965049744 108.75959778 1.2380048037 47.501998901  -999.250000 1.6858124733
 2174.6044922 5.0000000000 8.8129997253 0.0219999999 0.4692400098 2.3949999809 82.320800781 109.37400818 1.2419807911 47.937896729  -999.250000 1.5992788076
 2174.7568359 5.0000000000 8.7729997635 0.0130000003 0.4331099987 2.3670001030 83.245498657 113.18189240 1.2499614954 48.126098633  -999.250000 1.4724071026
 2174.9091797 5.0000000000 8.8199996948 0.0189999994 0.4584999979 2.3750000000 81.322319031 122.54798126 1.2549759150 48.562892914  -999.250000 1.4550817013
 2175.0615234 5.0000000000 8.9300003052 -0.007000000 0.4394499958 2.3650000095 81.125900269 121.56620789 1.2420624495 48.689395905  -999.250000 1.6221923828
 2175.2141113 5.0000000000 8.9840002060 0.0030000000 0.4418900013 2.4079999924 81.622596741 118.00569916 1.2320480347 48.938796997  -999.250000 1.8273428679
 2175.3664551 6.0000000000 8.8669996262 0.0020000001 0.4155300260 2.4300000668 89.710937500 116.75199890 1.2329952717 49.313194275  -999.250000 1.8808301687
 2175.5187988 6.0000000000 8.8360004425 0.0199999996 0.4365200102 2.4140000343 91.429885864 118.56009674 1.2399663925 49.688194275  -999.250000 1.7287344933
 2175.6711426 6.0000000000 8.8199996948 0.0230000000 0.4213899970 2.3829998970 92.868087769 119.55980682 1.2539325953 49.938796997  -999.250000 1.5637931824
 2175.8237305 6.0000000000 8.8439998627 0.0189999994 0.4375000000 2.3459999561 91.569297791 120.99769592 1.2649471760 50.001701355  -999.250000 1.4952179193
 2175.9760742 6.0000000000 8.8360004425 0.0250000004 0.4194300175 2.3629999161 89.758712769 119.37760925 1.2630096674 49.504402161  -999.250000 1.5119454861
 2176.1284180 6.0000000000 8.7659997940 0.0350000001 0.4340800047 2.3849999905 89.874397278 116.37980652 1.2540432215 49.253200531  -999.250000 1.5827723742
 2176.2807617 6.0000000000 8.7270002365 0.0370000005 0.4389599860 2.3849999905 92.860580444 114.37821198 1.2440479994 49.563495636  -999.250000 1.6437072754
 2176.4331055 6.0000000000 8.7500000000 0.0469999984 0.4228500128 2.4019999504 92.813400269 111.01080322 1.2290959358 49.254001617  -999.250000 1.6410144567
 2176.5856934 6.0000000000 8.7500000000 0.0289999992 0.4584999979 2.3670001030 93.808197021 110.37599945 1.2280048132 48.754402161  -999.250000 1.6270447969
 2176.7380371 6.0000000000 8.7659997940 0.0280000009 0.4472700059 2.3750000000 90.391525269 112.99578857 1.2518845797 48.378803253  -999.250000 1.6060672998
 2176.8903809 6.0000000000 8.7889995575 0.0260000005 0.4702099860 2.3889999390 87.700920105 112.75040436 1.2888221741 47.506206512  -999.250000 1.5761439800
 2177.0427246 6.0000000000 8.7500000000 0.0460000001 0.4287099838 2.4200000763 85.697616577 112.18980408 1.3487114906 47.750797272  -999.250000 1.5302211046
 2177.1953125 6.0000000000 8.6800003052 0.0350000001 0.4355500042 2.4159998894 78.224006653 107.75711060 1.4067215919 48.374000549  -999.250000 1.5539231300
 2177.3476563 16.000000000 8.7189998627 0.0140000004 0.4043000042 2.3750000000 75.512924194 97.766029358 1.4199374914 48.501396179  -999.250000 1.8470577002
 2177.5000000 16.000000000 8.7270002365 0.0000000000 0.3745099902 2.3589999676 70.586738586 89.388427734 1.4070624113 48.875194550  -999.250000 2.3764512539
 2177.6523438 16.000000000 8.7270002365 0.0130000003 0.3427700102 2.3670001030 77.342247009 87.568801880 1.4109808207 49.001396179  -999.250000 2.7094037533
 2177.8049316 16.000000000 8.7270002365 0.0080000004 0.3432599902 2.3610000610 82.786903381 89.559799194 1.4189616442 49.126399994  -999.250000 2.3411889076
 2177.9572754 6.0000000000 8.7189998627 0.0099999998 0.3725599945 2.3689999580 88.845855713 96.364082336 1.4339278936 49.811691284  -999.250000 1.8894487619
 2178.1096191 6.0000000000 8.7270002365 0.0000000000 0.3935500085 2.3519999981 88.688903809 103.98777771 1.4131009579 50.001098633  -999.250000 1.7085769176
 2178.2619629 6.0000000000 8.7500000000 0.0230000000 0.4135699868 2.3689999580 88.252105713 108.99198914 1.3602547646 50.001998901  -999.250000 1.6383360624
 2178.4143066 6.0000000000 8.7419996262 0.0430000015 0.4282199740 2.3870000839 87.443199158 111.55480957 1.2983968258 49.877799988  -999.250000 1.5892355442
 2178.5668945 6.0000000000 8.7659997940 0.0520000011 0.4218800068 2.3929998875 88.433197021 113.74649811 1.2522211075 49.690898895  -999.250000 1.5800288916
 2178.7192383 7.0000000000 8.7889995575 0.0289999992 0.4248000085 2.3789999485 93.973258972 112.56490326 1.2171683311 49.316802979  -999.250000 1.5580705404
 2178.8715820 7.0000000000 8.7419996262 0.0170000009 0.4199199975 2.3589999676 96.177482605 115.74489594 1.1961009502 48.693004608  -999.250000 1.5301343203
 2179.0239258 7.0000000000 8.7500000000 0.0160000008 0.4228500128 2.3570001125 97.058799744 116.74679565 1.1880384684 47.943603516  -999.250000 1.4931778908
