# LAS format log file from PETREL
# Project units are specified as depth units
#==================================================================
~Version information
VERS.   2.0:
WRAP.   NO:
#==================================================================
~Well
STRT .m      127.75000000 :
STOP .m      3459.2514648 :
STEP .m     0.00000000 :
NULL .        -999.250000 :
COMP.           : COMPANY
WELL.  34/10-17   : WELL
FLD.            : FIELD
LOC.            : LOCATION
SRVC.           : SERVICE COMPANY
DATE.  2018-09-11 14:48:44   : Log Export Date {yyyy-MM-dd HH:mm:ss}
PROV.           : PROVINCE
UWI.   34/10-17   : UNIQUE WELL ID
API.            : API NUMBER
#==================================================================
~Curve
DEPT .m                   : DEPTH
Lithology_geolink ._      : Lithology_geolink
CALI .in                  : CALI
DRHO .g/cm3               : DRHO
NPHI .m3/m3               : NPHI
RHOB .g/cm3               : RHOB
GR .gAPI                  : GR
DTC .us/ft                : DTC
RDEP .ohm.m               : RDEP
SP .mV                    : SP
RSHA .ohm.m               : RSHA
RMED .ohm.m               : RMED
~Parameter
#==================================================================
~Ascii
# ...
 790.74993896  -999.250000 18.357000351 0.0570000000 0.2754800022 2.1170001030 43.577999115 136.56799316 1.8949999809 33.139999390 1.1069999933 1.3109999895
 790.87487793  -999.250000 18.270000458 0.0599999987 0.2774600089 2.1129999161 46.187999725 137.53599548 1.8750000000 33.111999512 1.1100000143 1.3009999990
 790.99987793  -999.250000 18.232999802 0.0619999990 0.2897000015 2.1050000191 47.451000214 138.39500427 1.8409999609 33.089000702 1.1160000563 1.2819999456
 791.12487793  -999.250000 18.229999542 0.0590000004 0.3113499880 2.0969998837 46.722999573 138.70500183 1.7940000296 33.108001709 1.1219999790 1.2510000467
 791.25012207  -999.250000 18.250000000 0.0549999997 0.3331300020 2.0929999352 44.308998108 138.59500122 1.7439999580 33.178001404 1.1200000048 1.2139999866
 791.37512207  -999.250000 18.315000534 0.0520000011 0.3451400101 2.0880000591 41.398998260 138.66099548 1.7009999752 33.259998322 1.1050000191 1.1770000458
 791.50006104  -999.250000 18.472999573 0.0500000007 0.3418899775 2.0699999332 38.757999420 139.64199829 1.6729999781 33.294998169 1.0789999962 1.1499999762
 791.62506104  -999.250000 18.768999100 0.0469999984 0.3292800188 2.0329999924 36.890998840 142.00999451 1.6610000134 33.262001038 1.0499999523 1.1360000372
 791.75000000  -999.250000 19.212999344 0.0419999994 0.3174500167 1.9880000353 36.066001892 145.47500610 1.6610000134 33.199001312 1.0269999504 1.1380000114
 791.87506104  -999.250000 19.701997757 0.0350000001 0.3080199957 1.9409999847 35.958999634 149.39698792 1.6649999619 33.148998260 1.0149999857 1.1549999714
 791.99987793  -999.250000 20.113000870 0.0240000002 0.3002899885 1.8999999762 36.361000061 152.81599426 1.6660000086 33.132999420 1.0119999647 1.1829999685
 792.12481689  -999.250000 20.341999054 0.0099999998 0.2991500199 1.8680000305 37.144001007 154.64599609 1.6619999409 33.137001038 1.0190000534 1.2180000544
 792.24987793  -999.250000 20.301998138 -0.008000000 0.3088499904 1.8470000029 38.183998108 154.11000061 1.6540000439 33.127998352 1.0369999409 1.2510000467
 792.37512207  -999.250000 20.033000946 -0.028999999 0.3295600116 1.8400000334 39.303001404 150.46200562 1.6469999552 33.083999634 1.0640000105 1.2699999809
 792.50012207  -999.250000 19.606000900 -0.052000001 0.3555400074 1.8530000448 40.359001160 144.38200378 1.6460000277 33.019001007 1.0950000286 1.2710000277
 792.62506104  -999.250000 19.114000320 -0.064000003 0.3713999987 1.8919999599 41.095001221 137.34399414 1.6569999456 32.965000153 1.1200000048 1.2599999905
 792.75006104  -999.250000 18.680000305 -0.057000000 0.3728400171 1.9440000057 41.056999207 131.44799805 1.6859999895 32.945999146 1.1239999533 1.2500000000
 792.87500000  -999.250000 18.398000717 -0.033000000 0.3655500114 1.9819999933 40.207000732 128.72799683 1.7280000448 32.971000671 1.1089999676 1.2519999743
 793.00000000  -999.250000 18.295000076 -0.004000000 0.3561999798 1.9930000305 38.660999298 129.47900391 1.7760000229 33.018001556 1.0880000591 1.2669999599
 793.12500000  -999.250000 18.336000443 0.0170000009 0.3473400176 1.9800000191 36.675998688 132.96000671 1.8170000315 33.067001343 1.0750000477 1.2899999619
 793.24993896  -999.250000 18.466999054 0.0270000007 0.3380300105 1.9670000076 34.844001770 137.40199280 1.8409999609 33.104999542 1.0789999962 1.3129999638
 793.37487793  -999.250000 18.636999130 0.0240000002 0.3296599984 1.9620000124 33.722000122 141.20799255 1.8509999514 33.133998871 1.0950000286 1.3329999447
 793.49987793  -999.250000 18.826000214 0.0170000009 0.3244300187 1.9659999609 33.645999908 143.56300354 1.8569999933 33.159000397 1.1130000353 1.3509999514
 793.62512207  -999.250000 18.995000839 0.0140000004 0.3236199915 1.9670000076 34.764999390 144.38299561 1.8680000305 33.186000824 1.1260000467 1.3719999790
 793.75012207  -999.250000 19.056999207 0.0160000008 0.3264899850 1.9559999704 36.863998413 144.24099731 1.8940000534 33.221000671 1.1339999437 1.3969999552
 793.87506104  -999.250000 18.972000122 0.0189999994 0.3322700262 1.9390000105 39.326999664 143.67399597 1.9329999685 33.276000977 1.1399999857 1.4229999781
 794.00006104  -999.250000 18.775999069 0.0230000000 0.3399499953 1.9320000410 41.766998291 143.08599854 1.9769999981 33.355998993 1.1490000486 1.4459999800
 794.12500000  -999.250000 18.555000305 0.0280000009 0.3499499857 1.9500000477 43.962001801 142.49400330 2.0190000534 33.449001312 1.1599999666 1.4670000076
 794.24993896  -999.250000 18.406999588 0.0350000001 0.3583399951 1.9900000095 45.472000122 141.77799988 2.0520000458 33.515998840 1.1690000296 1.4850000143
 794.37487793  -999.250000 18.337999344 0.0450000018 0.3619900048 2.0380001068 46.084999084 140.78599548 2.0769999027 33.518001556 1.1759999990 1.5010000467
 794.49993896  -999.250000 18.292999268 0.0570000000 0.3609000146 2.0799999237 45.965000153 139.47500610 2.0950000286 33.457000732 1.1820000410 1.5149999857
 794.62487793  -999.250000 18.225999832 0.0680000037 0.3569900095 2.1070001125 45.405998230 137.85400391 2.1070001125 33.375999451 1.1890000105 1.5269999504
 794.75012207  -999.250000 18.118999481 0.0829999968 0.3530699909 2.1270000935 44.513999939 136.10299683 2.1140000820 33.328998566 1.1970000267 1.5360000134
 794.87512207  -999.250000 17.996999741 0.0979999974 0.3499400020 2.1400001049 43.561000824 134.59399414 2.1189999580 33.342998505 1.2039999962 1.5440000296
 795.00006104  -999.250000 17.878000259 0.1059999987 0.3460100293 2.1410000324 42.709999084 133.75500488 2.1219999790 33.391998291 1.2070000172 1.5499999523
 795.12506104  -999.250000 17.771999359 0.1000000015 0.3404700160 2.1219999790 42.116001129 133.88499451 2.1250000000 33.426998138 1.2059999704 1.5570000410
 795.25000000  -999.250000 17.695999146 0.0810000002 0.3367300034 2.0889999866 42.053001404 134.77099609 2.1240000725 33.426998138 1.2050000429 1.5590000153
 795.37506104  -999.250000 17.667999268 0.0579999983 0.3378799856 2.0539999008 42.823001862 135.95300293 2.1199998856 33.390998840 1.2059999704 1.5579999685
 795.50000000  -999.250000 17.698999405 0.0390000008 0.3436700106 2.0299999714 44.499000549 136.83399963 2.1129999161 33.326000214 1.2089999914 1.5529999733
 795.62493896  -999.250000 17.783000946 0.0329999998 0.3496900201 2.0269999504 46.693000793 137.01699829 2.1050000191 33.221000671 1.2130000591 1.5460000038
 795.74987793  -999.250000 17.893999100 0.0379999988 0.3510299921 2.0399999619 48.469001770 136.51699829 2.0999999046 33.091999054 1.2159999609 1.5390000343
 795.87487793  -999.250000 18.006000519 0.0500000007 0.3456900120 2.0620000362 49.074001312 135.53500366 2.0999999046 32.987998962 1.2170000076 1.5360000134
 796.00012207  -999.250000 18.113000870 0.0619999990 0.3346000016 2.0820000172 48.470001221 134.47099304 2.1059999466 32.956001282 1.2159999609 1.5379999876
 796.12512207  -999.250000 18.215999603 0.0680000037 0.3230199814 2.0920000076 47.509998322 133.63000488 2.1170001030 33.013000488 1.2130000591 1.5449999571
 796.25006104  -999.250000 18.305999756 0.0659999996 0.3144400120 2.0910000801 47.333000183 133.14999390 2.1289999485 33.123001099 1.2130000591 1.5570000410
 796.37506104  -999.250000 18.360000610 0.0579999983 0.3091099858 2.0840001106 48.097000122 133.10400391 2.1410000324 33.229000092 1.2170000076 1.5700000525
 796.50000000  -999.250000 18.364999771 0.0489999987 0.3100799918 2.0750000477 49.180999756 133.40400696 2.1500000954 33.297000885 1.2269999981 1.5809999704
 796.62493896  -999.250000 18.329000473 0.0450000018 0.3213900030 2.0750000477 49.884998322 133.92799377 2.1579999924 33.323001862 1.2410000563 1.5889999866
 796.74993896  -999.250000 18.285999298 0.0480000004 0.3374100029 2.0829999447 49.907001495 134.43099976 2.1659998894 33.328998566 1.2519999743 1.5930000544
 796.87493896  -999.250000 18.267000198 0.0540000014 0.3462900221 2.0940001011 49.883998871 134.58799744 2.1760001183 33.334999084 1.2569999695 1.5939999819
 796.99987793  -999.250000 18.268999100 0.0579999983 0.3396099806 2.1019999981 50.361999512 134.22000122 2.1870000362 33.361999512 1.2560000420 1.5950000286
