# LAS format log file from PETREL
# Project units are specified as depth units
#==================================================================
~Version information
VERS.   2.0:
WRAP.   NO:
#==================================================================
~Well
STRT .m      586.57812500 :
STOP .m      4014.2067871 :
STEP .m     0.00000000 :
NULL .        -999.250000 :
COMP.           : COMPANY
WELL.  34/10-21   : WELL
FLD.            : FIELD
LOC.            : LOCATION
SRVC.           : SERVICE COMPANY
DATE.  2018-09-11 14:48:44   : Log Export Date {yyyy-MM-dd HH:mm:ss}
PROV.           : PROVINCE
UWI.   34/10-21   : UNIQUE WELL ID
API.            : API NUMBER
#==================================================================
~Curve
DEPT .m                   : DEPTH
Lithology_geolink ._      : Lithology_geolink
CALI .in                  : CALI
DRHO .g/cm3               : DRHO
NPHI .m3/m3               : NPHI
RHOB .g/cm3               : RHOB
PEF .b/e                  : PEF
GR .gAPI                  : GR
DTC .us/ft                : DTC
RDEP .ohm.m               : RDEP
SP .mV                    : SP
RSHA .ohm.m               : RSHA
RMED .ohm.m               : RMED
~Parameter
#==================================================================
~Ascii
# ...
 1274.2070313  -999.250000 17.891000748 0.0350024030  -999.250000 2.0539999008 3.9900000095 28.445999146 135.43800354 0.8670007586 17.075000763 1.1470191479 0.8210191727
 1274.3594971  -999.250000 17.983999252 0.0439855754  -999.250000 2.0709729195 3.5269999504 28.742000580 136.37350464 0.8679983616 17.075000763 1.1529903412 0.8110160232
 1274.5118408  -999.250000 18.086000443 0.0430016033  -999.250000 2.0729968548 3.5050001144 29.570999146 137.81069946 0.8669975996 17.200000763 1.1529999971 0.8040112257
 1274.6641846  -999.250000 18.062999725 0.0489855856  -999.250000 2.0779881477 3.9159998894 29.781000137 138.56120300 0.8639976382 17.075000763 1.1111007929 0.8010072112
 1274.8166504  -999.250000 17.930000305 0.0579855740  -999.250000 2.0740063190 4.7470002174 28.492000580 138.56199646 0.8609976172 16.825000763 1.1080048084 0.8109839559
 1274.9689941  -999.250000 17.781000137 0.0769543648  -999.250000 2.0809831619 5.2010002136 27.680000305 138.37544250 0.8579967618 16.950000763 1.1189734936 0.8169855475
 1275.1214600  -999.250000 17.851999283 0.0819919929  -999.250000 2.0819983482 5.3540000916 26.514999390 138.62460327 0.8539967537 17.325000763 1.1100144386 0.8219920397
 1275.2738037  -999.250000 18.016000748 0.0829975978  -999.250000 2.0790071487 5.3099999428 25.858999252 138.99909973 0.8500007987 17.575000763 1.0850601196 0.8229976296
 1275.4262695  -999.250000 18.047000885 0.0820016041  -999.250000 2.0690159798 5.3449997902 26.524000168 138.75039673 0.8510016203 17.450000763 1.0201041698 0.8180080056
 1275.5786133  -999.250000 18.069999695 0.0859903917  -999.250000 2.0510432720 5.8740000725 28.016000748 137.87710571 0.8529992104 17.325000763 0.9421873093 0.8090216517
 1275.7310791  -999.250000 18.108999252 0.0979807675  -999.250000 2.0470063686 5.8499999046 28.320999146 136.68991089 0.8519992232 17.325000763 0.9879262447 0.8020111918
 1275.8834229  -999.250000 17.983999252 0.1009927988  -999.250000 2.0469999313 5.7639999390 27.937999725 136.37574768 0.8510016203 17.325000763 1.0668102503 0.8109783530
 1276.0358887  -999.250000 17.875000000 0.0950096175  -999.250000 2.0569839478 5.1059999466 27.718999863 136.68649292 0.8530015945 17.325000763 1.0689967871 0.8229807615
 1276.1882324  -999.250000 17.922000885 0.0790384337  -999.250000 2.0569999218 4.8239998817 27.687999725 136.81269836 0.8540039659 16.950000763 1.0540360212 0.8239976168
 1276.3406982  -999.250000 17.774000168 0.0650224313  -999.250000 2.0579984188 4.4609999657 26.735000610 136.99969482 0.8590144515 16.700000763 1.0260448456 0.8230016232
 1276.4930420  -999.250000 17.656000137 0.0610064119  -999.250000 2.0589983463 4.2569999695 25.788999557 136.43890381 0.8680039644 16.700000763 0.9860640764 0.8289903998
 1276.6455078  -999.250000 17.711000443 0.0699855909  -999.250000 2.0709807873 4.1269998550 26.000000000 135.93780518 0.8730080128 16.450000763 0.9510560036 0.8309967518
 1276.7978516  -999.250000 17.812999725 0.0749919936  -999.250000 2.0739951134 3.9690001011 27.733999252 135.68820190 0.8780040145 16.450000763 0.9599927664 0.8280023932
 1276.9501953  -999.250000 17.930000305 0.0750000030  -999.250000 2.0739998817 3.6380000114 29.274000168 135.31259155 0.8829976320 16.700000763 1.0069247484 0.8160191774
 1277.1026611  -999.250000 17.952999115 0.0670128241  -999.250000 2.0700063705 3.2990000248 30.593999863 135.87454224 0.8799983859 16.825000763 1.1119158268 0.8150007725
 1277.2550049  -999.250000 18.257999420 0.0630096123  -999.250000 2.0729928017 3.0880000591 32.375000000 137.18489075 0.8780007958 17.075000763 1.1489408016 0.8359664083
 1277.4074707  -999.250000 18.586000443 0.0580080114  -999.250000 2.0660111904 3.2330000401 32.827999115 138.37405396 0.8790007830 17.200000763 1.1070336103 0.8569831848
 1277.5598145  -999.250000 18.687999725 0.0540096089  -999.250000 2.0540287495 3.6719999313 31.827999115 139.24859619 0.8800023794 17.325000763 1.1069999933 0.8749711514
 1277.7122803  -999.250000 18.913999557 0.0559967980  -999.250000 2.0490081310 3.9349999428 29.141000748 139.62469482 0.8830024004 17.575000763 1.1369758844 0.8839927912
 1277.8646240  -999.250000 19.226999283 0.0560000017  -999.250000 2.0470046997 4.2820000648 27.608999252 139.81285095 0.8859999776 17.950000763 1.1190143824 0.8889960051
 1278.0170898  -999.250000 19.406000137 0.0560000017  -999.250000 2.0430064201 4.4260001183 29.281000137 141.56159973 0.8859967589 18.325000763 1.0490560532 0.8949951530
 1278.1694336  -999.250000 19.430000305 0.0689687729  -999.250000 2.0420024395 5.0289998055 32.328998566 144.37374878 0.8840000033 18.575000763 1.0669856071 0.8959992528
 1278.3218994  -999.250000 19.218999863 0.0769871771  -999.250000 2.0439968109 5.3810000420 36.452999115 145.99870300 0.8839951754 19.075000763 1.0470160246 0.9049927592
 1278.4742432  -999.250000 18.108999252 0.0879735798  -999.250000 2.0499856472 5.9949998856 40.282001495 147.93743896 0.8809992075 19.450000763 0.9091105461 0.9020023942
 1278.6267090  -999.250000 17.108999252 0.0800128207  -999.250000 2.0270369053 6.2129998207 42.922000885 151.93478394 0.8800032139 19.700000763 0.9149951935 0.8800176382
 1278.7790527  -999.250000 16.944999695 0.0700160265  -999.250000 1.9960497618 5.4450001717 45.828998566 155.06050110 0.8820024133 19.950000763 0.9909390807 0.8590168357
 1278.9313965  -999.250000 16.805000305 0.0420672521  -999.250000 1.9570937157 4.5440001488 48.594001770 156.87210083 0.8850055933 20.075000763 0.9650415778 0.8609967828
 1279.0838623  -999.250000 16.726999283 0.0110496795  -999.250000 1.9320400953 4.1100001335 50.594001770 157.56144714 0.8920048475 20.200000763 0.9220344424 0.8779863715
 1279.2362061  -999.250000 16.718999863 0.0030192153  -999.250000 1.9250167608 4.0130000114 50.625000000 155.06700134 0.8980048299 20.075000763 0.8950431943 0.8780000210
 1279.3885498  -999.250000 16.773000717 0.0010048078  -999.250000 1.9160215855 3.8491313457 49.922565460 151.00451660 0.9039999843 20.199901581 0.9089775681 0.8789983988
 1279.5408936  -999.250000 16.961000443 0.0079775825  -999.250000 1.9199872017 3.8010385036 50.124835968 147.94535828 0.9060000181 20.449800491 0.9947934151 0.8949615359
 1279.6933594  -999.250000 17.319999695 0.0080000004  -999.250000 1.9289784431 3.7480423450 48.954936981 147.43780518 0.9049999714 20.325099945 1.0928430557 0.9319406748
 1279.8457031  -999.250000 17.358999252 0.0050096074  -999.250000 1.9479391575 3.7240192890 46.642852783 148.62309265 0.9060000181 20.325000763 1.1918413639 0.9659455419
 1279.9980469  -999.250000 17.141000748 -0.001977564  -999.250000 1.9629520178 3.8887357712 44.831901550 148.74969482 0.9129999876 20.574600220 1.1241632700 0.9779711366
 1280.1505127  -999.250000 17.047000885 0.0019871898  -999.250000 1.9729679823 4.4425559044 45.530437469 148.99960327 0.9200000167 20.824800491 0.9392964840 0.9859871864
 1280.3028564  -999.250000 17.139999390 0.0099743586  -999.250000 1.9700096846 4.7564973831 47.060546875 147.94154358 0.9240000248 20.949800491 0.9659351707 0.9750264287
 1280.4553223  -999.250000 17.148000717 0.0179743785  -999.250000 1.9670096636 4.5301818848 49.029422760 144.81800842 0.9250000119 20.825101852 1.0408798456 0.9690095782
 1280.6076660  -999.250000 17.031000137 0.0199935902  -999.250000 1.9689935446 4.0008487701 51.963294983 143.37844849 0.9210000038 20.825000763 1.0150624514 0.9899495840
 1280.7601318  -999.250000 17.086000443 0.0209975950  -999.250000 1.9769808054 3.7192251682 52.718399048 145.49659729 0.9139999747 20.949899673 0.9900400639 1.0069726706
 1280.9124756  -999.250000 17.141000748 0.0379455537  -999.250000 1.9989295006 3.7529728413 50.223003387 147.93113708 0.9110000134 21.199800491 1.0249159336 1.0069999695
 1281.0649414  -999.250000 17.141000748 0.0399951898  -999.250000 1.9980024099 4.4384508133 45.269966125 149.93479919 0.9169999957 21.699600220 0.9081875086 1.0139888525
 1281.2172852  -999.250000 17.327999115 0.0330224186  -999.250000 1.9541409016 5.2513484955 43.641304016 152.36814880 0.9169999957 21.824899673 0.7324227095 1.0120047331
 1281.3697510  -999.250000 17.288999557 0.0230240393  -999.250000 1.9061154127 5.4788184166 46.169975281 152.00059509 0.9120000005 21.825000763 0.8587964773 0.9850432873
