# LAS format log file from PETREL
# Project units are specified as depth units
#==================================================================
~Version information
VERS.   2.0:
WRAP.   NO:
#==================================================================
~Well
STRT .m      492.56594849 :
STOP .m      2784.8139648 :
STEP .m     0.00000000 :
NULL .        -999.250000 :
COMP.           : COMPANY
WELL.  34/10-5   : WELL
FLD.            : FIELD
LOC.            : LOCATION
SRVC.           : SERVICE COMPANY
DATE.  2018-09-11 14:48:46   : Log Export Date {yyyy-MM-dd HH:mm:ss}
PROV.           : PROVINCE
UWI.   34/10-5   : UNIQUE WELL ID
API.            : API NUMBER
#==================================================================
~Curve
DEPT .m                   : DEPTH
Lithology_geolink ._      : Lithology_geolink
CALI .in                  : CALI
DRHO .g/cm3               : DRHO
NPHI .m3/m3               : NPHI
RHOB .g/cm3               : RHOB
GR .gAPI                  : GR
DTC .us/ft                : DTC
RDEP .ohm.m               : RDEP
SP .mV                    : SP
RSHA .ohm.m               : RSHA
RMED .ohm.m               : RMED
~Parameter
#==================================================================
~Ascii
# ...
 795.68951416  -999.250000 18.500000000 0.0439999998  -999.250000 2.1519999504 53.979076385 138.12675476 1.9850112200 23.414402008  -999.250000 1.6170015335
 795.84191895  -999.250000 18.250000000 0.0619999990  -999.250000 2.1579999924 54.966197968 138.12500000 1.9850000143 23.288351059  -999.250000 1.6169999838
 795.99432373  -999.250000 18.187999725 0.0799999982  -999.250000 2.1719999313 56.184581757 139.12300110 1.9929776192 23.038700104  -999.250000 1.6199976206
 796.14672852  -999.250000 18.250000000 0.0970000029  -999.250000 2.1600000858 57.527233124 138.12699890 1.9930000305 23.038000107  -999.250000 1.6309912205
 796.29913330  -999.250000 17.797000885 0.0930000022  -999.250000 2.1449999809 51.953678131 137.00180054 1.9820308685 23.162649155  -999.250000 1.6509840488
 796.45153809  -999.250000 18.062999725 0.1040000021  -999.250000 2.1449999809 57.390670776 136.37600708 1.9700336456 23.287649155  -999.250000 1.6739815474
 796.60388184  -999.250000 18.062999725 0.0970000029  -999.250000 2.1459999084 56.814899445 136.00074768 1.9410928488 23.412599564  -999.250000 1.6480312347
 796.75628662  -999.250000 18.031000137 0.1239999980  -999.250000 2.1779999733 60.924785614 137.49699402 1.9051153660 23.413000107  -999.250000 1.6000577211
 796.90869141  -999.250000 18.141000748 0.0949999988  -999.250000 2.1619999409 60.221305847 139.74549866 1.8740992546 23.537599564  -999.250000 1.5450659990
 797.06109619  -999.250000 18.141000748 0.1110000014  -999.250000 2.1819999218 62.025192261 142.99349976 1.8440960646 23.911798477  -999.250000 1.5250240564
 797.21350098  -999.250000 18.125000000 0.1110000014  -999.250000 2.1760001183 67.422836304 143.99800110 1.8240561485 24.037649155  -999.250000 1.5050240755
 797.36590576  -999.250000 17.922000885 0.1110000014  -999.250000 2.1800000668 66.690109253 145.12274170 1.8429467678 23.788700104  -999.250000 1.4920156002
 797.51831055  -999.250000 17.858999252 0.0610000007  -999.250000 2.1410000324 65.129379272 146.37249756 1.8679299355 23.538700104  -999.250000 1.5059888363
 797.67071533  -999.250000 17.781000137 0.0240000002  -999.250000 2.1370000839 63.784767151 144.37899780 1.8929299116 23.538000107  -999.250000 1.5289815664
 797.82312012  -999.250000 17.781000137 0.0140000004  -999.250000 2.1459999084 61.631042480 142.00476074 1.9308934212 23.288700104  -999.250000 1.5949472189
 797.97552490  -999.250000 17.781000137 0.0270000007  -999.250000 2.1679999828 63.713130951 139.00601196 1.9599187374 23.288000107  -999.250000 1.6659431458
 798.12792969  -999.250000 17.766000748 0.0280000009  -999.250000 2.1779999733 61.444393158 137.00399780 1.9998878241 23.038700104  -999.250000 1.7169591188
 798.28033447  -999.250000 17.750000000 0.0250000004  -999.250000 2.1800000668 63.432392120 136.37625122 2.0678093433 22.913351059  -999.250000 1.7040103674
 798.43273926  -999.250000 17.781000137 0.0549999997  -999.250000 2.2290000916 63.064052582 136.00059509 2.1407954693 22.913000107  -999.250000 1.7179888487
 798.58508301  -999.250000 17.797000885 0.0540000014  -999.250000 2.2339999676 65.804191589 135.50100708 2.1968204975 22.913000107  -999.250000 1.7589507103
 798.73748779  -999.250000 17.827999115 0.0689999983  -999.250000 2.2560000420 62.698013306 132.50601196 2.2288975716 22.913000107  -999.250000 1.7949566841
 798.88989258  -999.250000 17.858999252 0.0509999990  -999.250000 2.2400000095 61.566604614 131.37725830 2.2459456921 23.162199020  -999.250000 1.8029903173
 799.04229736  -999.250000 18.031000137 0.0610000007  -999.250000 2.2439999580 58.042312622 131.99874878 2.2519807816 23.163000107  -999.250000 1.8000035286
 799.19470215  -999.250000 18.062999725 0.0630000010  -999.250000 2.2439999580 55.165210724 132.49899292 2.2400383949 23.163000107  -999.250000 1.8009988070
 799.34710693  -999.250000 18.187999725 0.0799999982  -999.250000 2.2679998875 53.535556793 132.74949646 2.2380056381 23.412298203  -999.250000 1.8089903593
 799.49951172  -999.250000 18.202999115 0.0670000017  -999.250000 2.2479999065 55.931251526 133.37374878 2.2459776402 23.786949158  -999.250000 1.8109984398
 799.65191650  -999.250000 18.187999725 0.0549999997  -999.250000 2.2190001011 58.555641174 133.49975586 2.2559719086 23.289402008  -999.250000 1.8129984140
 799.80432129  -999.250000 18.141000748 0.0370000005  -999.250000 2.1909999847 60.619220734 133.12574768 2.2540056705 23.288000107  -999.250000 1.8110015392
 799.95672607  -999.250000 17.983999252 0.0309999995  -999.250000 2.2009999752 55.577190399 133.00024414 2.2579886913 23.163351059  -999.250000 1.8000087738
 800.10913086  -999.250000 18.062999725 0.0480000004  -999.250000 2.2500000000 53.162746429 132.00199890 2.2460336685 22.913700104  -999.250000 1.7999999523
 800.26153564  -999.250000 18.141000748 0.0390000008  -999.250000 2.2620000839 53.468124390 131.75050354 2.2400169373 22.539051056  -999.250000 1.7870103121
 800.41394043  -999.250000 18.141000748 0.0390000008  -999.250000 2.2699999809 58.859844208 131.50039673 2.2479774952 22.538000107  -999.250000 1.7810047865
 800.56634521  -999.250000 18.141000748 0.0209999997  -999.250000 2.2460000515 59.841285706 131.00079346 2.2699382305 22.662649155  -999.250000 1.7760040760
 800.71868896  -999.250000 18.062999725 0.0390000008  -999.250000 2.2520000935 59.033603668 130.75050354 2.2829582691 22.912199020  -999.250000 1.7839903831
 800.87109375  -999.250000 18.062999725 0.0469999984  -999.250000 2.2520000935 61.647586823 131.49850464 2.2989487648 23.037599564  -999.250000 1.8009796143
 801.02349854  -999.250000 18.031000137 0.0430000015  -999.250000 2.2420001030 60.722003937 131.74949646 2.3199326992 23.287199020  -999.250000 1.8129855394
 801.17590332  -999.250000 18.062999725 0.0219999999  -999.250000 2.2230000496 61.154598236 132.49850464 2.3140192032 23.412599564  -999.250000 1.8249856234
 801.32830811  -999.250000 18.062999725 0.0320000015  -999.250000 2.2269999981 57.323776245 132.50000000 2.2930588722 23.537649155  -999.250000 1.8289952278
 801.48071289  -999.250000 18.108999252 0.0469999984  -999.250000 2.2420001030 56.876228333 132.99899292 2.3009777069 23.413351059  -999.250000 1.8250048161
 801.63311768  -999.250000 18.108999252 0.0469999984  -999.250000 2.2300000191 56.501052856 132.50100708 2.2750730515 23.662300110  -999.250000 1.8050159216
 801.78552246  -999.250000 18.187999725 0.0240000002  -999.250000 2.2049999237 56.406261444 132.00100708 2.2540588379 23.663000107  -999.250000 1.7970064878
 801.93792725  -999.250000 18.187999725 0.0209999997  -999.250000 2.1949999332 60.675994873 132.00000000 2.2420337200 23.538351059  -999.250000 1.8009967804
 802.09033203  -999.250000 18.187999725 0.0329999998  -999.250000 2.2049999237 60.937297821 131.37625122 2.2320282459 23.538000107  -999.250000 1.8149888515
 802.24273682  -999.250000 18.187999725 0.0450000018  -999.250000 2.2109999657 58.039146423 131.12550354 2.2419719696 23.039402008  -999.250000 1.8379815817
 802.39514160  -999.250000 18.141000748 0.0230000000  -999.250000 2.1860001087 61.334712982 131.74874878 2.2439942360 22.664051056  -999.250000 1.8639791012
 802.54754639  -999.250000 18.141000748 0.0359999985  -999.250000 2.1760001183 60.222156525 131.00120544 2.2619495392 22.164402008  -999.250000 1.8699952364
 802.69995117  -999.250000 17.875000000 0.0219999999  -999.250000 2.1600000858 65.360542297 131.74879456 2.3028850555 21.789051056  -999.250000 1.8590087891
 802.85229492  -999.250000 17.827999115 0.0399999991  -999.250000 2.1719999313 61.667911530 131.75000000 2.3219392300 21.912599564  -999.250000 1.8540059328
 803.00469971  -999.250000 17.922000885 0.0450000018  -999.250000 2.2109999657 67.294876099 131.37574768 2.3239934444 21.913000107  -999.250000 1.8390179873
 803.15710449  -999.250000 17.968999863 0.0549999997  -999.250000 2.2360000610 69.929595947 131.37500000 2.3299806118 22.535997391  -999.250000 1.8160276413
 803.30950928  -999.250000 18.062999725 0.0560000017  -999.250000 2.2709999084 69.252204895 131.74925232 2.3260128498 22.911798477  -999.250000 1.8259879351
