# LAS format log file from PETREL
# Project units are specified as depth units
#==================================================================
~Version information
VERS.   2.0:
WRAP.   NO:
#==================================================================
~Well
STRT .m      3900.0166016 :
STOP .m      4564.4804688 :
STEP .m     0.00000000 :
NULL .        -999.250000 :
COMP.           : COMPANY
WELL.  34/11-1   : WELL
FLD.            : FIELD
LOC.            : LOCATION
SRVC.           : SERVICE COMPANY
DATE.  2018-09-11 14:48:47   : Log Export Date {yyyy-MM-dd HH:mm:ss}
PROV.           : PROVINCE
UWI.   34/11-1   : UNIQUE WELL ID
API.            : API NUMBER
#==================================================================
~Curve
DEPT .m                   : DEPTH
Lithology_geolink ._      : Lithology_geolink
CALI .in                  : CALI
BS .in                    : BS
NPHI .m3/m3               : NPHI
RHOB .g/cm3               : RHOB
GR .gAPI                  : GR
DTC .us/ft                : DTC
DTS .us/ft                : DTS
RDEP .ohm.m               : RDEP
SP .mV                    : SP
RSHA .ohm.m               : RSHA
RMED .ohm.m               : RMED
~Parameter
#==================================================================
~Ascii
# ...
 4470.6020508 5.0000000000 9.4010000229 8.3750000000 0.2198766768 2.5690000057 111.58339691 82.541427612 160.85531616 3.6019999981  -999.250000 4.3770771027 4.5079998970
 4470.7543945 5.0000000000 9.4020004272 8.3750000000 0.2529118061 2.5780000687 111.76140594 82.588058472 160.05523682 3.5969998837  -999.250000 4.3697981834 4.5159997940
 4470.9072266 5.0000000000 9.4209995270 8.3750000000 0.2847145498 2.6540000439 109.56462097 82.645217896 159.29347229 3.5899999142  -999.250000 4.3645386696 4.5170001984
 4471.0595703 5.0000000000 9.4350004196 8.3750000000 0.2268782705 2.6770000458 104.12754059 82.709983826 158.14819336 3.6080000401  -999.250000 4.3587822914 4.5209999084
 4471.2119141 5.0000000000 9.4350004196 8.3750000000 0.1916694939 2.6349999905 99.544860840 82.746040344 158.00308228 3.6679999828  -999.250000 4.3540258408 4.5240001678
 4471.3642578 5.0000000000 9.4350004196 8.3750000000 0.2123818099 2.6059999466 100.75117493 82.675949097 159.76837158 3.7550001144  -999.250000 4.3505125046 4.5269999504
 4471.5166016 5.0000000000 9.4359998703 8.3750000000 0.2326753885 2.5759999752 105.59441376 82.506500244 160.51815796 3.8350000381  -999.250000 4.3482713699 4.5289998055
 4471.6689453 5.0000000000 9.4449996948 8.3750000000 0.2524102628 2.5840001106 106.89670563 82.331596375 158.89823914 3.8719999790  -999.250000 4.3443174362 4.5430002213
 4471.8212891 5.0000000000 9.4449996948 8.3750000000 0.2276943624 2.5950000286 104.79547119 82.221817017 159.33616638 3.8729999065  -999.250000 4.3358750343 4.5599999428
 4471.9736328 5.0000000000 9.4069995880 8.3750000000 0.2381323129 2.6129999161 104.17076111 82.159255981 158.22370911 3.8710000515  -999.250000 4.3154234886 4.5549998283
 4472.1264648 5.0000000000 9.4350004196 8.3750000000 0.2380789965 2.6059999466 104.51191711 82.111694336 159.55494690 3.8759999275  -999.250000 4.2525258064 4.5450000763
 4472.2788086 5.0000000000 9.4350004196 8.3750000000 0.2432832867 2.5840001106 104.03253937 82.044105530 160.36238098 3.8710000515  -999.250000 4.1086282730 4.4959998131
 4472.4311523 5.0000000000 9.4350004196 8.3750000000 0.2341575623 2.5739998817 104.94950867 81.887474060 161.50254822 3.8450000286  -999.250000 3.8872950077 4.4000000954
 4472.5834961 5.0000000000 9.4350004196 8.3750000000 0.2264938504 2.5629999638 107.62062073 81.550224304 160.22271729 3.7890000343  -999.250000 3.6606667042 4.2769999504
 4472.7358398 5.0000000000 9.4350004196 8.3750000000 0.2060143650 2.5539999008 110.59082031 81.091804504 158.51048279 3.6870000362  -999.250000 3.4913332462 4.1009998322
 4472.8881836 5.0000000000 9.4189996719 8.3750000000 0.1998917907 2.5539999008 114.20736694 80.791999817 159.86466980 3.5520000458  -999.250000 3.3621628284 3.8770000935
 4473.0405273 6.0000000000 9.2799997330 8.3750000000 0.2315305024 2.6010000706 116.14034271 81.019752502 163.56025696 3.4079999924  -999.250000 3.2366731167 3.6480000019
 4473.1928711 6.0000000000 9.2399997711 8.3750000000 0.2143224478 2.6589999199 117.69835663 81.562225342 168.94224548 3.2620000839  -999.250000 3.1202020645 3.4440000057
 4473.3452148 6.0000000000 9.2069997787 8.3750000000 0.2374619246 2.6280000210 122.78319550 81.932823181 171.91735840 3.1189999580  -999.250000 3.0257692337 3.2969999313
 4473.4980469 6.0000000000 9.1929998398 8.3750000000 0.2841166854 2.6180000305 126.41487122 82.198410034 173.17065430 2.9900000095  -999.250000 2.9506280422 3.1930000782
 4473.6503906 6.0000000000 9.1929998398 8.3750000000 0.2308052480 2.6110000610 127.48834991 82.375450134 175.66822815 2.8800001144  -999.250000 2.8969871998 3.0940001011
 4473.8027344 6.0000000000 9.1929998398 8.3750000000 0.2209385782 2.5940001011 128.38081360 82.560028076 175.36373901 2.7880001068  -999.250000 2.8621795177 3.0020000935
 4473.9550781 6.0000000000 9.1929998398 8.3750000000 0.2918411493 2.6070001125 123.96494293 82.806190491 175.60891724 2.7039999962  -999.250000 2.8346667290 2.9340000153
 4474.1074219 6.0000000000 9.1929998398 8.3750000000 0.2888107598 2.6080000401 107.63337708 83.222496033 175.04241943 2.6340000629  -999.250000 2.8072299957 2.8870000839
 4474.2597656 6.0000000000 9.1929998398 8.3750000000 0.2357040942 2.6259999275 92.513397217 83.905158997 177.35565186 2.5859999657  -999.250000 2.7724230289 2.8429999352
 4474.4121094 6.0000000000 9.1929998398 8.3750000000 0.2714107633 2.6329998970 99.894668579 84.823692322 179.92481995 2.5490000248  -999.250000 2.7255384922 2.7980000973
 4474.5644531 6.0000000000 9.1929998398 8.3750000000 0.2553101480 2.6219999790 113.73090363 85.800910950 181.83033752 2.5060000420  -999.250000 2.6705000401 2.7690000534
 4474.7167969 6.0000000000 9.1929998398 8.3750000000 0.3287935853 2.6019999981 116.65352631 86.658760071 181.93946838 2.4530000687  -999.250000 2.6259520054 2.7439999580
 4474.8696289 6.0000000000 9.1960000992 8.3750000000 0.3328709006 2.6010000706 115.15358734 87.367645264 181.83811951 2.4119999409  -999.250000 2.6148717403 2.7009999752
 4475.0219727 6.0000000000 9.2089996338 8.3750000000 0.3149030805 2.6210000515 114.11434174 87.822921753 182.43946838 2.3970000744  -999.250000 2.6404745579 2.6359999180
 4475.1743164 6.0000000000 9.1990003586 8.3750000000 0.3782144785 2.6040000916 113.94882202 88.004631042 183.53923035 2.3900001049  -999.250000 2.6854231358 2.5869998932
 4475.3266602 6.0000000000 9.1929998398 8.3750000000 0.3119146228 2.5929999352 114.00487518 87.989944458 183.22473145 2.3859999180  -999.250000 2.7412948608 2.5780000687
 4475.4790039 6.0000000000 9.1929998398 8.3750000000 0.2623178363 2.5769999027 114.04278564 87.833824158 180.10974121 2.4000000954  -999.250000 2.8146677017 2.6240000725
 4475.6313477 6.0000000000 9.1929998398 8.3750000000 0.2323539704 2.5889999866 115.04637146 87.790077209 178.27272034 2.4240000248  -999.250000 2.8942692280 2.7269999981
 4475.7836914 6.0000000000 9.1909999847 8.3750000000 0.2655466795 2.6010000706 115.81265259 87.923606873 177.12112427 2.4409999847  -999.250000 2.9693076611 2.8380000591
 4475.9360352 6.0000000000 9.1770000458 8.3750000000 0.2376452684 2.5729999542 116.61602783 88.238853455 178.68957520 2.4590001106  -999.250000 3.0374615192 2.8840000629
 4476.0888672 6.0000000000 9.1920003891 8.3750000000 0.2948215306 2.5799999237 118.32190704 88.709831238 180.83000183 2.4920001030  -999.250000 3.0894999504 2.9010000229
 4476.2412109 6.0000000000 9.1859998703 8.3750000000 0.2530184090 2.5969998837 121.39267731 89.201187134 182.80995178 2.5369999409  -999.250000 3.1270384789 2.9489998817
 4476.3935547 6.0000000000 9.1649999619 8.3750000000 0.2845465243 2.5869998932 122.29602051 89.480422974 183.17398071 2.5889999866  -999.250000 3.1580896378 3.0190000534
 4476.5458984 6.0000000000 9.1920003891 8.3750000000 0.2566766739 2.5650000572 119.28565979 89.311027527 184.49731445 2.6429998875  -999.250000 3.1838204861 3.0769999027
 4476.6982422 6.0000000000 9.1899995804 8.3750000000 0.2588325739 2.5650000572 115.83240509 88.663894653 182.74905396 2.6940000057  -999.250000 3.2139840126 3.0989999771
 4476.8505859 6.0000000000 9.1929998398 8.3750000000 0.2579779327 2.5720000267 114.34739685 87.702972412 180.47036743 2.7330000401  -999.250000 3.2417597771 3.1050000191
 4477.0029297 6.0000000000 9.1929998398 8.3750000000 0.2313151211 2.5569999218 115.71656799 86.812072754 178.69892883 2.7590000629  -999.250000 3.2126345634 3.1210000515
 4477.1552734 6.0000000000 9.1929998398 8.3750000000 0.2458005100 2.5599999428 117.56394958 86.186378479 178.35504150 2.7799999714  -999.250000 3.0751633644 3.1489999294
 4477.3076172 6.0000000000 9.1929998398 8.3750000000 0.2559294701 2.5610001087 118.66906738 85.807426453 178.99945068 2.7799999714  -999.250000 2.8867404461 3.1960000992
 4477.4604492 6.0000000000 9.1929998398 8.3750000000 0.2708802819 2.5639998913 118.25650024 85.721717834 180.14172363 2.7369999886  -999.250000 2.7502436638 3.1889998913
 4477.6127930 6.0000000000 9.1920003891 8.3750000000 0.2487093657 2.5750000477 116.50094604 85.759002686 180.58625793 2.6649999619  -999.250000 2.6827435493 3.0390000343
 4477.7651367 6.0000000000 9.1929998398 8.3750000000 0.2545125782 2.5810000896 116.62163544 85.699890137 180.36917114 2.5959999561  -999.250000 2.6486411095 2.8550000191
