# LAS format log file from PETREL
# Project units are specified as depth units
#==================================================================
~Version information
VERS.   2.0:
WRAP.   NO:
#==================================================================
~Well
STRT .m      3166.7685547 :
STOP .m      4692.7500000 :
STEP .m     0.00000000 :
NULL .        -999.250000 :
COMP.           : COMPANY
WELL.  34/12-1   : WELL
FLD.            : FIELD
LOC.            : LOCATION
SRVC.           : SERVICE COMPANY
DATE.  2018-09-11 14:48:48   : Log Export Date {yyyy-MM-dd HH:mm:ss}
PROV.           : PROVINCE
UWI.   34/12-1   : UNIQUE WELL ID
API.            : API NUMBER
#==================================================================
~Curve
DEPT .m                   : DEPTH
Lithology_geolink ._      : Lithology_geolink
CALI .in                  : CALI
BS .in                    : BS
ROP .m/h                  : ROP
DRHO .g/cm3               : DRHO
THOR .ppm                 : THOR
SGR .gAPI                 : SGR
NPHI .m3/m3               : NPHI
RHOB .g/cm3               : RHOB
PEF .b/e                  : PEF
GR .gAPI                  : GR
URAN .ppm                 : URAN
DTC .us/ft                : DTC
DTS .us/ft                : DTS
RDEP .ohm.m               : RDEP
RSHA .ohm.m               : RSHA
RMED .ohm.m               : RMED
~Parameter
#==================================================================
~Ascii
# ...
 3684.1667480  -999.250000 12.350099564 12.250000954 87031.882813 -0.000801600 3.9755001068 0.0061993604 0.2876660824 2.5761003494 3.7239637375 43.945682526 1.0140000582 90.231803894 175.99998474 2.0249907970 2.5037739277 2.0478887558
 3684.3190918  -999.250000 12.332699776 12.250000954 94567.992188 -0.001301923 4.2048001289 0.0059995195 0.2770137787 2.5761985779 3.7127275467 45.027362823 0.9643999934 88.614761353 175.18179321 2.0532486439 2.5580079556 2.0754630566
 3684.4714355  -999.250000 12.332699776 12.250000954 92293.156250 -0.002499519 4.3724999428 0.0057001603 0.2232525647 2.5753076077 3.7299461365 43.260684967 1.0132999420 89.526870728 175.54550171 2.0212459564 2.5627336502 2.0524640083
 3684.6237793  -999.250000 12.343199730 12.250000954 90909.804688 -0.002194391 4.7645001411 0.0058004805 0.1936632991 2.5801177025 3.7586550713 43.813415527 0.9727000594 90.690315247 176.18179321 1.9875199795 2.4590899944 2.0299377441
 3684.7761230  -999.250000 12.364100456 12.250000954 85131.234375 0.0013024039 4.3884000778 0.0061006411 0.1708259583 2.5910992622 3.7305593491 45.136947632 1.0990999937 90.882263184 175.36360168 1.9376808405 2.4525189400 1.9910892248
 3684.9287109  -999.250000 12.353599548 12.250000954 85476.617188 0.0027964800 4.5016999245 0.0064964802 0.1870384067 2.5904805660 3.6427001953 47.529781342 0.9807000756 88.115348816 169.54537964 1.9260839224 2.2782521248 1.9848749638
 3685.0810547  -999.250000 12.336199760 12.250000954 78415.203125 0.0016948718 3.6087000370 0.0053996798 0.1990080178 2.5843877792 3.5805056095 45.772853851 1.2012000084 88.629104614 162.63639832 2.0460433960 2.5441086292 2.1331760883
 3685.2333984  -999.250000 12.332699776 12.250000954 76849.703125 -0.001502885 2.9632999897 0.0051993588 0.2039927840 2.5767989159 3.5841975212 41.943363190 1.0875999928 88.561309814 159.09089661 2.2601902485 2.7994470596 2.3678176403
 3685.3857422  -999.250000 12.311800957 12.250000954 78062.984375 -0.003297276 2.5989000797 0.0047993590 0.1994940639 2.5760142803 3.6450614929 40.792480469 0.8367000222 84.510902405 154.45449829 2.4413232803 3.2658164501 2.6282651424
 3685.5383301  -999.250000 12.343199730 12.250000954 77743.570313 -0.001599040 2.5473001003 0.0043987199 0.1957900822 2.5849056244 3.6835727692 37.289043427 0.6409000158 81.700157166 148.45449829 2.6441485882 3.9010975361 2.7953565121
 3685.6906738  -999.250000 12.364100456 12.250000954 73970.320313 -0.001298718 2.0278000832 0.0040000002 0.1926961541 2.5867066383 3.7374804020 36.082645416 0.6261000037 79.443237305 144.45449829 3.0972895622 4.5563707352 3.3757576942
 3685.8430176  -999.250000 12.343199730 12.250000954 73319.953125 -0.000501282 2.3438999653 0.0040008016 0.1902943999 2.5907905102 3.7875812054 32.745071411 0.5126000047 78.526138306 142.27270508 4.2757463455 5.7229228020 4.6591548920
 3685.9953613  -999.250000 12.329199791 12.250000954 72758.945313 -0.001301603 2.2518999577 0.0045016021 0.1868150681 2.5848820210 3.8382914066 31.978096008 0.6726999879 75.124595642 140.27270508 5.1130757332 6.3583846092 5.5637264252
 3686.1479492  -999.250000 12.322300911 12.250000954 65393.214844 -0.002294240 2.9117000103 0.0055025602 0.1962748766 2.5738029480 3.8328249454 31.114511490 0.7064999938 77.059089661 139.45449829 4.2220520973 5.3467745781 4.4546256065
 3686.3002930  -999.250000 12.336199760 12.250000954 63916.199219 -0.000499038 3.1205000877 0.0063008014 0.2196495235 2.5747008324 3.8093557358 34.615653992 0.8209999800 78.342147827 141.27270508 3.1159381866 3.7488970757 3.1534650326
 3686.4526367  -999.250000 12.343199730 12.250000954 63913.929688 0.0001019231 3.7325000763 0.0067998399 0.2505269051 2.5752093792 3.7817890644 40.201175690 0.8402000070 83.362121582 143.90910339 2.5164744854 2.9367115498 2.5705928802
 3686.6049805  -999.250000 12.343199730 12.250000954 62497.777344 0.0012969552 3.5316998959 0.0066999998 0.2673192322 2.5809917450 3.7749438286 45.232864380 1.0805000067 85.371208191 145.90910339 2.3758127689 2.6946895123 2.3792498112
 3686.7573242  -999.250000 12.322300911 12.250000954 60920.765625 -0.000602560 3.9618003368 0.0066987197 0.2792894542 2.5757963657 3.7398524284 45.893863678 0.9239000082 86.992965698 149.72729492 2.3214101791 2.6258764267 2.3478255272
 3686.9099121  -999.250000 12.343199730 12.250000954 65718.531250 -0.002200962 4.0050997734 0.0058993590 0.2726714909 2.5736002922 3.7100882530 44.555679321 0.9950000644 85.040290833 155.45451355 2.2652273178 2.6110579967 2.3013341427
 3687.0622559  -999.250000 12.343199730 12.250000954 66275.281250 -0.002795352 3.8480002880 0.0054996796 0.2548859119 2.5738117695 3.7028422356 41.052402496 1.0528000593 86.094558716 161.72729492 2.2197861671 2.5848693848 2.2602128983
 3687.2145996  -999.250000 12.350099564 12.250000954 66276.984375 0.0001049679 3.8417997360 0.0053004804 0.2461312413 2.5811035633 3.7292366028 38.753845215 0.9750999808 84.134834290 166.81820679 2.1488540173 2.5658817291 2.2060241699
 3687.3669434  -999.250000 12.343199730 12.250000954 66665.820313 0.0032105769 4.1546998024 0.0055995192 0.2656405270 2.5833189487 3.7520883083 41.405296326 0.8363999724 83.407821655 170.81820679 2.1200628281 2.5542018414 2.2208354473
 3687.5195313  -999.250000 12.336199760 12.250000954 69557.359375 0.0098048002 4.1739997864 0.0053028800 0.2909470201 2.5951037407 3.7446269989 45.455551147 1.0152000189 85.732017517 174.36360168 2.0344028473 2.4304215908 2.1180534363
 3687.6718750  -999.250000 12.353599548 12.250000954 73690.015625 0.0112979170 4.9244999886 0.0062000002 0.3055857122 2.5962972641 3.6905899048 46.653270721 0.6728000045 87.360282898 177.18180847 1.9418745041 2.3436381817 2.0101113319
 3687.8242188  -999.250000 12.364100456 12.250000954 70433.281250 0.0099889422 4.8207998276 0.0061998400 0.2967035174 2.5945684910 3.6218724251 44.953941345 0.9868000746 89.343750000 178.90910339 1.9259651899 2.3050296307 2.0172002316
 3687.9765625  -999.250000 12.378000259 12.250000954 70435.828125 0.0030924680 4.9629998207 0.0061014420 0.2989267707 2.5749778748 3.6048469543 45.169448853 0.9811000228 91.680770874 180.09089661 1.9041501284 2.2610051632 2.0170962811
 3688.1291504  -999.250000 12.374500275 12.250000954 72027.468750 -0.001582720 5.1649999619 0.0070006400 0.3156252801 2.5611567497 3.6969838142 48.137001038 0.9013000131 89.744560242 182.36360168 1.8105227947 2.1393475533 1.8898973465
 3688.2814941  -999.250000 12.353599548 12.250000954 73967.406250 0.0038044872 5.2147002220 0.0072009615 0.3235134780 2.5788259506 3.9103331566 50.596282959 0.7597000003 93.654838562 184.36360168 1.7242143154 2.0295307636 1.7955824137
 3688.4338379  -999.250000 12.322300911 12.250000954 72177.562500 0.0066043269 5.2586002350 0.0077996794 0.3318881392 2.5950253010 4.1181011200 49.405746460 0.8007000089 92.434944153 184.90910339 1.7330424786 1.9863246679 1.7844823599
 3688.5861816  -999.250000 12.311800957 12.250000954 74022.867188 0.0092939101 4.9415001869 0.0075998399 0.3244873285 2.6106934547 4.3056335449 52.236339569 0.6547999978 92.962181091 182.09089661 1.6971890926 1.9394282103 1.7112325430
 3688.7387695  -999.250000 12.315300941 12.250000954 75395.875000 0.0054984000 4.8400998116 0.0075006397 0.3165135980 2.6067101955 4.3889331818 50.272006989 0.6301000118 93.311393738 176.18179321 1.6906547546 1.9573264122 1.7317525148
 3688.8911133  -999.250000 12.322300911 12.250000954 79316.578125 0.0049979165 4.3948001862 0.0076998398 0.2896062732 2.6098976135 4.3993372917 51.578338623 0.6381000280 89.385871887 172.63639832 1.7700040340 2.0590350628 1.8104079962
 3689.0434570  -999.250000 12.322300911 12.250000954 77927.132813 0.0036935897 4.1975998878 0.0075990385 0.2935112119 2.6083762646 4.3602027893 49.169605255 0.7584000230 88.994712830 168.36360168 1.7724562883 2.0808341503 1.8153697252
 3689.1958008  -999.250000 12.336199760 12.250000954 75963.601563 -0.000301763 3.8152997494 0.0069985581 0.3004942238 2.5934886932 4.3619265556 46.672164917 0.7177000046 87.380470276 163.09091187 1.7455929518 2.0402390957 1.7969509363
 3689.3481445  -999.250000 12.322300911 12.250000954 75963.601563 -0.001400160 3.0857999325 0.0060993587 0.2968376577 2.5864946842 4.3786563873 41.408462524 0.8269000053 86.112350464 156.45449829 1.9912010431 2.3147721291 2.0788514614
