# LAS format log file from PETREL
# Project units are specified as depth units
#==================================================================
~Version information
VERS.   2.0:
WRAP.   NO:
#==================================================================
~Well
STRT .m      492.56594849 :
STOP .m      2784.8139648 :
STEP .m     0.00000000 :
NULL .        -999.250000 :
COMP.           : COMPANY
WELL.  34/10-5   : WELL
FLD.            : FIELD
LOC.            : LOCATION
SRVC.           : SERVICE COMPANY
DATE.  2018-09-11 14:48:46   : Log Export Date {yyyy-MM-dd HH:mm:ss}
PROV.           : PROVINCE
UWI.   34/10-5   : UNIQUE WELL ID
API.            : API NUMBER
#==================================================================
~Curve
DEPT .m                   : DEPTH
Lithology_geolink ._      : Lithology_geolink
CALI .in                  : CALI
DRHO .g/cm3               : DRHO
NPHI .m3/m3               : NPHI
RHOB .g/cm3               : RHOB
GR .gAPI                  : GR
DTC .us/ft                : DTC
RDEP .ohm.m               : RDEP
SP .mV                    : SP
RSHA .ohm.m               : RSHA
RMED .ohm.m               : RMED
~Parameter
#==================================================================
~Ascii
# ...
 1098.8129883  -999.250000 17.492000580 0.0189999994  -999.250000 1.7220000029 43.989490509 170.99848938 0.9849359393 25.288000107  -999.250000 0.8699807525
 1098.9654541  -999.250000 17.500000000 0.0219999999  -999.250000 1.7300000191 47.707080841 170.00160217 1.0049358606 25.786397934  -999.250000 0.8919647932
 1099.1177979  -999.250000 17.472000122 0.0130000003  -999.250000 1.7300000191 47.002880096 167.38128662 1.0219318867 25.912500381  -999.250000 0.9329343438
 1099.2702637  -999.250000 17.437000275 -0.001000000  -999.250000 1.7289999723 43.231121063 163.50619507 1.0389455557 25.913000107  -999.250000 0.9699407816
 1099.4226074  -999.250000 17.443000793 -0.008000000  -999.250000 1.7400000095 42.876377106 160.50720215 1.0509519577 25.788499832  -999.250000 1.0039454699
 1099.5750732  -999.250000 17.499000549 -0.003000000  -999.250000 1.7690000534 41.941001892 158.75282288 1.0619647503 25.788000107  -999.250000 1.0219711065
 1099.7274170  -999.250000 17.547000885 0.0080000004  -999.250000 1.8009999990 44.832366943 157.37828064 1.0699679852 25.788000107  -999.250000 1.0289888382
 1099.8798828  -999.250000 17.538999557 0.0199999996  -999.250000 1.8309999704 41.510719299 159.12219238 1.0879423618 25.788000107  -999.250000 1.0270031691
 1100.0322266  -999.250000 17.524000168 0.0199999996  -999.250000 1.8500000238 40.129405975 159.49909973 1.1109262705 26.037199020  -999.250000 1.0359855890
 1100.1846924  -999.250000 17.552999496 0.0240000002  -999.250000 1.8789999485 41.370998383 160.74800110 1.1379135847 26.411798477  -999.250000 1.0529863834
 1100.3370361  -999.250000 17.468999863 0.0230000000  -999.250000 1.9019999504 47.792366028 158.75482178 1.1659102440 26.786798477  -999.250000 1.0879440308
 1100.4895020  -999.250000 17.468999863 0.0130000003  -999.250000 1.9329999685 50.522293091 157.00280762 1.1869328022 26.788000107  -999.250000 1.1349623203
 1100.6418457  -999.250000 17.496999741 0.0149999997  -999.250000 1.9570000172 50.406398773 153.50559998 1.1770321131 27.286397934  -999.250000 1.2008942366
 1100.7941895  -999.250000 17.333000183 0.0240000002  -999.250000 1.9730000496 44.088390350 143.77342224 1.1590720415 27.910497665  -999.250000 1.2439310551
 1100.9466553  -999.250000 17.533000946 0.0299999993  -999.250000 1.9620000124 46.523086548 144.49879456 1.1500288248 27.913000107  -999.250000 1.2360126972
 1101.0989990  -999.250000 17.555999756 0.0219999999  -999.250000 1.9270000458 46.002124786 145.74699402 1.1350600719 28.161998749  -999.250000 1.1711041927
 1101.2514648  -999.250000 17.579000473 0.0140000004  -999.250000 1.9040000439 51.139472961 142.13081360 1.1260288954 28.536798477  -999.250000 1.0781488419
 1101.4038086  -999.250000 17.686000824 0.0160000008  -999.250000 1.8999999762 46.892139435 154.71968079 1.1180320978 28.413499832  -999.250000 1.0390625000
 1101.5562744  -999.250000 17.750000000 0.0209999997  -999.250000 1.9160000086 48.743991852 153.50198364 1.0990608931 29.035997391  -999.250000 1.0320111513
 1101.7086182  -999.250000 17.819000244 0.0149999997  -999.250000 1.9349999428 46.135509491 153.74942017 1.1069679260 28.415502548  -999.250000 1.0579582453
 1101.8610840  -999.250000 17.931999207 0.0049999999  -999.250000 1.9500000477 51.296371460 155.99638367 1.1588333845 28.163801193  -999.250000 1.0480159521
 1102.0134277  -999.250000 17.969999313 0.0130000003  -999.250000 1.9769999981 51.405700684 158.11988831 1.2178109884 27.913801193  -999.250000 1.0649727583
 1102.1658936  -999.250000 18.040000916 0.0250000004  -999.250000 1.9960000515 47.886306763 149.76342773 1.2798013687 27.788400650  -999.250000 1.2518501282
 1102.3182373  -999.250000 18.132999420 0.0379999988  -999.250000 2.0060000420 41.271232605 140.14811707 1.3647276163 27.788000107  -999.250000 1.5844668150
 1102.4707031  -999.250000 18.077999115 0.0320000015  -999.250000 2.0039999485 39.350105286 137.50421143 1.4337790012 27.788000107  -999.250000 1.8128172159
 1102.6230469  -999.250000 18.077999115 0.0289999992  -999.250000 2.0020000935 40.277996063 128.38961792 1.4888236523 27.788000107  -999.250000 1.7451088428
 1102.7753906  -999.250000 18.077999115 0.0260000005  -999.250000 2.0039999485 41.931365967 131.49249268 1.5338199139 27.912500381  -999.250000 1.5952403545
 1102.9278564  -999.250000 17.986000061 0.0280000009  -999.250000 2.0020000935 44.959285736 142.10797119 1.4741922617 28.411397934  -999.250000 1.5231152773
 1103.0802002  -999.250000 17.944999695 0.0329999998  -999.250000 2.0000000000 50.851356506 136.38880920 1.3604563475 28.910999298  -999.250000 1.4311474562
 1103.2326660  -999.250000 17.958999634 0.0469999984  -999.250000 2.0079998970 52.899490356 141.36698914 1.2613173723 29.286798477  -999.250000 1.3461360931
 1103.3850098  -999.250000 17.938999176 0.0450000018  -999.250000 1.9939999580 52.501625061 146.36299133 1.1783322096 29.288000107  -999.250000 1.2042275667
 1103.5374756  -999.250000 17.947999954 0.0419999994  -999.250000 1.9850000143 53.216697693 150.36859131 1.1161987782 29.537199020  -999.250000 1.0562369823
 1103.6898193  -999.250000 18.052999496 0.0410000011  -999.250000 1.9889999628 55.459995270 158.10638428 1.1000640392 29.786998749  -999.250000 0.9701378345
 1103.8422852  -999.250000 18.173000336 0.0480000004  -999.250000 2.0150001049 53.226211548 165.11378479 1.1099679470 29.165002823  -999.250000 0.9480352402
 1103.9946289  -999.250000 18.229999542 0.0590000004  -999.250000 2.0439999104 49.262722015 162.75570679 1.1139870882 29.287599564  -999.250000 0.9899327159
 1104.1470947  -999.250000 18.250000000 0.0489999987  -999.250000 2.0339999199 44.235115051 155.38682556 1.1299487352 28.914201736  -999.250000 1.1588646173
 1104.2994385  -999.250000 18.246999741 0.0419999994  -999.250000 2.0150001049 47.178482056 145.14961243 1.1768493652 28.913000107  -999.250000 1.4185837507
 1104.4519043  -999.250000 18.257999420 0.0320000015  -999.250000 1.9980000257 43.574607849 140.50741577 1.2427886724 28.788400650  -999.250000 1.5458981991
 1104.6042480  -999.250000 18.405000687 0.0230000000  -999.250000 1.9839999676 41.320209503 136.75601196 1.3028076887 28.538801193  -999.250000 1.4511520863
 1104.7567139  -999.250000 18.391000748 0.0089999996  -999.250000 1.9819999933 35.798713684 139.99479675 1.3239327669 28.538000107  -999.250000 1.3950448036
 1104.9090576  -999.250000 18.281000137 0.0140000004  -999.250000 1.9819999933 40.764972687 142.12159729 1.2612019777 28.413400650  -999.250000 1.4179631472
 1105.0614014  -999.250000 18.218999863 0.0280000009  -999.250000 2.0020000935 42.835742950 141.50149536 1.1394884586 28.288499832  -999.250000 1.4020255804
 1105.2138672  -999.250000 18.141000748 0.0529999994  -999.250000 2.0079998970 45.305088043 143.37199402 1.0413141251 28.412599564  -999.250000 1.2352674007
 1105.3662109  -999.250000 18.141000748 0.0289999992  -999.250000 1.9720000029 45.966377258 149.98408508 0.9643082619 28.413000107  -999.250000 1.0353205204
 1105.5186768  -999.250000 18.218999863 0.0179999992  -999.250000 1.9470000267 49.706981659 155.36637878 0.8992083073 29.035997391  -999.250000 0.8822450042
 1105.6710205  -999.250000 18.233999252 0.0130000003  -999.250000 1.9490000010 52.239868164 158.49247742 0.8462122083 29.162500381  -999.250000 0.8290849328
 1105.8234863  -999.250000 18.233999252 0.0359999985  -999.250000 1.9800000191 53.526893616 163.49197388 0.8041346073 29.287599564  -999.250000 0.8309967518
 1105.9758301  -999.250000 18.281000137 0.0379999988  -999.250000 1.9969999790 51.351013184 162.37768555 0.7750928998 29.288000107  -999.250000 0.8539631367
 1106.1282959  -999.250000 18.452999115 0.0390000008  -999.250000 1.9969999790 48.882907867 161.12699890 0.7700160146 29.412599564  -999.250000 0.8749663830
 1106.2806396  -999.250000 18.437999725 0.0230000000  -999.250000 1.9819999933 49.062397003 161.12500000 0.7939230800 29.413000107  -999.250000 0.8889775872
 1106.4331055  -999.250000 18.452999115 0.0260000005  -999.250000 1.9750000238 50.775497437 157.50581360 0.8338719010 29.163801193  -999.250000 0.9079847932
