# LAS format log file from PETREL
# Project units are specified as depth units
#==================================================================
~Version information
VERS.   2.0:
WRAP.   NO:
#==================================================================
~Well
STRT .m      127.75000000 :
STOP .m      3459.2514648 :
STEP .m     0.00000000 :
NULL .        -999.250000 :
COMP.           : COMPANY
WELL.  34/10-17   : WELL
FLD.            : FIELD
LOC.            : LOCATION
SRVC.           : SERVICE COMPANY
DATE.  2018-09-11 14:48:44   : Log Export Date {yyyy-MM-dd HH:mm:ss}
PROV.           : PROVINCE
UWI.   34/10-17   : UNIQUE WELL ID
API.            : API NUMBER
#==================================================================
~Curve
DEPT .m                   : DEPTH
Lithology_geolink ._      : Lithology_geolink
CALI .in                  : CALI
DRHO .g/cm3               : DRHO
NPHI .m3/m3               : NPHI
RHOB .g/cm3               : RHOB
GR .gAPI                  : GR
DTC .us/ft                : DTC
RDEP .ohm.m               : RDEP
SP .mV                    : SP
RSHA .ohm.m               : RSHA
RMED .ohm.m               : RMED
~Parameter
#==================================================================
~Ascii
# ...
 1460.1252441  -999.250000 21.086999893 -0.020000000 0.3316999674 1.8869999647 21.080999374 132.31900024 0.7390000224 34.403999329 0.5830000043 0.6869999766
 1460.2501221  -999.250000 21.054000854 -0.018999999 0.3308800161 1.9060000181 22.191999435 132.64999390 0.7480000257 34.402000427 0.5870000124 0.7020000219
 1460.3748779  -999.250000 21.047000885 -0.018999999 0.3250299692 1.9290000200 23.753999710 132.12899780 0.7570000291 34.368000031 0.5929999948 0.7139999866
 1460.5002441  -999.250000 21.045999527 -0.023000000 0.3158000112 1.9529999495 25.763000488 130.71899414 0.7649999857 34.325000763 0.6010000110 0.7239999771
 1460.6250000  -999.250000 21.040000916 -0.025000000 0.3082099855 1.9800000191 27.525999069 128.66999817 0.7720000148 34.293998718 0.6090000272 0.7300000191
 1460.7498779  -999.250000 21.033000946 -0.020000000 0.3056800067 2.0139999390 27.865999222 126.52600098 0.7779999971 34.298999786 0.6159999967 0.7319999933
 1460.8750000  -999.250000 21.037998199 -0.007000000 0.3064299822 2.0529999733 26.892999649 124.84200287 0.7839999795 34.346000671 0.6209999919 0.7340000272
 1461.0000000  -999.250000 21.059999466 0.0060000001 0.3062599897 2.0899999142 25.569999695 123.87699127 0.7900000215 34.397998810 0.6230000257 0.7340000272
 1461.1250000  -999.250000 21.097999573 0.0140000004 0.3007900119 2.1129999161 24.850999832 123.67099762 0.7950000167 34.417999268 0.6219999790 0.7340000272
 1461.2498779  -999.250000 21.141000748 0.0149999997 0.2921699882 2.1219999790 25.041999817 123.97399902 0.7969999909 34.402999878 0.6200000048 0.7350000143
 1461.3751221  -999.250000 21.174997330 0.0130000003 0.2844800055 2.1199998856 25.590000153 124.62999725 0.7969999909 34.388999939 0.6179999709 0.7350000143
 1461.4998779  -999.250000 21.194997787 0.0120000001 0.2805199921 2.1080000401 26.225000381 125.52900696 0.7940000296 34.421001434 0.6150000095 0.7350000143
 1461.6247559  -999.250000 21.204000473 0.0130000003 0.2805199921 2.0969998837 26.892000198 126.59500122 0.7879999876 34.513999939 0.6119999886 0.7340000272
 1461.7500000  -999.250000 21.207998276 0.0179999992 0.2816799879 2.0929999352 27.650999069 127.63400269 0.7820000052 34.633998871 0.6119999886 0.7329999804
 1461.8751221  -999.250000 21.214002609 0.0250000004 0.2847299874 2.0999999046 28.246999741 128.38600159 0.7760000229 34.743999481 0.6119999886 0.7310000062
 1461.9998779  -999.250000 21.222999573 0.0340000018 0.2918899953 2.1140000820 28.077999115 128.71800232 0.7710000277 34.830001831 0.6140000224 0.7289999723
 1462.1250000  -999.250000 21.233999252 0.0430000015 0.3031100035 2.1300001144 26.885999680 128.66700745 0.7689999938 34.889999390 0.6140000224 0.7279999852
 1462.2500000  -999.250000 21.239000320 0.0480000004 0.3130500019 2.1389999390 25.371000290 128.58399963 0.7710000277 34.922000885 0.6140000224 0.7300000191
 1462.3748779  -999.250000 21.222999573 0.0509999990 0.3154999912 2.1400001049 24.812999725 128.92799377 0.7760000229 34.916999817 0.6119999886 0.7340000272
 1462.5002441  -999.250000 21.153997421 0.0509999990 0.3064000010 2.1319999695 25.934000015 129.78100586 0.7820000052 34.879001617 0.6100000143 0.7409999967
 1462.6251221  -999.250000 20.978000641 0.0450000018 0.2885400057 2.1170001030 28.674999237 130.71099854 0.7900000215 34.835998535 0.6100000143 0.7509999871
 1462.7498779  -999.250000 20.597999573 0.0329999998 0.2712299824 2.0989999771 31.938999176 131.01300049 0.7969999909 34.826999664 0.6129999757 0.7630000114
 1462.8747559  -999.250000 20.017999649 0.0170000009 0.2573200166 2.0820000172 34.057998657 129.95700073 0.8029999733 34.895000458 0.6179999709 0.7730000019
 1463.0001221  -999.250000 19.316999435 -0.004000000 0.2463299930 2.0690000057 34.209999084 127.52600098 0.8080000281 35.037998199 0.6269999743 0.7810000181
 1463.1248779  -999.250000 18.628000259 -0.026000001 0.2385700047 2.0639998913 32.506000519 124.22399902 0.8140000105 35.247001648 0.6380000114 0.7850000262
 1463.2500000  -999.250000 18.107999802 -0.041000001 0.2351300120 2.0699999332 29.540000916 121.00100708 0.8199999928 35.501998901 0.6499999762 0.7850000262
 1463.3750000  -999.250000 17.795000076 -0.045000002 0.2373800129 2.0829999447 26.350999832 118.80101013 0.8270000219 35.764999390 0.6579999924 0.7820000052
 1463.5000000  -999.250000 17.645000458 -0.039000001 0.2449900061 2.1019999981 23.729999542 117.96399689 0.8330000043 35.973999023 0.6629999876 0.7779999971
 1463.6248779  -999.250000 17.583000183 -0.026000001 0.2545299828 2.1180000305 22.201999664 118.46599579 0.8360000253 36.067001343 0.6629999876 0.7749999762
 1463.7503662  -999.250000 17.548000336 -0.013000000 0.2610400021 2.1270000935 22.288999557 119.76300049 0.8360000253 36.027000427 0.6610000134 0.7710000277
 1463.8748779  -999.250000 17.513000488 -0.004000000 0.2644099891 2.1289999485 23.573999405 121.28299713 0.8320000172 35.844001770 0.6579999924 0.7670000196
 1463.9997559  -999.250000 17.475999832 0.0000000000 0.2697400153 2.1259999275 25.125000000 122.56600189 0.8249999881 35.560001373 0.6549999714 0.7639999986
 1464.1250000  -999.250000 17.436000824 0.0030000000 0.2820799947 2.1240000725 26.103000641 123.43599701 0.8169999719 35.229999542 0.6520000100 0.7609999776
 1464.2501221  -999.250000 17.392999649 0.0080000004 0.2969599962 2.1259999275 25.900999069 123.94699097 0.8090000153 34.923999786 0.6510000229 0.7580000162
 1464.3750000  -999.250000 17.337999344 0.0140000004 0.3073199987 2.1310000420 24.874000549 124.16200256 0.8009999990 34.726001740 0.6510000229 0.7559999824
 1464.5000000  -999.250000 17.267000198 0.0199999996 0.3081299961 2.1349999905 23.785999298 124.24299622 0.7960000038 34.691001892 0.6510000229 0.7530000210
 1464.6250000  -999.250000 17.184999466 0.0209999997 0.2995400131 2.1310000420 23.297000885 124.35700226 0.7910000086 34.832000732 0.6510000229 0.7490000129
 1464.7498779  -999.250000 17.104999542 0.0189999994 0.2886900008 2.1219999790 23.694999695 124.62899780 0.7889999747 35.060001373 0.6499999762 0.7469999790
 1464.8752441  -999.250000 17.040000916 0.0199999996 0.2811599970 2.1150000095 24.537000656 125.12399292 0.7879999876 35.258998871 0.6480000019 0.7450000048
 1465.0001221  -999.250000 16.996000290 0.0230000000 0.2796300054 2.1119999886 25.346000671 125.73100281 0.7879999876 35.351001740 0.6470000148 0.7440000176
 1465.1248779  -999.250000 16.966999054 0.0270000007 0.2830400169 2.1129999161 25.691999435 126.23799896 0.7889999747 35.324001312 0.6470000148 0.7440000176
 1465.2497559  -999.250000 16.948999405 0.0280000009 0.2856500149 2.1119999886 25.059999466 126.47100067 0.7900000215 35.241001129 0.6480000019 0.7450000048
 1465.3751221  -999.250000 16.937000275 0.0250000004 0.2840699852 2.1110000610 23.634000778 126.34899902 0.7910000086 35.191001892 0.6510000229 0.7469999790
 1465.4998779  -999.250000 16.930999756 0.0199999996 0.2784499824 2.1080000401 21.996000290 126.00299835 0.7919999957 35.238998413 0.6529999971 0.7480000257
 1465.6250000  -999.250000 16.929000854 0.0160000008 0.2734000087 2.1059999466 20.698999405 125.59100342 0.7929999828 35.393001556 0.6549999714 0.7490000129
 1465.7500000  -999.250000 16.930999756 0.0130000003 0.2722899914 2.1070001125 20.288000107 125.23600006 0.7940000296 35.598999023 0.6570000052 0.7500000000
 1465.8750000  -999.250000 16.938999176 0.0130000003 0.2753899992 2.1119999886 20.670000076 124.99400330 0.7960000038 35.778999329 0.6579999924 0.7509999871
 1465.9998779  -999.250000 16.952999115 0.0149999997 0.2812500000 2.1199998856 21.333999634 124.83799744 0.7979999781 35.869998932 0.6589999795 0.7509999871
 1466.1253662  -999.250000 16.972999573 0.0170000009 0.2900200188 2.1240000725 21.781999588 124.75000000 0.8000000119 35.856998444 0.6600000262 0.7509999871
 1466.2501221  -999.250000 16.996999741 0.0160000008 0.3007299900 2.1210000515 21.881000519 124.71099854 0.8019999862 35.793998718 0.6600000262 0.7509999871
 1466.3747559  -999.250000 17.018999100 0.0140000004 0.3111400008 2.1129999161 22.059000015 124.70300293 0.8029999733 35.745998383 0.6589999795 0.7530000210
