# LAS format log file from PETREL
# Project units are specified as depth units
#==================================================================
~Version information
VERS.   2.0:
WRAP.   NO:
#==================================================================
~Well
STRT .m      492.56594849 :
STOP .m      2784.8139648 :
STEP .m     0.00000000 :
NULL .        -999.250000 :
COMP.           : COMPANY
WELL.  34/10-5   : WELL
FLD.            : FIELD
LOC.            : LOCATION
SRVC.           : SERVICE COMPANY
DATE.  2018-09-11 14:48:46   : Log Export Date {yyyy-MM-dd HH:mm:ss}
PROV.           : PROVINCE
UWI.   34/10-5   : UNIQUE WELL ID
API.            : API NUMBER
#==================================================================
~Curve
DEPT .m                   : DEPTH
Lithology_geolink ._      : Lithology_geolink
CALI .in                  : CALI
DRHO .g/cm3               : DRHO
NPHI .m3/m3               : NPHI
RHOB .g/cm3               : RHOB
GR .gAPI                  : GR
DTC .us/ft                : DTC
RDEP .ohm.m               : RDEP
SP .mV                    : SP
RSHA .ohm.m               : RSHA
RMED .ohm.m               : RMED
~Parameter
#==================================================================
~Ascii
# ...
 1860.5081787 6.0000000000 9.3520002365 0.0299999993 0.5058810711 2.2460000515 82.445617676 137.12339783 1.0130064487 31.890401840 1.2140480280 1.1850841045
 1860.6605225 6.0000000000 9.1020002365 0.0430000015 0.5190427303 2.2579998970 85.425994873 139.99308777 1.0169839859 32.263496399 1.1980639696 1.1441313028
 1860.8129883 6.0000000000 9.0699996948 0.0189999994 0.5224334002 2.2290000916 81.512619019 136.38081360 1.0269678831 32.451400757 1.2089647055 1.1310312748
 1860.9653320 6.0000000000 9.0699996948 0.0130000003 0.5058423877 2.2300000191 82.558746338 135.75100708 1.0349678993 32.608371735 1.3564075232 1.1878174543
 1861.1176758 6.0000000000 9.0699996948 0.0060000001 0.4838880301 2.2290000916 75.652793884 133.13130188 1.0459558964 33.231498718 1.4695472717 1.2986443043
 1861.2701416 6.0000000000 9.0699996948 0.0199999996 0.4814668000 2.2520000935 81.974479675 131.00340271 1.0629318953 33.483001709 1.4381281137 1.3847246170
 1861.4224854 6.0000000000 8.9919996262 0.0359999985 0.5024759173 2.2539999485 84.365486145 131.12469482 1.0829198360 33.857498169 1.2905929089 1.4139070511
 1861.5749512 6.0000000000 8.9689998627 0.0579999983 0.5473791957 2.2639999390 85.433746338 133.49620056 1.0979399681 33.516376495 1.3587237597 1.3860896826
 1861.7272949 6.0000000000 9.0159997940 0.0419999994 0.5712603331 2.2320001125 85.935997009 134.74699402 1.1059678793 33.390499115 1.3689599037 1.3690544367
 1861.8797607 6.0000000000 8.9300003052 0.0260000005 0.5341475010 2.2230000496 83.011764526 139.36758423 1.1119760275 34.136997223 1.2933042049 1.3320889473
 1862.0321045 6.0000000000 9.0159997940 0.0240000002 0.4936425984 2.2290000916 81.568763733 141.37019348 1.1090120077 33.891002655 1.4593309164 1.2682049274
 1862.1845703 6.0000000000 9.0000000000 0.0329999998 0.4843784273 2.2420001030 79.820007324 138.13020325 1.1070079803 33.656936646 1.5237438679 1.2490456104
 1862.3369141 6.0000000000 8.9689998627 0.0399999991 0.4834160209 2.2479999065 81.555992126 138.37440491 1.1119799614 33.297443390 1.2959173918 1.2799006701
 1862.4893799 6.0000000000 8.9060001373 0.0320000015 0.5033887029 2.2339999676 88.472229004 135.13020325 1.1129959822 33.436435699 1.3507757187 1.3029446602
 1862.6417236 6.0000000000 8.9300003052 0.0430000015 0.4838970304 2.2360000610 88.500000000 132.13220215 1.1169840097 33.078441620 1.4555792809 1.3109743595
 1862.7941895 6.0000000000 8.9219999313 0.0520000011 0.4926674962 2.2400000095 93.110176086 132.99859619 1.1259711981 32.890598297 1.4001795053 1.3169856071
 1862.9465332 6.0000000000 8.9770002365 0.0560000017 0.4848455191 2.2439999580 88.705764771 133.37440491 1.1349639893 33.014499664 1.4139440060 1.3588654995
 1863.0988770 7.0000000000 8.9530000687 0.0579999983 0.4667988420 2.2599999905 92.547477722 130.38220215 1.1330080032 32.890499115 1.2436851263 1.3948845863
 1863.2513428 7.0000000000 9.0229997635 0.0590000004 0.4653171003 2.2809998989 88.579017639 133.99418640 1.1369839907 32.905933380 1.4690912962 1.3979903460
 1863.4036865 7.0000000000 9.2189998627 0.0540000014 0.4492293894 2.2909998894 98.211189270 135.12229919 1.1429759264 32.920940399 1.4182083607 1.3690929413
 1863.5561523 7.0000000000 9.4770002365 0.0309999995 0.4609396160 2.2709999084 98.623497009 130.38261414 1.1420040131 33.061435699 1.4658077955 1.3251409531
 1863.7084961 7.0000000000 9.5780000687 0.0010000000 0.4604550898 2.2249999046 103.23146820 132.37019348 1.1360241175 32.874752045 1.4401042461 1.3439390659
 1863.8609619 7.0000000000 9.3830003738 -0.005000000 0.4668015540 2.2090001106 94.224281311 130.12860107 1.1290279627 32.749500275 1.4499599934 1.3629543781
 1864.0133057 7.0000000000 9.4689998627 -0.005000000 0.4687503874 2.1949999332 96.926986694 129.37680054 1.1289999485 32.624500275 1.5476073027 1.3460544348
 1864.1657715 7.0000000000 9.4840002060 0.0080000004 0.4692251384 2.2170000076 88.907279968 131.12219238 1.1399559975 32.748500824 1.5410280228 1.3300385475
 1864.3181152 6.0000000000 9.2340002060 0.0170000009 0.4506941140 2.2230000496 86.945762634 129.75329590 1.1589238644 32.873500824 1.4732724428 1.3559167385
 1864.4705811 6.0000000000 9.2110004425 0.0260000005 0.4682677984 2.2379999161 79.529777527 129.00120544 1.1779239178 32.998500824 1.3395364285 1.3789446354
 1864.6229248 6.0000000000 9.1639995575 0.0219999999 0.4731341302 2.2230000496 79.438255310 131.74339294 1.2009078264 32.750003815 1.3798357248 1.3839839697
 1864.7753906 6.0000000000 9.1020002365 0.0410000011 0.4658083022 2.2379999161 80.496597290 132.37399292 1.2319006920 32.749000549 1.3760129213 1.3800096512
 1864.9277344 6.0000000000 9.1020002365 0.0140000004 0.4585258067 2.1970000267 82.430244446 132.99899292 1.2648679018 33.044811249 1.4686276913 1.3839871883
 1865.0800781 6.0000000000 9.1639995575 0.0160000008 0.4907516539 2.2070000172 86.546478271 131.75300598 1.2938838005 33.435432434 1.7538541555 1.3959615231
 1865.2325439 6.0000000000 9.1949996948 0.0109999999 0.5302422047 2.2230000496 93.098731995 129.50360107 1.3139199018 33.949939728 2.1683387756 1.4587982893
 1865.3848877 6.0000000000 9.1949996948 0.0460000001 0.4955892861 2.3029999733 90.884017944 129.37530518 1.3289399147 34.092433929 2.0763766766 1.5507050753
 1865.5373535 6.0000000000 9.1879997253 0.0590000004 0.4697022140 2.3359999657 89.879005432 124.00861359 1.3419479132 34.450561523 1.8638527393 1.6656317711
 1865.6896973 6.0000000000 9.1639995575 0.0289999992 0.4350666404 2.3069999218 83.152046204 123.18995667 1.3579359055 34.016750336 1.8390961885 1.6919167042
 1865.8421631 6.0000000000 9.1879997253 0.0219999999 0.4433607459 2.2850000858 80.075263977 123.99869537 1.3699519634 33.765998840 1.8071281910 1.6730456352
 1865.9945068 6.0000000000 9.1949996948 0.0070000002 0.4443489909 2.2500000000 75.705528259 123.75060272 1.3749799728 33.391502380 1.7950479984 1.6430960894
 1866.1469727 6.0000000000 9.1949996948 0.0170000009 0.4555860162 2.2539999485 77.680000305 127.55689240 1.3929280043 33.032436371 1.6854403019 1.6260409355
 1866.2993164 6.0000000000 9.2110004425 0.0020000001 0.4755923450 2.2439999580 77.314506531 126.56541443 1.3930000067 32.843750000 1.6601001024 1.5691825151
 1866.4517822 6.0000000000 9.2110004425 0.0170000009 0.4785450101 2.2579998970 77.748252869 126.18860626 1.3621240854 32.656745911 2.0085988045 1.5640120506
 1866.6041260 6.0000000000 9.2419996262 0.0379999988 0.4941427708 2.2809998989 75.696266174 122.75825500 1.3500480652 32.655998230 1.8376930952 1.6766381264
 1866.7565918 6.0000000000 9.2659997940 0.0390000008 0.4975404441 2.2639999390 75.563407898 121.19050598 1.3440191746 32.640048981 1.6565800905 1.6969519854
 1866.9089355 6.0000000000 9.2889995575 0.0230000000 0.4853464961 2.2500000000 81.725234985 120.37630463 1.3609318733 33.168876648 1.8631672859 1.5793778896
 1867.0614014 6.0000000000 9.2340002060 -0.001000000 0.4809349775 2.2290000916 83.432594299 123.74729919 1.4058557749 33.669399261 1.7364101410 1.4792402983
 1867.2137451 6.0000000000 9.0699996948 0.0010000000 0.4653241336 2.2769999504 86.425994873 123.56315613 1.4378718138 33.375190735 2.3086981773 1.4720224142
 1867.3660889 6.0000000000 9.1879997253 0.0209999997 0.4579845667 2.3220000267 81.707031250 120.38010406 1.4210680723 33.638935089 3.6834790707 1.6085609198
 1867.5185547 6.0000000000 9.0939998627 0.0340000018 0.4262774289 2.3459999561 80.131256104 110.57086945 1.3941081762 33.919876099 2.1920168400 1.9548887014
 1867.6708984 6.0000000000 9.1020002365 0.0419999994 0.4355476499 2.3180000782 82.241485596 109.19020844 1.3740800619 33.423004150 2.1003444195 2.1713075638
 1867.8233643 6.0000000000 9.1020002365 0.0309999995 0.4326477945 2.2890000343 81.690254211 113.37164307 1.3600560427 33.451873779 2.0800800323 1.9754735231
 1867.9757080 6.0000000000 9.1879997253 0.0520000011 0.4672583342 2.2969999313 82.683998108 118.99098969 1.3679679632 33.203002930 1.8927531242 1.7038710117
 1868.1281738 6.0000000000 9.2810001373 0.0379999988 0.4277299941 2.2829999924 81.504753113 125.99439240 1.3729799986 33.326499939 1.6141169071 1.5513653755
