# LAS format log file from PETREL
# Project units are specified as depth units
#==================================================================
~Version information
VERS.   2.0:
WRAP.   NO:
#==================================================================
~Well
STRT .m      3166.7685547 :
STOP .m      4692.7500000 :
STEP .m     0.00000000 :
NULL .        -999.250000 :
COMP.           : COMPANY
WELL.  34/12-1   : WELL
FLD.            : FIELD
LOC.            : LOCATION
SRVC.           : SERVICE COMPANY
DATE.  2018-09-11 14:48:48   : Log Export Date {yyyy-MM-dd HH:mm:ss}
PROV.           : PROVINCE
UWI.   34/12-1   : UNIQUE WELL ID
API.            : API NUMBER
#==================================================================
~Curve
DEPT .m                   : DEPTH
Lithology_geolink ._      : Lithology_geolink
CALI .in                  : CALI
BS .in                    : BS
ROP .m/h                  : ROP
DRHO .g/cm3               : DRHO
THOR .ppm                 : THOR
SGR .gAPI                 : SGR
NPHI .m3/m3               : NPHI
RHOB .g/cm3               : RHOB
PEF .b/e                  : PEF
GR .gAPI                  : GR
URAN .ppm                 : URAN
DTC .us/ft                : DTC
DTS .us/ft                : DTS
RDEP .ohm.m               : RDEP
RSHA .ohm.m               : RSHA
RMED .ohm.m               : RMED
~Parameter
#==================================================================
~Ascii
# ...
 3886.8586426  -999.250000 12.395399094 12.250000954 110197.10156 -0.001200160 5.6609001160 0.0082996795 0.3410551250 2.5807929039 3.6412146091 64.976676941 0.6923999786 88.985183716 183.36564636 1.6261633635 1.7367573977 1.6188453436
 3887.0112305  -999.250000 12.378000259 12.250000954 112230.28125 -0.001296800 5.9444999695 0.0081980769 0.3131368160 2.5763075352 3.5877697468 66.201118469 0.6546999812 90.071731567 184.63726807 1.6659038067 1.7727285624 1.6473163366
 3887.1635742  -999.250000 12.364100456 12.250000954 112201.01563 -0.000295192 5.8078999519 0.0078009600 0.3245998621 2.5787169933 3.5158622265 64.455688477 0.7904000282 90.624374390 184.90866089 1.7294478416 1.8440032005 1.7147550583
 3887.3159180  -999.250000 12.364100456 12.250000954 109610.09375 0.0027027244 6.1100001335 0.0080016032 0.3245086372 2.5893127918 3.4299006462 60.948696136 0.7806000113 92.577873230 184.63566589 1.7591812611 1.9083045721 1.7490930557
 3887.4682617  -999.250000 12.371000290 12.250000954 107033.57031 0.0043993588 7.0801000595 0.0084996801 0.3299004734 2.5973005295 3.3680758476 56.341686249 0.5716999769 89.019638062 184.18150330 1.7474675179 1.9111210108 1.7447831631
 3887.6208496  -999.250000 12.395399094 12.250000954 113426.16406 0.0039920001 6.4148001671 0.0083985571 0.3302294314 2.5976102352 3.4159171581 59.959655762 0.5670999885 88.098869324 184.00000000 1.7272462845 1.9242173433 1.7342456579
 3887.7731934  -999.250000 12.343199730 12.250000954 116194.32031 0.0015024039 5.5001997948 0.0080961604 0.3394280374 2.6008472443 3.6087782383 63.776622772 0.8282999992 88.099639893 183.99868774 1.7106266022 1.9297423363 1.7174665928
 3887.9255371  -999.250000 12.395399094 12.250000954 116213.67188 0.0030165063 5.0666069984 0.0073028849 0.3569317460 2.6302759647 3.9695529938 63.410236359 0.8422973156 89.703834534 183.18019104 1.7897726297 2.0186147690 1.8215330839
 3888.0778809  -999.250000 12.343199730 12.250000954 128255.28125 0.0133168269 5.2588644028 0.0082019232 0.3767170012 2.6776454449 4.3141193390 58.571933746 0.9652865529 89.714202881 182.18151855 1.9595686197 2.1525988579 2.0289537907
 3888.2304688  -999.250000 12.315300941 12.250000954 118766.51563 0.0237897597 5.7995333672 0.0088048074 0.3873041868 2.7058835030 4.3875679970 57.046039581 1.0192466974 89.000068665 182.00000000 1.9390944242 2.2131800652 1.9991613626
 3888.3828125  -999.250000 12.364100456 12.250000954 118766.51563 0.0205814112 6.4643511772 0.0097990399 0.3885825276 2.6695060730 4.0965919495 60.488254547 1.0339148045 88.996116638 182.00160217 1.6567085981 1.8951820135 1.7064932585
 3888.5351563  -999.250000 12.350099564 12.250000954 118735.28125 0.0089858966 6.6219711304 0.0095977569 0.3777124882 2.6109359264 3.7174847126 62.650726318 1.1052376032 89.352706909 183.00189209 1.4751967192 1.6969771385 1.5153791904
 3888.6875000  -999.250000 12.364100456 12.250000954 99280.640625 0.0002054487 7.2890033722 0.0089006405 0.3855229318 2.5710093975 3.4586863518 68.773216248 1.0035190582 89.350334167 184.18368530 1.4731642008 1.6203942299 1.5024358034
 3888.8398438  -999.250000 12.385000229 12.250000954 100758.48438 0.0036028845 7.1038289070 0.0091012828 0.3997842968 2.5768105984 3.3878178596 69.597312927 0.6417123675 87.752639771 185.36811829 1.5132350922 1.6167994738 1.5247036219
 3888.9924316  -999.250000 12.357100487 12.250000954 101806.19531 0.0053926404 6.8716173172 0.0094990386 0.3899193406 2.5833749771 3.3365402222 71.839538574 0.7117784023 90.622436523 188.19081116 1.5350427628 1.6166434288 1.5268949270
 3889.1447754  -999.250000 12.350099564 12.250000954 101793.09375 0.0030932694 6.5347256660 0.0092995204 0.3647648990 2.5755786896 3.3179011345 67.798286438 0.7360807657 95.987342834 191.00158691 1.5173476934 1.6614501476 1.5254541636
 3889.2971191  -999.250000 12.385000229 12.250000954 93618.406250 -0.001101442 6.7994213104 0.0091980770 0.3429115415 2.5622997284 3.3186497688 65.735275269 0.6614378691 94.958724976 191.99868774 1.6095304489 1.7551358938 1.6216467619
 3889.4494629  -999.250000 12.371000290 12.250000954 85112.976563 -0.001998398 6.4390234947 0.0086006410 0.3501386344 2.5621092319 3.3498208523 64.411476135 0.4356222749 94.588127136 191.17932129 1.6909381151 1.8399163485 1.7132164240
 3889.6020508  -999.250000 12.378000259 12.250000954 76636.210938 -0.001002240 6.6389384270 0.0087995194 0.3741951883 2.5678918362 3.4254224300 63.152893066 0.3255720139 92.970687866 189.62738037 1.7770425081 1.9125286341 1.7858511209
 3889.7543945  -999.250000 12.385000229 12.250000954 94847.945313 -0.001700481 6.1526103020 0.0087000001 0.3726842999 2.5653913021 3.5259234905 62.809768677 0.5350697041 91.359756470 186.81340027 1.7902805805 1.9526062012 1.8017840385
 3889.9067383  -999.250000 12.371000290 12.250000954 99231.304688 -0.001998077 6.2207407951 0.0086980769 0.3628640771 2.5600056648 3.6028752327 63.414001465 0.6410344839 92.594932556 183.81573486 1.7781773806 1.9564633369 1.7917820215
 3890.0590820  -999.250000 12.364100456 12.250000954 103614.66406 -0.000796955 5.8718156815 0.0080987178 0.3405112028 2.5636227131 3.5874636173 63.417861938 0.7872868776 92.603652954 182.27226257 1.7640556097 1.9335505962 1.7805730104
 3890.2116699  -999.250000 12.391899109 12.250000954 107999.28906 0.0011134400 5.5063152313 0.0077019231 0.3475031853 2.5777828693 3.5648403168 65.814926147 0.9043508768 92.242279053 182.00057983 1.7363274097 1.9028037786 1.7637379169
 3890.3640137  -999.250000 12.364100456 12.250000954 110686.61719 0.0052980767 5.0438017845 0.0080995206 0.3485376835 2.6036047935 3.5774588585 63.054992676 1.1071665287 91.338706970 182.18312073 1.7136921883 1.9039921761 1.7443856001
 3890.5163574  -999.250000 12.385000229 12.250000954 106166.54688 0.0040972754 5.0453467369 0.0080000004 0.3720387816 2.6065816879 3.6141736507 65.103874207 1.1488890648 89.370948792 183.00320435 1.7087209225 1.8989981413 1.7353161573
 3890.6687012  -999.250000 12.378000259 12.250000954 109325.96094 0.0023945514 5.2608571053 0.0079990393 0.3961967826 2.5950706005 3.5976495743 64.346366882 1.3293300867 89.366981506 185.00073242 1.6594051123 1.8355007172 1.6830037832
 3890.8210449  -999.250000 12.378000259 12.250000954 109385.44531 -0.000997276 4.9849948883 0.0077003203 0.3941900730 2.5767993927 3.5661220551 69.370780945 1.5354579687 92.938835144 185.45611572 1.6002013683 1.7735170126 1.6229975224
 3890.9736328  -999.250000 12.364100456 12.250000954 113580.26563 0.0007144000 5.1067366600 0.0077999998 0.3879571259 2.5764446259 3.5800871849 70.286987305 1.8205054998 93.293876648 186.45944214 1.5386838913 1.7217032909 1.5589729548
 3891.1259766  -999.250000 12.371000290 12.250000954 129836.05469 0.0051995195 5.1493577957 0.0077980799 0.3745875061 2.5902974606 3.6384594440 68.311073303 1.7289931774 87.080215454 188.00073242 1.5024974346 1.6915581226 1.5194026232
 3891.2783203  -999.250000 12.378000259 12.250000954 146372.75000 0.0049004806 5.1859412193 0.0073983977 0.3668059409 2.5887043476 3.6754238605 61.747161865 1.8488323689 91.665603638 188.45449829 1.5010695457 1.6655870676 1.5211795568
 3891.4306641  -999.250000 12.405900002 12.250000954 150009.57813 0.0051987180 5.5234026909 0.0068987180 0.3704919815 2.5914094448 3.6903007030 59.607467651 1.5573514700 91.702201843 188.45289612 1.5540025234 1.7198944092 1.5772070885
 3891.5832520  -999.250000 12.371000290 12.250000954 184388.76563 0.0044016000 5.6509203911 0.0065038465 0.3654964864 2.5973405838 3.6907942295 60.898647308 1.4643199444 91.700477600 187.45129395 1.6171851158 1.7789095640 1.6417759657
 3891.7355957  -999.250000 12.378000259 12.250000954 184388.76563 0.0048983977 6.0621981621 0.0072990400 0.3643732369 2.6100165844 3.7201740742 61.969764709 1.3145041466 91.351722717 186.45289612 1.6556589603 1.8442966938 1.6783593893
 3891.8879395  -999.250000 12.353599548 12.250000954 184388.76563 0.0039328523 6.0612072945 0.0071012820 0.3477052748 2.6204688549 3.7664802074 59.699356079 1.1298155785 92.951423645 185.45159912 1.6887204647 1.9045697451 1.7114837170
 3892.0402832  -999.250000 12.391899109 12.250000954 184388.76563 0.0244512819 6.1270112991 0.0074967947 0.3510122001 2.6634838581 3.8164319992 56.934757233 0.8907428980 92.425041199 183.63404846 1.7263064384 1.9479951859 1.7376195192
