# LAS format log file from PETREL
# Project units are specified as depth units
#==================================================================
~Version information
VERS.   2.0:
WRAP.   NO:
#==================================================================
~Well
STRT .m      492.56594849 :
STOP .m      2784.8139648 :
STEP .m     0.00000000 :
NULL .        -999.250000 :
COMP.           : COMPANY
WELL.  34/10-5   : WELL
FLD.            : FIELD
LOC.            : LOCATION
SRVC.           : SERVICE COMPANY
DATE.  2018-09-11 14:48:46   : Log Export Date {yyyy-MM-dd HH:mm:ss}
PROV.           : PROVINCE
UWI.   34/10-5   : UNIQUE WELL ID
API.            : API NUMBER
#==================================================================
~Curve
DEPT .m                   : DEPTH
Lithology_geolink ._      : Lithology_geolink
CALI .in                  : CALI
DRHO .g/cm3               : DRHO
NPHI .m3/m3               : NPHI
RHOB .g/cm3               : RHOB
GR .gAPI                  : GR
DTC .us/ft                : DTC
RDEP .ohm.m               : RDEP
SP .mV                    : SP
RSHA .ohm.m               : RSHA
RMED .ohm.m               : RMED
~Parameter
#==================================================================
~Ascii
# ...
 1712.8325195  -999.250000 15.515999794 0.0280000009  -999.250000 1.9809999466 42.086990356 140.99609375 0.7440481186 33.256378174  -999.250000 0.8860672116
 1712.9849854  -999.250000 13.625000000 0.0299999993  -999.250000 1.9689999819 41.283603668 141.12480164 0.7330352664 33.100498199  -999.250000 0.8520817161
 1713.1373291  -999.250000 13.421999931 0.0529999994  -999.250000 2.0039999485 40.409500122 144.99378967 0.7240359783 33.255374908  -999.250000 0.8101345301
 1713.2896729  -999.250000 13.625000000 0.0619999990  -999.250000 2.0429999828 37.947887421 144.00239563 0.7140400410 33.162376404  -999.250000 0.8050160408
 1713.4421387  -999.250000 14.187999725 0.0299999993  -999.250000 2.0590000153 38.435997009 136.13761902 0.6970680952 32.788501740  -999.250000 0.8368975520
 1713.5944824  -999.250000 14.772999763 0.0149999997  -999.250000 2.1089999676 36.570510864 132.75810242 0.6900280714 33.160495758  -999.250000 0.8669038415
 1713.7469482  -999.250000 14.609000206 0.0359999985  -999.250000 2.1740000248 37.932495117 131.50199890 0.7109159827 33.100246429  -999.250000 0.8719839454
 1713.8992920  -999.250000 15.171999931 0.0619999990  -999.250000 2.1559998989 37.595378876 134.49279785 0.7558196783 33.099998474  -999.250000 0.8131891489
 1714.0517578  -999.250000 16.000000000 0.0230000000  -999.250000 2.0759999752 36.473506927 141.48878479 0.8197438121 33.099998474  -999.250000 0.8030239940
 1714.2041016  -999.250000 14.569999695 0.0010000000  -999.250000 2.0529999733 33.450141907 141.74940491 0.9006754756 33.130874634  -999.250000 0.8229359388
 1714.3565674  -999.250000 13.569999695 0.0140000004  -999.250000 2.0799999237 30.729885101 144.99479675 0.9717157483 33.380001068  -999.250000 0.9008125067
 1714.5089111  -999.250000 13.022999763 0.0060000001  -999.250000 2.1189999580 29.069633484 126.04563904 0.9879359007 33.350124359  -999.250000 1.0525132418
 1714.6613770  -999.250000 12.913999557 0.0179999992  -999.250000 2.1949999332 30.136684418 109.77603912 0.9541361332 33.847995758  -999.250000 1.4580240250
 1714.8137207  -999.250000 12.937999725 0.0289999992  -999.250000 2.2950000763 33.362041473 105.01140594 0.9111722708 33.725498199  -999.250000 1.7381032705
 1714.9661865  -999.250000 13.234000206 0.0780000016  -999.250000 2.3129999638 35.991584778 101.38080597 0.8561763167 33.382102966  -999.250000 1.2152620554
 1715.1185303  -999.250000 13.234000206 0.0710000023  -999.250000 2.1989998817 35.128501892 113.97976685 0.8071961403 33.474620819  -999.250000 0.7993322611
 1715.2709961  -999.250000 13.108999252 0.0630000010  -999.250000 2.1150000095 33.286907196 129.97438049 0.7422083020 33.630500793  -999.250000 0.6294062734
 1715.4233398  -999.250000 13.812999725 0.0480000004  -999.250000 2.0840001106 30.557945251 159.70231628 0.6563442945 33.880001068  -999.250000 0.6010896564
 1715.5756836  -999.250000 15.539000511 0.0280000009  -999.250000 2.0799999237 32.181427002 150.14811707 0.5862804651 34.036373138  -999.250000 0.6269166470
 1715.7281494  -999.250000 13.758000374 0.0359999985  -999.250000 2.0880000591 32.716876984 153.74420166 0.5431721210 34.036998749  -999.250000 0.6509231329
 1715.8804932  -999.250000 14.578000069 0.0359999985  -999.250000 2.0510001183 34.804611206 153.50057983 0.5230801105 33.943378448  -999.250000 0.6539903879
 1716.0329590  -999.250000 14.694999695 0.0370000005  -999.250000 2.0230000019 33.225383759 156.49519348 0.5170240402 33.818500519  -999.250000 0.6589879394
 1716.1853027  -999.250000 15.531000137 0.0099999998  -999.250000 2.0139999390 35.148239136 156.50000000 0.5209839940 33.818000793  -999.250000 0.6889039278
 1716.3377686  -999.250000 15.750000954 0.0250000004  -999.250000 2.0739998817 35.810371399 152.75601196 0.5259799957 33.569000244  -999.250000 0.7009711266
 1716.4901123  -999.250000 16.312999725 0.0450000018  -999.250000 2.0899999142 37.337867737 150.38070679 0.5319759846 34.065998077  -999.250000 0.6671088934
 1716.6425781  -999.250000 14.859000206 0.0509999990  -999.250000 2.0680000782 36.876876831 146.13180542 0.5409640074 34.690498352  -999.250000 0.6340793371
 1716.7949219  -999.250000 14.140999794 0.0089999996  -999.250000 2.0179998875 35.817253113 155.10337830 0.5509599447 34.195003510  -999.250000 0.6190480590
 1716.9473877  -999.250000 13.875000000 -0.007000000  -999.250000 2.0659999847 36.342300415 143.51863098 0.5490064621 34.317600250  -999.250000 0.6469327211
 1717.0997314  -999.250000 14.647999763 0.0020000001  -999.250000 2.1459999084 35.441627502 141.13070679 0.5450160503 34.193500519  -999.250000 0.6918558478
 1717.2521973  -999.250000 15.156000137 0.0399999991  -999.250000 2.2170000076 37.025894165 141.49940491 0.5410128236 33.320804596  -999.250000 0.7269158363
 1717.4045410  -999.250000 15.977000237 0.0570000000  -999.250000 2.1640000343 36.346752167 138.75440979 0.5410000086 33.225372314  -999.250000 0.6881248951
 1717.5568848  -999.250000 15.147999763 0.0289999992  -999.250000 2.0510001183 37.277244568 146.73078918 0.5419960022 33.504875183  -999.250000 0.6411505938
 1717.7093506  -999.250000 14.500000000 0.0099999998  -999.250000 1.9819999933 35.600753784 150.11959839 0.5380160213 33.630500793  -999.250000 0.6230576634
 1717.8616943  -999.250000 13.430000305 0.0000000000  -999.250000 1.9539999962 34.971504211 156.98348999 0.5300320387 33.631000519  -999.250000 0.6249935627
 1718.0141602  -999.250000 14.102000237 0.0189999994  -999.250000 1.9730000496 36.213996887 154.00480652 0.5220320225 33.661872864  -999.250000 0.6020736694
 1718.1665039  -999.250000 15.461000443 0.0230000000  -999.250000 1.9789999723 36.249874115 151.75540161 0.5200079679 33.506626129  -999.250000 0.5930288434
 1718.3189697  -999.250000 15.375000954 0.0439999998  -999.250000 1.9989999533 33.541881561 152.49879456 0.5239839554 33.630500793  -999.250000 0.5780360699
 1718.4713135  -999.250000 15.586001396 0.0149999997  -999.250000 1.9789999723 30.761142731 146.51440430 0.5249959826 33.506500244  -999.250000 0.5859743953
 1718.6237793  -999.250000 15.250000000 0.0230000000  -999.250000 2.0039999485 32.835620880 146.00080872 0.5249999762 33.506000519  -999.250000 0.6199182868
 1718.7761230  -999.250000 13.546999931 0.0270000007  -999.250000 2.0309998989 35.987354279 147.12229919 0.5259960294 33.630500793  -999.250000 0.6558847427
 1718.9285889  -999.250000 14.288999557 0.0430000015  -999.250000 2.0409998894 34.381504059 134.76983643 0.5289880037 34.253498077  -999.250000 0.6370456815
 1719.0809326  -999.250000 13.906001091 0.0489999987  -999.250000 2.0309998989 33.441753387 138.74038696 0.5379639268 34.131500244  -999.250000 0.6011152864
 1719.2333984  -999.250000 14.343999863 0.0460000001  -999.250000 2.0179998875 33.313400269 144.49078369 0.5469711423 34.411098480  -999.250000 0.6099783778
 1719.3857422  -999.250000 13.227000237 0.0399999991  -999.250000 2.0209999084 33.654624939 148.11918640 0.5549679995 34.038501740  -999.250000 0.6339231133
 1719.5380859  -999.250000 12.843999863 0.0320000015  -999.250000 2.0230000019 32.598255157 145.50630188 0.5669518709 34.534996033  -999.250000 0.6389839649
 1719.6905518  -999.250000 12.852000237 0.0230000000  -999.250000 2.0350000858 34.367870331 146.99758911 0.5829359293 34.506126404  -999.250000 0.6240480542
 1719.8428955  -999.250000 12.867000580 0.0270000007  -999.250000 2.0739998817 36.864982605 133.53242493 0.5899719000 34.506000519  -999.250000 0.6419423223
 1719.9953613  -999.250000 12.444999695 0.0299999993  -999.250000 2.1189999580 36.875000000 124.20292664 0.5790440440 34.287876129  -999.250000 0.7117758393
 1720.1477051  -999.250000 12.437999725 0.0390000008  -999.250000 2.1500000954 39.707607269 127.74144745 0.5640600920 33.913501740  -999.250000 0.7927403450
 1720.3001709  -999.250000 12.578000069 0.0410000011  -999.250000 2.1310000420 42.768741608 131.36918640 0.5530440211 33.195880890  -999.250000 0.7471105456
 1720.4525146  -999.250000 12.781000137 0.0130000003  -999.250000 2.0799999237 44.431362152 130.75149536 0.5440360904 33.255748749  -999.250000 0.6353586912
