# LAS format log file from PETREL
# Project units are specified as depth units
#==================================================================
~Version information
VERS.   2.0:
WRAP.   NO:
#==================================================================
~Well
STRT .m      3455.1030273 :
STOP .m      4235.3911133 :
STEP .m     0.00000000 :
NULL .        -999.250000 :
COMP.           : COMPANY
WELL.  34/11-3 T2   : WELL
FLD.            : FIELD
LOC.            : LOCATION
SRVC.           : SERVICE COMPANY
DATE.  2018-09-11 14:48:48   : Log Export Date {yyyy-MM-dd HH:mm:ss}
PROV.           : PROVINCE
UWI.   34/11-3 T2   : UNIQUE WELL ID
API.            : API NUMBER
#==================================================================
~Curve
DEPT .m                   : DEPTH
Lithology_geolink ._      : Lithology_geolink
CALI .in                  : CALI
NPHI .m3/m3               : NPHI
RHOB .g/cm3               : RHOB
GR .gAPI                  : GR
DTC .us/ft                : DTC
RDEP .ohm.m               : RDEP
RMED .ohm.m               : RMED
~Parameter
#==================================================================
~Ascii
# ...
 3911.0837402 13.000000000 12.295000076 0.0000000000 2.6219806671 73.399208069 82.710090637 2.9995377064 3.0929999352
 3911.2363281 13.000000000 12.300999641 0.0000000000 2.6189918518 72.362083435 82.323158264 3.2008254528 3.1779999733
 3911.3886719 13.000000000 12.307000160 0.0000000000 2.6179919243 69.887077332 82.282821655 3.4159567356 3.4219999313
 3911.5410156 13.000000000 12.312999725 0.0000000000 2.6169919968 68.352455139 82.618087769 3.5270273685 3.5639998913
 3911.6933594 13.000000000 12.319000244 0.0000000000 2.6159758568 69.616516113 83.249473572 3.6301794052 3.6800000668
 3911.8459473 13.000000000 12.325000763 0.0000000000 2.6129598618 73.510772705 84.014648438 3.0746843815 2.8480000496
 3911.9982910 13.000000000 12.331998825 0.0000000000 2.6079518795 77.420402527 84.728302002 2.6654839516 2.8580000401
 3912.1506348 13.000000000 12.338000298 0.0000000000 2.6019599438 78.584548950 85.252021790 2.5778799057 2.8080000877
 3912.3029785 13.000000000 12.343999863 0.0000000000 2.5969679356 76.972808838 85.533294678 2.4044399261 2.5299999714
 3912.4555664 13.000000000 12.350000381 0.0000000000 2.5929918289 75.517364502 85.604980469 2.4296698570 2.5699999332
 3912.6079102 13.000000000 12.355998993 0.0000000000 2.5920000076 75.877868652 85.546409607 2.4662067890 2.6040000916
 3912.7602539 13.000000000 12.362001419 0.0000000000 2.5920240879 76.155517578 85.457664490 2.4270415306 2.7899999619
 3912.9125977 13.000000000 12.368000031 0.0000000000 2.5950241089 73.297271729 85.441490173 2.7167611122 3.0350000858
 3913.0649414 13.000000000 12.373999596 0.0000000000 2.5980257988 67.597862244 85.586494446 3.2172319889 3.7530000210
 3913.2175293 13.000000000 12.380000114 0.0000000000 2.6020481586 62.787372589 85.959823608 3.9164824486 4.3759999275
 3913.3698730 13.000000000 12.385999680 0.0000000000 2.6080801487 62.713344574 86.577339172 4.8335018158 5.1189999580
 3913.5222168 13.000000000 12.392000198 0.0000000000 2.6180961132 66.833374023 87.392234802 4.7342758179 4.5669999123
 3913.6745605 13.000000000 12.397999763 0.0000000000 2.6300771236 71.811592102 88.313018799 3.8442192078 3.8180000782
 3913.8271484 13.000000000 12.404999733 0.0000000000 2.6420719624 74.791259766 89.221069336 3.0695705414 2.9289999008
 3913.9794922 13.000000000 12.411000252 0.0000000000 2.6510159969 74.090797424 90.016563416 2.7636330128 2.8650000095
 3914.1318359 13.000000000 12.417000771 0.0000000000 2.6529681683 71.498085022 90.671012878 2.5765817165 2.6940000057
 3914.2841797 13.000000000 12.423000336 0.0000000000 2.6489520073 70.561088562 91.239555359 2.6062896252 2.7599999905
 3914.4367676 13.000000000 12.428999901 0.0000000000 2.6429517269 74.084259033 91.842033386 2.4487419128 2.6259999275
 3914.5891113 13.000000000 12.435000420 0.0000000000 2.6369760036 80.499801636 92.583847046 2.0953106880 2.3120000362
 3914.7414551 13.000000000 12.440999031 0.0000000000 2.6339919567 86.341659546 93.483856201 1.8303686380 2.0230000019
 3914.8937988 13.000000000 12.446999550 0.0000000000 2.6330080032 89.573707581 94.437606812 1.6265016794 1.8159999847
 3915.0461426 13.000000000 12.453000069 0.0000000000 2.6340065002 90.623916626 95.261436462 1.5414335728 1.7690000534
 3915.1987305 13.000000000 12.458999634 0.0000000000 2.6350080967 91.069213867 95.791450500 1.4531362057 1.5540000200
 3915.3510742 13.000000000 12.465000153 0.0000000000 2.6359999180 91.266952515 95.982452393 1.4054230452 1.6410000324
 3915.5034180 13.000000000 12.470999718 0.0000000000 2.6359758377 92.357810974 95.951370239 1.4297580719 1.5640000105
 3915.6557617 13.000000000 12.477000237 0.0000000000 2.6329550743 94.329727173 95.918830872 1.4729504585 1.6219999790
 3915.8083496 13.000000000 12.482999802 0.0000000000 2.6259357929 96.116653442 96.084655762 1.5262820721 1.6119999886
 3915.9606934 13.000000000 12.489999771 0.0000000000 2.6179518700 96.980163574 96.521995544 1.5415240526 1.4960000515
 3916.1130371 13.000000000 12.496000290 0.0000000000 2.6119680405 96.480453491 97.146316528 1.5139247179 1.6390000582
 3916.2653809 13.000000000 12.501999855 0.0000000000 2.6079680920 96.080535889 97.785926819 1.4532256126 1.5970000029
 3916.4179688 13.000000000 12.508000374 0.0000000000 2.6039519310 97.264457703 98.289688110 1.4098589420 1.4900000095
 3916.5703125 13.000000000 12.513999939 0.0000000000 2.5979199409 99.381546021 98.610443115 1.4022643566 1.6180000305
 3916.7226563 13.000000000 12.520000458 0.0000000000 2.5878798962 101.05242920 98.805084229 1.4178991318 1.4889999628
 3916.8750000 13.000000000 12.526000977 0.0000000000 2.5728800297 102.43374634 98.981292725 1.4687920809 1.4509999752
 3917.0273438 13.000000000 12.531999588 0.0000000000 2.5579166412 103.54177094 99.226531982 1.5122948885 1.4880000353
 3917.1799316 13.000000000 12.538000107 0.0000000000 2.5449600220 103.90497589 99.573585510 1.4685592651 1.4630000591
 3917.3322754 13.000000000 12.543999672 0.0000000000 2.5399999619 104.42948151 100.00463867 1.4427837133 1.5060000420
 3917.4846191 13.000000000 12.549999237 0.0000000000 2.5400400162 105.83218384 100.49534607 1.3741009235 1.5099999905
 3917.6369629 13.000000000 12.557000160 0.0000000000 2.5450384617 107.99076080 101.02585602 1.3242112398 1.3059999943
 3917.7895508 13.000000000 12.562999725 0.0000000000 2.5510320663 109.70637512 101.58597565 1.3361409903 1.4290000200
 3917.9418945 13.000000000 12.569000244 0.0000000000 2.5550320148 109.57508087 102.15141296 1.3448108435 1.5509999990
 3918.0942383 13.000000000 12.574999809 0.0000000000 2.5590159893 107.23493958 102.68391418 1.3898766041 1.5650000572
 3918.2465820 13.000000000 12.581000328 0.0000000000 2.5610001087 103.83573151 103.13023376 1.3821200132 1.4290000200
 3918.3991699 13.000000000 12.586999893 0.0000000000 2.5610241890 100.87826538 103.42319489 1.3323829174 1.4639999866
 3918.5515137 13.000000000 12.593000412 0.0000000000 2.5640559196 98.650444031 103.48516846 1.2975592613 1.4620000124
 3918.7038574 13.000000000 12.598999977 0.0000000000 2.5711123943 97.912551880 103.20276642 1.2731057405 1.3400000334
 3918.8562012 13.000000000 12.604998589 0.0000000000 2.5851919651 98.909973145 102.44161987 1.2795104980 1.4010000229
 3919.0085449 13.000000000 12.611001015 0.0000000000 2.6091923714 99.952995300 101.10679626 1.3080961704 1.3869999647
 3919.1611328 13.000000000 12.616999626 0.0000000000 2.6392402649 98.903526306 99.213058472 1.3135592937 1.4160000086
 3919.3134766 13.000000000 12.623000145 0.0000000000 2.6691923141 95.100456238 97.006156921 1.2907629013 1.3609999418
 3919.4658203 13.000000000 12.630000114 0.0000000000 2.6930720806 89.530258179 94.928131104 1.3953638077 1.4190000296
 3919.6181641 13.000000000 12.635999680 0.0000000000 2.7019615173 85.134376526 93.537513733 1.7550687790 1.7879999876
 3919.7707520 13.000000000 12.641999245 0.0000000000 2.6958639622 84.786369324 93.306343079 2.0381939411 1.9809999466
 3919.9230957 13.000000000 12.647999763 0.0000000000 2.6788396835 89.218879700 94.423980713 2.0462501049 2.0130000114
 3920.0754395 13.000000000 12.654000282 0.0000000000 2.6588475704 96.054832458 96.704002380 1.8860721588 1.9689999819
 3920.2277832 13.000000000 12.659999847 0.0000000000 2.6398961544 101.65499115 99.655235291 1.4955296516 1.4440000057
 3920.3803711 13.000000000 12.666000366 0.0000000000 2.6269440651 103.71615601 102.67250824 1.2452596426 1.2760000229
 3920.5327148 13.000000000 12.671999931 0.0000000000 2.6199598312 103.50240326 105.24150848 1.2042467594 1.3270000219
 3920.6850586 13.000000000 12.678000450 0.0000000000 2.6149840355 103.54582214 107.07147217 1.2178943157 1.2819999456
 3920.8374023 13.000000000 12.684000015 0.0000000000 2.6130080223 104.75821686 108.10724640 1.2123168707 1.3539999723
 3920.9897461 13.000000000 12.689998627 0.0000000000 2.6140384674 107.72868347 108.45333862 1.2305929661 1.3259999752
 3921.1423340 13.000000000 12.696000099 0.0000000000 2.6201121807 111.18694305 108.28097534 1.2674759626 1.3899999857
 3921.2946777 13.000000000 12.703001022 0.0000000000 2.6341524124 113.36056519 107.76557159 1.2957099676 1.3890000582
