# LAS format log file from PETREL
# Project units are specified as depth units
#==================================================================
~Version information
VERS.   2.0:
WRAP.   NO:
#==================================================================
~Well
STRT .m      818.46392822 :
STOP .m      2256.5109863 :
STEP .m     0.00000000 :
NULL .        -999.250000 :
COMP.           : COMPANY
WELL.  34/10-7   : WELL
FLD.            : FIELD
LOC.            : LOCATION
SRVC.           : SERVICE COMPANY
DATE.  2018-09-11 14:48:47   : Log Export Date {yyyy-MM-dd HH:mm:ss}
PROV.           : PROVINCE
UWI.   34/10-7   : UNIQUE WELL ID
API.            : API NUMBER
#==================================================================
~Curve
DEPT .m                   : DEPTH
Lithology_geolink ._      : Lithology_geolink
CALI .in                  : CALI
DRHO .g/cm3               : DRHO
NPHI .m3/m3               : NPHI
RHOB .g/cm3               : RHOB
GR .gAPI                  : GR
DTC .us/ft                : DTC
RDEP .ohm.m               : RDEP
SP .mV                    : SP
RSHA .ohm.m               : RSHA
RMED .ohm.m               : RMED
~Parameter
#==================================================================
~Ascii
# ...
 1199.3116455  -999.250000 19.808000565 -0.021000000  -999.250000 2.0350000858 28.393955231 146.00480652 0.8670127988 56.896396637 0.7209904194 0.7209904194
 1199.4641113  -999.250000 19.988000870 -0.021000000  -999.250000 2.0269999504 29.698797226 144.50601196 0.8580288291 55.653003693 0.7429295182 0.7429295182
 1199.6164551  -999.250000 19.707000732 -0.022000000  -999.250000 2.0230000019 28.442054749 145.37080383 0.8470352888 56.398197174 0.7679198980 0.7679198980
 1199.7689209  -999.250000 19.559999466 -0.022000000  -999.250000 2.0190000534 28.437999725 145.99749756 0.8370320201 56.025901794 0.7729839683 0.7729839683
 1199.9212646  -999.250000 19.624000549 -0.017000001  -999.250000 2.0199999809 27.160108566 148.11479187 0.8350064158 55.401504517 0.7510704994 0.7510704994
 1200.0737305  -999.250000 19.884000778 -0.023000000  -999.250000 2.0000000000 29.040945053 150.73948669 0.8369936347 54.901203156 0.7191024423 0.7191024423
 1200.2260742  -999.250000 20.197000504 -0.039999999  -999.250000 1.9379999638 28.003355026 152.49299622 0.8330128193 54.650604248 0.7090320587 0.7090320587
 1200.3784180  -999.250000 20.160999298 -0.064999998  -999.250000 1.8569999933 27.875499725 152.99760437 0.8230400681 54.400604248 0.7159720063 0.7159720063
 1200.5308838  -999.250000 19.715002060 -0.068999998  -999.250000 1.8140000105 25.445810318 151.00799561 0.8210064173 54.150600433 0.7130095959 0.7130095959
 1200.6832275  -999.250000 19.625999451 -0.054000001  -999.250000 1.8190000057 30.308423996 152.11959839 0.8239880204 53.900604248 0.6910880804 0.6910880804
 1200.8356934  -999.250000 19.795999527 -0.035999998  -999.250000 1.8559999466 32.306636810 153.12098694 0.8259935379 52.403602600 0.6760481000 0.6760481000
 1200.9880371  -999.250000 19.725000381 -0.021000000  -999.250000 1.8980000019 38.413478851 155.11538696 0.8299839497 53.148197174 0.6849640012 0.6849640012
 1201.1405029  -999.250000 19.216999054 -0.017999999  -999.250000 1.9240000248 40.244194031 152.38600159 0.8319935799 54.147598267 0.6979583502 0.6979583502
 1201.2928467  -999.250000 18.642000198 -0.015000000  -999.250000 1.9390000105 43.987979889 148.76741028 0.8329967856 54.399398804 0.7009903789 0.7009903789
 1201.4453125  -999.250000 18.239000320 -0.011000000  -999.250000 1.9379999638 40.885009766 147.00700378 0.8359904289 55.646999359 0.7119647861 0.7119647861
 1201.5976563  -999.250000 17.952999115 -0.008000000  -999.250000 1.9290000200 40.127403259 147.00000000 0.8439743519 56.647598267 0.7329326868 0.7329326868
 1201.7501221  -999.250000 17.705999374 -0.010000000  -999.250000 1.9099999666 35.888610840 150.11247253 0.8489839435 55.901802063 0.7639006972 0.7639006972
 1201.9024658  -999.250000 17.593999863 -0.015000000  -999.250000 1.8910000324 34.722705841 152.11538696 0.8509935737 55.900001526 0.7799487114 0.7799487114
 1202.0549316  -999.250000 17.725000381 -0.012000000  -999.250000 1.8940000534 33.628501892 149.01252747 0.8549872041 55.650600433 0.7730224133 0.7730224133
 1202.2072754  -999.250000 17.947999954 -0.006000000  -999.250000 1.9099999666 34.621795654 149.00000000 0.8569935560 55.151203156 0.7580481172 0.7580481172
 1202.3596191  -999.250000 18.062999725 -0.005000000  -999.250000 1.9170000553 34.780372620 147.38281250 0.8530160189 53.904003143 0.7510280013 0.7510280013
 1202.5120850  -999.250000 17.979000092 -0.007000000  -999.250000 1.9170000553 33.005706787 146.00550842 0.8500096202 54.648197174 0.7539904118 0.7539904118
 1202.6644287  -999.250000 17.829999924 -0.006000000  -999.250000 1.9210000038 32.532875061 146.00000000 0.8480079770 54.151203156 0.7549960017 0.7549960017
 1202.8168945  -999.250000 17.802999496 0.0020000001  -999.250000 1.9299999475 34.275390625 148.11648560 0.8450096250 54.150001526 0.7480224371 0.7480224371
 1202.9692383  -999.250000 17.806999207 0.0070000002  -999.250000 1.9309999943 33.192375183 145.38821411 0.8440039754 54.399398804 0.7440160513 0.7440160513
 1203.1217041  -999.250000 17.849000931 0.0000000000  -999.250000 1.9110000134 31.194410324 144.50350952 0.8420064449 54.150600433 0.7509775758 0.7509775758
 1203.2740479  -999.250000 17.898000717 -0.010000000  -999.250000 1.8940000534 28.449008942 145.49598694 0.8400079608 54.898197174 0.7599639893 0.7599639893
 1203.4265137  -999.250000 17.812000275 -0.014000000  -999.250000 1.8999999762 28.951349258 144.00601196 0.8399999738 56.895198822 0.7639871836 0.7639871836
 1203.5788574  -999.250000 17.766000748 -0.013000000  -999.250000 1.9170000553 30.962537766 147.11247253 0.8419935703 57.149398804 0.7590160370 0.7590160370
 1203.7313232  -999.250000 17.766000748 -0.007000000  -999.250000 1.9329999685 31.467397690 147.49850464 0.8429967761 56.651203156 0.7520223856 0.7520223856
 1203.8836670  -999.250000 17.795000076 -0.004000000  -999.250000 1.9249999523 31.499900818 147.99800110 0.8420032263 56.151203156 0.7549903989 0.7549903989
 1204.0361328  -999.250000 17.861000061 -0.003000000  -999.250000 1.9220000505 28.074007034 145.75721741 0.8400063515 55.401203156 0.7569936514 0.7569936514
 1204.1884766  -999.250000 17.847000122 -0.004000000  -999.250000 1.9240000248 27.081155777 144.00700378 0.8390032053 54.401603699 0.7649743557 0.7649743557
 1204.3408203  -999.250000 17.760000229 -0.006000000  -999.250000 1.9290000200 26.610876083 144.49800110 0.8389999866 55.646999359 0.7659959793 0.7659959793
 1204.4932861  -999.250000 17.764999390 -0.008000000  -999.250000 1.9259999990 31.655773163 144.74899292 0.8399967551 54.651603699 0.7620128393 0.7620128393
 1204.6456299  -999.250000 17.743999481 -0.008000000  -999.250000 1.9229999781 32.278560638 145.49699402 0.8399999738 54.151203156 0.7620000243 0.7620000243
 1204.7980957  -999.250000 17.634000778 0.0010000000  -999.250000 1.9370000362 32.374698639 146.74499512 0.8419935703 54.399600983 0.7610031962 0.7610031962
 1204.9504395  -999.250000 17.714000702 0.0010000000  -999.250000 1.9400000572 28.842199326 146.50100708 0.8400079608 54.649402618 0.7659799457 0.7659799457
 1205.1029053  -999.250000 17.888999939 -0.008000000  -999.250000 1.9320000410 30.183641434 146.74899292 0.8360128403 54.400402069 0.7659999728 0.7659999728
 1205.2552490  -999.250000 17.989000320 -0.020000000  -999.250000 1.9129999876 31.447935104 147.37249756 0.8320160508 54.649402618 0.7729719877 0.7729719877
 1205.4077148  -999.250000 18.020000458 -0.023000000  -999.250000 1.9010000229 31.406150818 146.50350952 0.8310031891 54.899600983 0.7710064650 0.7710064650
 1205.5600586  -999.250000 17.951999664 -0.023000000  -999.250000 1.9019999504 34.147182465 147.12249756 0.8300032020 54.650600433 0.7660160065 0.7660160065
 1205.7125244  -999.250000 18.031000137 -0.024000000  -999.250000 1.9010000229 36.523391724 148.36999512 0.8309967518 54.650001526 0.7530416250 0.7530416250
 1205.8648682  -999.250000 18.179000854 -0.013000000  -999.250000 1.9220000505 38.961189270 148.37500000 0.8309999704 56.146400452 0.7559903860 0.7559903860
 1206.0173340  -999.250000 18.333999634 -0.008000000  -999.250000 1.9359999895 37.629302979 148.00120544 0.8300032020 56.150001526 0.7669647932 0.7669647932
 1206.1696777  -999.250000 18.385000229 -0.003000000  -999.250000 1.9500000477 38.652694702 147.12850952 0.8280064464 55.900402069 0.7769679427 0.7769679427
 1206.3221436  -999.250000 18.510000229 -0.013000000  -999.250000 1.9400000572 40.618694305 145.38061523 0.8309903741 56.648799896 0.7730128169 0.7730128169
 1206.4744873  -999.250000 18.465999603 -0.007000000  -999.250000 1.9390000105 38.195812225 145.37500000 0.8329935670 56.899600983 0.7759904265 0.7759904265
 1206.6268311  -999.250000 17.864999771 -0.005000000  -999.250000 1.9400000572 37.160129547 144.50350952 0.8359880447 56.401203156 0.7690280080 0.7690280080
 1206.7792969  -999.250000 17.444000244 0.0049999999  -999.250000 1.9500000477 36.003704071 145.12249756 0.8399871588 55.900802612 0.7749807239 0.7749807239
 1206.9316406  -999.250000 17.667999268 0.0030000000  -999.250000 1.9459999800 37.805740356 145.74749756 0.8399999738 55.900001526 0.7710160613 0.7710160613
