# LAS format log file from PETREL
# Project units are specified as depth units
#==================================================================
~Version information
VERS.   2.0:
WRAP.   NO:
#==================================================================
~Well
STRT .m      211.00001526 :
STOP .m      2222.9851074 :
STEP .m     0.00000000 :
NULL .        -999.250000 :
COMP.           : COMPANY
WELL.  34/10-19   : WELL
FLD.            : FIELD
LOC.            : LOCATION
SRVC.           : SERVICE COMPANY
DATE.  2018-09-11 14:48:44   : Log Export Date {yyyy-MM-dd HH:mm:ss}
PROV.           : PROVINCE
UWI.   34/10-19   : UNIQUE WELL ID
API.            : API NUMBER
#==================================================================
~Curve
DEPT .m                   : DEPTH
Lithology_geolink ._      : Lithology_geolink
CALI .in                  : CALI
DRHO .g/cm3               : DRHO
NPHI .m3/m3               : NPHI
RHOB .g/cm3               : RHOB
GR .gAPI                  : GR
DTC .us/ft                : DTC
RDEP .ohm.m               : RDEP
SP .mV                    : SP
RSHA .ohm.m               : RSHA
RMED .ohm.m               : RMED
~Parameter
#==================================================================
~Ascii
# ...
 2216.2795410  -999.250000 8.0469999313 -0.063000001 0.2666000128 2.2950000763 30.297000885 108.50000000 0.6450048089 62.386672974 0.8529903889 0.8529903889
 2216.4318848  -999.250000 8.0469999313 -0.062995203 0.2666000128 2.2950065136 30.297000885 108.50000000 0.6480032206 62.521957397 0.8470112085 0.8470112085
 2216.5842285  -999.250000 8.0229997635 -0.059999999 0.2666000128 2.2990000248 30.297000885 108.50000000 0.6499999762 61.682723999 0.8539999723 0.8539999723
 2216.7368164  -999.250000 7.9060001373 -0.059998397 0.2680715322 2.3090031147 30.297000885 108.50000000 0.6520016193 61.207664490 0.8589984179 0.8589984179
 2216.8891602  -999.250000 7.8520002365 -0.059004810 0.2690392137 2.3109905720 30.297000885 108.50000000 0.6530016065 60.685714722 0.8579967618 0.8579967618
 2217.0415039  -999.250000 7.8979997635 -0.061996799 0.2685500085 2.3050031662 30.297000885 108.50000000 0.6540015936 59.797626495 0.8559983969 0.8559983969
 2217.1938477  -999.250000 7.8979997635 -0.059999999 0.2685500085 2.3069999218 30.297000885 108.50000000 0.6549999714 59.520095825 0.8550000191 0.8550000191
 2217.3461914  -999.250000 7.8979997635 -0.061999999 0.2685500085 2.3069999218 30.297000885 108.50000000 0.6549999714 61.009346008 0.8560000062 0.8560000062
 2217.4987793  -999.250000 7.8829998970 -0.062001601 0.2685500085 2.3139886856 30.297000885 108.50000000 0.6549999714 65.206634521 0.8560000062 0.8560000062
 2217.6511230  -999.250000 7.8829998970 -0.062995203 0.2685500085 2.3069999218 30.297000885 108.50000000 0.6549999714 60.781696320 0.8560000062 0.8560000062
 2217.8034668  -999.250000 7.8909997940 -0.059999999 0.2685500085 2.3069999218 30.297000885 108.50000000 0.6549999714 60.125743866 0.8560000062 0.8560000062
 2217.9558105  -999.250000 7.8909997940 -0.056000002 0.2685500085 2.3129999638 30.297000885 108.50000000 0.6549999714 65.850677490 0.8560000062 0.8560000062
 2218.1083984  -999.250000 7.8829998970 -0.054001603 0.2685500085 2.3110048771 30.297000885 108.50000000 0.6549999714 62.045814514 0.8569999933 0.8569999933
 2218.2607422  -999.250000 7.8829998970 -0.055008013 0.2685500085 2.3139822483 30.297000885 108.50000000 0.6549999714 60.974361420 0.8569983840 0.8569983840
 2218.4130859  -999.250000 7.8829998970 -0.060001597 0.2685500085 2.3030128479 30.297000885 108.50000000 0.6549999714 61.262210846 0.8560016155 0.8560016155
 2218.5654297  -999.250000 7.8829998970 -0.061000001 0.2685500085 2.3110001087 30.297000885 108.50000000 0.6549999714 62.538192749 0.8569999933 0.8569999933
 2218.7180176  -999.250000 7.8909997940 -0.063995197 0.2685500085 2.3090081215 30.297000885 108.50000000 0.6549999714 60.494003296 0.8560000062 0.8560000062
 2218.8703613  -999.250000 7.8829998970 -0.060996797 0.2685500085 2.3139917850 30.297000885 108.50000000 0.6549999714 58.205425262 0.8560000062 0.8560000062
 2219.0227051  -999.250000 7.8829998970 -0.058995202 0.2685500085 2.3090031147 30.297000885 108.50000000 0.6549999714 66.345970154 0.8560000062 0.8560000062
 2219.1750488  -999.250000 7.8829998970 -0.056000002 0.2685500085 2.3110001087 30.297000885 108.50000000 0.6549999714 62.194549561 0.8560000062 0.8560000062
 2219.3273926  -999.250000 7.8829998970 -0.057000000 0.2685500085 2.3090000153 30.297000885 108.50000000 0.6549999714 61.063663483 0.8560000062 0.8560000062
 2219.4799805  -999.250000 7.9140000343 -0.057999998 0.2680699825 2.3049936295 30.297000885 108.50000000 0.6549999714 60.571460724 0.8569983840 0.8569983840
 2219.6323242  -999.250000 7.9060001373 -0.057999998 0.2680707574 2.3010065556 30.297000885 108.50000000 0.6549999714 59.038108826 0.8560000062 0.8560000062
 2219.7846680  -999.250000 7.8829998970 -0.057999998 0.2685500085 2.3050000668 30.297000885 108.50000000 0.6549999714 64.630470276 0.8560000062 0.8560000062
 2219.9370117  -999.250000 7.8829998970 -0.055000000 0.2685500085 2.3050000668 30.297000885 108.50000000 0.6549999714 60.789634705 0.8560000062 0.8560000062
 2220.0895996  -999.250000 7.8909997940 -0.055993591 0.2685500085 2.3090064526 30.297000885 108.50000000 0.6549999714 59.880027771 0.8560000062 0.8560000062
 2220.2419434  -999.250000 7.8829998970 -0.052004810 0.2685492337 2.3129968643 30.297000885 108.50000000 0.6549999714 58.851722717 0.8560000062 0.8560000062
 2220.3942871  -999.250000 7.9060001373 -0.055001598 0.2680707574 2.3110001087 30.297000885 108.50000000 0.6549999714 59.015388489 0.8560000062 0.8560000062
 2220.5466309  -999.250000 7.8909997940 -0.056000002 0.2685500085 2.3110001087 30.297000885 108.50000000 0.6549999714 62.011150360 0.8560000062 0.8560000062
 2220.6992188  -999.250000 7.8750004768 -0.055998400 0.2685492337 2.3110082150 30.297000885 108.50000000 0.6549999714 65.535125732 0.8560000062 0.8560000062
 2220.8515625  -999.250000 7.9060001373 -0.054995190 0.2680707574 2.3159999847 30.297000885 108.50000000 0.6549999714 61.488227844 0.8560000062 0.8560000062
 2221.0039063  -999.250000 7.8979997635 -0.051990401 0.2685507834 2.3160030842 30.297000885 108.50000000 0.6549999714 55.130653381 0.8560000062 0.8560000062
 2221.1562500  -999.250000 7.8670001030 -0.046000000 0.2690399885 2.3180000782  -999.250000 108.50000000 0.6549999714  -999.250000 0.8560000062 0.8560000062
 2221.3085938  -999.250000 7.8829998970 -0.045000002 0.2685500085 2.3199999332  -999.250000 108.50000000 0.6549999714  -999.250000 0.8560000062 0.8560000062
 2221.4611816  -999.250000 7.8750004768 -0.048016027 0.2685500085 2.3259792328  -999.250000  -999.250000  -999.250000  -999.250000  -999.250000  -999.250000
 2221.6135254  -999.250000 7.8829998970 -0.058004797 0.2685500085 2.3129935265  -999.250000  -999.250000  -999.250000  -999.250000  -999.250000  -999.250000
 2221.7658691  -999.250000 7.8909997940 -0.061000001 0.2685500085 2.3090000153  -999.250000  -999.250000  -999.250000  -999.250000  -999.250000  -999.250000
 2221.9182129  -999.250000 7.9060001373 -0.059999999 0.2680699825 2.3069999218  -999.250000  -999.250000  -999.250000  -999.250000  -999.250000  -999.250000
 2222.0708008  -999.250000 7.8829998970 -0.054991987 0.2685500085 2.3140063286  -999.250000  -999.250000  -999.250000  -999.250000  -999.250000  -999.250000
 2222.2231445  -999.250000 7.8829998970 -0.049998399 0.2685500085 2.3180031776  -999.250000  -999.250000  -999.250000  -999.250000  -999.250000  -999.250000
 2222.3754883  -999.250000 7.8829998970 -0.048999999 0.2685500085 2.3199999332  -999.250000  -999.250000  -999.250000  -999.250000  -999.250000  -999.250000
 2222.5278320  -999.250000 7.8829998970 -0.048999999 0.2685500085 2.3199999332  -999.250000  -999.250000  -999.250000  -999.250000  -999.250000  -999.250000
 2222.6804199  -999.250000 7.8829998970 -0.048999999 0.2685500085 2.3199999332  -999.250000  -999.250000  -999.250000  -999.250000  -999.250000  -999.250000
 2222.8327637  -999.250000 7.8829998970  -999.250000  -999.250000  -999.250000  -999.250000  -999.250000  -999.250000  -999.250000  -999.250000  -999.250000
 2222.9851074  -999.250000 7.8829998970  -999.250000  -999.250000  -999.250000  -999.250000  -999.250000  -999.250000  -999.250000  -999.250000  -999.250000
