# LAS format log file from PETREL
# Project units are specified as depth units
#==================================================================
~Version information
VERS.   2.0:
WRAP.   NO:
#==================================================================
~Well
STRT .m      211.00001526 :
STOP .m      2222.9851074 :
STEP .m     0.00000000 :
NULL .        -999.250000 :
COMP.           : COMPANY
WELL.  34/10-19   : WELL
FLD.            : FIELD
LOC.            : LOCATION
SRVC.           : SERVICE COMPANY
DATE.  2018-09-11 14:48:44   : Log Export Date {yyyy-MM-dd HH:mm:ss}
PROV.           : PROVINCE
UWI.   34/10-19   : UNIQUE WELL ID
API.            : API NUMBER
#==================================================================
~Curve
DEPT .m                   : DEPTH
Lithology_geolink ._      : Lithology_geolink
CALI .in                  : CALI
DRHO .g/cm3               : DRHO
NPHI .m3/m3               : NPHI
RHOB .g/cm3               : RHOB
GR .gAPI                  : GR
DTC .us/ft                : DTC
RDEP .ohm.m               : RDEP
SP .mV                    : SP
RSHA .ohm.m               : RSHA
RMED .ohm.m               : RMED
~Parameter
#==================================================================
~Ascii
# ...
 1003.7849121  -999.250000 18.250000000  -999.250000  -999.250000  -999.250000 45.952083588 160.25000000 1.2330000401 16.523313522 1.1239999533 1.1239999533
 1003.9373169  -999.250000 18.344999313  -999.250000  -999.250000  -999.250000 48.986930847 158.49998474 1.2389999628 14.683999062 1.1339999437 1.1339999437
 1004.0897217  -999.250000 18.349000931  -999.250000  -999.250000  -999.250000 50.449794769 158.25000000 1.2439999580 13.687413216 1.1360000372 1.1360000372
 1004.2421265  -999.250000 18.423999786  -999.250000  -999.250000  -999.250000 51.341129303 158.75001526 1.2480000257 13.894141197 1.1310000420 1.1310000420
 1004.3945313  -999.250000 18.290000916  -999.250000  -999.250000  -999.250000 50.404445648 159.50000000 1.2489999533 14.462639809 1.1260000467 1.1260000467
 1004.5469360  -999.250000 18.232000351  -999.250000  -999.250000  -999.250000 48.128566742 160.50000000 1.2430000305 14.283995628 1.1250000000 1.1250000000
 1004.6992798  -999.250000 18.371000290  -999.250000  -999.250000  -999.250000 45.420501709 162.00000000 1.2309999466 14.779126167 1.1150000095 1.1150000095
 1004.8516846  -999.250000 18.003999710  -999.250000  -999.250000  -999.250000 44.480247498 162.75000000 1.2089999914 14.232995033 1.1109999418 1.1109999418
 1005.0040894  -999.250000 17.891000748  -999.250000  -999.250000  -999.250000 41.613555908 161.50000000 1.1849999428 13.238572121 1.1000000238 1.1000000238
 1005.1564941  -999.250000 17.905000687  -999.250000  -999.250000  -999.250000 41.386455536 162.75000000 1.1729999781 15.516082764 1.0779999495 1.0779999495
 1005.3088989  -999.250000 18.028999329  -999.250000  -999.250000  -999.250000 38.122573853 163.75001526 1.1660000086 15.059220314 1.0499999523 1.0499999523
 1005.4613037  -999.250000 18.014999390  -999.250000  -999.250000  -999.250000 37.908435822 163.49998474 1.1579999924 15.170125008 1.0299999714 1.0299999714
 1005.6137085  -999.250000 18.214000702  -999.250000  -999.250000  -999.250000 37.129798889 163.25000000 1.1519999504 15.728672028 1.0219999552 1.0219999552
 1005.7661133  -999.250000 18.083000183  -999.250000  -999.250000  -999.250000 38.027469635 163.75001526 1.1569999456 14.568309784 1.0349999666 1.0349999666
 1005.9185181  -999.250000 18.222999573  -999.250000  -999.250000  -999.250000 38.262466431 164.25000000 1.1560000181 14.226156235 1.0429999828 1.0429999828
 1006.0709229  -999.250000 18.259000778  -999.250000  -999.250000  -999.250000 38.493297577 164.25000000 1.1540000439 15.303175926 1.0499999523 1.0499999523
 1006.2233276  -999.250000 18.031999588  -999.250000  -999.250000  -999.250000 38.135456085 165.50000000 1.1549999714 16.381507874 1.0540000200 1.0540000200
 1006.3757324  -999.250000 17.952999115  -999.250000  -999.250000  -999.250000 33.880065918 165.25000000 1.1610000134 13.147673607 1.0690000057 1.0690000057
 1006.5281372  -999.250000 17.843999863  -999.250000  -999.250000  -999.250000 35.907447815 164.00000000 1.1679999828 13.984028816 1.0729999542 1.0729999542
 1006.6804810  -999.250000 17.863000870  -999.250000  -999.250000  -999.250000 36.129074097 163.75001526 1.1940000057 14.995228767 1.0709999800 1.0709999800
 1006.8328857  -999.250000 18.000999451  -999.250000  -999.250000  -999.250000 36.171833038 163.75001526 1.2020000219 15.138310432 1.0670000315 1.0670000315
 1006.9852905  -999.250000 18.017000198  -999.250000  -999.250000  -999.250000 34.198799133 160.99998474 1.2050000429 15.331930161 1.0720000267 1.0720000267
 1007.1376953  -999.250000 17.836999893  -999.250000  -999.250000  -999.250000 34.101158142 161.25001526 1.2100000381 15.297192574 1.0759999752 1.0759999752
 1007.2901001  -999.250000 17.698999405  -999.250000  -999.250000  -999.250000 35.680404663 162.00000000 1.2100000381 15.393005371 1.0850000381 1.0850000381
 1007.4425049  -999.250000 17.916000366  -999.250000  -999.250000  -999.250000 37.879394531 160.99998474 1.2079999447 15.401214600 1.0939999819 1.0939999819
 1007.5949097  -999.250000 17.909000397  -999.250000  -999.250000  -999.250000 39.078197479 160.25000000 1.2139999866 18.003780365 1.1039999723 1.1039999723
 1007.7473145  -999.250000 17.864000320  -999.250000  -999.250000  -999.250000 41.169410706 161.75000000 1.2209999561 19.880371094 1.1160000563 1.1160000563
 1007.8997192  -999.250000 18.010000229  -999.250000  -999.250000  -999.250000 41.378314972 159.25000000 1.2220000029 16.079994202 1.1180000305 1.1180000305
 1008.0521240  -999.250000 17.924999237  -999.250000  -999.250000  -999.250000 43.529510498 160.99998474 1.2250000238 17.077714920 1.1130000353 1.1130000353
 1008.2045288  -999.250000 17.983999252  -999.250000  -999.250000  -999.250000 43.784599304 160.74890137 1.2269988060 18.929677963 1.1260012388 1.1260012388
 1008.3569336  -999.250000 18.055000305  -999.250000  -999.250000  -999.250000 43.583148956 158.00079346 1.2239959240 18.762529373 1.1290135384 1.1290135384
 1008.5093384  -999.250000 17.728000641  -999.250000  -999.250000  -999.250000 42.663024902 158.99980164 1.2190032005 15.539287567 1.1460015774 1.1460015774
 1008.6617432  -999.250000 17.801000595  -999.250000  -999.250000  -999.250000 43.671936035 158.75102234 1.2230048180 16.180849075 1.1479903460 1.1479903460
 1008.8140869  -999.250000 18.059999466  -999.250000  -999.250000  -999.250000 43.140830994 159.99969482 1.2290052176 16.106237411 1.1360144615 1.1360144615
 1008.9664917  -999.250000 18.108999252  -999.250000  -999.250000  -999.250000 42.410892487 159.25140381 1.2419975996 16.253808975 1.1719908714 1.1719908714
 1009.1188965  -999.250000 18.028999329  -999.250000  -999.250000  -999.250000 41.100845337 162.75120544 1.2359958887 16.134893417 1.1489996910 1.1489996910
 1009.2713013  -999.250000 17.309999466  -999.250000  -999.250000  -999.250000 42.520374298 165.75070190 1.2259958982 16.081529617 1.1479991674 1.1479991674
 1009.4237061  -999.250000 17.559999466  -999.250000  -999.250000  -999.250000 43.206310272 167.50109863 1.2159931660 15.846516609 1.1459840536 1.1459840536
 1009.5761108  -999.250000 17.829999924  -999.250000  -999.250000  -999.250000 43.858711243 170.25000000 1.1989984512 15.604415894 1.1060175896 1.1060175896
 1009.7285156  -999.250000 17.875000000  -999.250000  -999.250000  -999.250000 44.210304260 170.24949646 1.1950024366 14.815589905 1.1499727964 1.1499727964
 1009.8809204  -999.250000 18.027000427  -999.250000  -999.250000  -999.250000 43.367675781 168.99829102 1.2009999752 15.114853859 1.0819959641 1.0819959641
 1010.0333252  -999.250000 17.857999802  -999.250000  -999.250000  -999.250000 44.699363708 164.74909973 1.2009955645 17.531776428 1.0720129013 1.0720129013
 1010.1857300  -999.250000 18.167999268  -999.250000  -999.250000  -999.250000 44.381912231 162.49879456 1.1900020838 16.419631958 1.1039975882 1.1039975882
 1010.3381348  -999.250000 18.204000473  -999.250000  -999.250000  -999.250000 44.333911896 159.49960327 1.1949988604 14.741224289 1.0980124474 1.0980124474
 1010.4905396  -999.250000 18.200000763  -999.250000  -999.250000  -999.250000 41.792964935 158.49998474 1.1919935942 14.853518486 1.1290047169 1.1290047169
 1010.6429443  -999.250000 18.187999725  -999.250000  -999.250000  -999.250000 39.780303955 158.50138855 1.1840088367 15.112466812 1.1350191832 1.1350191832
 1010.7953491  -999.250000 18.209999084  -999.250000  -999.250000  -999.250000 38.932464600 160.25000000 1.1950072050 15.346760750 1.1589840651 1.1589840651
 1010.9476929  -999.250000 18.256000519  -999.250000  -999.250000  -999.250000 38.168308258 160.25070190 1.2040008307 16.226722717 1.1390044689 1.1390044689
 1011.1000977  -999.250000 18.044000626  -999.250000  -999.250000  -999.250000 38.358718872 161.99980164 1.2060015202 17.922332764 1.1499911547 1.1499911547
 1011.2525024  -999.250000 17.802000046  -999.250000  -999.250000  -999.250000 37.721961975 161.49989319 1.2100032568 18.085157394 1.1280071735 1.1280071735
 1011.4049072  -999.250000 17.885000229  -999.250000  -999.250000  -999.250000 39.201824188 161.24961853 1.2180008888 16.672609329 1.1459996700 1.1459996700
