# LAS format log file from PETREL
# Project units are specified as depth units
#==================================================================
~Version information
VERS.   2.0:
WRAP.   NO:
#==================================================================
~Well
STRT .m      3900.0166016 :
STOP .m      4564.4804688 :
STEP .m     0.00000000 :
NULL .        -999.250000 :
COMP.           : COMPANY
WELL.  34/11-1   : WELL
FLD.            : FIELD
LOC.            : LOCATION
SRVC.           : SERVICE COMPANY
DATE.  2018-09-11 14:48:47   : Log Export Date {yyyy-MM-dd HH:mm:ss}
PROV.           : PROVINCE
UWI.   34/11-1   : UNIQUE WELL ID
API.            : API NUMBER
#==================================================================
~Curve
DEPT .m                   : DEPTH
Lithology_geolink ._      : Lithology_geolink
CALI .in                  : CALI
BS .in                    : BS
NPHI .m3/m3               : NPHI
RHOB .g/cm3               : RHOB
GR .gAPI                  : GR
DTC .us/ft                : DTC
DTS .us/ft                : DTS
RDEP .ohm.m               : RDEP
SP .mV                    : SP
RSHA .ohm.m               : RSHA
RMED .ohm.m               : RMED
~Parameter
#==================================================================
~Ascii
# ...
 4031.6901855 7.0000000000 8.6660003662 8.3750000000 0.4240761399 2.4769999981 135.64787292 95.070358276 212.82539368 2.4868669510 909.90399170 2.7285447121 2.7479999065
 4031.8425293 7.0000000000 8.6020002365 8.3750000000 0.4344100058 2.4600000381 137.58117676 95.650260925 213.69779968 2.4039118290 -132.6159973 2.6632068157 2.6819999218
 4031.9951172 7.0000000000 8.6020002365 8.3750000000 0.4461259544 2.4409999847 141.53529358 96.916595459 214.17312622 2.3489456177 -1307.014038 2.6197566986 2.6229999065
 4032.1474609 6.0000000000 8.6020002365 8.3750000000 0.2775679529 2.4440000057 145.00077820 98.435325623 214.01379395 2.3320240974 -1675.089966 2.6301314831 2.6019999981
 4032.2998047 6.0000000000 8.6059999466 8.3750000000 0.3716713190 2.4790000916 145.93505859 99.757919312 214.09555054 2.3470318317 -1322.161011 2.6758894920 2.6270000935
 4032.4521484 6.0000000000 8.6420001984 8.3750000000 0.4041059315 2.4830000401 142.13891602 100.66145325 213.49412537 2.3670096397 -822.1599731 2.7148396969 2.6749999523
 4032.6047363 6.0000000000 8.6569995880 8.3750000000 0.5038068295 2.4809999466 135.05288696 101.29392242 213.01258850 2.3730094433 -322.1700134 2.7300000191 2.7149999142
 4032.7570801 6.0000000000 8.6569995880 8.3750000000 0.4374813735 2.4800000191 128.74801636 101.79132080 213.67340088 2.3760159016 177.82200623 2.7290320396 2.7330000401
 4032.9094238 6.0000000000 8.6619997025 8.3750000000 0.3863077164 2.4670000076 125.73821259 101.92043304 214.97521973 2.3860335350 673.17199707 2.7310817242 2.7360000610
 4033.0617676 6.0000000000 8.6770000458 8.3750000000 0.4013163149 2.4470000267 128.76155090 101.79707336 215.77639771 2.4070689678 1074.1579590 2.7697467804 2.7309999466
 4033.2143555 6.0000000000 8.6800003052 8.3750000000 0.4311804175 2.4460000992 136.29055786 101.95211792 216.65019226 2.4501440525 908.28002930 2.8701839447 2.7660000324
 4033.3666992 6.0000000000 8.6569995880 8.3750000000 0.5134417415 2.4630000591 139.67782593 102.32537842 217.01643372 2.4949982166 -134.2239990 2.9605159760 2.8880000114
 4033.5190430 6.0000000000 8.6579999924 8.3750000000 0.4898236394 2.4690001011 133.13005066 102.39519501 215.68702698 2.4939341545 -1306.415039 2.9260897636 3.0090000629
 4033.6713867 6.0000000000 8.6709995270 8.3750000000 0.3739252687 2.4769999981 120.68784332 101.86676025 214.49790955 2.4529328346 -1676.714966 2.7915415764 2.9619998932
 4033.8237305 7.0000000000 8.6549997330 8.3750000000 0.3614455163 2.5150001049 112.56939697 100.57922363 213.97192383 2.4109518528 -1323.137939 2.6784808636 2.7980000973
 4033.9763184 7.0000000000 8.6560001373 8.3750000000 0.3208691180 2.5780000687 116.02407837 98.619033813 215.65693665 2.3809423447 -823.1370239 2.6210832596 2.6760001183
 4034.1286621 7.0000000000 8.6569995880 8.3750000000 0.3488862514 2.5980000496 127.47350311 96.501739502 218.14451599 2.3629486561 -323.1470032 2.5622212887 2.6310000420
 4034.2810059 7.0000000000 8.7060003281 8.3750000000 0.3207115829 2.5269999504 138.38833618 95.357040405 221.07632446 2.3308877945 176.84500122 2.4671394825 2.5880000591
 4034.4333496 7.0000000000 8.6599998474 8.3750000000 0.3115274012 2.4560000896 143.38540649 95.709663391 223.47296143 2.2608702183 672.17999268 2.3641250134 2.5060000420
 4034.5859375 7.0000000000 8.6789999008 8.3750000000 0.3663087785 2.4660000801 142.47247314 97.165512085 224.69557190 2.1798241138 1072.9870605 2.3001360893 2.4100000858
 4034.7382813 7.0000000000 8.6929998398 8.3750000000 0.3416804671 2.4690001011 141.05307007 98.766891479 224.83721924 2.1249599457 907.10699463 2.2857260704 2.3250000477
 4034.8906250 7.0000000000 8.6870002747 8.3750000000 0.2803425789 2.4579999447 142.40066528 99.778938293 224.58576965 2.0999727249 -132.1300049 2.2865481377 2.2860000134
 4035.0429688 7.0000000000 8.6750001907 8.3750000000 0.3709550202 2.4579999447 144.18287659 100.44767761 223.92224121 2.0829679966 -1307.959961 2.2754664421 2.2899999619
 4035.1955566 7.0000000000 8.7480001450 8.3750000000 0.4813377559 2.4570000172 144.68092346 101.34248352 222.35415649 2.0629007816 -1677.822998 2.2440559864 2.2869999409
 4035.3479004 7.0000000000 8.7489995956 8.3750000000 0.6109080315 2.4730000496 142.60641479 102.56727600 220.35130310 2.0319151878 -1324.114990 2.1918509007 2.2479999065
 4035.5002441 7.0000000000 8.7550001144 8.3750000000 0.4027056396 2.4939999580 139.85066223 103.65032196 217.62677002 1.9788845778 -824.1149902 2.1013638973 2.1789999008
 4035.6525879 7.0000000000 8.7480001450 8.3750000000 0.3893174827 2.5280001163 139.73127747 104.28296661 215.92198181 1.9068845510 -324.1239929 1.9592180252 2.0710000992
 4035.8049316 7.0000000000 8.7489995956 8.3750000000 0.3776077032 2.5230000019 142.26872253 104.25104523 215.45487976 1.8349070549 175.86799622 1.8268463612 1.9309999943
 4035.9575195 7.0000000000 8.7480001450 8.3750000000 0.4030221403 2.4709999561 144.20315552 103.00663757 215.72537231 1.7768591642 671.18103027 1.7717900276 1.8250000477
 4036.1098633 7.0000000000 8.7480001450 8.3750000000 0.3457298875 2.4509999752 144.87965393 100.39220428 216.28724670 1.7329535484 1072.0059814 1.7723557949 1.7799999714
 4036.2622070 7.0000000000 8.7480001450 8.3750000000 0.4210949540 2.4700000286 146.42338562 97.590820313 216.55360413 1.7039679289 907.68701172 1.7944695950 1.7769999504
 4036.4145508 7.0000000000 8.7449998856 8.3750000000 0.4243480265 2.4709999561 149.77288818 96.785682678 215.60556030 1.6839759350 -133.9900055 1.8323733807 1.7979999781
 4036.5671387 7.0000000000 8.6709995270 8.3750000000 0.3159578741 2.4769999981 150.83874512 97.197105408 214.69270325 1.6689968109 -1309.505981 1.8784576654 1.8300000429
 4036.7194824 7.0000000000 8.6619997025 8.3750000000 0.3548392355 2.5020000935 147.61770630 96.430427551 214.13333130 1.6680256128 -1678.930054 1.9165657759 1.8739999533
 4036.8718262 7.0000000000 8.6789999008 8.3750000000 0.4279200733 2.5090000629 146.82745361 94.232872009 214.39114380 1.6840368509 -1325.092041 1.9354519844 1.9129999876
 4037.0241699 7.0000000000 8.8269996643 8.3750000000 0.5099394321 2.4809999466 148.55667114 92.105232239 215.15299988 1.7070368528 -825.0919800 1.9385480881 1.9390000105
 4037.1767578 7.0000000000 8.8559999466 8.3750000000 0.6100578308 2.4679999352 148.09544373 90.914833069 216.23295593 1.7300608158 -325.1010132 1.9291360378 1.9479999542
 4037.3291016 7.0000000000 8.8559999466 8.3750000000 0.3935191035 2.5039999485 148.33743286 90.448852539 217.42213440 1.7490031719 174.87300110 1.9069824219 1.9450000525
 4037.4814453 7.0000000000 8.8559999466 8.3750000000 0.4340969920 2.5050001144 149.82475281 90.275604248 218.16409302 1.7509647608 669.97497559 1.8794342279 1.9299999475
 4037.6337891 7.0000000000 8.8579998016 8.3750000000 0.4399627447 2.4790000916 150.90023804 90.186935425 218.97503662 1.7289582491 1070.3170166 1.8661137819 1.9019999504
 4037.7861328 7.0000000000 8.8540000916 8.3750000000 0.2824604213 2.4660000801 152.24530029 90.154495239 219.59794617 1.7029951811 906.06201172 1.8966367245 1.8689999580
 4037.9387207 7.0000000000 8.8159999847 8.3750000000 0.3836364150 2.4670000076 153.41600037 90.038192749 218.43019104 1.7000735998 -135.8500061 1.9781346321 1.8580000401
 4038.0910645 7.0000000000 8.6569995880 8.3750000000 0.4115549326 2.4690001011 154.08496094 89.804237366 215.20291138 1.7230737209 -1311.052002 2.1052515507 1.8949999809
 4038.2434082 7.0000000000 8.6569995880 8.3750000000 0.3365596533 2.4479999542 155.77009583 89.671714783 210.74371338 1.7691266537 -1680.036987 2.2992691994 1.9919999838
 4038.3957520 7.0000000000 8.6610002518 8.3750000000 0.4080720842 2.4440000057 160.45184326 89.677673340 206.42190552 1.8481426239 -1326.068970 2.4678397179 2.1719999313
 4038.5483398 6.0000000000 8.6960000992 8.3750000000 0.4926778376 2.4379999638 162.46505737 89.859817505 202.47373962 1.9371408224 -826.0689697 2.4479792118 2.4449999332
 4038.7006836 6.0000000000 8.7110004425 8.3750000000 0.4368284941 2.4519999027 152.12643433 90.006462097 199.86740112 1.9810111523 -326.2430115 2.3077836037 2.6400001049
 4038.8530273 6.0000000000 8.7130002975 8.3750000000 0.3932296634 2.4790000916 129.19227600 89.568809509 199.72279358 1.9880032539 172.31199646 2.1935448647 2.5520000458
