# LAS format log file from PETREL
# Project units are specified as depth units
#==================================================================
~Version information
VERS.   2.0:
WRAP.   NO:
#==================================================================
~Well
STRT .m      586.57812500 :
STOP .m      4014.2067871 :
STEP .m     0.00000000 :
NULL .        -999.250000 :
COMP.           : COMPANY
WELL.  34/10-21   : WELL
FLD.            : FIELD
LOC.            : LOCATION
SRVC.           : SERVICE COMPANY
DATE.  2018-09-11 14:48:44   : Log Export Date {yyyy-MM-dd HH:mm:ss}
PROV.           : PROVINCE
UWI.   34/10-21   : UNIQUE WELL ID
API.            : API NUMBER
#==================================================================
~Curve
DEPT .m                   : DEPTH
Lithology_geolink ._      : Lithology_geolink
CALI .in                  : CALI
DRHO .g/cm3               : DRHO
NPHI .m3/m3               : NPHI
RHOB .g/cm3               : RHOB
PEF .b/e                  : PEF
GR .gAPI                  : GR
DTC .us/ft                : DTC
RDEP .ohm.m               : RDEP
SP .mV                    : SP
RSHA .ohm.m               : RSHA
RMED .ohm.m               : RMED
~Parameter
#==================================================================
~Ascii
# ...
 2642.1494141  -999.250000 14.513000488 0.0979167968 0.3227202296 2.2979807854 6.6360001564 54.492000580 100.68399811 1.5460000038 23.250000000 0.9020000100 1.7410000563
 2642.3020020  -999.250000 14.706999779 0.1009951979 0.3153218925 2.3049888611 5.3949999809 56.687000275 101.25199890 1.5460000038 23.500000000 0.8970000148 1.7400000095
 2642.4543457  -999.250000 14.340000153 0.0910160244 0.3097788692 2.3059983253 4.7150001526 56.702999115 102.62500000 1.5390000343 23.625000000 1.3639999628 1.7230000496
 2642.6066895  -999.250000 14.202999115 0.0969903842 0.3077232838 2.3129887581 5.6440000534 53.015998840 101.81300354 1.5399999619 23.750000000 1.3489999771 1.6940000057
 2642.7590332  -999.250000 14.548000336 0.1099791676 0.3117136061 2.3090064526 8.2919998169 48.544998169 102.31600189 1.5399999619 24.000000000 0.7870000005 1.6759999990
 2642.9116211  -999.250000 14.460000038 0.1309663951 0.3126684725 2.3119952679 10.696999550 47.609001160 101.18399811 1.5369999409 24.000000000 0.8880000114 1.6740000248
 2643.0639648  -999.250000 13.805000305 0.1260080189 0.3199782670 2.3020160198 10.062999725 49.469001770 100.75000000 1.5420000553 23.875000000 0.9430000186 1.6959999800
 2643.2163086  -999.250000 13.656000137 0.1140192300 0.3306229115 2.2930142879 7.7270002365 51.375000000 100.81300354 1.5420000553 23.625000000 0.8230000138 1.7039999962
 2643.3686523  -999.250000 13.824001312 0.0950304493 0.3430800438 2.2750289440 6.9790000916 50.952999115 99.688003540 1.5379999876 23.750000000 0.8349999785 1.7289999723
 2643.5209961  -999.250000 13.918000221 0.0930064023 0.3407774568 2.2640352249 8.4200000763 50.655998230 100.49999237 1.5479999781 23.875000000 0.8519999981 1.7189999819
 2643.6735840  -999.250000 13.815999985 0.1019855738 0.3377748132 2.2649984360 10.595000267 49.451000214 101.31400299 1.5590000153 24.125999451 0.8820000291 1.7450000048
 2643.8259277  -999.250000 13.722999573 0.1079903841 0.3348247111 2.2779793739 12.164999962 48.609001160 102.00000000 1.5629999638 24.125000000 0.9319999814 1.7350000143
 2643.9782715  -999.250000 13.718998909 0.1010112241 0.3257345557 2.2849888802 12.138999939 47.875000000 101.68800354 1.5620000362 23.750000000 1.0650000572 1.7130000591
 2644.1306152  -999.250000 13.588999748 0.1059840024 0.3186427057 2.3119137287 12.711000443 48.645999908 101.12400055 1.5599999428 24.000999451 1.2339999676 1.7389999628
 2644.2832031  -999.250000 13.453001022 0.1020064056 0.3241611123 2.3429503441 11.902999878 50.171001434 101.56400299 1.5579999685 24.000000000 1.1280000210 1.7940000296
 2644.4355469  -999.250000 13.491999626 0.0730464756 0.3470532894 2.3499886990 7.9289999008 51.000000000 101.68800354 1.5490000248 23.625000000 1.0509999990 1.8309999704
 2644.5878906  -999.250000 13.574000359 0.0510352552 0.3548874855 2.3460063934 7.0289998055 52.609001160 102.00000000 1.5529999733 23.375000000 1.1740000248 1.7910000086
 2644.7402344  -999.250000 13.604999542 0.0500032008 0.3479323983 2.3300511837 7.0329999924 54.174999237 102.81199646 1.5729999542 23.000000000 1.0920000076 1.7460000515
 2644.8928223  -999.250000 13.706999779 0.0579871796 0.3327243924 2.3130271435 7.7950000763 55.485000610 102.18599701 1.5770000219 22.875000000 0.9509999752 1.7239999771
 2645.0451660  -999.250000 13.706999779 0.0530080125 0.3208889663 2.3149969578 7.4780001640 53.762001038 102.12599945 1.5770000219 22.875000000 1.0590000153 1.6990000010
 2645.1975098  -999.250000 13.793000221 0.0370256416 0.3024795353 2.3429551125 6.6869997978 50.030998230 100.75000000 1.5679999590 23.125000000 1.2860000134 1.6879999638
 2645.3498535  -999.250000 13.727000237 0.0509775616 0.2867252529 2.4168815613 6.4369997978 47.609001160 99.125000000 1.5360000134 23.625000000 1.8719999790 1.7170000076
 2645.5021973  -999.250000 13.503999710 0.0819008052 0.2863411605 2.4638495445 5.8299999237 46.373001099 100.62899780 1.5130000114 23.499000549 1.8669999838 1.7569999695
 2645.6547852  -999.250000 13.520000458 0.0839967951 0.2945567966 2.4380416870 4.7670001984 48.316001892 102.12500000 1.5119999647 22.624000549 1.2400000095 1.7560000420
 2645.8071289  -999.250000 13.434000015 0.0690240338 0.3060515821 2.4040546417 4.0469999313 51.609001160 103.81300354 1.5140000582 22.500000000 1.2710000277 1.6870000362
 2645.9594727  -999.250000 13.461000443 0.0280657057 0.3111219108 2.3670594692 3.8719999790 53.734001160 103.68800354 1.5160000324 23.125000000 1.3630000353 1.6369999647
 2646.1118164  -999.250000 13.578000069 0.0170352012 0.3171606362 2.3789615631 4.5269999504 53.465999603 101.74900055 1.5210000277 23.375000000 1.2630000114 1.6410000324
 2646.2644043  -999.250000 13.609000206 0.0110096149 0.3160817623 2.3839919567 6.0079998970 50.515998840 100.81300354 1.5030000210 23.625000000 1.4179999828 1.6619999409
 2646.4167480  -999.250000 13.616998672 0.0060080127 0.3092509508 2.3650305271 8.7010002136 48.562999725 100.37500000 1.4769999981 23.875000000 1.4220000505 1.7100000381
 2646.5690918  -999.250000 13.652000427 0.0129887825 0.2965902984 2.3350481987 11.109000206 48.436000824 101.93299866 1.4639999866 24.000000000 1.7779999971 1.7230000496
 2646.7214355  -999.250000 14.010999680 0.0349295996 0.2906689644 2.3220415115 10.640000343 49.668998718 104.99500275 1.4500000477 23.875000000 1.5740000010 1.7259999514
 2646.8740234  -999.250000 13.996000290 0.0619567297 0.2982278466 2.3309857845 9.4980001450 51.327999115 105.81300354 1.4479999542 23.500000000 1.0379999876 1.7120000124
 2647.0263672  -999.250000 13.793000221 0.0729823709 0.3137051761 2.3409841061 7.7950000763 53.169998169 105.43699646 1.4670000076 23.500000000 1.3150000572 1.6569999456
 2647.1787109  -999.250000 13.847999573 0.0640144274 0.3206189275 2.3380048275 5.4079999924 55.215000153 105.87500000 1.4750000238 23.750000000 1.0880000591 1.6150000095
 2647.3310547  -999.250000 13.812000275 0.0420352556 0.3138808310 2.3320095539 4.3899998665 56.935001373 104.50399780 1.4529999495 23.625000000 1.2640000582 1.5829999447
 2647.4833984  -999.250000 13.944999695 0.0300383996 0.3076399863 2.3300063610 4.6079998016 55.780998230 104.31300354 1.4459999800 23.500000000 1.5049999952 1.6269999743
 2647.6359863  -999.250000 13.937999725 0.0270048082 0.3072106540 2.3240094185 5.7579998970 54.844001770 104.56300354 1.4390000105 23.500000000 1.0269999504 1.6590000391
 2647.7883301  -999.250000 13.847999573 0.0299951918 0.3039851785 2.3120193481 6.9499998093 55.702999115 102.87599945 1.4129999876 23.375000000 1.3090000153 1.6610000134
 2647.9406738  -999.250000 13.840000153 0.0369887836 0.3086625040 2.3209857941 7.5289998055 56.777999878 104.18099976 1.4179999828 23.250000000 1.4579999447 1.6629999876
 2648.0930176  -999.250000 14.120999336 0.0469679981 0.3214988112 2.3359520435 7.8449997902 56.359001160 104.31300354 1.4390000105 23.499000549 1.2300000191 1.6280000210
 2648.2456055  -999.250000 14.145000458 0.0739567354 0.3330015838 2.3669505119 6.7680001259 54.844001770 104.00000000 1.4470000267 23.625000000 1.2519999743 1.6200000048
 2648.3979492  -999.250000 13.940999985 0.0949663445 0.3452304006 2.3899631500 6.1079998016 54.282001495 104.81400299 1.4589999914 23.500000000 1.4630000591 1.5989999771
 2648.5502930  -999.250000 14.256999969 0.0989935920 0.3414261341 2.4059741497 7.0920000076 53.951999664 103.56400299 1.4630000591 23.500000000 1.4630000591 1.6009999514
 2648.7026367  -999.250000 14.227000237 0.0760735944 0.3358179927 2.3790862560 10.286000252 52.660999298 103.56099701 1.4509999752 23.375000000 1.3530000448 1.6200000048
 2648.8552246  -999.250000 14.000000000 0.0520384610 0.3191067874 2.3170993328 15.218000412 52.390998840 103.43800354 1.4379999638 23.250000000 1.4650000334 1.6629999876
 2649.0075684  -999.250000 14.034999847 0.0569919869 0.2970952690 2.2700753212 18.313999176 52.952999115 103.12500763 1.4270000458 23.125000000 1.6089999676 1.6879999638
 2649.1599121  -999.250000 14.078000069 0.0809615403 0.2901311219 2.2620129585 17.496999741 54.433998108 103.68699646 1.4160000086 23.374000549 1.6160000563 1.6670000553
 2649.3122559  -999.250000 14.194999695 0.0849935934 0.2944430411 2.2600030899 15.579000473 56.764999390 103.93799591 1.4060000181 23.750000000 1.1280000210 1.6150000095
