# LAS format log file from PETREL
# Project units are specified as depth units
#==================================================================
~Version information
VERS.   2.0:
WRAP.   NO:
#==================================================================
~Well
STRT .m      492.56594849 :
STOP .m      2784.8139648 :
STEP .m     0.00000000 :
NULL .        -999.250000 :
COMP.           : COMPANY
WELL.  34/10-5   : WELL
FLD.            : FIELD
LOC.            : LOCATION
SRVC.           : SERVICE COMPANY
DATE.  2018-09-11 14:48:46   : Log Export Date {yyyy-MM-dd HH:mm:ss}
PROV.           : PROVINCE
UWI.   34/10-5   : UNIQUE WELL ID
API.            : API NUMBER
#==================================================================
~Curve
DEPT .m                   : DEPTH
Lithology_geolink ._      : Lithology_geolink
CALI .in                  : CALI
DRHO .g/cm3               : DRHO
NPHI .m3/m3               : NPHI
RHOB .g/cm3               : RHOB
GR .gAPI                  : GR
DTC .us/ft                : DTC
RDEP .ohm.m               : RDEP
SP .mV                    : SP
RSHA .ohm.m               : RSHA
RMED .ohm.m               : RMED
~Parameter
#==================================================================
~Ascii
# ...
 1409.7088623  -999.250000 16.952999115 0.0060000001  -999.250000 1.8839999437 47.594249725 168.50057983 0.7260040045 30.538000107  -999.250000 0.7269839644
 1409.8613281  -999.250000 16.968999863 0.0230000000  -999.250000 1.9179999828 44.294261932 168.00080872 0.7260000110 30.413499832  -999.250000 0.7379647493
 1410.0136719  -999.250000 16.983999252 0.0370000005  -999.250000 1.9210000038 42.849758148 167.50120544 0.7260000110 30.164001465  -999.250000 0.7419871688
 1410.1661377  -999.250000 16.983999252 0.0509999990  -999.250000 1.9149999619 40.789257050 167.99919128 0.7240079641 29.914001465  -999.250000 0.7400063872
 1410.3184814  -999.250000 16.983999252 0.0410000011  -999.250000 1.8940000534 37.046020508 167.75059509 0.7210120559 29.539503098  -999.250000 0.7340192795
 1410.4709473  -999.250000 16.983999252 0.0410000011  -999.250000 1.9010000229 38.805866241 167.00120544 0.7190079689 29.413499832  -999.250000 0.7330023646
 1410.6232910  -999.250000 16.983999252 0.0549999997  -999.250000 1.9160000086 41.769107819 166.12710571 0.7189999819 29.039503098  -999.250000 0.7389808297
 1410.7757568  -999.250000 16.983999252 0.0520000011  -999.250000 1.9069999456 48.099605560 165.37620544 0.7170079947 29.038000107  -999.250000 0.7409951687
 1410.9281006  -999.250000 17.031000137 0.0579999983  -999.250000 1.8919999599 47.720626831 165.00090027 0.7179960012 29.038000107  -999.250000 0.7400032282
 1411.0805664  -999.250000 16.983999252 0.0630000010  -999.250000 1.8730000257 49.523742676 165.00000000 0.7170040011 29.535999298  -999.250000 0.7489783764
 1411.2329102  -999.250000 16.781000137 0.0619999990  -999.250000 1.8539999723 46.138645172 165.00000000 0.7140120268 29.911497116  -999.250000 0.7639519572
 1411.3853760  -999.250000 16.797000885 0.0520000011  -999.250000 1.8400000334 43.882209778 164.50080872 0.7070224285 30.037599564  -999.250000 0.7689879537
 1411.5377197  -999.250000 16.718999863 0.0460000001  -999.250000 1.8430000544 40.451759338 163.50158691 0.7000280023 30.038000107  -999.250000 0.7540480494
 1411.6901855  -999.250000 16.702999115 0.0579999983  -999.250000 1.8609999418 39.129207611 163.49998474 0.6970096231 30.287199020  -999.250000 0.7320528626
 1411.8425293  -999.250000 16.702999115 0.0599999987  -999.250000 1.8559999466 41.023368835 163.37519836 0.7089519501 30.163499832  -999.250000 0.7150543928
 1411.9948730  -999.250000 16.672000885 0.0460000001  -999.250000 1.8409999609 41.030998230 158.76112366 0.7468477488 30.411998749  -999.250000 0.7050320506
 1412.1473389  -999.250000 16.797000885 0.0399999991  -999.250000 1.8710000515 41.311870575 160.49719238 0.8197077513 30.164001465  -999.250000 0.6980224252
 1412.2996826  -999.250000 17.250000000 0.0260000005  -999.250000 1.9440000057 37.141777039 121.65653229 0.9365312457 30.163000107  -999.250000 0.6940128207
 1412.4521484  -999.250000 17.047000885 0.0030000000  -999.250000 2.0510001183 34.230636597 111.39132690 1.0654835701 30.038499832  -999.250000 0.7418845892
 1412.6044922  -999.250000 17.156000137 0.0219999999  -999.250000 2.1619999409 32.506885529 103.02011108 1.1675913334 29.913501740  -999.250000 0.9583050609
 1412.7569580  -999.250000 17.281000137 0.0460000001  -999.250000 2.1840000153 35.238990784 66.808090210 1.2267638445 29.664001465  -999.250000 1.3710072041
 1412.9093018  -999.250000 17.391000748 0.0649999976  -999.250000 2.0899999142 35.810745239 92.687553406 1.2568798065 29.787498474  -999.250000 1.6889816523
 1413.0617676  -999.250000 17.391000748 0.0649999976  -999.250000 2.0120000839 37.991245270 95.184089661 1.2679560184 29.788000107  -999.250000 1.3787499666
 1413.2141113  -999.250000 17.391000748 0.0509999990  -999.250000 1.9620000124 40.614482880 100.73664093 1.2201923132 29.539001465  -999.250000 1.0111784935
 1413.3665771  -999.250000 17.391000748 0.0670000017  -999.250000 1.9730000496 44.332080841 140.43629456 1.1173300743 29.413400650  -999.250000 0.8364182711
 1413.5189209  -999.250000 17.422000885 0.0359999985  -999.250000 1.9379999638 46.864868164 145.73739624 0.9775604606 29.661998749  -999.250000 0.7632337809
 1413.6713867  -999.250000 17.422000885 0.0480000004  -999.250000 1.9440000057 46.844100952 148.37078857 0.8573846221 29.912199020  -999.250000 0.7390577197
 1413.8237305  -999.250000 17.422000885 0.0560000017  -999.250000 1.9400000572 44.509384155 147.50140381 0.7743322253 30.037500381  -999.250000 0.7330191731
 1413.9760742  -999.250000 17.108999252 0.0729999989  -999.250000 1.9500000477 44.126502991 149.49519348 0.7212123275 30.286998749  -999.250000 0.7379839420
 1414.1285400  -999.250000 16.733999252 0.0590000004  -999.250000 1.9320000410 44.343124390 174.33512878 0.6881321073 30.536998749  -999.250000 0.7469711304
 1414.2808838  -999.250000 16.406000137 0.0340000018  -999.250000 1.9179999828 44.872871399 164.52371216 0.6730600595 30.786998749  -999.250000 0.7559711337
 1414.4333496  -999.250000 16.327999115 0.0280000009  -999.250000 1.9179999828 45.652870178 169.74159241 0.6690160632 31.036998749  -999.250000 0.7500191927
 1414.5856934  -999.250000 16.202999115 0.0230000000  -999.250000 1.9149999619 45.625125885 169.50059509 0.6699960232 31.038000107  -999.250000 0.7350481153
 1414.7381592  -999.250000 16.233999252 0.0309999995  -999.250000 1.9210000038 46.869995117 169.50000000 0.6779679656 30.913499832  -999.250000 0.7220312357
 1414.8905029  -999.250000 16.358999252 0.0270000007  -999.250000 1.9170000553 46.190753937 169.99879456 0.7078798413 30.539503098  -999.250000 0.7249904275
 1415.0429688  -999.250000 16.672000885 0.0439999998  -999.250000 1.9309999943 46.561496735 170.00000000 0.7647718191 29.915502548  -999.250000 0.7299879789
 1415.1953125  -999.250000 17.062999725 0.0299999993  -999.250000 1.9179999828 45.567005157 114.69615936 0.8526474237 30.037498474  -999.250000 0.7509327531
 1415.3477783  -999.250000 17.000000000 0.0450000018  -999.250000 1.9349999428 41.330013275 107.38652039 0.9466237426 29.789001465  -999.250000 0.8168413043
 1415.5001221  -999.250000 17.141000748 0.0419999994  -999.250000 1.9500000477 35.461536407 98.022506714 1.0197075605 29.539001465  -999.250000 0.9734971523
 1415.6525879  -999.250000 17.281000137 0.0640000030  -999.250000 1.9869999886 32.883213043 61.433692932 1.0509006977 29.538000107  -999.250000 1.1505745649
 1415.8049316  -999.250000 17.516000748 0.0540000014  -999.250000 1.9880000353 34.089122772 50.797977448 1.0490080118 29.538000107  -999.250000 1.2157918215
 1415.9572754  -999.250000 17.483999252 0.0529999994  -999.250000 1.9809999466 38.918594360 95.455444336 1.0360521078 29.911497116  -999.250000 1.0824295282
 1416.1097412  -999.250000 17.500000000 0.0540000014  -999.250000 1.9809999466 41.614242554 100.18058777 1.0101040602 30.161998749  -999.250000 0.8965957165
 1416.2620850  -999.250000 17.437999725 0.0710000023  -999.250000 1.9919999838 46.045219421 140.27847290 0.9552203417 30.411998749  -999.250000 0.7833621502
 1416.4145508  -999.250000 17.531000137 0.0630000010  -999.250000 1.9900000095 46.529125214 149.73497009 0.8793042302 30.786499023  -999.250000 0.7371473312
 1416.5668945  -999.250000 17.391000748 0.0489999987  -999.250000 1.9819999933 50.888469696 151.49580383 0.8033044338 30.912498474  -999.250000 0.7330127954
 1416.7193604  -999.250000 17.625000000 0.0399999991  -999.250000 1.9759999514 48.136131287 152.99758911 0.7402521968 31.286500931  -999.250000 0.7399832010
 1416.8717041  -999.250000 17.656000137 0.0340000018  -999.250000 1.9650000334 47.689750671 152.12710571 0.6991642714 31.536996841  -999.250000 0.7499679923
 1417.0241699  -999.250000 17.687999725 0.0309999995  -999.250000 1.9620000124 50.239742279 150.37780762 0.6790800691 31.164501190  -999.250000 0.7480048537
 1417.1765137  -999.250000 17.718999863 0.0209999997  -999.250000 1.9429999590 53.642353058 154.49009705 0.6680440307 30.789503098  -999.250000 0.7420191765
 1417.3289795  -999.250000 17.468999863 0.0099999998  -999.250000 1.9290000200 57.329238892 153.75122070 0.6640160084 30.788000107  -999.250000 0.7439951897
