# LAS format log file from PETREL
# Project units are specified as depth units
#==================================================================
~Version information
VERS.   2.0:
WRAP.   NO:
#==================================================================
~Well
STRT .m      492.56594849 :
STOP .m      2784.8139648 :
STEP .m     0.00000000 :
NULL .        -999.250000 :
COMP.           : COMPANY
WELL.  34/10-5   : WELL
FLD.            : FIELD
LOC.            : LOCATION
SRVC.           : SERVICE COMPANY
DATE.  2018-09-11 14:48:46   : Log Export Date {yyyy-MM-dd HH:mm:ss}
PROV.           : PROVINCE
UWI.   34/10-5   : UNIQUE WELL ID
API.            : API NUMBER
#==================================================================
~Curve
DEPT .m                   : DEPTH
Lithology_geolink ._      : Lithology_geolink
CALI .in                  : CALI
DRHO .g/cm3               : DRHO
NPHI .m3/m3               : NPHI
RHOB .g/cm3               : RHOB
GR .gAPI                  : GR
DTC .us/ft                : DTC
RDEP .ohm.m               : RDEP
SP .mV                    : SP
RSHA .ohm.m               : RSHA
RMED .ohm.m               : RMED
~Parameter
#==================================================================
~Ascii
# ...
 2319.0795898 5.0000000000 5.7620005608 -0.008000000 0.3491199911 2.2850000858 80.796173096 101.99959564 1.3999999762 47.760402679  -999.250000 2.1228032112
 2319.2319336 5.0000000000 5.7620005608 -0.006000000 0.3471699953 2.2929999828 77.391525269 102.18740082 1.3960192204 47.136005402  -999.250000 2.1458892822
 2319.3845215 5.0000000000 5.7620005608 0.0000000000 0.3510699868 2.3050000668 78.930503845 101.75069427 1.3940097094 46.635398865  -999.250000 2.1798911095
 2319.5368652 5.0000000000 5.7620005608 0.0109999999 0.3378900290 2.3069999218 80.057594299 101.74999237 1.3969855309 46.757396698  -999.250000 2.1760129929
 2319.6892090 5.0000000000 5.7890000343 0.0189999994 0.3330099881 2.3139998913 81.866287231 101.56330872 1.4019758701 46.882396698  -999.250000 2.1500835419
 2319.8415527 5.0000000000 5.7969999313 0.0340000018 0.3359400034 2.3340001106 76.899040222 101.37529755 1.4000096321 47.256195068  -999.250000 2.1330814362
 2319.9938965 5.0000000000 5.8010001183 0.0240000002 0.3598600030 2.3299999237 75.695602417 101.74879456 1.3999999762 47.257999420  -999.250000 2.1150865555
 2320.1464844 5.0000000000 5.8159999847 0.0170000009 0.3535200059 2.3239998817 74.692810059 102.18730164 1.4019902945 48.004394531  -999.250000 2.0940673351
 2320.2988281 5.0000000000 5.8159999847 -0.005000000 0.3393599987 2.2969999313 80.472061157 102.00029755 1.4019999504 48.754394531  -999.250000 2.0860257149
 2320.4511719 6.0000000000 5.8159999847 -0.006000000 0.3300800025 2.2969999313 86.346755981 102.18770599 1.4010047913 49.753192902  -999.250000 2.1148607731
 2320.6035156 6.0000000000 5.8159999847 -0.005000000 0.3525400162 2.2850000858 83.762619019 102.00060272 1.3990097046 49.384803772  -999.250000 2.1538126469
 2320.7561035 6.0000000000 5.8159999847 0.0060000001 0.3505899906 2.2950000763 79.271598816 101.56371307 1.3980047703 49.382999420  -999.250000 2.1699488163
 2320.9084473 5.0000000000 5.8130006790 0.0120000001 0.3632799983 2.3090000153 72.097557068 102.18700409 1.4019807577 49.880596161  -999.250000 2.1680064201
 2321.0607910 5.0000000000 5.8159999847 0.0109999999 0.3500999808 2.3139998913 72.809394836 102.18800354 1.4089664221 49.758602142  -999.250000 2.1112737656
 2321.2131348 5.0000000000 5.8159999847 0.0030000000 0.3535200059 2.3050000668 76.296173096 102.00060272 1.4199470282 49.633602142  -999.250000 2.0761682987
 2321.3657227 5.0000000000 5.8159999847 -0.002000000 0.3383800089 2.2790000439 78.987098694 102.37439728 1.4279615879 49.508598328  -999.250000 2.0779936314
 2321.5180664 5.0000000000 5.8199996948 0.0020000001 0.3510699868 2.2809998989 79.933494568 102.18830109 1.4429278374 48.886005402  -999.250000 2.0939488411
 2321.6704102 5.0000000000 5.8159999847 0.0099999998 0.3564499915 2.3090000153 74.588844299 102.18800354 1.4668846130 48.882999420  -999.250000 2.0940001011
 2321.8227539 5.0000000000 5.8049998283 0.0089999996 0.3496099710 2.3139998913 71.950622559 102.37470245 1.5068076849 48.478954315  -999.250000 2.0999710560
 2321.9750977 5.0000000000 5.8159999847 -0.001000000 0.3354499936 2.2950000763 73.676803589 102.37500000 1.5735712051 47.110801697  -999.250000 2.0572066307
 2322.1276855 5.0000000000 5.8359999657 -0.014000000 0.3183600008 2.2660000324 80.218452454 102.00060272 1.6665529013 48.097194672  -999.250000 2.0550065041
 2322.2800293 5.0000000000 5.8359999657 -0.021000000 0.3251999915 2.2660000324 83.671478271 101.75039673 1.7615432739 48.599597931  -999.250000 2.1108205318
 2322.4323730 5.0000000000 5.8439993858 -0.021000000 0.3085899949 2.2869999409 80.142127991 99.566505432 1.8316634893 48.602001190  -999.250000 2.3040688038
 2322.5847168 5.0000000000 5.8480000496 -0.012000000 0.3144499958 2.3159999847 75.646636963 97.195602417 1.8787739277 48.726398468  -999.250000 2.7657740116
 2322.7373047 5.0000000000 5.9019999504 -0.001000000 0.3168900013 2.3340001106 74.629798889 96.564010620 1.9038800001 49.349002838  -999.250000 3.1118941307
 2322.8896484 5.0000000000 5.9529995918 0.0030000000 0.3276399970 2.3399999142 76.366584778 96.563011169 1.9089759588 48.854404449  -999.250000 2.9305865765
 2323.0419922 5.0000000000 5.8520002365 0.0040000002 0.3437500000 2.3199999332 79.298881531 97.997688293 1.8871057034 48.603202820  -999.250000 2.4363808632
 2323.1943359 5.0000000000 5.8159999847 0.0060000001 0.3344699740 2.3090000153 82.733474731 101.17780304 1.8213173151 49.597194672  -999.250000 2.2140624523
 2323.3469238 5.0000000000 5.8159999847 0.0020000001 0.3334999979 2.2950000763 82.998802185 101.18800354 1.7374031544 49.850799561  -999.250000 2.1930642128
 2323.4992676 6.0000000000 5.8159999847 0.0179999992 0.3281300068 2.3159999847 87.416664124 101.18800354 1.6663413048 49.976398468  -999.250000 2.1949934959
 2323.6516113 6.0000000000 5.8130006790 -0.005000000 0.3300800025 2.2929999828 84.576828003 101.18800354 1.6172355413 50.101398468  -999.250000 2.2169294357
 2323.8039551 6.0000000000 5.8159999847 -0.005000000 0.3364300132 2.2969999313 87.548583984 101.37470245 1.5851539373 49.977603912  -999.250000 2.2170000076
 2323.9562988 6.0000000000 5.8159999847 -0.017000001 0.3398400247 2.2869999409 80.111000061 101.99800110 1.5700960159 50.473800659  -999.250000 2.2697451115
 2324.1088867 5.0000000000 5.8159999847 -0.009000000 0.3456999958 2.2969999313 81.306991577 101.75039673 1.5620385408 50.942749023  -999.250000 2.2829582691
 2324.2612305 5.0000000000 5.8199996948 -0.011000000 0.3452099860 2.3010001183 79.508712769 101.37560272 1.5540385246 51.225646973  -999.250000 2.3049294949
 2324.4135742 5.0000000000 5.8439993858 -0.006000000 0.3432599902 2.3159999847 81.987983704 101.18830109 1.5540000200 51.227001190  -999.250000 2.3010194302
 2324.5659180 5.0000000000 5.8480000496 0.0000000000 0.3330099881 2.3299999237 81.751205444 101.00060272 1.5559903383 51.475799561  -999.250000 2.2621874809
 2324.7185059 5.0000000000 5.8480000496 0.0070000002 0.3300800025 2.3380000591 80.754798889 101.18770599 1.5599807501 51.477001190  -999.250000 2.2301025391
 2324.8708496 5.0000000000 5.8480000496 0.0170000009 0.3168900013 2.3480000496 81.123199463 101.37470245 1.5679614544 50.855007172  -999.250000 2.2359807491
 2325.0231934 5.0000000000 5.8359999657 0.0340000018 0.3247100115 2.3750000000 77.766227722 101.56271362 1.5859134197 50.727603912  -999.250000 2.2678463459
 2325.1755371 5.0000000000 5.8439993858 0.0149999997 0.3276399970 2.3550000191 79.927482605 101.37560272 1.6098846197 50.602603912  -999.250000 2.3048222065
 2325.3281250 5.0000000000 5.8439993858 0.0120000001 0.3476599753 2.3540000916 80.435600281 101.99900055 1.6368703842 50.477600098  -999.250000 2.3299198151
 2325.4804688 6.0000000000 5.8629999161 0.0040000002 0.3403300047 2.3380000591 83.360877991 101.75039673 1.6658605337 49.979404449  -999.250000 2.3459486961
 2325.6328125 6.0000000000 5.8950004578 0.0109999999 0.3461900055 2.3380000591 83.313301086 101.74999237 1.6928701401 49.355007172  -999.250000 2.3549711704
 2325.7851563 6.0000000000 5.9260001183 0.0080000004 0.3325199783 2.3199999332 86.733474731 101.99959564 1.7228558064 49.352001190  -999.250000 2.3341009617
 2325.9375000 6.0000000000 5.9770002365 0.0040000002 0.3217800260 2.3180000782 85.322196960 102.37380219 1.7458528280 50.594001770  -999.250000 2.3459422588
 2326.0900879 6.0000000000 6.0390000343 0.0149999997 0.3227500021 2.3380000591 85.313003540 102.99899292 1.7579423189 51.658897400  -999.250000 2.3828814030
 2326.2424316 6.0000000000 6.1090002060 -0.001000000 0.3295899928 2.3320000172 83.944610596 103.37439728 1.7629759312 52.783592224  -999.250000 2.3979518414
 2326.3947754 6.0000000000 6.1409997940 -0.002000000 0.3476599753 2.3359999657 86.363281250 104.18669891 1.7639952898 53.006946564  -999.250000 2.4039711952
 2326.5471191 6.0000000000 6.2030000687 -0.001000000 0.3618199825 2.3440001011 85.442504883 104.56180573 1.7590240240 53.381195068  -999.250000 2.4020094872
 2326.6997070 6.0000000000 6.2729997635 0.0199999996 0.3818399906 2.3750000000 85.313606262 104.74970245 1.7510384321 53.911453247  -999.250000 2.4179487228
