# LAS format log file from PETREL
# Project units are specified as depth units
#==================================================================
~Version information
VERS.   2.0:
WRAP.   NO:
#==================================================================
~Well
STRT .m      3166.7685547 :
STOP .m      4692.7500000 :
STEP .m     0.00000000 :
NULL .        -999.250000 :
COMP.           : COMPANY
WELL.  34/12-1   : WELL
FLD.            : FIELD
LOC.            : LOCATION
SRVC.           : SERVICE COMPANY
DATE.  2018-09-11 14:48:48   : Log Export Date {yyyy-MM-dd HH:mm:ss}
PROV.           : PROVINCE
UWI.   34/12-1   : UNIQUE WELL ID
API.            : API NUMBER
#==================================================================
~Curve
DEPT .m                   : DEPTH
Lithology_geolink ._      : Lithology_geolink
CALI .in                  : CALI
BS .in                    : BS
ROP .m/h                  : ROP
DRHO .g/cm3               : DRHO
THOR .ppm                 : THOR
SGR .gAPI                 : SGR
NPHI .m3/m3               : NPHI
RHOB .g/cm3               : RHOB
PEF .b/e                  : PEF
GR .gAPI                  : GR
URAN .ppm                 : URAN
DTC .us/ft                : DTC
DTS .us/ft                : DTS
RDEP .ohm.m               : RDEP
RSHA .ohm.m               : RSHA
RMED .ohm.m               : RMED
~Parameter
#==================================================================
~Ascii
# ...
 3284.1164551  -999.250000 12.228199959 12.250000954 65337.480469 -0.004600000  -999.250000  -999.250000 0.2725000083 2.5056002140 3.2446000576 52.099899292  -999.250000 88.642601013 174.90910339 2.3538999557 4.0275001526 2.5034000874
 3284.2687988  -999.250000 12.238699913 12.250000954 69747.476563 -0.004800000  -999.250000  -999.250000 0.2764999866 2.5057001114 3.2437000275 55.057701111  -999.250000 89.021896362 174.90910339 2.3965001106 4.1967000961 2.5571999550
 3284.4211426  -999.250000 12.224699974 12.250000954 74487.601563 -0.002200000  -999.250000  -999.250000 0.2707000077 2.5209999084 3.2260999680 54.965599060  -999.250000 90.077491760 175.09089661 2.4402999878 4.3888998032 2.6280000210
 3284.5737305  -999.250000 12.224699974 12.250000954 75848.757813 0.0006000000  -999.250000  -999.250000 0.2669999897 2.5337998867 3.2193999290 52.914100647  -999.250000 90.077491760 175.09089661 2.4693999290 4.5247001648 2.6442999840
 3284.7260742  -999.250000 12.224699974 12.250000954 76194.718750 0.0020000001  -999.250000  -999.250000 0.2651000023 2.5357000828 3.2465999126 51.061698914  -999.250000 90.109596252 174.81820679 2.4588000774 4.4881000519 2.6321001053
 3284.8784180  -999.250000 12.217800140 12.250000954 75709.078125 0.0019000000  -999.250000  -999.250000 0.2737999856 2.5341000557 3.2444000244 51.036201477  -999.250000 91.364097595 175.45451355 2.4472000599 4.4106001854 2.6135001183
 3285.0307617  -999.250000 12.224699974 12.250000954 75938.039063 0.0015000000  -999.250000  -999.250000 0.2743999958 2.5318000317 3.2081000805 51.388900757  -999.250000 92.239097595 177.09089661 2.4328000546 4.3642997742 2.5822000504
 3285.1833496  -999.250000 12.210800171 12.250000954 76192.921875 0.0014000000  -999.250000  -999.250000 0.2725999951 2.5295999050 3.1112000942 49.198101044  -999.250000 92.171585083 178.00000000 2.4068999290 4.3003001213 2.5801000595
 3285.3356934  -999.250000 12.217800140 12.250000954 76447.804688 0.0008000000  -999.250000  -999.250000 0.2657000124 2.5171000957 3.0236999989 48.110801697  -999.250000 92.107040405 178.36360168 2.3815000057 4.2439999580 2.5638999939
 3285.4880371  -999.250000 12.224699974 12.250000954 76433.757813 0.0012000001  -999.250000  -999.250000 0.2615000010 2.5137000084 2.9282000065 44.764701843  -999.250000 93.687797546 178.00000000 2.3238999844 4.2013998032 2.5011999607
 3285.6403809  -999.250000 12.224699974 12.250000954 76610.156250 0.0013000000  -999.250000  -999.250000 0.2745999992 2.5174999237 2.9237999916 45.644798279  -999.250000 93.624572754 177.09089661 2.2934000492 4.0897998810 2.4858000278
 3285.7927246  -999.250000 12.217800140 12.250000954 77012.281250 0.0016000000  -999.250000  -999.250000 0.2870999873 2.5334000587 3.0181000233 47.506900787  -999.250000 91.297309875 176.63639832 2.3368000984 4.1628999710 2.5378000736
 3285.9453125  -999.250000 12.210800171 12.250000954 76646.523438 0.0002000000  -999.250000  -999.250000 0.2806999981 2.5397000313 3.1770000458 48.630500793  -999.250000 89.680473328 175.36360168 2.3949999809 4.2884001732 2.5954999924
 3286.0976563  -999.250000 12.217800140 12.250000954 70772.757813 -0.001500000  -999.250000  -999.250000 0.2666999996 2.5408999920 3.2688999176 51.255599976  -999.250000 88.457855225 174.18179321 2.4147000313 4.4293999672 2.6236000061
 3286.2500000  -999.250000 12.217800140 12.250000954 64482.839844 -0.004000000  -999.250000  -999.250000 0.2653000057 2.5346999168 3.2760000229 54.203201294  -999.250000 88.686866760 173.00000000 2.4611001015 4.5300998688 2.6658000946
 3286.4023438  -999.250000 12.224699974 12.250000954 59544.359375 -0.003600000  -999.250000  -999.250000 0.2685999870 2.5346999168 3.2497999668 59.030498505  -999.250000 90.594802856 172.00000000 2.5016999245 4.5412998199 2.6779000759
 3286.5549316  -999.250000 12.203800201 12.250000954 58935.601563 -0.003700000  -999.250000  -999.250000 0.2632000148 2.5306000710 3.2451000214 58.373298645  -999.250000 89.726768494 171.45449829 2.5102000237 4.4471001625 2.6698000431
 3286.7072754  -999.250000 12.217800140 12.250000954 60495.117188 -0.003000000  -999.250000  -999.250000 0.2621999979 2.5267999172 3.2569000721 55.964698792  -999.250000 90.058113098 170.90910339 2.5053999424 4.3790998459 2.6459000111
 3286.8596191  -999.250000 12.217800140 12.250000954 62224.558594 -0.004300000  -999.250000  -999.250000 0.2628000081 2.5178000927 3.2523000240 52.016998291  -999.250000 89.384681702 170.90910339 2.5111000538 4.3727002144 2.6326000690
 3287.0119629  -999.250000 12.224699974 12.250000954 63046.437500 -0.004300000  -999.250000  -999.250000 0.2793000042 2.5125999451 3.2560000420 49.489799500  -999.250000 90.428825378 170.90910339 2.5404999256 4.4355001450 2.6498999596
 3287.1645508  -999.250000 12.228199959 12.250000954 63816.484375 -0.003400000  -999.250000  -999.250000 0.2734999955 2.5123000145 3.2778999805 49.717498779  -999.250000 90.067268372 171.45449829 2.5445001125 4.4628000259 2.6568999290
 3287.3168945  -999.250000 12.228199959 12.250000954 65485.800781 -0.001100000  -999.250000  -999.250000 0.2570999861 2.5239999294 3.3018000126 49.385299683  -999.250000 89.716484070 171.45449829 2.5587999821 4.4496002197 2.6640999317
 3287.4692383  -999.250000 12.196900368 12.250000954 66394.437500 -0.000100000  -999.250000  -999.250000 0.2490999997 2.5420999527 3.3664999008 50.640800476  -999.250000 89.703056335 170.81820679 2.5706999302 4.4657998085 2.6803998947
 3287.6215820  -999.250000 12.217800140 12.250000954 85242.593750 -0.002400000  -999.250000  -999.250000 0.2492000014 2.5534000397 3.4560999870 49.427700043  -999.250000 87.062309265 170.54550171 2.5631000996 4.4732999802 2.6828000546
 3287.7739258  -999.250000 12.207300186 12.250000954 87415.195313 -0.003600000  -999.250000  -999.250000 0.2529999912 2.5601000786 3.5051999092 50.202499390  -999.250000 89.004165649 170.18179321 2.5813000202 4.4958000183 2.7118000984
 3287.9265137  -999.250000 12.207300186 12.250000954 89939.164063 -0.005300000  -999.250000  -999.250000 0.2441000044 2.5478000641 3.4370000362 49.958698273  -999.250000 89.355407715 170.00000000 2.5808999538 4.5381999016 2.7341001034
 3288.0788574  -999.250000 12.217800140 12.250000954 83698.921875 -0.002800000  -999.250000  -999.250000 0.2549000084 2.5425999165 3.2837998867 50.624099731  -999.250000 89.326271057 170.00000000 2.5920999050 4.6016998291 2.7527999878
 3288.2312012  -999.250000 12.217800140 12.250000954 81547.203125 -0.002200000  -999.250000  -999.250000 0.2569999993 2.5343000889 3.1754999161 48.999698639  -999.250000 88.248115540 170.00000000 2.5601000786 4.6954998970 2.7558000088
 3288.3835449  -999.250000 12.217800140 12.250000954 80362.796875 0.0007000000  -999.250000  -999.250000 0.2590999901 2.5473001003 3.0980999470 49.419799805  -999.250000 87.389282227 170.09089661 2.5815999508 4.8048000336 2.7683999538
 3288.5361328  -999.250000 12.196900368 12.250000954 82414.078125 0.0011000000  -999.250000  -999.250000 0.2540000081 2.5550000668 3.0745000839 48.973300934  -999.250000 88.127845764 170.45451355 2.6196000576 5.0272002220 2.8185000420
 3288.6884766  -999.250000 12.231699944 12.250000954 82464.117188 0.0008000000  -999.250000  -999.250000 0.2594999969 2.5571000576 3.0922000408 49.568298340  -999.250000 89.355606079 170.54550171 2.6544001102 5.1396999359 2.8543000221
 3288.8408203  -999.250000 12.217800140 12.250000954 82157.406250 -0.001900000  -999.250000  -999.250000 0.2585000098 2.5467000008 3.1740000248 48.793399811  -999.250000 89.428512573 170.90910339 2.6670999527 5.1711001396 2.8743999004
 3288.9931641  -999.250000 12.210800171 12.250000954 83422.078125 -0.003900000  -999.250000  -999.250000 0.2657999992 2.5346000195 3.3169999123 48.801700592  -999.250000 92.116691589 172.72729492 2.6080999374 5.0668001175 2.7918999195
 3289.1457520  -999.250000 12.210800171 12.250000954 83614.320313 -0.004400000  -999.250000  -999.250000 0.2608999908 2.5378000736 3.4212999344 49.064300537  -999.250000 94.039611816 175.00000000 2.5411000252 4.8710999489 2.7527999878
 3289.2980957  -999.250000 12.196900368 12.250000954 84508.921875 -0.002100000  -999.250000  -999.250000 0.2570999861 2.5459001064 3.3875000477 48.626399994  -999.250000 94.009872437 175.99998474 2.5060999393 4.6869997978 2.7314999104
