# LAS format log file from PETREL
# Project units are specified as depth units
#==================================================================
~Version information
VERS.   2.0:
WRAP.   NO:
#==================================================================
~Well
STRT .m      3900.0166016 :
STOP .m      4564.4804688 :
STEP .m     0.00000000 :
NULL .        -999.250000 :
COMP.           : COMPANY
WELL.  34/11-1   : WELL
FLD.            : FIELD
LOC.            : LOCATION
SRVC.           : SERVICE COMPANY
DATE.  2018-09-11 14:48:47   : Log Export Date {yyyy-MM-dd HH:mm:ss}
PROV.           : PROVINCE
UWI.   34/11-1   : UNIQUE WELL ID
API.            : API NUMBER
#==================================================================
~Curve
DEPT .m                   : DEPTH
Lithology_geolink ._      : Lithology_geolink
CALI .in                  : CALI
BS .in                    : BS
NPHI .m3/m3               : NPHI
RHOB .g/cm3               : RHOB
GR .gAPI                  : GR
DTC .us/ft                : DTC
DTS .us/ft                : DTS
RDEP .ohm.m               : RDEP
SP .mV                    : SP
RSHA .ohm.m               : RSHA
RMED .ohm.m               : RMED
~Parameter
#==================================================================
~Ascii
# ...
 4251.1459961 7.0000000000 8.7770004272 8.3750000000 0.2849051654 2.5280001163 142.50042725 90.058929443 208.32894897 1.6510000229 1176.6679688 1.8570384979 1.8630000353
 4251.2983398 7.0000000000 8.6940002441 8.3750000000 0.2875357568 2.5000000000 141.05844116 90.906677246 208.08938599 1.6510000229 546.16699219 1.8532787561 1.8609999418
 4251.4506836 7.0000000000 8.6549997330 8.3750000000 0.3092966378 2.5039999485 140.04344177 92.277992249 207.12077332 1.6490000486 -706.2000122 1.8500415087 1.8459999561
 4251.6035156 7.0000000000 8.6300001144 8.3750000000 0.3622338474 2.5280001163 137.64695740 93.473434448 204.42373657 1.6499999762 -1538.796021 1.8474807739 1.8350000381
 4251.7558594 7.0000000000 8.5019998550 8.3750000000 0.3502707779 2.5480000973 136.08001709 93.979866028 201.67474365 1.6549999714 -1474.375977 1.8499615192 1.8380000591
 4251.9082031 7.0000000000 8.4399995804 8.3750000000 0.3467099965 2.5290000439 136.83879089 93.956733704 199.31446838 1.6540000439 -998.1439819 1.8517981768 1.8450000286
 4252.0605469 7.0000000000 8.4300003052 8.3750000000 0.4767749608 2.5120000839 136.20518494 93.509407043 198.52943420 1.6430000067 -498.1440125 1.8439134359 1.8400000334
 4252.2128906 6.0000000000 8.4420003891 8.3750000000 0.3051177561 2.5369999409 130.86976624 92.751167297 198.53260803 1.6310000420 1.8459999561 1.8281153440 1.8170000315
 4252.3652344 6.0000000000 8.4350004196 8.3750000000 0.3053721189 2.5169999599 125.14138794 91.608757019 197.62895203 1.6339999437 501.51901245 1.8235672712 1.7999999523
 4252.5175781 6.0000000000 8.4139995575 8.3750000000 0.2987311482 2.5350000858 123.77188873 90.750839233 198.55354309 1.6540000439 976.73901367 1.8524230719 1.8209999800
 4252.6699219 6.0000000000 8.3970003128 8.3750000000 0.2859246135 2.5680000782 123.27190399 90.498535156 198.57365417 1.6809999943 1176.3570557 1.9119422436 1.8849999905
 4252.8222656 6.0000000000 8.3940000534 8.3750000000 0.3348187506 2.5710000992 119.80839539 90.413856506 198.41992188 1.7039999962 548.13098145 1.9636677504 1.9490000010
 4252.9750977 6.0000000000 8.3859996796 8.3750000000 0.3089541197 2.5650000572 115.51864624 90.263168335 197.64959717 1.7189999819 -705.3469849 1.9906442165 1.9780000448
 4253.1274414 7.0000000000 8.3889999390 8.3750000000 0.3276752532 2.5920000076 114.16761017 90.211837769 195.94548035 1.7259999514 -1540.629028 1.9980384111 1.9850000143
 4253.2797852 7.0000000000 8.3970003128 8.3750000000 0.2978917956 2.5840001106 116.44994354 90.227005005 194.94108582 1.7350000143 -1473.947021 1.9870673418 1.9850000143
 4253.4321289 7.0000000000 8.3970003128 8.3750000000 0.2711051106 2.5639998913 121.34375000 90.103332520 194.62492371 1.7439999580 -997.5200195 1.9485384226 1.9780000448
 4253.5844727 7.0000000000 8.3970003128 8.3750000000 0.2726269066 2.5639998913 126.89274597 89.982261658 194.57957458 1.7410000563 -497.5190125 1.8985481262 1.9550000429
 4253.7368164 7.0000000000 8.3970003128 8.3750000000 0.3107028902 2.5750000477 129.97296143 90.141288757 195.57130432 1.7259999514 2.4709999561 1.8730769157 1.9140000343
 4253.8891602 7.0000000000 8.3970003128 8.3750000000 0.4119474292 2.6150000095 130.54017639 90.430442810 197.21185303 1.7079999447 502.08895874 1.8645961285 1.8730000257
 4254.0415039 7.0000000000 8.3970003128 8.3750000000 0.3488259017 2.6070001125 130.05404663 90.667572021 198.55339050 1.6849999428 976.76202393 1.8531661034 1.8489999771
 4254.1938477 7.0000000000 8.3979997635 8.3750000000 0.3588569164 2.5610001087 129.66963196 90.830970764 199.09930420 1.6560000181 1176.0450439 1.8360191584 1.8329999447
 4254.3466797 7.0000000000 8.3990001678 8.3750000000 0.3413713872 2.5420000553 129.77255249 91.210838318 198.33149719 1.6280000210 550.18298340 1.8132692575 1.8109999895
 4254.4990234 7.0000000000 8.3970003128 8.3750000000 0.3036079407 2.5520000458 128.39802551 91.474998474 196.10670471 1.6059999466 -703.5650024 1.7859904766 1.7810000181
 4254.6513672 7.0000000000 8.3970003128 8.3750000000 0.2405960262 2.5659999847 125.97087097 91.643287659 192.76206970 1.5939999819 -1541.397949 1.7653173208 1.7549999952
 4254.8037109 7.0000000000 8.3970003128 8.3750000000 0.2941324413 2.5669999123 126.41730499 91.748001099 190.20327759 1.5930000544 -1476.380981 1.7628846169 1.7439999580
 4254.9560547 7.0000000000 8.3970003128 8.3750000000 0.3910834789 2.5590000153 128.44949341 91.819282532 188.82545471 1.5970000029 -1000.097961 1.7775287628 1.7450000048
 4255.1083984 7.0000000000 8.3979997635 8.3750000000 0.3452981710 2.5699999332 126.15611267 91.901733398 188.49800110 1.6019999981 -500.0979919 1.8026922941 1.7560000420
 4255.2607422 7.0000000000 8.4040002823 8.3750000000 0.3652324975 2.5829999447 122.25838470 91.710281372 188.70416260 1.6109999418 -0.107945003 1.8349326849 1.7779999971
 4255.4130859 6.0000000000 8.4469995499 8.3750000000 0.2794173062 2.5469999313 120.44214630 90.955940247 189.34849548 1.6239999533 499.55899048 1.8659904003 1.8150000572
 4255.5659180 6.0000000000 8.4530000687 8.3750000000 0.2750360370 2.5469999313 118.52352905 89.969322205 190.47328186 1.6380000114 974.65899658 1.8917307854 1.8509999514
 4255.7182617 6.0000000000 8.4530000687 8.3750000000 0.3164987266 2.5739998817 119.37141418 89.208114624 191.80752563 1.6540000439 1173.5899658 1.9209326506 1.8739999533
 4255.8706055 6.0000000000 8.4449996948 8.3750000000 0.3121238351 2.5729999542 125.42749786 88.791992188 192.55099487 1.6740000248 544.51599121 1.9512884617 1.8910000324
 4256.0229492 6.0000000000 8.4490003586 8.3750000000 0.2997493744 2.5710000992 130.95468140 88.811027527 192.72381592 1.6950000525 -708.8649902 1.9701634645 1.9099999666
 4256.1752930 6.0000000000 8.4209995270 8.3750000000 0.3320612311 2.5650000572 130.94226074 89.251235962 192.41017151 1.7209999561 -1543.232056 1.9818077087 1.9249999523
 4256.3276367 6.0000000000 8.4519996643 8.3750000000 0.2547838390 2.5610001087 129.00852966 89.761940002 191.99702454 1.7500000000 -1475.952026 2.0073366165 1.9459999800
 4256.4799805 6.0000000000 8.4370002747 8.3750000000 0.2744268477 2.5460000038 129.15957642 90.097122192 191.82034302 1.7799999714 -999.4739990 2.0522596836 1.9819999933
 4256.6323242 6.0000000000 8.4379997253 8.3750000000 0.3356535733 2.5559999943 129.15010071 90.221046448 191.95925903 1.8059999943 -499.8020020 2.0996539593 2.0399999619
 4256.7846680 6.0000000000 8.4530000687 8.3750000000 0.2808400095 2.5869998932 126.00394440 90.156318665 192.23251343 1.8259999752 -2.687000036 2.1322715282 2.0929999352
 4256.9375000 6.0000000000 8.4510002136 8.3750000000 0.3111003935 2.5759999752 122.23892975 89.922416687 192.41090393 1.8420000076 496.99600220 2.1530864239 2.1180000305
 4257.0898438 7.0000000000 8.4289999008 8.3750000000 0.2763374448 2.5439999104 121.89060211 89.520050049 192.36026001 1.8600000143 972.42901611 2.1696057320 2.1289999485
 4257.2421875 7.0000000000 8.3970003128 8.3750000000 0.2943111360 2.5429999828 124.79777527 89.188346863 192.18788147 1.8849999905 1173.2779541 2.1824424267 2.1380000114
 4257.3945313 7.0000000000 8.3970003128 8.3750000000 0.2882733345 2.5569999218 128.25810242 89.016632080 191.99259949 1.9119999409 546.56896973 2.1838750839 2.1530001163
 4257.5468750 7.0000000000 8.3970003128 8.3750000000 0.3311866522 2.5750000477 131.07066345 88.971420288 191.90840149 1.9299999475 -707.0830078 2.1701538563 2.1710000038
 4257.6992188 7.0000000000 8.3959999084 8.3750000000 0.2663049102 2.5450000763 131.39639282 89.046356201 191.88955688 1.9320000410 -1544.000977 2.1548750401 2.1819999218
 4257.8515625 7.0000000000 8.3800001144 8.3750000000 0.2912911773 2.5680000782 129.38146973 89.193962097 191.92378235 1.9190000296 -1478.386963 2.1394710541 2.1700000763
 4258.0039063 7.0000000000 8.3789997101 8.3750000000 0.2627255917 2.5799999237 129.22613525 89.419929504 192.36717224 1.8999999762 -1002.051941 2.1057059765 2.1389999390
 4258.1562500 7.0000000000 8.3859996796 8.3750000000 0.2516792417 2.5399999619 131.58818054 89.542121887 192.64613342 1.8849999905 -502.0520020 2.0262498856 2.1089999676
 4258.3090820 7.0000000000 8.3900003433 8.3750000000 0.3084525764 2.5429999828 133.57319641 89.801498413 192.82131958 1.8710000515 -2.062000036 1.9187307358 2.0940001011
