# LAS format log file from PETREL
# Project units are specified as depth units
#==================================================================
~Version information
VERS.   2.0:
WRAP.   NO:
#==================================================================
~Well
STRT .m      3166.7685547 :
STOP .m      4692.7500000 :
STEP .m     0.00000000 :
NULL .        -999.250000 :
COMP.           : COMPANY
WELL.  34/12-1   : WELL
FLD.            : FIELD
LOC.            : LOCATION
SRVC.           : SERVICE COMPANY
DATE.  2018-09-11 14:48:48   : Log Export Date {yyyy-MM-dd HH:mm:ss}
PROV.           : PROVINCE
UWI.   34/12-1   : UNIQUE WELL ID
API.            : API NUMBER
#==================================================================
~Curve
DEPT .m                   : DEPTH
Lithology_geolink ._      : Lithology_geolink
CALI .in                  : CALI
BS .in                    : BS
ROP .m/h                  : ROP
DRHO .g/cm3               : DRHO
THOR .ppm                 : THOR
SGR .gAPI                 : SGR
NPHI .m3/m3               : NPHI
RHOB .g/cm3               : RHOB
PEF .b/e                  : PEF
GR .gAPI                  : GR
URAN .ppm                 : URAN
DTC .us/ft                : DTC
DTS .us/ft                : DTS
RDEP .ohm.m               : RDEP
RSHA .ohm.m               : RSHA
RMED .ohm.m               : RMED
~Parameter
#==================================================================
~Ascii
# ...
 3982.8706055  -999.250000 12.374500275 12.250000954 108686.15625 0.0047155446 5.8454999924 0.0082990387 0.3225039840 2.6079475880 3.7010147572 53.909626007 0.5755000114 83.062561035  -999.250000 2.1390514374 2.3540720940 2.1859941483
 3983.0229492  -999.250000 12.391899109 12.250000954 108686.15625 0.0144482367 5.2933998108 0.0076990384 0.3249898851 2.6376786232 3.6478502750 58.228847504 0.7303000093 87.336051941  -999.250000 2.1712281704 2.3989231586 2.2447397709
 3983.1755371  -999.250000 12.364100456 12.250000954 108621.07031 0.0445707217 4.9577999115 0.0070996801 0.3186983764 2.6867923737 3.6167361736 60.674873352 0.7542999983 87.364639282  -999.250000 2.1887776852 2.4134278297 2.2697215080
 3983.3278809  -999.250000 12.374500275 12.250000954 88349.843750 0.0665943995 4.7280998230 0.0070000002 0.3182088137 2.7154912949 3.5967814922 56.271553040 0.7856000066 85.754043579  -999.250000 2.2130770683 2.4220879078 2.3076345921
 3983.4802246  -999.250000 12.364100456 12.250000954 89978.781250 0.0630516037 4.9640002251 0.0070004808 0.3237068951 2.7099137306 3.5852012634 54.619918823 0.6955999732 83.427391052  -999.250000 2.2610177994 2.4145021439 2.3291771412
 3983.6325684  -999.250000 12.364100456 12.250000954 92011.906250 0.0328607373 4.8266000748 0.0072996798 0.3280208409 2.6561319828 3.5858857632 53.701511383 0.6227999926 90.024330139  -999.250000 2.2721030712 2.4157803059 2.3148839474
 3983.7851563  -999.250000 12.385000229 12.250000954 92826.882813 0.0083830394 4.0250000954 0.0071000000 0.3409750164 2.6137673855 3.5771505833 56.258941650 0.7220000029 89.354782104  -999.250000 2.2743055820 2.4034132957 2.3049838543
 3983.9375000  -999.250000 12.364100456 12.250000954 93435.921875 0.0031221155 3.5439000130 0.0070996797 0.3331599534 2.6036477089 3.6241815090 54.617324829 0.6769000292 87.382690430  -999.250000 2.3383133411 2.4076747894 2.3310890198
 3984.0898438  -999.250000 12.391899109 12.250000954 93061.234375 0.0169043262 3.5471000671 0.0069004805 0.3081309199 2.6333208084 3.6751503944 52.080108643 0.5698000193 85.757774353  -999.250000 2.3466274738 2.4543104172 2.3241994381
 3984.2421875  -999.250000 12.371000290 12.250000954 104345.71094 0.0195955131 2.9300000668 0.0071998397 0.2650668323 2.6461968422 3.7690436840 53.205722809 1.0197000504 85.742507935  -999.250000 2.3016972542 2.4610178471 2.2618098259
 3984.3945313  -999.250000 12.378000259 12.250000954 91603.078125 0.0167764425 3.1059999466 0.0070991986 0.2443947047 2.6442604065 3.8588273525 51.973423004 0.9646999836 84.125144958  -999.250000 2.4876427650 2.5972089767 2.4554409981
 3984.5471191  -999.250000 12.426799774 12.250000954 91603.078125 0.0020871998 3.4674999714 0.0065993601 0.2411358356 2.6195726395 4.0009727478 50.604385376 1.0873999596 79.104324341  -999.250000 2.9514987469 2.8529593945 2.7939307690
 3984.6994629  -999.250000 12.405900002 12.250000954 91639.195313 -0.001883173 3.5833001137 0.0063999998 0.2522876561 2.6110408306 4.1483330727 46.608833313 0.8938999772 78.708946228  -999.250000 3.3247580528 3.1835792065 3.2395973206
 3984.8518066  -999.250000 12.412799835 12.250000954 114141.60156 0.0086088143 3.3845999241 0.0063995193 0.2445820421 2.6365311146 4.2310771942 44.013610840 0.8043000102 79.418830872  -999.250000 3.2362229824 3.6063818932 3.2378644943
 3985.0041504  -999.250000 12.398899078 12.250000954 114141.60156 0.0141040068 3.3606998920 0.0060996795 0.2334142625 2.6560084820 4.1541767120 43.401069641 0.9203000069 77.813362122  -999.250000 3.1258215904 3.4079983234 3.2155990601
 3985.1567383  -999.250000 12.405900002 12.250000954 114082.82031 0.0165843200 3.0304999352 0.0058996803 0.2423726469 2.6612689495 4.0148463249 44.943756104 1.2309000492 76.726623535  -999.250000 3.0143129826 3.2816398144 3.0899589062
 3985.3090820  -999.250000 12.412799835 12.250000954 95769.625000 0.0117076924 3.2290000916 0.0057990383 0.2650338113 2.6516177654 3.9671571255 46.521320343 1.3766000271 76.360809326  -999.250000 2.8938627243 3.0451250076 2.9526863098
 3985.4614258  -999.250000 12.475500107 12.250000954 94567.125000 0.0165072121 3.0880000591 0.0052000000 0.2860975862 2.6628248692 4.0651812553 48.777160645 1.4850000143 76.183792114  -999.250000 2.9331166744 3.1852753162 3.0065689087
 3985.6137695  -999.250000 12.405900002 12.250000954 83002.093750 0.0209948719 2.8434998989 0.0052000000 0.2845935822 2.6781969070 4.1781415939 49.187515259 1.4036999941 79.045837402  -999.250000 3.0055482388 3.1700367928 3.1115796566
 3985.7663574  -999.250000 12.374500275 12.250000954 80610.156250 0.0177708790 3.2046000957 0.0052019199 0.2806432247 2.6761252880 4.1413550377 49.388713837 1.3510999680 80.501800537  -999.250000 2.9100461006 3.2542042732 2.9733555317
 3985.9187012  -999.250000 12.332699776 12.250000954 78834.843750 0.0086905453 3.7678999901 0.0058008013 0.2941111922 2.6528728008 4.0025668144 50.515651703 1.3717000484 81.404273987  -999.250000 2.6125817299 2.9126329422 2.6476702690
 3986.0710449  -999.250000 12.350099564 12.250000954 82573.132813 0.0027988781 4.0789999962 0.0063006412 0.3011211455 2.6358857155 3.8571131229 51.237312317 1.3226000071 80.514892578  -999.250000 2.4143137932 2.7460136414 2.4423122406
 3986.2233887  -999.250000 12.357100487 12.250000954 83201.617188 0.0021017627 4.1784000397 0.0067004804 0.3142939210 2.6268913746 3.8030579090 53.800365448 1.3852000237 79.080436707  -999.250000 2.4228971004 2.6297748089 2.4498839378
 3986.3757324  -999.250000 12.350099564 12.250000954 83326.390625 0.0032012819 4.1346998215 0.0070001604 0.3104769289 2.6215858459 3.7767848969 54.031703949 1.4740999937 81.039382935  -999.250000 2.4210593700 2.6139960289 2.4399693012
 3986.5283203  -999.250000 12.343199730 12.250000954 76221.265625 0.0039974400 3.8438000679 0.0070977602 0.2961054444 2.6127643585 3.7673161030 55.461215973 1.6152000427 83.016685486  -999.250000 2.3957319260 2.6113204956 2.4207544327
 3986.6806641  -999.250000 12.364100456 12.250000954 85721.312500 0.0031991987 3.2074999809 0.0064003202 0.2977982461 2.6016952991 3.7411439419 53.720767975 1.6339999437 81.428634644  -999.250000 2.3744645119 2.5865950584 2.4065651894
 3986.8330078  -999.250000 12.378000259 12.250000954 84993.835938 0.0026998399 3.2637000084 0.0065996796 0.2966916561 2.5987029076 3.7062439919 53.392856598 1.4878000021 83.386077881  -999.250000 2.3522038460 2.5834734440 2.3848121166
 3986.9853516  -999.250000 12.426799774 12.250000954 85000.828125 0.0025996794 3.3141999245 0.0064009614 0.2914983928 2.6004979610 3.6713311672 55.547161102 1.3946000338 85.368621826  -999.250000 2.2923059464 2.5669078827 2.3298969269
 3987.1379395  -999.250000 12.479000092 12.250000954 89430.867188 0.0024041601 4.0288000107 0.0069987201 0.2905047834 2.5991978645 3.6912705898 56.581157684 1.2352000475 85.375503540  -999.250000 2.2339468002 2.5094881058 2.2659573555
 3987.2902832  -999.250000 12.475500107 12.250000954 112205.51563 0.0037076923 4.3744997978 0.0066004805 0.2920129895 2.5985131264 3.8382182121 56.782772064 1.2703000307 82.698043823  -999.250000 2.2798249722 2.5058364868 2.3151338100
 3987.4426270  -999.250000 12.454600334 12.250000954 112205.51563 0.0085108979 4.0735998154 0.0069001601 0.3000995219 2.6067323685 4.0366582870 54.838211060 1.3585000038 83.037185669  -999.250000 2.3577287197 2.5286383629 2.3985109329
 3987.5949707  -999.250000 12.468600273 12.250000954 112162.93750 0.0153030446 3.9023997784 0.0069998400 0.2998169959 2.6270213127 4.1350731850 56.771560669 1.2549999952 84.651138306  -999.250000 2.3755099773 2.5525193214 2.4052999020
 3987.7475586  -999.250000 12.398899078 12.250000954 85633.453125 0.0171804801 3.9793999195 0.0069006397 0.3103667200 2.6401679516 4.0553684235 53.072700500 1.1424000263 85.735588074  -999.250000 2.3816776276 2.5645375252 2.4052608013
 3987.8999023  -999.250000 12.371000290 12.250000954 84030.484375 0.0110897431 4.2905998230 0.0070998399 0.2999995351 2.6301772594 3.8582160473 53.789592743 1.1713999510 85.384887695  -999.250000 2.3747067451 2.5761876106 2.3930978775
 3988.0522461  -999.250000 12.374500275 12.250000954 84022.500000 0.0046940707 4.9319000244 0.0069990386 0.2996993363 2.6159763336 3.6811974049 54.100902557 1.0341999531 84.132392883  -999.250000 2.3789021969 2.5683937073 2.3916931152
