# LAS format log file from PETREL
# Project units are specified as depth units
#==================================================================
~Version information
VERS.   2.0:
WRAP.   NO:
#==================================================================
~Well
STRT .m      211.00001526 :
STOP .m      2222.9851074 :
STEP .m     0.00000000 :
NULL .        -999.250000 :
COMP.           : COMPANY
WELL.  34/10-19   : WELL
FLD.            : FIELD
LOC.            : LOCATION
SRVC.           : SERVICE COMPANY
DATE.  2018-09-11 14:48:44   : Log Export Date {yyyy-MM-dd HH:mm:ss}
PROV.           : PROVINCE
UWI.   34/10-19   : UNIQUE WELL ID
API.            : API NUMBER
#==================================================================
~Curve
DEPT .m                   : DEPTH
Lithology_geolink ._      : Lithology_geolink
CALI .in                  : CALI
DRHO .g/cm3               : DRHO
NPHI .m3/m3               : NPHI
RHOB .g/cm3               : RHOB
GR .gAPI                  : GR
DTC .us/ft                : DTC
RDEP .ohm.m               : RDEP
SP .mV                    : SP
RSHA .ohm.m               : RSHA
RMED .ohm.m               : RMED
~Parameter
#==================================================================
~Ascii
# ...
 607.39245605  -999.250000 15.442000389 0.0119987987 0.4062584043 2.1819958687 81.205665588 136.25000000 2.4260001183 -0.116589740 1.9919999838 1.9919999838
 607.54486084  -999.250000 15.656999588 0.0090004001 0.4272494018 2.1719982624 80.786010742 137.25030518 2.4259994030 0.3946756124 1.9999984503 1.9999984503
 607.69726563  -999.250000 15.819999695 0.0100004002 0.4257819653 2.1679942608 82.459693909 137.99980164 2.4239976406 0.1243295968 1.9960008860 1.9960008860
 607.84967041  -999.250000 15.512000084 0.0110048056 0.4306590259 2.1540071964 80.539306641 137.50019836 2.4179992676 -0.433837414 1.9979984760 1.9979984760
 608.00207520  -999.250000 15.461000443 0.0229995996 0.4282201827 2.1719992161 76.633468628 137.99949646 2.4159998894 -1.129277945 1.9940023422 1.9940023422
 608.15447998  -999.250000 15.501001358 0.0219971966 0.4287217259 2.1699993610 74.532608032 136.75019836 2.4160046577 -0.528690040 2.0000007153 2.0000007153
 608.30688477  -999.250000 15.637998581 0.0149971964 0.4580160379 2.1679911613 77.532524109 137.25030518 2.4280016422 -0.270251513 2.0020008087 2.0020008087
 608.45922852  -999.250000 15.857000351 0.0080000004 0.4731400013 2.1459999084 79.630836487 138.00000000 2.4319999218 0.3520296216 2.0039999485 2.0039999485
 608.61163330  -999.250000 15.821000099 0.0099999998 0.4541000128 2.1480000019 78.169425964 136.75000000 2.4449999332 0.3891609907 1.9980000257 1.9980000257
 608.76403809  -999.250000 15.494001389 0.0070000002 0.4125999808 2.1540000439 74.957374573 136.50000000 2.4489998817 0.5900896788 2.0099999905 2.0099999905
 608.91644287  -999.250000 15.237000465 0.0070000002 0.3935500085 2.1740000248 72.933021545 136.00000000 2.4670000076 0.7019575834 2.0139999390 2.0139999390
 609.06884766  -999.250000 14.454000473 0.0049999999 0.3901399970 2.1819999218 75.456398010 135.25000000 2.4670000076 0.6487316489 2.0450000763 2.0450000763
 609.22125244  -999.250000 14.244999886 0.0049999999 0.3666999936 2.1949999332 75.947608948 136.00000000 2.4820001125 0.3135322630 2.0269999504 2.0269999504
 609.37365723  -999.250000 14.251000404 -0.000001602 0.3505808115 2.1949970722 75.463043213 135.24949646 2.4900023937 -0.270085722 2.0209882259 2.0209882259
 609.52606201  -999.250000 13.689999580 -0.004000401 0.3276386261 2.1879968643 71.770332336 134.00010681 2.4960000515 -0.377116978 1.9919884205 1.9919884205
 609.67846680  -999.250000 13.923001289 -0.004998398 0.3242162764 2.1799993515 70.936340332 134.25030518 2.4959976673 -0.522007585 1.9629904032 1.9629904032
 609.83087158  -999.250000 13.777999878 -0.000998398 0.3149400055 2.1779999733 70.394805908 135.00000000 2.4900000095 0.3028774559 1.9390064478 1.9390064478
 609.98327637  -999.250000 13.465999603 0.0030020024 0.3149427474 2.1779911518 71.065963745 135.00090027 2.4899940491 0.2002431005 1.9550015926 1.9550015926
 610.13568115  -999.250000 13.928000450 0.0080056069 0.3217905760 2.1559891701 71.869789124 137.25010681 2.4749941826 -0.428526610 1.9589976072 1.9589976072
 610.28808594  -999.250000 13.973999977 0.0220036041 0.3481521308 2.1289927959 74.192787170 137.50030518 2.4609935284 -0.035496194 1.9529846907 1.9529846907
 610.44049072  -999.250000 14.170999527 0.0310008004 0.3784244955 2.1109993458 73.178794861 138.24949646 2.4449882507 -0.448425323 1.9149928093 1.9149928093
 610.59283447  -999.250000 14.458000183 0.0329999998 0.3896499872 2.1089999676 70.511619568 137.00000000 2.4159998894 -0.801875055 1.8969999552 1.8969999552
 610.74523926  -999.250000 14.668000221 0.0099999998 0.3906300068 2.1019999981 67.541297913 135.00000000 2.3810000420 -0.645678818 1.8990000486 1.8990000486
 610.89764404  -999.250000 14.288999557 0.0060000001 0.3793900013 2.0899999142 69.162055969 136.75000000 2.3650000095 -0.244641975 1.8830000162 1.8830000162
 611.05004883  -999.250000 14.196999550 0.0230000000 0.3759799898 2.0699999332 67.981918335 139.50000000 2.3480000496 0.2019607574 1.8470000029 1.8470000029
 611.20245361  -999.250000 14.294999123 0.0860000029 0.4081999958 2.0720000267 66.630615234 141.75000000 2.3340001106 0.1526019126 1.7899999619 1.7899999619
 611.35485840  -999.250000 14.018999100 0.1370003968 0.4423997402 2.0999975204 64.904212952 141.49949646 2.3159916401 -0.344760120 1.7800071239 1.7800071239
 611.50726318  -999.250000 14.166999817 0.1379967928 0.4916935563 2.0940060616 70.163200378 140.24980164 2.2949843407 -1.292215824 1.7980052233 1.7980052233
 611.65966797  -999.250000 13.949000359 0.1299931854 0.4755823612 2.1089956760 74.152809143 139.75079346 2.2559993267 -0.313647449 1.8109891415 1.8109891415
 611.81207275  -999.250000 13.626000404 0.1130040064 0.4565362632 2.0980069637 75.156196594 141.75000000 2.2540030479 0.1267208606 1.7839888334 1.7839888334
 611.96447754  -999.250000 13.505000114 0.1229863837 0.4472657144 2.1149883270 73.654724121 141.75000000 2.2620031834 0.7278982997 1.7560064793 1.7560064793
 612.11688232  -999.250000 13.414999962 0.0889911875 0.4365272522 2.0859906673 71.759063721 141.75010681 2.2699983120 2.3071582317 1.7720175982 1.7720175982
 612.26928711  -999.250000 13.909000397 0.0669972003 0.4546023011 2.0629951954 69.315330505 141.99980164 2.2660017014 3.2703676224 1.8160164356 1.8160164356
 612.42169189  -999.250000 13.687999725 0.0599999987 0.4853513837 2.0509977341 68.759689331 141.49960327 2.2700107098 3.5754654408 1.8570067883 1.8570067883
 612.57409668  -999.250000 13.548999786 0.0599911883 0.4887723327 2.0449936390 69.334152222 140.50010681 2.2969999313 3.1285047531 1.8739967346 1.8739967346
 612.72644043  -999.250000 13.284999847 0.0379999988 0.4946300089 2.0290000439 71.955619812 140.75000000 2.2969999313 1.0528602600 1.8660000563 1.8660000563
 612.87884521  -999.250000 13.185999870 0.0149999997 0.4682599902 2.0290000439 75.221817017 141.00000000 2.2909998894 -0.369024813 1.9129999876 1.9129999876
 613.03125000  -999.250000 12.937999725 0.0099999998 0.4956099987 2.0450000763 74.988960266 142.25000000 2.2969999313 -0.400000006 1.8960000277 1.8960000277
 613.18365479  -999.250000 13.357998848 0.0170000009 0.4697299898 2.0680000782 73.690559387 143.50000000 2.3129999638 -0.400176227 1.8830000162 1.8830000162
 613.33605957  -999.250000 13.742999077 0.0089999996 0.4658200145 2.0490000248 70.643852234 143.75000000 2.3050000668 -0.620708048 1.8569999933 1.8569999933
 613.48846436  -999.250000 14.027999878 0.0190136153 0.4399476349 2.0429952145 70.470115662 142.74920654 2.3029928207 -1.503497720 1.8319920301 1.8319920301
 613.64086914  -999.250000 14.543998718 0.0530224256 0.4589876235 2.0309929848 74.351989746 140.74920654 2.2849795818 -0.877007186 1.8120056391 1.8120056391
 613.79327393  -999.250000 14.853999138 0.1090184227 0.4780388176 2.0139939785 74.342582703 138.75059509 2.2339818478 -0.885777712 1.8260055780 1.8260055780
 613.94567871  -999.250000 14.729999542 0.1549980044 0.4999929667 1.9989867210 71.493370056 140.25000000 2.1889979839 -0.700967550 1.8399884701 1.8399884701
 614.09808350  -999.250000 14.625000000 0.1499911994 0.4824252725 1.9660007954 67.644424438 140.24980164 2.1839919090 -0.672773361 1.8109947443 1.8109947443
 614.25048828  -999.250000 15.019000053 0.1279811859 0.4956057072 1.9679708481 67.998924255 139.75039673 2.1640071869 0.3470252454 1.7979807854 1.7979807854
 614.40289307  -999.250000 14.241999626 0.0809943900 0.4848748744 1.8949763775 67.930328369 140.74870300 2.1820123196 0.3678546250 1.7500084639 1.7500084639
 614.55529785  -999.250000 14.585000038 0.0670108125 0.5219537616 1.8359999657 64.879714966 137.49920654 2.2130000591 0.2462656200 1.7710108757 1.7710108757
 614.70764160  -999.250000 15.449000359 0.0939999968 0.4814499915 1.8359999657 65.479003906 135.50000000 2.2130000591 -0.364343613 1.7979999781 1.7979999781
 614.86004639  -999.250000 15.501999855 0.1469999999 0.4931600094 1.8960000277 68.815208435 136.75000000 2.2149999142 -0.650094867 1.8129999638 1.8129999638
 615.01245117  -999.250000 15.328000069 0.1659999937 0.4462900162 1.9609999657 74.808006287 137.00000000 2.2360000610 -0.728561461 1.8320000172 1.8320000172
