# LAS format log file from PETREL
# Project units are specified as depth units
#==================================================================
~Version information
VERS.   2.0:
WRAP.   NO:
#==================================================================
~Well
STRT .m      3900.0166016 :
STOP .m      4564.4804688 :
STEP .m     0.00000000 :
NULL .        -999.250000 :
COMP.           : COMPANY
WELL.  34/11-1   : WELL
FLD.            : FIELD
LOC.            : LOCATION
SRVC.           : SERVICE COMPANY
DATE.  2018-09-11 14:48:47   : Log Export Date {yyyy-MM-dd HH:mm:ss}
PROV.           : PROVINCE
UWI.   34/11-1   : UNIQUE WELL ID
API.            : API NUMBER
#==================================================================
~Curve
DEPT .m                   : DEPTH
Lithology_geolink ._      : Lithology_geolink
CALI .in                  : CALI
BS .in                    : BS
NPHI .m3/m3               : NPHI
RHOB .g/cm3               : RHOB
GR .gAPI                  : GR
DTC .us/ft                : DTC
DTS .us/ft                : DTS
RDEP .ohm.m               : RDEP
SP .mV                    : SP
RSHA .ohm.m               : RSHA
RMED .ohm.m               : RMED
~Parameter
#==================================================================
~Ascii
# ...
 4119.4726563 3.0000000000 8.1319999695 8.3750000000 0.1159262806 2.1589999199 39.234432220 88.050178528 151.74340820 25.805000305 -392.2780151 18.893777847 23.756000519
 4119.6250000 3.0000000000 8.1339998245 8.3750000000 0.1200314164 2.1630001068 48.458362579 87.227302551 150.64385986 23.527999878 107.71399689 17.050365448 21.427000046
 4119.7773438 4.0000000000 8.1529998779 8.3750000000 0.1204898730 2.1989998817 60.521102905 85.944458008 149.94509888 21.235000610 603.09698486 16.311779022 18.423999786
 4119.9296875 4.0000000000 8.1579999924 8.3750000000 0.1139674410 2.2309999466 70.071754456 85.335632324 149.01663208 19.778999329 1004.4749756 16.178499222 16.350999832
 4120.0820313 4.0000000000 8.1890001297 8.3750000000 0.1137374043 2.2400000095 74.194366455 85.614265442 147.67433167 18.888999939 839.59301758 16.091163635 15.708999634
 4120.2343750 4.0000000000 8.1890001297 8.3750000000 0.1445608735 2.2590000629 71.685607910 86.536697388 146.46551514 18.013999939 -202.6450043 15.839278221 15.791999817
 4120.3867188 4.0000000000 8.1890001297 8.3750000000 0.1327422261 2.2780001163 63.783714294 88.128501892 146.43939209 17.055999756 -1377.411987 15.383699417 15.659000397
 4120.5395508 3.0000000000 8.1890001297 8.3750000000 0.1632157713 2.2720000744 56.227558136 89.904518127 146.88261414 16.121000290 -1745.791992 14.777807236 15.163000107
 4120.6918945 3.0000000000 8.1940002441 8.3750000000 0.1649201214 2.2030000687 51.277565002 91.128005981 146.75860596 15.289999962 -1391.644043 14.016442299 14.604999542
 4120.8442383 3.0000000000 8.2309999466 8.3750000000 0.1556657702 2.1419999599 47.695220947 91.618621826 146.89572144 14.628999710 -891.6430054 13.022259712 13.833999634
 4120.9965820 3.0000000000 8.1510000229 8.3750000000 0.1457187235 2.1630001068 46.736965179 91.679267883 147.67617798 14.090000153 -391.6530151 11.777182579 12.796999931
 4121.1489258 3.0000000000 8.1510000229 8.3750000000 0.1752581447 2.1919999123 48.718994141 91.286117554 149.29396057 13.439000130 108.33899689 10.413115501 11.845000267
 4121.3012695 3.0000000000 8.1510000229 8.3750000000 0.1774167269 2.2369999886 51.596965790 90.294891357 150.89416504 12.458999634 603.60900879 9.2218656540 10.772000313
 4121.4536133 3.0000000000 8.1510000229 8.3750000000 0.1863715500 2.2709999084 55.710933685 89.023635864 152.22473145 11.253000259 1003.6329956 8.2993078232 9.6520004272
 4121.6059570 3.0000000000 8.1549997330 8.3750000000 0.1212363541 2.2880001068 62.415660858 88.049484253 153.57614136 10.039999962 835.41400146 7.5917115211 8.6800003052
 4121.7583008 4.0000000000 8.1940002441 8.3750000000 0.1809597164 2.3280000687 69.588203430 87.682693481 154.83151245 8.9289999008 -207.3260040 7.0944566727 8.0369997025
 4121.9111328 4.0000000000 8.2449998856 8.3750000000 0.1519996226 2.3670001030 73.785453796 87.818557739 156.25254822 8.0299997330 -1376.819946 6.7501635551 7.5390000343
 4122.0634766 4.0000000000 8.3109998703 8.3750000000 0.2083055228 2.4070000648 75.275115967 88.262794495 157.37603760 7.3730001450 -1747.644043 6.4913940430 7.0250000954
 4122.2158203 4.0000000000 8.3809995651 8.3750000000 0.2087885886 2.4189999104 79.129974365 88.776298523 158.13903809 6.8990001678 -1394.223022 6.6036443710 6.5380001068
 4122.3681641 4.0000000000 8.6070003510 8.3750000000 0.1740620583 2.4189999104 87.427551270 89.112014771 158.34175110 6.5799999237 -894.2219849 7.6882305145 6.1869997978
 4122.5205078 5.0000000000 8.7860002518 8.3750000000 0.2084362060 2.4309999943 94.597518921 89.077583313 157.89469910 6.4349999428 -394.2319946 9.4194040298 6.0920000076
 4122.6728516 5.0000000000 8.6490001678 8.3750000000 0.2369529754 2.4579999447 95.507881165 88.646430969 156.39280701 6.4229998589 105.76000214 10.539817810 6.2709999084
 4122.8251953 5.0000000000 8.7139997482 8.3750000000 0.2509141266 2.4730000496 91.248374939 88.186157227 154.63317871 6.4920001030 601.11297607 10.815326691 6.6209998131
 4122.9775391 5.0000000000 8.8549995422 8.3750000000 0.2600004673 2.4760000706 85.956153870 88.282165527 152.86094666 6.6719999313 1002.1339722 10.828281403 7.0100002289
 4123.1298828 5.0000000000 8.8479995728 8.3750000000 0.2483430803 2.4679999352 81.279571533 88.829505920 151.94203186 7.0390000343 836.34399414 10.826949120 7.4650001526
 4123.2827148 4.0000000000 8.8559999466 8.3750000000 0.2207842320 2.4670000076 76.304306030 89.036712646 151.01272583 7.6030001640 -206.3650055 10.843461037 8.1409997940
 4123.4350586 4.0000000000 8.8549995422 8.3750000000 0.2038266659 2.4519999027 71.541366577 88.775581360 150.10511780 8.3020000458 -1380.503052 10.947298050 8.9960002899
 4123.5874023 3.0000000000 8.8310003281 8.3750000000 0.1981106550 2.3789999485 67.430992126 88.377281189 149.03974915 9.0329999924 -1748.005981 11.232345581 9.8570003510
 4123.7397461 3.0000000000 8.6890001297 8.3750000000 0.1848605126 2.3440001011 62.472339630 88.406692505 148.29679871 9.6400003433 -1393.598022 11.531577110 10.571999550
 4123.8920898 3.0000000000 8.4919996262 8.3750000000 0.1720529646 2.3299999237 57.132659912 88.990295410 147.70289612 10.017999649 -893.5969849 11.452259064 11.215999603
 4124.0444336 3.0000000000 8.4479999542 8.3750000000 0.1669224054 2.2960000038 54.594474792 89.696334839 147.52926636 10.190999985 -393.6069946 10.916913033 11.416000366
 4124.1967773 3.0000000000 8.4219999313 8.3750000000 0.1753190458 2.2560000420 55.095844269 90.185287476 148.59193420 10.152999878 106.38500214 10.147153854 10.824000359
 4124.3491211 4.0000000000 8.2539997101 8.3750000000 0.1825302839 2.2049999237 56.622501373 90.333534241 150.52871704 9.8100004196 601.49200439 9.2942943573 9.9149999619
 4124.5019531 4.0000000000 8.2449998856 8.3750000000 0.1733523160 2.2060000896 60.421596527 90.293693542 152.64781189 9.1940002441 1000.6350098 8.4601249695 9.0360002518
 4124.6542969 4.0000000000 8.2440004349 8.3750000000 0.1820953935 2.2639999390 67.358222961 90.346305847 154.66751099 8.4560003281 837.37597656 7.7855095863 8.2449998856
 4124.8066406 4.0000000000 8.2360000610 8.3750000000 0.1782507598 2.3380000591 75.139617920 90.422111511 156.24385071 7.7740001678 -204.0189972 7.2620673180 7.6329998970
 4124.9589844 5.0000000000 8.2340002060 8.3750000000 0.2117935866 2.3859999180 82.527427673 90.269340515 157.03935242 7.3309998512 -1379.911011 6.8618655205 7.1890001297
 4125.1113281 5.0000000000 8.2810001373 8.3750000000 0.1879223734 2.3959999084 88.922592163 89.925727844 157.06448364 7.1149997711 -1749.859009 6.6750001907 6.8559999466
 4125.2636719 5.0000000000 8.3249998093 8.3750000000 0.1680577844 2.4110000134 93.030433655 89.648132324 156.44633484 6.9629998207 -1396.177002 6.7295675278 6.6510000229
 4125.4160156 5.0000000000 8.3769998550 8.3750000000 0.2082187533 2.4400000572 93.460807800 89.595252991 155.75724792 6.8629999161 -896.1760254 7.0349326134 6.6119999886
 4125.5683594 5.0000000000 8.6269998550 8.3750000000 0.1933883727 2.4670000076 89.349510193 89.844001770 155.09298706 6.8899998665 -396.1860046 7.6302404404 6.8639998436
 4125.7207031 5.0000000000 8.8020000458 8.3750000000 0.2132836431 2.4700000286 83.581687927 90.170417786 154.58435059 7.0329999924 103.80599976 8.3649101257 7.4029998779
 4125.8735352 5.0000000000 8.8039999008 8.3750000000 0.2190490961 2.4409999847 78.476844788 90.333305359 154.21669006 7.2430000305 599.12902832 9.1373176575 7.9310002327
 4126.0258789 5.0000000000 8.8199996948 8.3750000000 0.1762015373 2.4500000477 73.390266418 90.222457886 153.94149780 7.5320000648 999.79199219 9.9072694778 8.1990003586
 4126.1782227 5.0000000000 8.8179998398 8.3750000000 0.1853294820 2.4179999828 68.232086182 90.039108276 153.53247070 7.9439997673 833.09600830 10.429230690 8.3909997940
 4126.3305664 3.0000000000 8.8079996109 8.3750000000 0.1855569184 2.2969999313 64.482917786 90.027137756 152.63107300 8.4619998932 -210.0859985 10.660018921 8.7309999466
 4126.4829102 3.0000000000 8.8360004425 8.3750000000 0.1888888776 2.2300000191 62.764953613 90.074531555 151.74380493 9.0860004425 -1383.593994 10.620595932 9.2189998627
 4126.6352539 3.0000000000 8.6370000839 8.3750000000 0.1629368365 2.2430000305 62.251033783 90.016288757 151.27345276 9.7139997482 -1750.220947 10.198837280 9.8179998398
