# LAS format log file from PETREL
# Project units are specified as depth units
#==================================================================
~Version information
VERS.   2.0:
WRAP.   NO:
#==================================================================
~Well
STRT .m      818.46392822 :
STOP .m      2256.5109863 :
STEP .m     0.00000000 :
NULL .        -999.250000 :
COMP.           : COMPANY
WELL.  34/10-7   : WELL
FLD.            : FIELD
LOC.            : LOCATION
SRVC.           : SERVICE COMPANY
DATE.  2018-09-11 14:48:47   : Log Export Date {yyyy-MM-dd HH:mm:ss}
PROV.           : PROVINCE
UWI.   34/10-7   : UNIQUE WELL ID
API.            : API NUMBER
#==================================================================
~Curve
DEPT .m                   : DEPTH
Lithology_geolink ._      : Lithology_geolink
CALI .in                  : CALI
DRHO .g/cm3               : DRHO
NPHI .m3/m3               : NPHI
RHOB .g/cm3               : RHOB
GR .gAPI                  : GR
DTC .us/ft                : DTC
RDEP .ohm.m               : RDEP
SP .mV                    : SP
RSHA .ohm.m               : RSHA
RMED .ohm.m               : RMED
~Parameter
#==================================================================
~Ascii
# ...
 2155.3173828 3.0000000000 6.3289999962 -0.041000001 0.2142300010 2.2899999619 68.733772278 103.56330109 0.8998910189 92.821052551 1.3403878212 1.3403878212
 2155.4697266 6.0000000000 6.4050002098 -0.034000002 0.2893199921 2.2999999523 74.553688049 106.74488831 0.9778749943 94.096740723 1.5436747074 1.5436747074
 2155.6220703 6.0000000000 6.2049999237 -0.020000000 0.3573300242 2.2969999313 73.252105713 109.99478912 1.0748445988 92.071052551 1.6588157415 1.6588157415
 2155.7744141 6.0000000000 6.1180000305 -0.021000000 0.3533900082 2.2899999619 72.191398621 107.00959778 1.1806608438 93.349998474 1.4526624680 1.4526624680
 2155.9270020 6.0000000000 6.2120003700 -0.015000000 0.3261100054 2.3039999008 73.248298645 107.56210327 1.2738510370 96.476951599 1.3871041536 1.3871041536
 2156.0793457 6.0000000000 6.3629999161 -0.005000000 0.3333000243 2.3320000172 72.564102173 105.56620789 1.3219231367 97.692596436 1.5617195368 1.5617195368
 2156.2316895 6.0000000000 6.4949994087 0.0080000004 0.3531999886 2.3480000496 76.306991577 106.56140900 1.3140128851 96.820747375 1.6009374857 1.6009374857
 2156.3840332 6.0000000000 6.5729999542 0.0160000008 0.3424099982 2.3550000191 77.248497009 107.74810028 1.3090080023 97.912002563 1.5970064402 1.5970064402
 2156.5363770 6.0000000000 6.4670000076 0.0020000001 0.3373799920 2.3280000687 80.489601135 107.00240326 1.2930511236 99.412002563 1.4185727835 1.4185727835
 2156.6889648 5.0000000000 6.3979997635 -0.011000000 0.3698199987 2.2969999313 80.125602722 112.99037933 1.2720335722 100.13140106 1.2882083654 1.2882083654
 2156.8413086 5.0000000000 6.6370000839 -0.014000000 0.3766799867 2.2709999084 81.622596741 111.37760162 1.2610176802 100.37994385 1.3369214535 1.3369214535
 2156.9936523 5.0000000000 6.6789994240 -0.027000001 0.3655899763 2.2409999371 76.820716858 115.36859131 1.2639952898 99.724998474 1.4558092356 1.4558092356
 2157.1459961 5.0000000000 6.7640004158 -0.039000001 0.3864300251 2.2330000401 74.944000244 118.73919678 1.2570223808 101.63099670 1.4231055975 1.4231055975
 2157.2985840 5.0000000000 6.8679995537 -0.044000000 0.4408100247 2.2639999390 72.192413330 122.18249512 1.2709776163 103.72289276 1.2782323360 1.2782323360
 2157.4509277 5.0000000000 6.6040000916 -0.022000000 0.4676400125 2.3329999447 73.747497559 124.74589539 1.2999534607 102.41135406 1.4197723866 1.4197723866
 2157.6032715 5.0000000000 6.5489997864 0.0099999998 0.4121900201 2.3970000744 70.692909241 117.57452393 1.3149759769 102.00584412 1.5547835827 1.5547835827
 2157.7556152 5.0000000000 6.5840001106 0.0060000001 0.3885999918 2.3780000210 70.189605713 114.19880676 1.3269616365 101.91200256 1.9517263174 1.9517263174
 2157.9082031 5.0000000000 6.6869997978 -0.006000000 0.4070400000 2.3550000191 68.316009521 110.56880951 1.3629423380 102.75685120 1.7563157082 1.7563157082
 2158.0605469 6.0000000000 6.8229999542 -0.014000000 0.4456200004 2.3399999142 71.120491028 111.37369537 1.4059311152 103.28555298 1.7550015450 1.7550015450
 2158.2128906 6.0000000000 6.8269996643 -0.011000000 0.4279700220 2.3629999161 75.555892944 109.37821198 1.4069983959 102.37984467 1.7769646645 1.7769646645
 2158.3652344 6.0000000000 6.6279993057 0.0000000000 0.3947899938 2.3689999580 82.801383972 107.56591034 1.4109935760 101.66200256 2.0605449677 2.0605449677
 2158.5175781 6.0000000000 6.5570001602 -0.008000000 0.3809700012 2.3229999542 83.934402466 113.97940063 1.4389103651 100.75599670 1.8775887489 1.8775887489
 2158.6701660 6.0000000000 6.6529998779 -0.017999999 0.4112200141 2.2730000019 82.190811157 125.17006683 1.4729455709 100.51075745 1.4586714506 1.4586714506
 2158.8225098 6.0000000000 6.4830002785 -0.026000001 0.4545899928 2.2520000935 79.567207336 125.00029755 1.4899727106 103.47470093 1.3242146969 1.3242146969
 2158.9748535 6.0000000000 6.4589996338 -0.024000000 0.4478099942 2.2730000019 79.999298096 128.36959839 1.5209503174 103.28700256 1.2660930157 1.2660930157
 2159.1271973 6.0000000000 6.4999995232 -0.017999999 0.4161299765 2.2969999313 78.878601074 123.57839966 1.5289744139 101.13099670 1.4524015188 1.4524015188
 2159.2797852 6.0000000000 6.5669999123 -0.016000001 0.3659400046 2.3210000992 75.755004883 112.01853180 1.4830737114 101.16010284 1.6816329956 1.6816329956
 2159.4321289 6.0000000000 6.4660000801 -0.017999999 0.3414300084 2.3139998913 75.750000000 111.00160217 1.4131121635 99.973396301 1.7968157530 1.7968157530
 2159.5844727 6.0000000000 6.4159998894 -0.022000000 0.3281300068 2.2929999828 75.500404358 110.56370544 1.2961875200 98.974998474 1.7780303955 1.7780303955
 2159.7368164 6.0000000000 6.6069998741 -0.027000001 0.3592800200 2.2739999294 75.064399719 113.98899841 1.1375087500 97.037002563 1.5367743969 1.5367743969
 2159.8894043 6.0000000000 6.6449999809 -0.017999999 0.3787699938 2.2709999084 64.829429626 115.74719238 1.0062099695 92.403839111 1.1146762371 1.1146762371
 2160.0417480 5.0000000000 6.3410000801 -0.011000000 0.3756400049 2.2539999485 56.201820374 116.37400055 0.8911842704 87.314941406 1.0241442919 1.0241442919
 2160.1940918 5.0000000000 5.9520001411 -0.009000000 0.3289199769 2.2139999866 41.897937775 112.56911469 0.7961522341 84.786201477 0.8303108811 0.8303108811
 2160.3464355 3.0000000000 5.8249998093 -0.017000001 0.2974799871 2.1809999943 36.727264404 109.19341278 0.7111362219 84.288002014 0.8759262562 0.8759262562
 2160.4990234 3.0000000000 5.7610001564 -0.028000001 0.2832399905 2.1640000343 29.730199814 108.37629700 0.6461040378 84.659400940 0.9029567838 0.9029567838
 2160.6513672 3.0000000000 5.7270002365 -0.041000001 0.2743600011 2.1559998989 33.025691986 108.00059509 0.6020705104 83.035697937 0.9269615412 0.9269615412
 2160.8037109 3.0000000000 5.7319998741 -0.045000002 0.2656599879 2.1579999924 33.499248505 107.75040436 0.5740448833 81.604049683 0.9619439244 0.9619439244
 2160.9560547 3.0000000000 5.7410001755 -0.046000000 0.2629500031 2.1630001068 34.436496735 107.75000000 0.5620192289 84.130996704 0.9560095668 0.9560095668
 2161.1083984 3.0000000000 5.7389998436 -0.046000000 0.2638999820 2.1710000038 33.814998627 108.18659973 0.5560191870 84.038002014 0.9579936266 0.9579936266
 2161.2609863 3.0000000000 5.7290000916 -0.050000001 0.2742200196 2.1610000134 33.719150543 108.74909973 0.5530048013 84.911399841 0.9580000043 0.9580000043
 2161.4133301 3.0000000000 5.7270002365 -0.052999999 0.2824000120 2.1449999809 33.095005035 108.99959564 0.5520015955 84.537651062 0.9490144253 0.9490144253
 2161.5656738 3.0000000000 5.7270002365 -0.046999998 0.2752600014 2.1470000744 32.625751495 109.18770599 0.5549951792 84.944000244 0.9230416417 0.9230416417
 2161.7180176 3.0000000000 5.7329998016 -0.039999999 0.2678399980 2.1579999924 32.220302582 109.56180573 0.5629744530 84.787002563 0.8761503696 0.8761503696
 2161.8706055 3.0000000000 5.7410001755 -0.039000001 0.2670000196 2.1679999828 34.340595245 110.99769592 0.5879599452 84.535552979 0.8500416875 0.8500416875
 2162.0229492 3.0000000000 5.7420001030 -0.037000000 0.2794699967 2.1749999523 38.867740631 110.00160217 0.6249406934 83.631195068 0.8380192518 0.8380192518
 2162.1752930 3.0000000000 5.7259998322 -0.028000001 0.2830199897 2.1970000267 50.387519836 110.00000000 0.6829071045 83.756195068 0.8240224123 0.8240224123
 2162.3276367 3.0000000000 5.7259998322 -0.017000001 0.2684600055 2.2219998837 72.242904663 108.00639343 0.7497856021 83.880996704 0.8379551768 0.8379551768
 2162.4802246 3.0000000000 5.7329998016 -0.015000000 0.2421099991 2.2460000515 91.656951904 100.76161957 0.8128990531 83.913604736 0.9558108449 0.9558108449
 2162.6325684 7.0000000000 5.7439999580 -0.021000000 0.2300699949 2.2609999180 106.47626495 93.761215210 0.8669134378 84.287597656 1.4172595739 1.4172595739
 2162.7849121 7.0000000000 5.7430000305 -0.022000000 0.2328700125 2.2620000839 109.86959076 87.759613037 0.9099311233 84.039749146 2.2836105824 2.2836105824
 2162.9372559 7.0000000000 5.7450003624 -0.024000000 0.2493000031 2.2490000725 112.30909729 85.566505432 0.9609183073 85.130996704 2.8470978737 2.8470978737
