# LAS format log file from PETREL
# Project units are specified as depth units
#==================================================================
~Version information
VERS.   2.0:
WRAP.   NO:
#==================================================================
~Well
STRT .m      3900.0166016 :
STOP .m      4564.4804688 :
STEP .m     0.00000000 :
NULL .        -999.250000 :
COMP.           : COMPANY
WELL.  34/11-1   : WELL
FLD.            : FIELD
LOC.            : LOCATION
SRVC.           : SERVICE COMPANY
DATE.  2018-09-11 14:48:47   : Log Export Date {yyyy-MM-dd HH:mm:ss}
PROV.           : PROVINCE
UWI.   34/11-1   : UNIQUE WELL ID
API.            : API NUMBER
#==================================================================
~Curve
DEPT .m                   : DEPTH
Lithology_geolink ._      : Lithology_geolink
CALI .in                  : CALI
BS .in                    : BS
NPHI .m3/m3               : NPHI
RHOB .g/cm3               : RHOB
GR .gAPI                  : GR
DTC .us/ft                : DTC
DTS .us/ft                : DTS
RDEP .ohm.m               : RDEP
SP .mV                    : SP
RSHA .ohm.m               : RSHA
RMED .ohm.m               : RMED
~Parameter
#==================================================================
~Ascii
# ...
 4382.8198242 5.0000000000 9.3830003738 8.3750000000 0.2976731956 2.5889999866 122.60500336 88.957771301 186.51504517 2.3389999866 -1577.806030 2.7634327412 2.7049999237
 4382.9721680 5.0000000000 9.3800001144 8.3750000000 0.2829829454 2.6040000916 118.83413696 88.499908447 186.36314392 2.3650000095 -1101.391968 2.8366539478 2.8039999008
 4383.1245117 5.0000000000 9.3599996567 8.3750000000 0.2918194830 2.5789999962 117.91429901 88.463783264 186.30265808 2.3750000000 -601.3909912 2.8575096130 2.8610000610
 4383.2773438 5.0000000000 9.3730001450 8.3750000000 0.2643825710 2.6352179050 116.51457214 88.999778748 186.19953918 2.3699903488 -101.4010010 2.8226282597 2.8277564049
 4383.4296875 5.0000000000 9.3170003891 8.3750000000 0.2758629322 2.7029488087 114.24110413 89.751945496 186.25567627 2.3670160770 398.25100708 2.7672822475 2.7518365383
 4383.5820313 5.0000000000 9.3350000381 8.3750000000 0.2243124396 2.6868653297 114.30848694 89.891769409 186.69299316 2.3720319271 873.06701660 2.7264487743 2.7009968758
 4383.7343750 5.0000000000 9.3479995728 8.3750000000 0.2308339775 2.6448557377 118.24834442 89.202400208 187.30804443 2.3819904327 1071.1770020 2.6888718605 2.7000031471
 4383.8867188 5.0000000000 9.3479995728 8.3750000000 0.2822959125 2.5999104977 123.25341034 88.372901917 187.66328430 2.3788945675 446.73001099 2.6309168339 2.7008881569
 4384.0390625 5.0000000000 9.3459997177 8.3750000000 0.3629900217 2.5720000267 124.65244293 87.975563049 187.64297485 2.3459999561 -807.0430298 2.5790672302 2.6659998894
 4384.1914063 5.0000000000 9.3249998093 8.3750000000 0.3603961468 2.5759999752 122.09680176 88.054443359 187.45291138 2.2990000248 -1645.107056 2.5479903221 2.5999999046
 4384.3437500 5.0000000000 9.3269996643 8.3750000000 0.2780531943 2.6219999790 119.19915771 88.511650085 187.27621460 2.2569999695 -1580.240967 2.5201058388 2.5520000458
 4384.4965820 5.0000000000 9.2930002213 8.3750000000 0.2517675459 2.6269743443 120.52104950 88.972717285 187.29501343 2.2259392738 -1103.969971 2.4820129871 2.5068204403
 4384.6489258 6.0000000000 9.2620000839 8.3750000000 0.3007728457 2.6189646721 125.84175110 89.571144104 187.44700623 2.2069487572 -603.9699707 2.4519743919 2.4508845806
 4384.8012695 6.0000000000 9.2580003738 8.3750000000 0.3230101168 2.6079969406 127.34571075 90.121398926 187.83309937 2.1909487247 -103.9800034 2.4662051201 2.4149453640
 4384.9536133 6.0000000000 9.2320003510 8.3750000000 0.2610839605 2.6070194244 126.03273773 90.244033813 189.05281067 2.1749551296 395.68798828 2.5048973560 2.3979711533
 4385.1059570 6.0000000000 9.2119998932 8.3750000000 0.3135710359 2.6130671501 127.51409912 90.119689941 190.95394897 2.1609647274 870.81896973 2.5138432980 2.3889870644
 4385.2583008 6.0000000000 9.2069997787 8.3750000000 0.3099257648 2.6338531971 128.51145935 89.888496399 193.44395447 2.1499681473 1069.9229736 2.5037596226 2.3849999905
 4385.4106445 6.0000000000 9.1929998398 8.3750000000 0.3020266891 2.5880000591 128.42324829 89.624786377 194.56063843 2.1400001049 441.06298828 2.5070865154 2.3849999905
 4385.5629883 6.0000000000 9.1929998398 8.3750000000 0.3196594715 2.5850000381 128.21885681 89.398559570 196.24395752 2.1349999905 -812.3430176 2.5226442814 2.3870000839
 4385.7153320 6.0000000000 9.1929998398 8.3750000000 0.3392917812 2.6050000191 125.54467010 89.577499390 197.66958618 2.1300001144 -1646.939941 2.5322017670 2.3859999180
 4385.8681641 6.0000000000 9.1929998398 8.3750000000 0.3454302549 2.5959038734 122.33605957 90.120925903 198.99787903 2.1159486771 -1579.811035 2.5367307663 2.3819806576
 4386.0205078 6.0000000000 9.1929998398 8.3750000000 0.2709840834 2.5659840107 122.82224274 90.927726746 200.07397461 2.0999839306 -1103.345947 2.5375385284 2.3759806156
 4386.1728516 6.0000000000 9.1929998398 8.3750000000 0.3078469336 2.5610129833 126.20441437 91.816200256 200.16702271 2.0950000286 -603.3820190 2.5300769806 2.3699870110
 4386.3251953 6.0000000000 9.1929998398 8.3750000000 0.2686488330 2.5650095940 126.84603119 92.784065247 199.32846069 2.0950000286 -104.0039978 2.5190513134 2.3659934998
 4386.4775391 6.0000000000 9.1929998398 8.3750000000 0.3559475839 2.5679872036 123.39095306 94.109451294 196.93121338 2.0950031281 393.12600708 2.5113003254 2.3639841080
 4386.6298828 6.0000000000 9.1929998398 8.3750000000 0.3207709193 2.5639998913 120.29662323 95.577377319 194.58888245 2.0959999561 868.58898926 2.5043172836 2.3589999676
 4386.7822266 6.0000000000 9.1929998398 8.3750000000 0.3434269130 2.5720000267 119.71513367 96.936950684 193.20434570 2.0950000286 1069.6109619 2.4987597466 2.3320000172
 4386.9345703 6.0000000000 9.1929998398 8.3750000000 0.3079934418 2.5580000877 120.11975861 97.818267822 192.54716492 2.0929999352 443.11599731 2.4999229908 2.2609999180
 4387.0869141 6.0000000000 9.1929998398 8.3750000000 0.3386365175 2.5659999847 120.49107361 97.911285400 192.59318542 2.0869998932 -810.5609741 2.5067212582 2.2269999981
 4387.2397461 6.0000000000 9.1929998398 8.3750000000 0.3182773888 2.5889582634 123.96949005 97.174797058 192.73332214 2.0799806118 -1647.709961 2.5065641403 2.2299969196
 4387.3916016 6.0000000000 9.1929998398 8.3750000000 0.2530506849 2.5759999752 128.01258850 95.866752625 192.77655029 2.0739998817 -1582.455811 2.4944326878 2.2290000916
 4387.5439453 6.0000000000 9.1929998398 8.3750000000 0.2173987478 2.5850000381 127.19886780 94.377655029 192.74267578 2.0629999638 -1107.450684 2.4759135246 2.2290000916
 4387.6962891 6.0000000000 9.1929998398 8.3750000000 0.2584962547 2.5620000362 124.56830597 93.344436646 192.70423889 2.0469999313 -607.5265503 2.4632403851 2.2290000916
 4387.8486328 6.0000000000 9.1929998398 8.3750000000 0.2989310622 2.5580000877 124.44837952 92.868003845 192.72601318 2.0299999714 -107.5365295 2.4663960934 2.2290000916
 4388.0014648 6.0000000000 9.1929998398 8.3750000000 0.2364194840 2.5710000992 124.68868256 92.715438843 192.86308289 2.0120000839 393.72900391 2.4727981091 2.2200000286
 4388.1538086 5.0000000000 9.1929998398 8.3750000000 0.3047623038 2.5539999008 123.89276886 92.665702820 192.90942383 1.9980000257 868.73999023 2.4644327164 2.1989998817
 4388.3061523 5.0000000000 9.1929998398 8.3750000000 0.3720541298 2.5490000248 123.08196259 92.628074646 192.96510315 1.9900000095 1067.1560059 2.4423077106 2.1830000877
 4388.4584961 5.0000000000 9.1929998398 8.3750000000 0.3891409039 2.5480000973 122.41590881 92.588394165 192.95445251 1.9850000143 439.46084595 2.4093461037 2.1819999218
 4388.6108398 5.0000000000 9.1929998398 8.3750000000 0.3481729627 2.5699999332 123.97093964 92.477973938 192.83587646 1.9789999723 -811.8439941 2.3791153431 2.1889998913
 4388.7631836 5.0000000000 9.1920003891 8.3750000000 0.3150421083 2.5639998913 127.08016205 92.308937073 192.79658508 1.9700000286 -1646.870972 2.3728845119 2.1960000992
 4388.9155273 5.0000000000 9.1859998703 8.3750000000 0.2669141293 2.5690000057 127.56388092 92.116668701 192.30920410 1.9609999657 -1582.362061 2.3870480061 2.1919999123
 4389.0678711 5.0000000000 9.1929998398 8.3750000000 0.2654356658 2.5789999962 126.22488403 92.200431824 191.06367493 1.9539999962 -1110.021118 2.4070734978 2.1800000668
 4389.2202148 5.0000000000 9.1929998398 8.3750000000 0.2930329740 2.5569999218 126.19393921 92.415168762 188.41242981 1.9520000219 -610.1055298 2.4209487438 2.1649999619
 4389.3730469 5.0000000000 9.1929998398 8.3750000000 0.3733252585 2.5390000343 125.58362579 92.590385437 185.37181091 1.9550000429 -108.5130005 2.4208750725 2.1549999714
 4389.5253906 5.0000000000 9.1929998398 8.3750000000 0.3363516927 2.5420000553 122.75983429 92.654815674 182.99926758 1.9589999914 391.16598511 2.4064326286 2.1559998989
 4389.6777344 5.0000000000 9.1929998398 8.3750000000 0.4052606523 2.5590000153 119.07775116 92.668670654 181.65150452 1.9600000381 866.51000977 2.3881537914 2.1670000553
 4389.8300781 5.0000000000 9.1929998398 8.3750000000 0.4379841089 2.5550000668 117.93484497 92.635360718 182.00222778 1.9570000172 1066.2039795 2.3721537590 2.1740000248
 4389.9824219 5.0000000000 9.1929998398 8.3750000000 0.2827565670 2.5539999008 121.54831696 92.259597778 184.52456665 1.9539999962 441.51171875 2.3599998951 2.1749999523
