# LAS format log file from PETREL
# Project units are specified as depth units
#==================================================================
~Version information
VERS.   2.0:
WRAP.   NO:
#==================================================================
~Well
STRT .m      492.56594849 :
STOP .m      2784.8139648 :
STEP .m     0.00000000 :
NULL .        -999.250000 :
COMP.           : COMPANY
WELL.  34/10-5   : WELL
FLD.            : FIELD
LOC.            : LOCATION
SRVC.           : SERVICE COMPANY
DATE.  2018-09-11 14:48:46   : Log Export Date {yyyy-MM-dd HH:mm:ss}
PROV.           : PROVINCE
UWI.   34/10-5   : UNIQUE WELL ID
API.            : API NUMBER
#==================================================================
~Curve
DEPT .m                   : DEPTH
Lithology_geolink ._      : Lithology_geolink
CALI .in                  : CALI
DRHO .g/cm3               : DRHO
NPHI .m3/m3               : NPHI
RHOB .g/cm3               : RHOB
GR .gAPI                  : GR
DTC .us/ft                : DTC
RDEP .ohm.m               : RDEP
SP .mV                    : SP
RSHA .ohm.m               : RSHA
RMED .ohm.m               : RMED
~Parameter
#==================================================================
~Ascii
# ...
 2474.5275879 6.0000000000 7.0590000153 0.0120000001 0.3583999872 2.4449999332 90.861778259 101.56271362 1.9671106339 65.259208679  -999.250000 2.9222352505
 2474.6799316 6.0000000000 7.0510001183 -0.002000000 0.3613300025 2.4260001183 94.233772278 100.56460571 1.9411250353 65.506797791  -999.250000 2.7607789040
 2474.8325195 6.0000000000 7.1640000343 0.0049999999 0.3681600094 2.4340000153 93.876800537 101.56301117 1.9250767231 66.254402161  -999.250000 2.6543397903
 2474.9848633 7.0000000000 7.1559996605 0.0060000001 0.3593800068 2.4340000153 94.684097290 101.74999237 1.8871827126 66.755599976  -999.250000 2.5981795788
 2475.1372070 7.0000000000 7.1559996605 0.0149999997 0.3393599987 2.4409999847 97.175987244 102.99799347 1.8531634808 66.633605957  -999.250000 2.5162627697
 2475.2895508 7.0000000000 7.1640000343 -0.005000000 0.3408200145 2.4100000858 101.60366821 105.18448639 1.8211538792 66.259803772  -999.250000 2.3965759277
 2475.4421387 7.0000000000 7.1989998817 0.0070000002 0.3496099710 2.4340000153 108.21820068 106.18800354 1.7881584167 66.133605957  -999.250000 2.3770608902
 2475.5944824 7.0000000000 7.1719999313 0.0049999999 0.3847700059 2.4279999733 106.44671631 106.37500000 1.7571489811 66.133003235  -999.250000 2.4138815403
 2475.7468262 7.0000000000 7.2420001030 0.0109999999 0.3735400140 2.4379999638 105.13130951 106.56271362 1.7351057529 66.257400513  -999.250000 2.4379229546
 2475.8991699 6.0000000000 7.2340002060 -0.001000000 0.3959999979 2.4040000439 99.153846741 106.74969482 1.7190768719 65.884803772  -999.250000 2.4200863838
 2476.0515137 6.0000000000 7.2340002060 -0.009000000 0.3701200187 2.4000000954 96.575317383 106.99959564 1.7120336294 66.007400513  -999.250000 2.3891489506
 2476.2041016 6.0000000000 7.2340002060 -0.004000000 0.3735400140 2.4059998989 98.304603577 107.18800354 1.7040383816 66.878799438  -999.250000 2.3810257912
 2476.3564453 6.0000000000 7.2340002060 -0.007000000 0.3745099902 2.4059998989 97.628311157 107.37470245 1.6751394272 67.629394531  -999.250000 2.3570771217
 2476.5087891 6.0000000000 7.2420001030 -0.001000000 0.3891600072 2.4059998989 95.883415222 107.74939728 1.6939086914 66.637809753  -999.250000 2.3161966801
 2476.6611328 6.0000000000 7.2420001030 0.0280000009 0.3964799941 2.4509999752 92.578926086 107.99958801 1.6870336533 65.637809753  -999.250000 2.3050529957
 2476.8137207 6.0000000000 7.2500000000 0.0350000001 0.3798799813 2.4649999142 95.116790771 107.56300354 1.6870000362 66.006797791  -999.250000 2.2701122761
 2476.9660645 6.0000000000 7.2700004578 0.0240000002 0.3750000000 2.4549999237 98.053588867 107.56300354 1.6919840574 67.253997803  -999.250000 2.2889392376
 2477.1184082 6.0000000000 7.2340002060 -0.006000000 0.3632799983 2.4059998989 102.29260254 107.00090027 1.7099136114 66.884803772  -999.250000 2.2810382843
 2477.2707520 6.0000000000 7.2969999313 -0.010000000 0.3618199825 2.4040000439 98.705429077 107.18770599 1.7199519873 66.385406494  -999.250000 2.2790095806
 2477.4233398 5.0000000000 7.3049998283 -0.006000000 0.3530300260 2.4079999924 96.382415771 106.74999237 1.7449198961 66.507598877  -999.250000 2.3029229641
 2477.5756836 5.0000000000 7.3200001717 0.0049999999 0.3627899885 2.4200000763 92.637016296 106.18800354 1.7978301048 66.134208679  -999.250000 2.3847372532
 2477.7280273 5.0000000000 7.3200001717 0.0179999992 0.3540000021 2.4179999828 91.192611694 105.37629700 1.8498333693 66.257598877  -999.250000 2.4896633625
 2477.8803711 5.0000000000 7.3319997787 0.0060000001 0.3623000085 2.4059998989 90.814804077 104.37660980 1.8957792521 66.133605957  -999.250000 2.6124095917
 2478.0327148 5.0000000000 7.3130002022 0.0040000002 0.3598600030 2.4040000439 88.511123657 103.56430817 1.9487452507 66.133003235  -999.250000 2.7473509312
 2478.1853027 5.0000000000 7.2969999313 -0.003000000 0.3505899906 2.4100000858 89.559593201 102.99999237 1.9779070616 65.883804321  -999.250000 2.9294166565
 2478.3376465 5.0000000000 7.3480000496 -0.008000000 0.3403300047 2.4140000343 88.566207886 102.37599945 1.9979358912 66.007598877  -999.250000 2.9668815136
 2478.4899902 6.0000000000 7.3670001030 -0.011000000 0.3593800068 2.4360001087 92.605499268 102.56270599 2.0208895206 65.883605957  -999.250000 2.7898545265
 2478.6423340 6.0000000000 7.3130002022 0.0020000001 0.3569300175 2.4609999657 93.495796204 103.56140137 2.0568268299 65.571502686  -999.250000 2.6158366203
 2478.7949219 6.0000000000 7.2150001526 0.0209999997 0.3618199825 2.4769999981 94.933395386 103.56300354 2.0629806519 64.822402954  -999.250000 2.5372500420
 2478.9472656 6.0000000000 7.1559996605 0.0189999994 0.3466799855 2.4630000591 91.573822021 102.75000000 2.0978877544 65.879592896  -999.250000 2.6227242947
 2479.0996094 6.0000000000 7.1799993515 0.0020000001 0.3300800025 2.4409999847 92.558204651 102.18890381 2.1228799820 66.007400513  -999.250000 2.7941744328
 2479.2519531 6.0000000000 7.1719999313 -0.001000000 0.3354499936 2.4409999847 91.505111694 101.00190735 2.1657931805 66.132400513  -999.250000 2.9621922970
 2479.4045410 6.0000000000 7.2069997787 -0.008000000 0.3203099966 2.4319999218 91.001602173 100.37500000 2.2168364525 66.008407593  -999.250000 3.0586922169
 2479.5568848 6.0000000000 7.1559996605 -0.009000000 0.3603500128 2.4179999828 90.190605164 99.750000000 2.2618558407 65.883407593  -999.250000 3.2045319080
 2479.7092285 6.0000000000 7.1370005608 -0.003000000 0.3588899970 2.4260001183 89.128410339 99.001197815 2.2889134884 65.758407593  -999.250000 3.2767691612
 2479.8615723 6.0000000000 7.1370005608 0.0179999992 0.3627899885 2.4449999332 92.732597351 98.750404358 2.2969615459 65.882400513  -999.250000 3.2969038486
 2480.0139160 6.0000000000 7.1370005608 0.0289999992 0.3374000192 2.4609999657 92.376800537 98.563301086 2.2890384197 66.380599976  -999.250000 3.1915094852
 2480.1665039 6.0000000000 7.1020002365 0.0329999998 0.3427700102 2.4769999981 95.863784790 99.375007629 2.2640800476 66.756797791  -999.250000 3.0963044167
 2480.3188477 6.0000000000 7.0590000153 0.0099999998 0.3632799983 2.4609999657 91.514022827 99.562705994 2.2131636143 67.630195618  -999.250000 3.0082819462
 2480.4711914 5.0000000000 6.9180002213 0.0099999998 0.3754900098 2.4979999065 91.687103271 99.563003540 2.1393551826 66.762207031  -999.250000 2.9711775780
 2480.6235352 5.0000000000 6.7270002365 0.0160000008 0.3886699975 2.5139999390 90.319610596 100.37369537 2.0643603802 65.887207031  -999.250000 2.8734710217
 2480.7761230 5.0000000000 6.7270002365 0.0460000001 0.3930699825 2.5350000858 90.188407898 99.188003540 1.9972146749 65.633804321  -999.250000 2.8241569996
 2480.9284668 5.0000000000 6.7270002365 0.0450000018 0.3867200017 2.5390000343 87.633216858 100.37500000 1.9431730509 65.633003235  -999.250000 2.7482435703
 2481.0808105 5.0000000000 6.7270002365 0.0439999998 0.3701200187 2.5369999409 89.614402771 103.18249512 1.8892592192 65.257804871  -999.250000 2.5957343578
 2481.2331543 5.0000000000 6.7299995422 0.0320000015 0.3525400162 2.5369999409 89.438896179 103.00028992 1.8392403126 64.760398865  -999.250000 2.4676153660
 2481.3857422 5.0000000000 6.7340002060 0.0170000009 0.3759799898 2.4920001030 88.815010071 106.37500000 1.8071025610 64.758003235  -999.250000 2.4410834312
 2481.5380859 5.0000000000 7.0659999847 0.0030000000 0.3681600094 2.4489998817 88.002609253 106.18800354 1.7780929804 65.754798889  -999.250000 2.4728975296
 2481.6904297 5.0000000000 6.8709998131 0.0040000002 0.3706099987 2.4240000248 88.498397827 105.56400299 1.7879679203 66.131797791  -999.250000 2.4510705471
 2481.8427734 5.0000000000 6.4380002022 0.0049999999 0.3642599881 2.4119999409 88.873199463 105.56300354 1.8039232492 66.257400513  -999.250000 2.3674032688
 2481.9951172 5.0000000000 6.4340000153 0.0120000001 0.3774400055 2.4179999828 86.076522827 105.56300354 1.8040000200 66.382400513  -999.250000 2.4426345825
 2482.1477051 5.0000000000 6.4219999313 0.0070000002 0.3686500192 2.4200000763 84.754211426 104.37500763 1.8010096550 66.507598877  -999.250000 2.6224229336
