# LAS format log file from PETREL
# Project units are specified as depth units
#==================================================================
~Version information
VERS.   2.0:
WRAP.   NO:
#==================================================================
~Well
STRT .m      586.57812500 :
STOP .m      4014.2067871 :
STEP .m     0.00000000 :
NULL .        -999.250000 :
COMP.           : COMPANY
WELL.  34/10-21   : WELL
FLD.            : FIELD
LOC.            : LOCATION
SRVC.           : SERVICE COMPANY
DATE.  2018-09-11 14:48:44   : Log Export Date {yyyy-MM-dd HH:mm:ss}
PROV.           : PROVINCE
UWI.   34/10-21   : UNIQUE WELL ID
API.            : API NUMBER
#==================================================================
~Curve
DEPT .m                   : DEPTH
Lithology_geolink ._      : Lithology_geolink
CALI .in                  : CALI
DRHO .g/cm3               : DRHO
NPHI .m3/m3               : NPHI
RHOB .g/cm3               : RHOB
PEF .b/e                  : PEF
GR .gAPI                  : GR
DTC .us/ft                : DTC
RDEP .ohm.m               : RDEP
SP .mV                    : SP
RSHA .ohm.m               : RSHA
RMED .ohm.m               : RMED
~Parameter
#==================================================================
~Ascii
# ...
 1954.5206299  -999.250000 14.640999794 -0.008997598 0.4357056022 2.1080071926 5.0500001907 46.016998291 141.00201416 0.7829999924 11.375000000 0.6100040078 0.7860296369
 1954.6730957  -999.250000 14.727000237 -0.011995193 0.4233995378 2.1289663315 5.6059999466 44.890998840 139.12750244 0.7870000005 11.250000000 0.6349799633 0.7690135837
 1954.8254395  -999.250000 14.741999626 -0.015990393 0.4064344168 2.1559350491 5.8359999657 44.859001160 136.37719727 0.7779999971 11.125000000 0.7319222689 0.7849872112
 1954.9779053  -999.250000 14.750000000 -0.013004808 0.3942292333 2.1729729176 5.4889998436 45.077999115 133.12860107 0.7689999938 11.125000000 0.7409927845 0.8159751892
 1955.1302490  -999.250000 14.805000305 -0.006016814 0.3869632483 2.1710047722 5.1649999619 44.750000000 132.75030518 0.7649999857 11.375000000 0.7040296197 0.8179984093
 1955.2827148  -999.250000 14.906000137 -0.000009615 0.3935041726 2.1560239792 5.2010002136 46.138999939 134.49758911 0.7730000019 11.500000000 0.6880128384 0.7890232205
 1955.4350586  -999.250000 14.980000496 -0.001996795 0.4134659171 2.1360318661 5.5339999199 48.750000000 137.24780273 0.7870000005 11.625000000 0.6350424290 0.7640200257
 1955.5875244  -999.250000 14.984000206 -0.008988790 0.4123129249 2.1200253963 5.6420001984 49.639999390 141.49459839 0.7779999971 11.750000000 0.6419944167 0.7600032091
 1955.7398682  -999.250000 15.090000153 -0.015988782 0.4282687604 2.1140096188 5.3720002174 47.422000885 143.74819946 0.7419999838 11.750000000 0.6729751229 0.7709912062
 1955.8922119  -999.250000 15.093999863 -0.015002402 0.4588717520 2.1229782104 5.2199997902 44.173000336 146.74319458 0.6959999800 11.625000000 0.6680079699 0.7769904137
 1956.0446777  -999.250000 14.934000015 -0.009009615 0.4756264687 2.1339824200 5.0599999428 43.780998230 148.99819946 0.6560000181 11.625000000 0.6849863529 0.7809967995
 1956.1970215  -999.250000 14.875000000 -0.007004804 0.4607380331 2.1290118694 4.8619999886 47.202999115 147.75199890 0.6370000243 11.625000000 0.6660304070 0.7680208087
 1956.3494873  -999.250000 14.925999641 -0.008996795 0.4389523864 2.0940561295 4.9530000687 51.970001221 145.25000000 0.6480000019 11.500000000 0.5500929356 0.6960576773
 1956.5018311  -999.250000 15.109001160 -0.009000000 0.4637202621 2.0640718937 5.5939998627 53.687999725 138.01161194 0.6809999943 11.500000000 0.4880992770 0.5841793418
 1956.6542969  -999.250000 15.262000084 -0.009998397 0.4935283661 2.0869629383 6.5320000648 50.049999237 128.13690186 0.6949999928 11.875000000 0.5959134698 0.5320416689
 1956.8066406  -999.250000 15.319999695 -0.007007206 0.4780399799 2.1488509178 6.7500000000 45.905998230 123.62860870 0.6740000248 12.500000000 1.5402427912 0.6359166503
 1956.9591064  -999.250000 15.352000237 -0.001009615 0.4050656855 2.1869392395 6.2300000191 45.125000000 124.87300110 0.6489999890 12.875000000 1.6788895130 0.9237694144
 1957.1114502  -999.250000 15.515999794 0.0029903923 0.3695336282 2.1500890255 6.0630002022 47.015998840 131.61958313 0.6480000019 12.625000000 0.7627347708 1.1108500957
 1957.2639160  -999.250000 15.491999626 0.0049967947 0.4022907913 2.0950882435 6.0659999847 49.094001770 146.35618591 0.6800000072 12.375000000 0.5521681309 0.9331425428
 1957.4162598  -999.250000 14.895000458 0.0010096077 0.4447837472 2.0790383816 6.1849999428 46.640998840 157.99067688 0.7459999919 12.250000000 0.5450056195 0.7051826715
 1957.5687256  -999.250000 14.472999573 0.0000016026 0.4472344220 2.0999662876 6.1919999123 43.172000885 158.62449646 0.7839999795 12.000000000 0.6269343495 0.6640328169
 1957.7210693  -999.250000 14.659999847 -0.000998397 0.4212136269 2.1299519539 6.3850002289 41.452999115 154.00170898 0.7590000033 12.000000000 0.7019399405 0.7039679289
 1957.8734131  -999.250000 14.925999641 -0.004990392 0.4131855667 2.1389782429 6.5110001564 44.297000885 148.63360596 0.7220000029 11.625000000 0.6800352335 0.7409407496
 1958.0258789  -999.250000 15.046999931 -0.003003205 0.4100101292 2.1360046864 6.4629998207 49.720001221 145.25169373 0.6949999928 11.375000000 0.6630136371 0.7579863667
 1958.1782227  -999.250000 14.840001106 -0.001004804 0.4227290750 2.1230311394 6.3660001755 51.905998230 146.49800110 0.6750000119 11.625000000 0.6340464354 0.7689823508
 1958.3306885  -999.250000 14.522999763 -0.000001603 0.4665692747 2.1070258617 6.6180000305 51.265998840 150.61968994 0.6679999828 11.750000000 0.5880368352 0.7640039921
 1958.4830322  -999.250000 14.593999863 -0.002992794 0.5097216964 2.0820600986 7.0809998512 49.687999725 153.86979675 0.6719999909 12.000000000 0.5600448251 0.7250624895
 1958.6354980  -999.250000 14.652000427 -0.007991987 0.5130423307 2.0580384731 7.1079998016 50.841999054 156.37199402 0.6740000248 12.250000000 0.5560032129 0.6740409136
 1958.7878418  -999.250000 14.781000137 -0.008997598 0.5071788430 2.0460288525 6.7859997749 53.515998840 157.12440491 0.6719999909 12.250000000 0.6069591045 0.6510184407
 1958.9403076  -999.250000 14.918000221 -0.007003205 0.5028503537 2.0509920120 6.4039998055 54.000000000 154.87678528 0.6719999909 12.375000000 0.5950096250 0.6480023861
 1959.0926514  -999.250000 14.843999863 -0.004007206 0.4914565384 2.0679593086 6.2569999695 54.500999451 152.62579346 0.6830000281 12.375000000 0.5530336499 0.6589911580
 1959.2451172  -999.250000 14.765999794 -0.003001603 0.4748299718 2.0889663696 6.2179999352 54.234001160 150.37680054 0.7009999752 12.125000000 0.6019607782 0.6849792004
 1959.3974609  -999.250000 14.813000679 -0.002002402 0.4695070088 2.1079545021 6.3759999275 52.437000275 148.12579346 0.7229999900 12.000000000 0.6419679523 0.7319623232
 1959.5499268  -999.250000 14.987999916 0.0019935898 0.4687418044 2.1209793091 6.6360001564 51.327999115 150.24829102 0.7480000257 13.125000000 0.6459968090 0.7729671597
 1959.7022705  -999.250000 15.003998756 0.0020000001 0.4653409123 2.1289870739 6.7480001450 50.500000000 154.24778748 0.7749999762 13.376000404 0.6360079646 0.7949823737
 1959.8546143  -999.250000 14.847999573 -0.001990392 0.4675727785 2.1319928169 6.3769998550 50.219001770 162.23719788 0.7990000248 10.250000000 0.6569663882 0.8069807887
 1960.0070801  -999.250000 14.968999863 -0.007990385 0.4708993137 2.1280064583 6.0349998474 49.233001709 160.61930847 0.8149999976 10.123000145 0.6619960070 0.8060007691
 1960.1594238  -999.250000 14.909999847 -0.010992794 0.4496184886 2.1210169792 5.9279999733 49.172000885 151.63940430 0.8230000138 12.250000000 0.6460256577 0.8030048013
 1960.3118896  -999.250000 14.663999557 -0.010001603 0.4309298396 2.1180047989 5.8629999161 51.969001770 149.37680054 0.8289999962 12.250000000 0.6330104470 0.7960056067
 1960.4642334  -999.250000 14.640999794 -0.007007206 0.4556901753 2.1170024872 5.9260001183 54.375999451 147.62780762 0.8259999752 12.125000000 0.6210191846 0.7850176692
 1960.6166992  -999.250000 14.718999863 -0.004004808 0.4743452370 2.1160016060 6.0879998207 54.030998230 146.25109863 0.8190000057 12.000000000 0.6180023551 0.7690128088
 1960.7690430  -999.250000 14.906000137 -0.004997598 0.4761643112 2.1070218086 6.5199999809 51.499000549 146.75061035 0.8199999928 11.750000000 0.5850264430 0.7540120482
 1960.9215088  -999.250000 14.972999573 -0.006996795 0.4664135277 2.0950193405 6.5180001259 50.234001160 147.24960327 0.8149999976 11.750000000 0.5780056119 0.7669895887
 1961.0738525  -999.250000 14.991999626 -0.007000000 0.4745836556 2.0830287933 6.1859998703 48.904998779 146.12590027 0.8009999990 13.626000404 0.5939871669 0.8059687614
 1961.2263184  -999.250000 14.934000015 -0.004004808 0.4800668657 2.0859951973 5.9400000572 47.702999115 147.87359619 0.7929999828 12.500000000 0.6009944081 0.8439695835
 1961.3786621  -999.250000 14.843999863 -0.000009608 0.4642109871 2.1009640694 6.1799998283 47.844001770 151.49909973 0.7889999747 7.1230001450 0.6000007987 0.8280128241
 1961.5311279  -999.250000 14.828000069 0.0009983975 0.4526577294 2.1169743538 6.6770000458 50.187999725 155.99638367 0.7839999795 7.3750000000 0.6069943905 0.7800384164
 1961.6834717  -999.250000 15.020000458 -0.003991988 0.4480048716 2.1160016060 6.4809999466 54.282001495 155.87310791 0.7879999876 11.123999596 0.6349775791 0.7440288663
