# LAS format log file from PETREL
# Project units are specified as depth units
#==================================================================
~Version information
VERS.   2.0:
WRAP.   NO:
#==================================================================
~Well
STRT .m      492.56594849 :
STOP .m      2784.8139648 :
STEP .m     0.00000000 :
NULL .        -999.250000 :
COMP.           : COMPANY
WELL.  34/10-5   : WELL
FLD.            : FIELD
LOC.            : LOCATION
SRVC.           : SERVICE COMPANY
DATE.  2018-09-11 14:48:46   : Log Export Date {yyyy-MM-dd HH:mm:ss}
PROV.           : PROVINCE
UWI.   34/10-5   : UNIQUE WELL ID
API.            : API NUMBER
#==================================================================
~Curve
DEPT .m                   : DEPTH
Lithology_geolink ._      : Lithology_geolink
CALI .in                  : CALI
DRHO .g/cm3               : DRHO
NPHI .m3/m3               : NPHI
RHOB .g/cm3               : RHOB
GR .gAPI                  : GR
DTC .us/ft                : DTC
RDEP .ohm.m               : RDEP
SP .mV                    : SP
RSHA .ohm.m               : RSHA
RMED .ohm.m               : RMED
~Parameter
#==================================================================
~Ascii
# ...
 951.13745117  -999.250000 17.172000885 -0.014000000  -999.250000 1.7130000591 37.415313721 161.37409973 0.9919807315 22.038801193  -999.250000 0.9430080056
 951.28985596  -999.250000 17.172000885 -0.017000001  -999.250000 1.7079999447 39.462390900 162.12319946 0.9929967523 21.913400650  -999.250000 0.9320132136
 951.44226074  -999.250000 17.156000137 -0.011000000  -999.250000 1.7120000124 41.773590088 162.37438965 0.9880160093 21.913000107  -999.250000 0.9220120311
 951.59466553  -999.250000 17.141000748 -0.011000000  -999.250000 1.7139999866 43.089794159 162.49969482 0.9820192456 21.788400650  -999.250000 0.9219999909
 951.74707031  -999.250000 17.141000748 -0.005000000  -999.250000 1.7209999561 40.695709229 162.74940491 0.9760192633 21.538801193  -999.250000 0.9229987860
 951.89947510  -999.250000 17.141000748 -0.003000000  -999.250000 1.7239999771 37.946811676 162.00180054 0.9710160494 21.662599564  -999.250000 0.9229999781
 952.05181885  -999.250000 17.108999252 0.0000000000  -999.250000 1.7269999981 37.564350128 162.00000000 0.9690071940 21.663000107  -999.250000 0.9170095921
 952.20422363  -999.250000 17.062999725 -0.001000000  -999.250000 1.7330000401 35.289222717 161.50120544 0.9670072198 21.912099838  -999.250000 0.9110096097
 952.35662842  -999.250000 17.062999725 0.0070000002  -999.250000 1.7460000515 33.350982666 160.75180054 0.9709855914 21.913000107  -999.250000 0.9100016356
 952.50903320  -999.250000 17.062999725 0.0060000001  -999.250000 1.7439999580 32.876689911 160.50059509 0.9759820104 22.162099838  -999.250000 0.9040095806
 952.66143799  -999.250000 16.983999252 0.0089999996  -999.250000 1.7460000515 32.813224792 160.74940491 0.9819783568 22.287549973  -999.250000 0.9129855633
 952.81384277  -999.250000 16.952999115 -0.004000000  -999.250000 1.7309999466 36.362159729 160.00180054 0.9859855771 22.163450241  -999.250000 0.9239823818
 952.96624756  -999.250000 16.937999725 -0.009000000  -999.250000 1.7289999723 38.274127960 160.37409973 0.9869964123 22.038450241  -999.250000 0.9439679384
 953.11865234  -999.250000 16.952999115 -0.017000001  -999.250000 1.7139999866 42.517375946 160.00090027 0.9820160270 21.913400650  -999.250000 0.9589759707
 953.27105713  -999.250000 17.031000137 -0.009000000  -999.250000 1.7159999609 45.147586823 159.50120544 0.9780128002 21.913000107  -999.250000 0.9629935622
 953.42346191  -999.250000 17.125000000 -0.003000000  -999.250000 1.7089999914 45.125099182 159.99879456 0.9700256586 21.539201736  -999.250000 0.9510143995
 953.57586670  -999.250000 17.250000000 0.0089999996  -999.250000 1.7159999609 44.782100677 161.12229919 0.9640192389 21.787199020  -999.250000 0.9300252199
 953.72827148  -999.250000 17.250000000 0.0070000002  -999.250000 1.7029999495 45.342197418 161.49909973 0.9580192566 21.289602280  -999.250000 0.9090251923
 953.88067627  -999.250000 17.250000000 -0.001000000  -999.250000 1.6959999800 43.287609100 162.37287903 0.9550095797 21.288000107  -999.250000 0.8880252242
 954.03308105  -999.250000 17.250000000 -0.006000000  -999.250000 1.7020000219 48.887977600 162.49969482 0.9520096183 21.537199020  -999.250000 0.8790107965
 954.18542480  -999.250000 17.250000000 -0.006000000  -999.250000 1.7159999609 45.201400757 162.37533569 0.9510035515 21.787099838  -999.250000 0.8839920163
 954.33782959  -999.250000 17.250000000 -0.007000000  -999.250000 1.7209999561 49.609008789 162.00090027 0.9549855590 21.788000107  -999.250000 0.9049663544
 954.49023438  -999.250000 17.250000000 -0.006000000  -999.250000 1.7230000496 48.379505157 161.50120544 0.9639675617 21.912549973  -999.250000 0.9249679446
 954.64263916  -999.250000 17.281000137 -0.011000000  -999.250000 1.7239999771 52.174255371 161.00119019 0.9779495001 22.037549973  -999.250000 0.9359823465
 954.79504395  -999.250000 17.297000885 -0.012000000  -999.250000 1.7339999676 51.596141815 160.50120544 0.9969314933 22.038000107  -999.250000 0.9399935603
 954.94744873  -999.250000 17.281000137 -0.010000000  -999.250000 1.7519999743 48.884799957 160.74940491 1.0169278383 21.913450241  -999.250000 0.9439935684
 955.09985352  -999.250000 17.297000885 -0.008000000  -999.250000 1.7690000534 47.847717285 160.00180054 1.0299531221 22.162099838  -999.250000 0.9529855847
 955.25225830  -999.250000 17.312999725 -0.010000000  -999.250000 1.7680000067 49.806690216 158.75302124 1.0419615507 22.163000107  -999.250000 0.9659792185
 955.40466309  -999.250000 17.343999863 -0.011000000  -999.250000 1.7669999599 50.030300140 158.75001526 1.0469840765 22.038400650  -999.250000 0.9789791703
 955.55706787  -999.250000 17.358999252 -0.007000000  -999.250000 1.7610000372 49.689098358 157.75239563 1.0509871244 22.162599564  -999.250000 0.9919843674
 955.70947266  -999.250000 17.343999863 0.0000000000  -999.250000 1.7549999952 47.476112366 157.50059509 1.0519968271 22.163000107  -999.250000 0.9949964285
 955.86187744  -999.250000 17.343999863 -0.002000000  -999.250000 1.7359999418 47.749099731 157.50000000 1.0510032177 22.038400650  -999.250000 0.9940012097
 956.01428223  -999.250000 17.343999863 -0.004000000  -999.250000 1.7289999723 47.999198914 157.74940491 1.0509999990 22.038000107  -999.250000 0.9830132127
 956.16662598  -999.250000 17.343999863 -0.007000000  -999.250000 1.7300000191 46.723617554 159.74440002 1.0509999990 21.664352417  -999.250000 0.9770095944
 956.31903076  -999.250000 17.343999863 -0.012000000  -999.250000 1.7269999981 45.971706390 159.99929810 1.0480108261 21.663000107  -999.250000 0.9720079899
 956.47143555  -999.250000 17.343999863 -0.015000000  -999.250000 1.7269999981 47.649917603 160.00000000 1.0479999781 21.663000107  -999.250000 0.9799872041
 956.62384033  -999.250000 17.391000748 -0.013000000  -999.250000 1.7359999418 51.143383026 160.37409973 1.0559711456 21.413900375  -999.250000 0.9809983969
 956.77624512  -999.250000 17.468999863 -0.006000000  -999.250000 1.7530000210 50.159603119 159.12800598 1.0639711618 21.662099838  -999.250000 0.9829967618
 956.92864990  -999.250000 17.468999863 -0.001000000  -999.250000 1.7680000067 51.308830261 158.50148010 1.0749603510 21.912099838  -999.250000 0.9859951735
 957.08105469  -999.250000 17.468999863 0.0109999999  -999.250000 1.7849999666 51.405662537 159.74699402 1.0899459124 22.162099838  -999.250000 0.9999775887
 957.23345947  -999.250000 17.468999863 0.0109999999  -999.250000 1.7819999456 56.918060303 160.37350464 1.0989675522 22.287549973  -999.250000 1.0169727802
 957.38586426  -999.250000 17.468999863 0.0130000003  -999.250000 1.7860000134 53.417320251 158.75392151 1.1039839983 22.163400650  -999.250000 1.0269839764
 957.53826904  -999.250000 17.468999863 0.0120000001  -999.250000 1.7790000439 53.032199860 158.12649536 1.1039999723 22.412199020  -999.250000 1.0399843454
 957.69067383  -999.250000 17.468999863 0.0089999996  -999.250000 1.7649999857 50.944705963 158.37440491 1.0950288773 22.288400650  -999.250000 1.0409988165
 957.84307861  -999.250000 17.531000137 0.0030000000  -999.250000 1.7330000401 51.934795380 159.99609375 1.0800480843 22.288000107  -999.250000 1.0439964533
 957.99548340  -999.250000 17.562999725 -0.006000000  -999.250000 1.7059999704 49.975311279 160.49879456 1.0600640774 22.288000107  -999.250000 1.0170323849
 958.14788818  -999.250000 17.562999725 -0.008000000  -999.250000 1.6909999847 47.695308685 161.74699402 1.0380704403 22.163400650  -999.250000 0.9960252047
 958.30023193  -999.250000 17.562999725 -0.007000000  -999.250000 1.6849999428 42.861461639 161.99929810 1.0160793066 22.038450241  -999.250000 0.9660480618
 958.45263672  -999.250000 17.531000137 -0.007000000  -999.250000 1.6809999943 41.629394531 160.37890625 0.9940792918 21.788900375  -999.250000 0.9430368543
 958.60504150  -999.250000 17.593999863 -0.001000000  -999.250000 1.6879999638 41.314125061 160.99848938 0.9770612717 21.788000107  -999.250000 0.9270256162
 958.75744629  -999.250000 17.608999252 -0.007000000  -999.250000 1.6870000362 42.340286255 161.37409973 0.9670360684 21.788000107  -999.250000 0.9210096002
