# LAS format log file from PETREL
# Project units are specified as depth units
#==================================================================
~Version information
VERS.   2.0:
WRAP.   NO:
#==================================================================
~Well
STRT .m      586.57812500 :
STOP .m      4014.2067871 :
STEP .m     0.00000000 :
NULL .        -999.250000 :
COMP.           : COMPANY
WELL.  34/10-21   : WELL
FLD.            : FIELD
LOC.            : LOCATION
SRVC.           : SERVICE COMPANY
DATE.  2018-09-11 14:48:44   : Log Export Date {yyyy-MM-dd HH:mm:ss}
PROV.           : PROVINCE
UWI.   34/10-21   : UNIQUE WELL ID
API.            : API NUMBER
#==================================================================
~Curve
DEPT .m                   : DEPTH
Lithology_geolink ._      : Lithology_geolink
CALI .in                  : CALI
DRHO .g/cm3               : DRHO
NPHI .m3/m3               : NPHI
RHOB .g/cm3               : RHOB
PEF .b/e                  : PEF
GR .gAPI                  : GR
DTC .us/ft                : DTC
RDEP .ohm.m               : RDEP
SP .mV                    : SP
RSHA .ohm.m               : RSHA
RMED .ohm.m               : RMED
~Parameter
#==================================================================
~Ascii
 586.57812500  -999.250000 19.297000885  -999.250000  -999.250000  -999.250000  -999.250000 69.875625610 74.389587402 1.7980020046 -23.29999924 0.1710264385 31.597229004
 586.73052979  -999.250000 19.273000717  -999.250000  -999.250000  -999.250000  -999.250000 70.923164368 74.470840454 1.8030055761 -21.54999924 0.2099062800 1005.8034668
 586.88293457  -999.250000 19.266000748  -999.250000  -999.250000  -999.250000  -999.250000 71.973159790 64.837203979 1.8169968128 -22.04999924 0.2309495509 1032.0643311
 587.03533936  -999.250000 19.233999252  -999.250000  -999.250000  -999.250000  -999.250000 71.930038452 63.220836639 1.8089920282 -25.04899979 0.2070576698 1031.3477783
 587.18774414  -999.250000 19.250000000  -999.250000  -999.250000  -999.250000  -999.250000 71.040710449 65.838737488 1.7889984846 -28.29999924 0.2010120302 1998.0595703
 587.34014893  -999.250000 19.305000305  -999.250000  -999.250000  -999.250000  -999.250000 70.150711060 65.251190186 1.7849935293 -30.29999924 0.2109799683 1008.1969604
 587.49255371  -999.250000 19.288999557  -999.250000  -999.250000  -999.250000  -999.250000 69.709350586 65.312873840 1.7689992189 -31.42499924 0.2070080191 1006.6041870
 587.64495850  -999.250000 19.257999420  -999.250000  -999.250000  -999.250000  -999.250000 69.517074585 60.538578033 1.7680000067 -31.79999733 0.1950240284 1006.8834229
 587.79736328  -999.250000 19.250000000  -999.250000  -999.250000  -999.250000  -999.250000 69.059181213 55.884315491 1.7679847479 -31.92500114 0.1810280234 13.663816452
 587.94970703  -999.250000 19.266000748  -999.250000  -999.250000  -999.250000  -999.250000 67.977867126 56.342872620 1.7490040064 -31.54999733 0.1690288335 10.265385628
 588.10211182  -999.250000 19.281000137  -999.250000  -999.250000  -999.250000  -999.250000 66.883880615 56.593402863 1.7590123415 -30.67499924 0.1650096178 27.367797852
 588.25451660  -999.250000 19.281000137  -999.250000  -999.250000  -999.250000  -999.250000 65.986717224 56.469303131 1.7900075912 -30.04999924 0.1709855795 1019.5332642
 588.40692139  -999.250000 19.281000137  -999.250000  -999.250000  -999.250000  -999.250000 65.682243347 56.438076019 1.8090032339 -28.92499924 0.1949423254 1006.1509399
 588.55932617  -999.250000 19.288999557  -999.250000  -999.250000  -999.250000  -999.250000 65.445190430 56.561702728 1.8169991970 -27.54999924 0.2259255052 19.129320145
 588.71173096  -999.250000 19.288999557  -999.250000  -999.250000  -999.250000  -999.250000 65.670814514 56.624847412 1.8150024414 -26.04999924 0.2329831719 27.572937012
 588.86413574  -999.250000 19.281000137  -999.250000  -999.250000  -999.250000  -999.250000 65.993743896 56.594062805 1.8179999590 -24.29999924 0.2250160128 21.122999191
 589.01654053  -999.250000 19.281000137  -999.250000  -999.250000  -999.250000  -999.250000 66.315742493 56.563060760 1.8179999590 -23.04999924 0.2399699539 10.532222748
 589.16894531  -999.250000 19.281000137  -999.250000  -999.250000  -999.250000  -999.250000 66.619758606 56.500122070 1.8179831505 -21.67499924 0.2599599361 1003.5784912
 589.32135010  -999.250000 19.281000137  -999.250000  -999.250000  -999.250000  -999.250000 66.299263000 56.438125610 1.7969903946 -20.42499924 0.2460280359 1007.0200806
 589.47375488  -999.250000 19.281000137  -999.250000  -999.250000  -999.250000  -999.250000 64.691291809 56.624626160 1.7849999666 -19.42499924 0.2050821036 15.208995819
 589.62615967  -999.250000 19.288999557  -999.250000  -999.250000  -999.250000  -999.250000 64.076240540 56.531185150 1.7850152254 -18.42499924 0.1810480505 1005.0010986
 589.77856445  -999.250000 19.305000305  -999.250000  -999.250000  -999.250000  -999.250000 64.559806824 56.281497955 1.8040159941 -17.79999924 0.1939739734 1014.2543945
 589.93090820  -999.250000 19.312999725 -0.583050489  -999.250000 2.1779086590  -999.250000 65.314399719 56.624172211 1.8240023851 -17.17499924 0.2448774576 23.426614761
 590.08331299  -999.250000 19.305000305 -0.558060110  -999.250000 2.2079279423 31.728235245 66.824783325 56.811550140 1.8299944401 -16.54999924 0.2549759746 15.518300056
 590.23571777  -999.250000 19.297000885 -0.541040838  -999.250000 2.2229640484 33.903129578 69.593780518 56.750148773 1.8159955740 -16.17499924 0.2071153373 17.518152237
 590.38812256  -999.250000 19.305000305 -0.545987964  -999.250000 2.2070384026 32.624511719 71.946113586 56.594375610 1.8049727678 -15.80000114 0.1840552688 33.353866577
 590.54052734  -999.250000 19.312999725 -0.559966385  -999.250000 2.1930336952 26.972263336 70.126457214 56.469303131 1.7709679604 -15.42500019 0.1899855733 1022.2272339
 590.69293213  -999.250000 19.297000885 -0.569975972  -999.250000 2.1700553894 26.677118301 70.154975891 56.469001770 1.7310007811 -15.17500019 0.2169351131 1008.6235352
 590.84533691  -999.250000 19.266000748 -0.570997596  -999.250000 2.1460576057 36.048244476 70.961349487 56.499919891 1.7320040464 -14.80000019 0.2349567413 1007.7918701
 590.99774170  -999.250000 19.257999420 -0.563016057  -999.250000 2.1220481396 35.561199188 71.416633606 56.438125610 1.7369999886 -14.55000019 0.2100500762 1998.0124512
 591.15014648  -999.250000 19.273000717 -0.557012022  -999.250000 2.0900640488 47.139362335 69.888229370 56.468940735 1.7370184660 -14.17500019 0.1940320432 2000.0000000
 591.30255127  -999.250000 19.273000717 -0.571969986  -999.250000 2.0341119766 42.387001038 64.285240173 56.624687195 1.7600544691 -13.17500019 0.2159559578 2000.0000000
 591.45495605  -999.250000 19.257999420 -0.585972011  -999.250000 1.9890900850 36.019001007 64.876762390 56.625000000 1.8280440569 -12.30000019 0.2050220221 1015.9554443
 591.60736084  -999.250000 19.233999252 -0.593983948  -999.250000 1.9720340967 27.462999344 68.566520691 56.531185150 1.8829967976 -11.55000019 0.1710680872 1013.5867920
 591.75976563  -999.250000 19.211000443 -0.570048034  -999.250000 2.0059318542 21.145000458 69.330696106 56.530998230 1.8789478540 -10.92500019 0.1560300440 1006.2846680
 591.91217041  -999.250000 19.226999283 -0.564012051  -999.250000 2.0179758072 20.166999817 69.427963257 56.749561310 1.8139832020 -10.67500019 0.1380360425 1007.0643921
 592.06451416  -999.250000 19.257999420 -0.572978377  -999.250000 1.9790936708 20.422897339 69.721763611 56.750000000 1.7929919958 -9.925000191 0.1250312328 1997.6141357
 592.21691895  -999.250000 19.288999557 -0.582975984  -999.250000 1.9321129322 21.435594559 70.103691101 56.625301361 1.7730047703 -8.925000191 0.1549279094 2000.0000000
 592.36932373  -999.250000 19.312999725 -0.567038417  -999.250000 1.9499567747 25.127521515 69.855201721 56.438449860 1.7850191593 -8.300000191 0.2218390107 2000.0000000
 592.52172852  -999.250000 19.312999725 -0.548045635  -999.250000 2.0208292007 23.611608505 69.318214417 56.406074524 1.8089808226 -7.550000191 0.2658942640 1015.8205566
 592.67413330  -999.250000 19.312999725 -0.539021611  -999.250000 2.0918292999 25.889085770 70.109680176 56.530696869 1.7849999666 -7.175000191 0.2739807665 1012.6608887
 592.82647705  -999.250000 19.312999725 -0.540994406  -999.250000 2.1219158173 27.997310638 71.420944214 56.500083923 1.7850071192 -7.800000191 0.2630308568 1997.2321777
 592.97888184  -999.250000 19.312999725 -0.541997194  -999.250000 2.1259887218 29.457830429 70.842468262 56.530910492 1.8029851913 -9.300000191 0.2091513872 2000.0000000
 593.13128662  -999.250000 19.281000137 -0.537012041  -999.250000 2.1349782944 34.143245697 69.971694946 56.562923431 1.7659956217 -11.42500019 0.1461514384 2000.0000000
 593.28369141  -999.250000 19.250000000 -0.528021634  -999.250000 2.1459734440 31.754959106 69.100692749 56.500148773 1.7550108433 -12.67500019 0.1320336461 2000.0000000
 593.43609619  -999.250000 19.250000000 -0.526004851  -999.250000 2.1190648079 31.355159760 68.229690552 56.469078064 1.7820087671 -12.67500019 0.2068197876 2000.0000000
 593.58850098  -999.250000 19.250000000 -0.542959154  -999.250000 2.0651297569 27.395586014 67.390670776 56.593700409 1.8039928675 -12.42500019 0.2888029814 2000.0000000
 593.74090576  -999.250000 19.250000000 -0.574923098  -999.250000 2.0211055279 32.815830231 67.217140198 56.438373566 1.7860047817 -12.17500019 0.2880024016 2000.0000000
