# LAS format log file from PETREL
# Project units are specified as depth units
#==================================================================
~Version information
VERS.   2.0:
WRAP.   NO:
#==================================================================
~Well
STRT .m      818.46392822 :
STOP .m      2256.5109863 :
STEP .m     0.00000000 :
NULL .        -999.250000 :
COMP.           : COMPANY
WELL.  34/10-7   : WELL
FLD.            : FIELD
LOC.            : LOCATION
SRVC.           : SERVICE COMPANY
DATE.  2018-09-11 14:48:47   : Log Export Date {yyyy-MM-dd HH:mm:ss}
PROV.           : PROVINCE
UWI.   34/10-7   : UNIQUE WELL ID
API.            : API NUMBER
#==================================================================
~Curve
DEPT .m                   : DEPTH
Lithology_geolink ._      : Lithology_geolink
CALI .in                  : CALI
DRHO .g/cm3               : DRHO
NPHI .m3/m3               : NPHI
RHOB .g/cm3               : RHOB
GR .gAPI                  : GR
DTC .us/ft                : DTC
RDEP .ohm.m               : RDEP
SP .mV                    : SP
RSHA .ohm.m               : RSHA
RMED .ohm.m               : RMED
~Parameter
#==================================================================
~Ascii
# ...
 1774.4694824 13.000000000 10.989999771 0.0000000000 0.4241299927 2.1960000992 59.124099731 138.12179565 0.8440032005 78.499603271 1.1010640860 1.1010640860
 1774.6219482 13.000000000 11.078000069 0.0049999999 0.4125999808 2.1989998817 62.242488861 138.74850464 0.8449976444 78.999595642 1.0142091513 1.0142091513
 1774.7742920 13.000000000 11.048999786 -0.006000000 0.4208999872 2.1619999409 61.657901764 140.74359131 0.8479903936 79.000000000 0.9272786379 0.9272786379
 1774.9267578 13.000000000 10.720999718 0.0000000000 0.4352799952 2.1670000553 60.783100128 142.99459839 0.8509927988 79.749397278 0.8791154027 0.8791154027
 1775.0791016 13.000000000 10.848999977 0.0000000000 0.4378300011 2.1659998894 57.355007172 144.99359131 0.8510000110 79.999801636 0.8999327421 0.8999327421
 1775.2315674 13.000000000 10.979999542 0.0070000002 0.4376100302 2.1830000877 54.163661957 142.00721741 0.8440167904 80.000000000 0.9538701773 0.9538701773
 1775.3839111 13.000000000 11.059000015 -0.003000000 0.4219900072 2.1830000877 53.066501617 141.37699890 0.8360256553 79.500404358 1.0177950859 1.0177950859
 1775.5363770 13.000000000 11.093999863 -0.010000000 0.4121099710 2.1909999847 52.595130920 140.00331116 0.8260239959 79.999603271 1.0808485746 1.0808485746
 1775.6887207 13.000000000 10.581000328 -0.013000000 0.4074700177 2.1970000267 56.550289154 134.76681519 0.8130416274 80.749397278 1.1527694464 1.1527694464
 1775.8411865 13.000000000 10.748999596 -0.008000000 0.4136199951 2.1960000992 57.965621948 137.74278259 0.8040216565 80.312347412 1.1919063330 1.1919063330
 1775.9935303 13.000000000 10.984000206 0.0010000000 0.4318899810 2.1840000153 63.918884277 140.11740112 0.7990160584 79.500648499 1.1032850742 1.1032850742
 1776.1458740 13.000000000 10.838000298 0.0060000001 0.4488399923 2.1630001068 61.912509918 145.48277283 0.7920224071 78.751197815 0.9465031624 0.9465031624
 1776.2983398 13.000000000 10.880999565 0.0060000001 0.4560300112 2.1449999809 60.346508026 151.35618591 0.7780224681 78.999801636 0.8142117262 0.8142117262
 1776.4506836 13.000000000 10.982001305 0.0020000001 0.4571900070 2.1310000420 56.696781158 157.10656738 0.7550552487 79.000000000 0.7960432172 0.7960432172
 1776.6031494 13.000000000 11.197000504 -0.002000000 0.4554600120 2.1300001144 55.595756531 152.76051331 0.7310384512 79.749397278 0.8529086113 0.8529086113
 1776.7554932 13.000000000 11.326000214 -0.002000000 0.4472100139 2.1370000839 55.531150818 148.51361084 0.7120456696 79.999603271 0.8988894820 0.8988894820
 1776.9079590 13.000000000 11.074001312 -0.005000000 0.4300899804 2.1370000839 55.500049591 146.13070679 0.7040128112 79.750198364 0.9019951820 0.9019951820
 1777.0603027 13.000000000 11.161000252 0.0000000000 0.4404299855 2.1400001049 59.365692139 143.01000977 0.7030023932 79.250404358 0.8670840263 0.8670840263
 1777.2127686 13.000000000 10.767998695 -0.003000000 0.4484600127 2.1340000629 58.470455170 146.11749268 0.7049967647 78.500602722 0.8390448689 0.8390448689
 1777.3651123 13.000000000 10.812999725 -0.012000000 0.4521499872 2.1189999580 58.032051086 144.50520325 0.7079927921 80.248596191 0.8310191631 0.8310191631
 1777.5175781 13.000000000 11.107999802 -0.013000000 0.4443100095 2.1229999065 58.748847961 144.50000000 0.7070016265 79.562545776 0.8379887938 0.8379887938
 1777.6699219 13.000000000 10.729000092 -0.014000000 0.4412400126 2.1129999161 59.653823853 143.75239563 0.7099927664 79.749847412 0.8569543362 0.8569543362
 1777.8223877 13.000000000 11.090000153 -0.004000000 0.4637099802 2.1280000210 57.659202576 144.12409973 0.7139935493 79.562149048 0.8739727736 0.8739727736
 1777.9747314 13.000000000 10.692000389 -0.004000000 0.4667400122 2.1219999790 55.659202576 144.49879456 0.7189919949 79.811798096 0.9009567499 0.9009567499
 1778.1270752 13.000000000 10.706999779 -0.004000000 0.4634899795 2.1259999275 55.625076294 144.12620544 0.7239879966 80.061599731 0.9149664044 0.9149664044
 1778.2795410 13.000000000 10.708000183 -0.005000000 0.4422200024 2.1250000000 57.028743744 144.99719238 0.7259967923 80.061996460 0.9269807339 0.9269807339
 1778.4318848 13.000000000 10.779999733 -0.004000000 0.4246699810 2.1280000210 53.197231293 144.12780762 0.7230072021 79.313194275 0.9329856038 0.9329856038
 1778.5843506 13.000000000 11.048000336 -0.004000000 0.4245299995 2.1240000725 53.718151093 142.00680542 0.7160112262 80.560997009 0.9260112047 0.9260112047
 1778.7366943 13.000000000 11.133000374 -0.008000000 0.4389599860 2.1110000610 58.208194733 145.48878479 0.7080191970 78.565200806 0.8930792809 0.8930792809
 1778.8891602 13.000000000 11.086000443 -0.009000000 0.4562200308 2.1010000706 61.838191986 145.12590027 0.7020096183 80.310592651 0.8480721116 0.8480721116
 1779.0415039 13.000000000 11.142998695 -0.006000000 0.4634099901 2.0969998837 62.561271667 147.49240112 0.6960144043 79.812400818 0.8120864630 0.8120864630
 1779.1939697 13.000000000 11.055000305 -0.003000000 0.4576800168 2.0989999771 63.997695923 147.99879456 0.6940032244 79.999847412 0.7950272560 0.7950272560
 1779.3463135 13.000000000 10.852998734 0.0030000000 0.4484100044 2.1099998951 61.536930084 147.37699890 0.7009831667 79.250602722 0.8049759865 0.8049759865
 1779.4987793 13.000000000 10.935999870 0.0099999998 0.4421600103 2.1210000515 60.689350128 148.12319946 0.7179727554 79.499801636 0.8239695430 0.8239695430
 1779.6511230 13.000000000 10.913999557 0.0020000001 0.4317200184 2.1170001030 55.138362885 146.50520325 0.7429399490 79.999595642 0.8499375582 0.8499375582
 1779.8035889 13.000000000 10.828000069 -0.002000000 0.4518800080 2.1289999485 54.439102173 146.37530518 0.7699567080 79.750198364 0.8959262967 0.8959262967
 1779.9559326 13.000000000 10.771000862 -0.013000000 0.4535900056 2.1510000229 54.562797546 143.01080322 0.7909663320 80.499397278 0.9818621874 0.9818621874
 1780.1082764 13.000000000 10.866999626 0.0089999996 0.4531300068 2.2320001125 51.071407318 137.76683044 0.7999783754 80.749603271 1.1266516447 1.1266516447
 1780.2607422 13.000000000 10.800999641 0.0309999995 0.4245199859 2.2709999084 54.151042938 136.37940979 0.8009983897 80.750000000 1.1978862286 1.1978862286
 1780.4130859 13.000000000 10.713999748 0.0370000005 0.4146099985 2.2530000210 55.901794434 138.74238586 0.7950144410 80.750000000 1.1012328863 1.1012328863
 1780.5655518 13.000000000 10.663999557 0.0109999999 0.4245600104 2.1779999733 61.116634369 142.11419678 0.7880111933 79.750801086 0.9712083340 0.9712083340
 1780.7178955 13.000000000 11.076000214 0.0000000000 0.4335900247 2.1410000324 58.287830353 145.48918152 0.7790216208 79.687095642 0.8921898007 0.8921898007
 1780.8703613 13.000000000 11.482999802 0.0049999999 0.4429499805 2.1400001049 58.468700409 145.74940491 0.7620272636 79.686996460 0.8500673175 0.8500673175
 1781.0227051 13.000000000 11.343999863 0.0170000009 0.4373400211 2.1559998989 59.248123169 143.38259888 0.7430456281 79.686996460 0.8260576129 0.8260576129
 1781.1751709 13.000000000 11.047000885 0.0160000008 0.4235599935 2.1530001163 62.619590759 143.37500000 0.7290223837 79.686996460 0.8289951682 0.8289951682
 1781.3275146 13.000000000 10.859000206 0.0049999999 0.4174800217 2.1319999695 61.159526825 144.12260437 0.7170288563 79.686996460 0.8499495983 0.8499495983
 1781.4799805 13.000000000 10.804999352 -0.001000000 0.4228599966 2.1189999580 59.658401489 146.12019348 0.7090128064 79.187393188 0.8899359107 0.8899359107
 1781.6323242 13.000000000 10.826000214 -0.003000000 0.4353799820 2.1170001030 56.164405823 147.99398804 0.7089999914 79.686996460 0.9348919392 0.9348919392
 1781.7847900 13.000000000 10.758999825 0.0000000000 0.4469900131 2.1240000725 58.590095520 149.74578857 0.7219791412 79.936996460 0.9409903884 0.9409903884
 1781.9371338 13.000000000 10.656000137 0.0080000004 0.4523099959 2.1340000629 55.817455292 147.00880432 0.7419679165 80.000000000 0.9070544839 0.9070544839
 1782.0895996 13.000000000 10.687999725 0.0109999999 0.4601500034 2.1349999905 55.281848907 147.00000000 0.7759456038 80.000000000 0.8490928411 0.8490928411
