# LAS format log file from PETREL
# Project units are specified as depth units
#==================================================================
~Version information
VERS.   2.0:
WRAP.   NO:
#==================================================================
~Well
STRT .m      3455.1030273 :
STOP .m      4235.3911133 :
STEP .m     0.00000000 :
NULL .        -999.250000 :
COMP.           : COMPANY
WELL.  34/11-3 T2   : WELL
FLD.            : FIELD
LOC.            : LOCATION
SRVC.           : SERVICE COMPANY
DATE.  2018-09-11 14:48:48   : Log Export Date {yyyy-MM-dd HH:mm:ss}
PROV.           : PROVINCE
UWI.   34/11-3 T2   : UNIQUE WELL ID
API.            : API NUMBER
#==================================================================
~Curve
DEPT .m                   : DEPTH
Lithology_geolink ._      : Lithology_geolink
CALI .in                  : CALI
NPHI .m3/m3               : NPHI
RHOB .g/cm3               : RHOB
GR .gAPI                  : GR
DTC .us/ft                : DTC
RDEP .ohm.m               : RDEP
RMED .ohm.m               : RMED
~Parameter
#==================================================================
~Ascii
# ...
 3859.2678223  -999.250000 12.661000252 0.0000000000 2.5671281815 88.547065735 99.789855957 1.3521586657 1.5130000114
 3859.4201660  -999.250000 12.652999878 0.0000000000 2.5831682682 89.101425171 99.723335266 1.3606649637 1.4689999819
 3859.5725098  -999.250000 12.661000252 0.0000000000 2.6041524410 88.722465515 99.571556091 1.3413829803 1.4960000515
 3859.7248535  -999.250000 12.649999619 0.0000000000 2.6230719090 88.028312683 99.376953125 1.3074576855 1.4379999638
 3859.8774414  -999.250000 12.683000565 0.0000000000 2.6319758892 88.291137695 99.205307007 1.3335816860 1.4359999895
 3860.0297852  -999.250000 12.696998596 0.0000000000 2.6288797855 89.533798218 99.110931396 1.3659824133 1.4859999418
 3860.1821289  -999.250000 12.657999992 0.0000000000 2.6138238907 90.002334595 99.108001709 1.3654054403 1.5360000134
 3860.3344727  -999.250000 12.675000191 0.0000000000 2.5918400288 88.764106750 99.164955139 1.3873136044 1.5650000572
 3860.4870605  -999.250000 12.637000084 0.0000000000 2.5719039440 87.030960083 99.217880249 1.3485239744 1.4900000095
 3860.6394043  -999.250000 12.657999992 0.0000000000 2.5600240231 86.549972534 99.209342957 1.3221939802 1.4290000200
 3860.7917480  -999.250000 12.689000130 0.0000000000 2.5631201267 87.843467712 99.114196777 1.3333349228 1.5410000086
 3860.9440918  -999.250000 12.668000221 0.0000000000 2.5781919956 88.578964233 98.955177307 1.3526874781 1.5880000591
 3861.0964355  -999.250000 12.663000107 0.0000000000 2.6021411419 87.704040527 98.796569824 1.3916864395 1.6219999790
 3861.2490234  -999.250000 12.647999763 0.0000000000 2.6241123676 85.597053528 98.718292236 1.4310928583 1.5770000219
 3861.4013672  -999.250000 12.654999733 0.0000000000 2.6380081177 83.131622314 98.794792175 1.4928461313 1.7100000381
 3861.5537109  -999.250000 12.649999619 0.0000000000 2.6388959885 82.253181458 99.070243835 1.5391891003 1.6579999924
 3861.7060547  -999.250000 12.683000565 0.0000000000 2.6258652210 84.225669861 99.540855408 1.4924511909 1.6759999990
 3861.8586426  -999.250000 12.696998596 0.0000000000 2.6048316956 88.049430847 100.15915680 1.4039374590 1.5249999762
 3862.0109863  -999.250000 12.675000191 0.0000000000 2.5838799477 90.644172668 100.84798431 1.2873077393 1.4190000296
 3862.1633301  -999.250000 12.654999733 0.0000000000 2.5689439774 91.031974792 101.52655792 1.1925592422 1.3660000563
 3862.3156738  -999.250000 12.676000595 0.0000000000 2.5620241165 90.370887756 102.12297058 1.1682287455 1.3769999743
 3862.4682617  -999.250000 12.678000450 0.0000000000 2.5650961399 90.891273499 102.57237244 1.1812820435 1.2749999762
 3862.6206055  -999.250000 12.642999649 0.0000000000 2.5771360397 92.245307922 102.81611633 1.1978461742 1.3650000095
 3862.7729492  -999.250000 12.687999725 0.0000000000 2.5941603184 92.308883667 102.81790161 1.2462868690 1.4379999638
 3862.9252930  -999.250000 12.640999794 0.0000000000 2.6141521931 91.796997070 102.58172607 1.3190400600 1.4819999933
 3863.0776367  -999.250000 12.659999847 0.0000000000 2.6330769062 91.561645508 102.16741180 1.3780912161 1.5750000477
 3863.2302246  -999.250000 12.654999733 0.0000000000 2.6450400352 90.835426331 101.68028259 1.4392820597 1.7070000172
 3863.3825684  -999.250000 12.637000084 0.0000000000 2.6499841213 88.760932922 101.24488831 1.4538718462 1.6519999504
 3863.5349121  -999.250000 12.683000565 0.0000000000 2.6479361057 86.757888794 100.95832062 1.3907884359 1.6920000315
 3863.6872559  -999.250000 12.683000565 0.0000000000 2.6399424076 87.189727783 100.86653137 1.3787358999 1.5210000277
 3863.8398438  -999.250000 12.683000565 0.0000000000 2.6309280396 89.891014099 100.95598602 1.3633829355 1.4819999933
 3863.9921875  -999.250000 12.685999870 0.0000000000 2.6219279766 91.952026367 101.18343353 1.3294407129 1.5540000200
 3864.1445313  -999.250000 12.699000359 0.0000000000 2.6129357815 91.842231750 101.49178314 1.3549342155 1.5789999962
 3864.2968750  -999.250000 12.694000244 0.0000000000 2.6049280167 91.893249512 101.81880951 1.4070351124 1.4600000381
 3864.4494629  -999.250000 12.654000282 0.0000000000 2.5959279537 94.090988159 102.08950043 1.4083830118 1.4309999943
 3864.6018066  -999.250000 12.680000305 0.0000000000 2.5869357586 97.639358521 102.22816467 1.3743172884 1.6460000277
 3864.7541504  -999.250000 12.680000305 0.0000000000 2.5789680481 99.774864197 102.17778778 1.3918236494 1.7209999561
 3864.9064941  -999.250000 12.687999725 0.0000000000 2.5749919415 99.649345398 101.93638611 1.3821759224 1.5640000105
 3865.0588379  -999.250000 12.700000763 0.0000000000 2.5740063190 99.285675049 101.56050873 1.3920800686 1.5820000172
 3865.2114258  -999.250000 12.696000099 0.0000000000 2.5749919415 99.755592346 101.15650177 1.3966826200 1.5399999619
 3865.3637695  -999.250000 12.678999901 0.0000000000 2.5739758015 99.654930115 100.84796906 1.3789823055 1.5390000343
 3865.5161133  -999.250000 12.642999649 0.0000000000 2.5709521770 98.412483215 100.73738098 1.3772068024 1.5770000219
 3865.6684570  -999.250000 12.685000420 0.0000000000 2.5649552345 97.717163086 100.87656403 1.3326479197 1.5080000162
 3865.8210449  -999.250000 12.671999931 0.0000000000 2.5579519272 97.849189758 101.25241852 1.3122948408 1.4859999418
 3865.9733887  -999.250000 12.677000046 0.0000000000 2.5519599915 98.469665527 101.78738403 1.2721891403 1.5870000124
 3866.1257324  -999.250000 12.673999786 0.0000000000 2.5469758511 98.249412537 102.37553406 1.2267884016 1.3730000257
 3866.2780762  -999.250000 12.701999664 0.0000000000 2.5439918041 96.281539917 102.91445923 1.2149823904 1.5249999762
 3866.4306641  -999.250000 12.649999619 0.0000000000 2.5430080891 94.005088806 103.33605957 1.2140176296 1.4240000248
 3866.5830078  -999.250000 12.640999794 0.0000000000 2.5440399647 93.021072388 103.62095642 1.2157580853 1.4249999523
 3866.7353516  -999.250000 12.682000160 0.0000000000 2.5490481853 93.824707031 103.78741455 1.2596923113 1.5130000114
 3866.8876953  -999.250000 12.666000366 0.0000000000 2.5550479889 94.929527283 103.86617279 1.3559184074 1.5199999809
 3867.0400391  -999.250000 12.642999649 0.0000000000 2.5610258579 95.275138855 103.87479401 1.4642821550 1.7319999933
 3867.1926270  -999.250000 12.633999825 0.0000000000 2.5650320053 94.101852417 103.79764557 1.5440752506 1.7330000401
 3867.3449707  -999.250000 12.626999855 0.0000000000 2.5690319538 93.286399841 103.60527039 1.6030304432 1.8700000048
 3867.4973145  -999.250000 12.651999474 0.0000000000 2.5730478764 94.906059265 103.27813721 1.5490353107 1.6440000534
 3867.6496582  -999.250000 12.642999649 0.0000000000 2.5790512562 96.982894897 102.83094788 1.5511231422 1.8270000219
 3867.8022461  -999.250000 12.626000404 0.0000000000 2.5870559216 97.633056641 102.31686401 1.5577532053 1.8170000315
 3867.9545898  -999.250000 12.616000175 0.0000000000 2.5940241814 96.850517273 101.79956055 1.5445111990 1.7289999723
 3868.1069336  -999.250000 12.612000465 0.0000000000 2.5969917774 96.554428101 101.32090759 1.5723477602 1.7519999743
 3868.2592773  -999.250000 12.623000145 0.0000000000 2.5959918499 97.077079773 100.86046600 1.5346095562 1.6840000153
 3868.4118652  -999.250000 12.640999794 0.0000000000 2.5949919224 96.876029968 100.31437683 1.4557307959 1.7779999971
 3868.5642090  -999.250000 12.626000404 0.0000000000 2.5940160751 94.702003479 99.534889221 1.3849647045 1.6469999552
 3868.7165527  -999.250000 12.592000008 0.0000000000 2.5960319042 91.457183838 98.386535645 1.3845689297 1.7970000505
 3868.8688965  -999.250000 12.637000084 0.0000000000 2.6000318527 90.784477234 96.822738647 1.4730031490 1.8309999704
 3869.0214844  -999.250000 12.602999687 0.0000000000 2.6040000916 93.133880615 94.930503845 1.5290000439 1.9229999781
 3869.1738281  -999.250000 12.623000145 0.0000000000 2.6039600372 94.984352112 92.919235229 1.5275897980 2.0090000629
 3869.3261719  -999.250000 12.628999710 0.0000000000 2.5989279747 92.766906738 91.067649841 1.4490529299 1.8400000334
 3869.4785156  -999.250000 12.586999893 0.0000000000 2.5899038315 85.999916077 89.640518188 1.4521410465 1.8289999962
