# LAS format log file from PETREL
# Project units are specified as depth units
#==================================================================
~Version information
VERS.   2.0:
WRAP.   NO:
#==================================================================
~Well
STRT .m      3166.7685547 :
STOP .m      4692.7500000 :
STEP .m     0.00000000 :
NULL .        -999.250000 :
COMP.           : COMPANY
WELL.  34/12-1   : WELL
FLD.            : FIELD
LOC.            : LOCATION
SRVC.           : SERVICE COMPANY
DATE.  2018-09-11 14:48:48   : Log Export Date {yyyy-MM-dd HH:mm:ss}
PROV.           : PROVINCE
UWI.   34/12-1   : UNIQUE WELL ID
API.            : API NUMBER
#==================================================================
~Curve
DEPT .m                   : DEPTH
Lithology_geolink ._      : Lithology_geolink
CALI .in                  : CALI
BS .in                    : BS
ROP .m/h                  : ROP
DRHO .g/cm3               : DRHO
THOR .ppm                 : THOR
SGR .gAPI                 : SGR
NPHI .m3/m3               : NPHI
RHOB .g/cm3               : RHOB
PEF .b/e                  : PEF
GR .gAPI                  : GR
URAN .ppm                 : URAN
DTC .us/ft                : DTC
DTS .us/ft                : DTS
RDEP .ohm.m               : RDEP
RSHA .ohm.m               : RSHA
RMED .ohm.m               : RMED
~Parameter
#==================================================================
~Ascii
# ...
 3385.4626465  -999.250000 12.217800140 12.250000954 95033.406250 -0.002102083  -999.250000  -999.250000 0.2497016042 2.5356972218 3.2972550392 45.768898010  -999.250000 89.047988892 170.00000000 2.7855417728 5.0099186897 2.9593396187
 3385.6149902  -999.250000 12.196900368 12.250000954 94972.226563 -0.003399199  -999.250000  -999.250000 0.2507144213 2.5339059830 3.3315026760 47.516254425  -999.250000 90.970283508 169.18179321 2.7492957115 4.8343358040 2.9217984676
 3385.7673340  -999.250000 12.210800171 12.250000954 99402.359375 -0.002895994  -999.250000  -999.250000 0.2597139478 2.5378165245 3.3330705166 50.478809357  -999.250000 90.585075378 168.36360168 2.7466094494 4.7321376801 2.9209396839
 3385.9199219  -999.250000 12.231699944 12.250000954 100220.26563 -0.000396480  -999.250000  -999.250000 0.2684275210 2.5480113029 3.3147354126 51.608161926  -999.250000 89.391708374 165.54550171 2.7525506020 4.6930451393 2.9455692768
 3386.0722656  -999.250000 12.238699913 12.250000954 99280.968750 0.0006995192  -999.250000  -999.250000 0.2770186067 2.5514969826 3.3258173466 52.152488708  -999.250000 90.672615051 163.54550171 2.7371208668 4.6446990967 2.9359118938
 3386.2246094  -999.250000 12.203800201 12.250000954 99835.359375 0.0003996795  -999.250000  -999.250000 0.2886123359 2.5494956970 3.3366167545 49.219089508  -999.250000 92.614395142 168.18179321 2.6877503395 4.5816764832 2.8808701038
 3386.3769531  -999.250000 12.228199959 12.250000954 103072.80469 0.0002008013  -999.250000  -999.250000 0.2963115275 2.5468072891 3.3469390869 50.396434784  -999.250000 92.922035217 170.45451355 2.6568088531 4.5043797493 2.8622136116
 3386.5295410  -999.250000 12.210800171 12.250000954 102926.53906 0.0006948800  -999.250000  -999.250000 0.3035105467 2.5513868332 3.3091607094 50.676357269  -999.250000 91.315399170 168.81820679 2.5999178886 4.3665943146 2.8083028793
 3386.6818848  -999.250000 12.224699974 12.250000954 102930.63281 -0.000901923  -999.250000  -999.250000 0.3067814112 2.5473070145 3.3282282352 53.714866638  -999.250000 90.443443298 168.18179321 2.5743839741 4.2091107368 2.7780768871
 3386.8342285  -999.250000 12.217800140 12.250000954 103024.34375 -0.002102564  -999.250000  -999.250000 0.2951801121 2.5516149998 3.4083464146 52.946849823  -999.250000 90.594696045 166.72729492 2.5644893646 4.1538653374 2.7637057304
 3386.9865723  -999.250000 12.231699944 12.250000954 102960.03125 -0.003697436  -999.250000  -999.250000 0.2827858925 2.5610346794 3.5621449947 52.224212646  -999.250000 89.653251648 165.72729492 2.6203618050 4.3820123672 2.8296604156
 3387.1391602  -999.250000 12.196900368 12.250000954 102305.80469 -0.002098720  -999.250000  -999.250000 0.2740233541 2.5824990273 3.6523852348 49.047801971  -999.250000 87.380165100 165.63639832 2.7214028835 4.7019238472 2.9298188686
 3387.2915039  -999.250000 12.217800140 12.250000954 101048.52344 -0.001697917  -999.250000  -999.250000 0.2812772393 2.5821835995 3.6475944519 47.524005890  -999.250000 87.745460510 165.99998474 2.7845654488 4.8961558342 2.9979240894
 3387.4438477  -999.250000 12.231699944 12.250000954 99329.851563 -0.000400321  -999.250000  -999.250000 0.2671003342 2.5719795227 3.5194334984 48.962265015  -999.250000 88.282081604 166.63639832 2.7628555298 4.8679981232 2.9505045414
 3387.5961914  -999.250000 12.228199959 12.250000954 98933.773438 -0.000599519  -999.250000  -999.250000 0.2672969699 2.5592081547 3.4158079624 50.938426971  -999.250000 88.643081665 166.45449829 2.6727154255 4.5547957420 2.8285882473
 3387.7485352  -999.250000 12.207300186 12.250000954 96916.718750 -0.000302244  -999.250000  -999.250000 0.2654251456 2.5642192364 3.4209971428 53.567306519  -999.250000 88.941001892 166.45449829 2.6200232506 4.3027577400 2.7589094639
 3387.9011230  -999.250000 12.203800201 12.250000954 94019.812500 -0.001705440  -999.250000  -999.250000 0.2810865641 2.5762488842 3.6067094803 51.504058838  -999.250000 87.086013794 167.09089661 2.6346859932 4.2144613266 2.7649211884
 3388.0534668  -999.250000 12.196900368 12.250000954 92692.335938 -0.003399038  -999.250000  -999.250000 0.2769081593 2.5915243626 3.8278336525 47.406967163  -999.250000 89.740867615 167.45449829 2.6614053249 4.2958059311 2.7714562416
 3388.2058105  -999.250000 12.207300186 12.250000954 93977.546875 -0.002797115  -999.250000  -999.250000 0.2819985747 2.6067051888 3.9109928608 45.333377838  -999.250000 90.657989502 167.90910339 2.6023430824 4.2992482185 2.7440536022
 3388.3581543  -999.250000 12.217800140 12.250000954 94371.898438 -0.000996795  -999.250000  -999.250000 0.2810960114 2.6098799706 3.7814998627 48.005840302  -999.250000 92.087387085 168.72729492 2.5666677952 4.2047266960 2.7149951458
 3388.5107422  -999.250000 12.210800171 12.250000954 97774.445313 0.0010003201  -999.250000  -999.250000 0.2785878479 2.5973310471 3.5315239429 52.526939392  -999.250000 92.883651733 169.45449829 2.4842138290 4.1590471268 2.6496839523
 3388.6630859  -999.250000 12.196900368 12.250000954 98412.984375 0.0010996795  -999.250000  -999.250000 0.2747985721 2.5758717060 3.3207366467 55.900821686  -999.250000 90.130989075 170.27270508 2.4885170460 4.2048363686 2.6758437157
 3388.8154297  -999.250000 12.217800140 12.250000954 98952.453125 0.0009006410  -999.250000  -999.250000 0.2738963068 2.5581860542 3.2189769745 54.979450226  -999.250000 92.053451538 170.90910339 2.4991397858 4.1653113365 2.7030434608
 3388.9677734  -999.250000 12.217800140 12.250000954 102752.21875 0.0012972757  -999.250000  -999.250000 0.2716035247 2.5495767593 3.2046654224 55.694557190  -999.250000 91.711807251 171.27270508 2.5239801407 4.1723117828 2.7302069664
 3389.1203613  -999.250000 12.210800171 12.250000954 103840.28125 -0.000407360  -999.250000  -999.250000 0.2738236785 2.5351672173 3.2454767227 54.188999176  -999.250000 92.024139404 171.45449829 2.5738749504 4.1799006462 2.7968168259
 3389.2727051  -999.250000 12.228199959 12.250000954 104539.36719 -0.002704968  -999.250000  -999.250000 0.2811860442 2.5248825550 3.2694270611 59.197597504  -999.250000 91.289520264 169.27268982 2.5661084652 4.2426004410 2.7709100246
 3389.4250488  -999.250000 12.224699974 12.250000954 105241.25000 -0.005800320  -999.250000  -999.250000 0.2724900842 2.5141034126 3.2862927914 55.331737518  -999.250000 90.550956726 167.09089661 2.5714571476 4.3674969673 2.7771031857
 3389.5773926  -999.250000 12.207300186 12.250000954 107228.26563 -0.005997917  -999.250000  -999.250000 0.2662687302 2.5162067413 3.2819261551 54.850990295  -999.250000 88.091842651 167.09089661 2.6071696281 4.4903426170 2.7790460587
 3389.7297363  -999.250000 12.203800201 12.250000954 112678.06250 -0.004697596  -999.250000  -999.250000 0.2468145937 2.5203080177 3.2983307838 51.111129761  -999.250000 88.053054810 165.81820679 2.6507699490 4.5170879364 2.8078653812
 3389.8823242  -999.250000 12.231699944 12.250000954 111919.81250 -0.003193280  -999.250000  -999.250000 0.2559528053 2.5254316330 3.3174457550 53.742813110  -999.250000 86.724838257 164.18179321 2.7569940090 4.6342620850 2.9113821983
 3390.0346680  -999.250000 12.196900368 12.250000954 112185.47656 -0.001097917  -999.250000  -999.250000 0.2724001408 2.5353167057 3.3004260063 52.683353424  -999.250000 89.321533203 163.63638306 2.8486373425 4.7162752151 3.0304560661
 3390.1870117  -999.250000 12.217800140 12.250000954 112928.82031 0.0002022436  -999.250000  -999.250000 0.2725065649 2.5457153320 3.2543451786 49.660091400  -999.250000 88.159828186 163.09091187 2.8718838692 4.9499964714 3.0651905537
 3390.3393555  -999.250000 12.210800171 12.250000954 113193.02344 0.0015996795  -999.250000  -999.250000 0.2766052783 2.5550031662 3.2202136517 48.528991699  -999.250000 90.541259766 163.45449829 2.7996098995 4.9477963448 2.9970402718
 3390.4919434  -999.250000 12.217800140 12.250000954 113886.10938 0.0013942400  -999.250000  -999.250000 0.2799329758 2.5568709373 3.2289104462 46.348041534  -999.250000 87.710540771 164.18179321 2.8058664799 4.8831534386 3.0222074986
 3390.6442871  -999.250000 12.217800140 12.250000954 115597.77344 -0.000402244  -999.250000  -999.250000 0.2901967764 2.5478894711 3.2946057320 48.294101715  -999.250000 87.105964661 164.81820679 2.7954621315 4.8685255051 3.0246374607
