# LAS format log file from PETREL
# Project units are specified as depth units
#==================================================================
~Version information
VERS.   2.0:
WRAP.   NO:
#==================================================================
~Well
STRT .m      127.75000000 :
STOP .m      3459.2514648 :
STEP .m     0.00000000 :
NULL .        -999.250000 :
COMP.           : COMPANY
WELL.  34/10-17   : WELL
FLD.            : FIELD
LOC.            : LOCATION
SRVC.           : SERVICE COMPANY
DATE.  2018-09-11 14:48:44   : Log Export Date {yyyy-MM-dd HH:mm:ss}
PROV.           : PROVINCE
UWI.   34/10-17   : UNIQUE WELL ID
API.            : API NUMBER
#==================================================================
~Curve
DEPT .m                   : DEPTH
Lithology_geolink ._      : Lithology_geolink
CALI .in                  : CALI
DRHO .g/cm3               : DRHO
NPHI .m3/m3               : NPHI
RHOB .g/cm3               : RHOB
GR .gAPI                  : GR
DTC .us/ft                : DTC
RDEP .ohm.m               : RDEP
SP .mV                    : SP
RSHA .ohm.m               : RSHA
RMED .ohm.m               : RMED
~Parameter
#==================================================================
~Ascii
# ...
 1683.2500000  -999.250000 15.924000740 0.0549999997 0.2926799953 2.1819999218 34.919998169 112.37500000 0.6380000114 37.742000580 0.5929999948 0.6200000048
 1683.3751221  -999.250000 15.862999916 0.0540000014 0.2936199903 2.1809999943 36.047000885 112.84899902 0.6349999905 37.875000000 0.5920000076 0.6179999709
 1683.4998779  -999.250000 15.786999702 0.0570000000 0.2890599966 2.1849999428 37.191001892 113.36700439 0.6330000162 37.916000366 0.5899999738 0.6159999967
 1683.6250000  -999.250000 15.699999809 0.0630000010 0.2782999873 2.1889998913 37.664001465 113.90799713 0.6309999824 37.833000183 0.5879999995 0.6140000224
 1683.7500000  -999.250000 15.612999916 0.0659999996 0.2675099969 2.1870000362 36.810001373 114.47399902 0.6280000210 37.646999359 0.5870000124 0.6129999757
 1683.8748779  -999.250000 15.543000221 0.0619999990 0.2613400221 2.1749999523 35.158000946 115.05899811 0.6259999871 37.416999817 0.5860000253 0.6119999886
 1684.0002441  -999.250000 15.506999969 0.0509999990 0.2635300159 2.1540000439 33.737998962 115.62999725 0.6240000129 37.245998383 0.5870000124 0.6100000143
 1684.1251221  -999.250000 15.512999535 0.0379999988 0.2743899822 2.1310000420 33.252998352 116.12699890 0.6230000257 37.237998962 0.5879999995 0.6079999804
 1684.2498779  -999.250000 15.555000305 0.0289999992 0.2861900032 2.1110000610 33.555999756 116.52200317 0.6209999919 37.411998749 0.5889999866 0.6060000062
 1684.3750000  -999.250000 15.599999428 0.0280000009 0.2945300043 2.0999999046 33.766998291 116.80100250 0.6200000048 37.696998596 0.5889999866 0.6050000191
 1684.5001221  -999.250000 15.628000259 0.0350000001 0.2983099818 2.1010000706 33.448001862 116.99900055 0.6190000176 37.917999268 0.5889999866 0.6039999723
 1684.6248779  -999.250000 15.642000198 0.0469999984 0.2993400097 2.1089999676 32.770999908 117.14299774 0.6179999709 37.944000244 0.5889999866 0.6039999723
 1684.7500000  -999.250000 15.666999817 0.0540000014 0.3003599942 2.1140000820 32.222999573 117.27300262 0.6159999967 37.778999329 0.5899999738 0.6039999723
 1684.8750000  -999.250000 15.718000412 0.0529999994 0.3027999997 2.1119999886 31.948999405 117.41101074 0.6129999757 37.493000031 0.5899999738 0.6039999723
 1684.9998779  -999.250000 15.786000252 0.0439999998 0.3073199987 2.1019999981 31.915000916 117.49400330 0.6100000143 37.201999664 0.5889999866 0.6039999723
 1685.1248779  -999.250000 15.847000122 0.0289999992 0.3123100102 2.0880000591 31.995000839 117.38600159 0.6060000062 36.977001190 0.5899999738 0.6050000191
 1685.2501221  -999.250000 15.873000145 0.0170000009 0.3145000041 2.0780000687 32.282001495 117.03500366 0.6019999981 36.831001282 0.5920000076 0.6039999723
 1685.3748779  -999.250000 15.875000000 0.0089999996 0.3120999932 2.0729999542 32.814998627 116.47699738 0.5989999771 36.758998871 0.5950000286 0.6039999723
 1685.4997559  -999.250000 15.882999420 0.0060000001 0.3048000038 2.0710000992 33.312999725 115.89199829 0.5960000157 36.744998932 0.6000000238 0.6039999723
 1685.6250000  -999.250000 15.925999641 0.0070000002 0.2975600064 2.0680000782 33.405998230 115.44699860 0.5939999819 36.775001526 0.6029999852 0.6029999852
 1685.7498779  -999.250000 16.017999649 0.0109999999 0.2969300151 2.0659999847 32.566001892 115.18099976 0.5920000076 36.818000793 0.6060000062 0.6029999852
 1685.8750000  -999.250000 16.135000229 0.0179999992 0.3040499985 2.0690000057 31.028999329 115.03800201 0.5899999738 36.853000641 0.6090000272 0.6019999981
 1686.0000000  -999.250000 16.246000290 0.0270000007 0.3154700100 2.0759999752 29.548999786 114.89900208 0.5870000124 36.874000549 0.6129999757 0.6019999981
 1686.1250000  -999.250000 16.326999664 0.0350000001 0.3254899979 2.0859999657 28.663999557 114.70600128 0.5860000253 36.877998352 0.6159999967 0.6019999981
 1686.2498779  -999.250000 16.365999222 0.0359999985 0.3318099976 2.0910000801 28.601999283 114.30699921 0.5860000253 36.868000031 0.6200000048 0.6050000191
 1686.3752441  -999.250000 16.381000519 0.0320000015 0.3323799968 2.0899999142 28.930999756 113.19400024 0.5899999738 36.841999054 0.6240000129 0.6100000143
 1686.5001221  -999.250000 16.385999680 0.0280000009 0.3255600035 2.0840001106 29.138999939 111.02200317 0.5979999900 36.805999756 0.6290000081 0.6190000176
 1686.6248779  -999.250000 16.388000488 0.0270000007 0.3167099953 2.0810000896 28.898000717 107.88800049 0.6150000095 36.778999329 0.6349999905 0.6330000162
 1686.7500000  -999.250000 16.388000488 0.0299999993 0.3149999976 2.0820000172 28.325000763 104.57399750 0.6480000019 36.790000916 0.6420000196 0.6529999971
 1686.8751221  -999.250000 16.388000488 0.0359999985 0.3250299692 2.0889999866 28.077999115 102.25199890 0.7039999962 36.873001099 0.6520000100 0.6830000281
 1686.9998779  -999.250000 16.388000488 0.0419999994 0.3460200131 2.0980000496 28.371999741 101.61699677 0.7910000086 37.028999329 0.6660000086 0.7279999852
 1687.1250000  -999.250000 16.395000458 0.0469999984 0.3637000024 2.1089999676 28.815000534 102.47299957 0.9210000038 37.231998444 0.6930000186 0.7940000296
 1687.2500000  -999.250000 16.419000626 0.0529999994 0.3638300002 2.1250000000 28.875999451 103.45600128 1.1030000448 37.428001404 0.7509999871 0.8920000196
 1687.3748779  -999.250000 16.466999054 0.0640000030 0.3432500064 2.1530001163 28.534000397 102.73600006 1.3320000172 37.566001892 0.8600000143 1.0290000439
 1687.4998779  -999.250000 16.533000946 0.0850000009 0.3122200072 2.2039999962 28.058000565 99.279998779 1.6280000210 37.648998260 1.0499999523 1.2120000124
 1687.6251221  -999.250000 16.607999802 0.1199999973 0.2832300067 2.2909998894 27.777999878 92.888000488 2.0420000553 37.717998505 1.3619999886 1.4559999704
 1687.7498779  -999.250000 16.673000336 0.1609999985 0.2563100159 2.4010000229 27.774000168 84.867996216 2.6579999924 37.827999115 1.8799999952 1.8029999733
 1687.8747559  -999.250000 16.718999863 0.1969999969 0.2330299914 2.5130000114 27.549999237 77.175010681 3.7009999752 38.020999908 2.6259999275 2.2699999809
 1688.0001221  -999.250000 16.749000549 0.2189999968 0.2151600122 2.6040000916 26.788999557 71.491996765 5.4580001831 38.291999817 3.5499999523 2.8589999676
 1688.1248779  -999.250000 16.767000198 0.2249999940 0.1997299939 2.6559998989 25.732999802 68.481002808 8.3450002670 38.611999512 4.5229997635 3.5250000954
 1688.2500000  -999.250000 16.781000137 0.2259999961 0.1870999932 2.6809999943 25.069000244 67.016998291 12.583000183 38.942001343 5.3670001030 4.0440001488
 1688.3750000  -999.250000 16.791999817 0.2269999981 0.1787900031 2.6900000572 25.113000870 65.449996948 15.559000015 39.238998413 5.9790000916 4.1770000458
 1688.5000000  -999.250000 16.798999786 0.2249999940 0.1748800129 2.6879999638 25.770000458 62.735000610 13.878999710 39.470001221 6.2179999352 3.8740000725
 1688.6248779  -999.250000 16.802999496 0.2099999934 0.1774300039 2.6670000553 26.841999054 59.346000671 9.2539997101 39.625000000 5.8229999542 3.2679998875
 1688.7503662  -999.250000 16.802000046 0.1829999983 0.1853700131 2.6319999695 28.010999680 57.293994904 5.6350002289 39.743000031 4.6680002213 2.5759999752
 1688.8751221  -999.250000 16.795999527 0.1529999971 0.1985500008 2.5910000801 28.750000000 59.861999512 3.5429999828 39.893001556 3.3190000057 1.9709999561
 1688.9998779  -999.250000 16.780000687 0.1270000041 0.2152400017 2.5469999313 28.905000687 68.320999146 2.3870000839 40.126998901 2.2420001030 1.4989999533
 1689.1250000  -999.250000 16.750000000 0.1089999974 0.2338699847 2.5009999275 28.732000351 81.613998413 1.7380000353 40.451999664 1.5390000343 1.1640000343
 1689.2501221  -999.250000 16.704999924 0.0979999974 0.2560400069 2.4570000172 28.738000870 96.204994202 1.3710000515 40.827999115 1.1460000277 0.9449999928
 1689.3750000  -999.250000 16.652000427 0.0890000015 0.2795700133 2.4130001068 29.410999298 108.86100006 1.1330000162 41.224998474 0.9210000038 0.7960000038
 1689.5000000  -999.250000 16.600999832 0.0729999989 0.3037000000 2.3499999046 31.180999756 118.78900146 0.9559999704 41.627998352 0.7950000167 0.6959999800
