# LAS format log file from PETREL
# Project units are specified as depth units
#==================================================================
~Version information
VERS.   2.0:
WRAP.   NO:
#==================================================================
~Well
STRT .m      818.46392822 :
STOP .m      2256.5109863 :
STEP .m     0.00000000 :
NULL .        -999.250000 :
COMP.           : COMPANY
WELL.  34/10-7   : WELL
FLD.            : FIELD
LOC.            : LOCATION
SRVC.           : SERVICE COMPANY
DATE.  2018-09-11 14:48:47   : Log Export Date {yyyy-MM-dd HH:mm:ss}
PROV.           : PROVINCE
UWI.   34/10-7   : UNIQUE WELL ID
API.            : API NUMBER
#==================================================================
~Curve
DEPT .m                   : DEPTH
Lithology_geolink ._      : Lithology_geolink
CALI .in                  : CALI
DRHO .g/cm3               : DRHO
NPHI .m3/m3               : NPHI
RHOB .g/cm3               : RHOB
GR .gAPI                  : GR
DTC .us/ft                : DTC
RDEP .ohm.m               : RDEP
SP .mV                    : SP
RSHA .ohm.m               : RSHA
RMED .ohm.m               : RMED
~Parameter
#==================================================================
~Ascii
# ...
 1867.7384033 4.0000000000 8.2659997940 -0.037999999 0.4033200145 2.1860001087 58.019680023 133.75059509 2.8671796322 83.012001038 3.2891602516 3.2891602516
 1867.8907471 4.0000000000 8.2659997940 -0.046000000 0.4013700187 2.1840000153 56.628376007 133.00239563 2.7462906837 82.512001038 3.2111873627 3.2111873627
 1868.0432129 4.0000000000 8.2659997940 -0.054000001 0.4043000042 2.1840000153 56.874599457 133.74819946 2.6251938343 81.512001038 3.0722227097 3.0722227097
 1868.1955566 4.0000000000 8.2659997940 -0.037999999 0.4111299813 2.1989998817 54.474781036 134.74679565 2.5292305946 81.012001038 2.8555212021 2.8555212021
 1868.3480225 5.0000000000 8.2659997940 -0.029999999 0.4428699911 2.2109999657 55.654094696 134.75000000 2.4381458759 81.043998718 2.7152242661 2.7152242661
 1868.5003662 5.0000000000 8.2659997940 -0.025000000 0.4360400140 2.2090001106 58.027191162 135.49760437 2.3651170731 81.543998718 2.6501042843 2.6501042843
 1868.6527100 5.0000000000 8.2659997940 -0.039999999 0.4296900034 2.1909999847 62.146091461 135.50000000 2.3031489849 81.574996948 2.6310455799 2.6310455799
 1868.8051758 5.0000000000 8.2659997940 -0.048000000 0.4204100072 2.1740000248 61.001853943 135.74920654 2.2361073494 83.293998718 2.6230127811 2.6230127811
 1868.9575195 5.0000000000 8.2659997940 -0.046999998 0.4331099987 2.1760001183 59.534526825 136.49758911 2.2050743103 84.074996948 2.6090335846 2.6090335846
 1869.1099854 4.0000000000 8.2659997940 -0.046000000 0.4262699783 2.1679999828 55.506458282 137.99519348 2.1860306263 83.512001038 2.6169872284 2.6169872284
 1869.2623291 4.0000000000 8.2659997940 -0.041999999 0.4326200187 2.1779999733 57.027320862 138.12460327 2.1640529633 83.293998718 2.6070241928 2.6070241928
 1869.4147949 4.0000000000 8.2659997940 -0.043000001 0.4492200017 2.1840000153 58.061344147 137.00270081 2.1540160179 82.762001038 2.5610737801 2.5610737801
 1869.5671387 4.0000000000 8.2659997940 -0.041999999 0.5268599987 2.1909999847 58.873050690 135.00640869 2.1480143070 82.481002808 2.5570094585 2.5570094585
 1869.7196045 4.0000000000 8.2810001373 -0.039999999 0.5429700017 2.2030000687 57.471256256 133.37890625 2.1330239773 82.199996948 2.5530064106 2.5530064106
 1869.8719482 4.0000000000 8.2659997940 -0.035999998 0.5419900417 2.1970000267 56.751728058 133.49960327 2.1250193119 82.981002808 2.5450193882 2.5450193882
 1870.0244141 4.0000000000 8.2659997940 -0.034000002 0.4658200145 2.2030000687 57.623596191 133.12590027 2.1070289612 83.449996948 2.5230352879 2.5230352879
 1870.1767578 4.0000000000 8.2810001373 -0.033000000 0.4516600072 2.1970000267 58.653522491 133.99719238 2.0641031265 82.949996948 2.5409567356 2.5409567356
 1870.3292236 4.0000000000 8.2659997940 -0.039999999 0.4511699975 2.1989998817 58.219703674 134.49879456 2.0250625610 82.918998718 2.5639629364 2.5639629364
 1870.4815674 4.0000000000 8.2659997940 -0.041999999 0.4653300047 2.2090001106 58.936847687 134.37539673 1.9890576601 82.918998718 2.5100865364 2.5100865364
 1870.6339111 5.0000000000 8.2810001373 -0.050999999 0.4423799813 2.1989998817 63.021167755 134.37500000 1.9540840387 83.168998718 2.4202163219 2.4202163219
 1870.7863770 5.0000000000 8.2659997940 -0.048999999 0.4301800132 2.2030000687 64.747245789 134.49960327 1.9250464439 83.949996948 2.3481154442 2.3481154442
 1870.9387207 5.0000000000 8.2659997940 -0.044000000 0.4458000064 2.1970000267 65.872299194 134.74919128 1.8960696459 83.449996948 2.2622065544 2.2622065544
 1871.0911865 5.0000000000 8.2659997940 -0.037999999 0.4750999808 2.2030000687 62.505409241 134.99920654 1.8780288696 82.981002808 2.1881184578 2.1881184578
 1871.2435303 4.0000000000 8.2110004425 -0.035000000 0.4677700102 2.2149999142 61.253002167 134.50160217 1.8640335798 82.699996948 2.1969783306 2.1969783306
 1871.3959961 4.0000000000 8.2110004425 -0.048000000 0.4467800260 2.1930000782 58.379608154 134.12590027 1.8530176878 82.731002808 2.2379341125 2.2379341125
 1871.5483398 4.0000000000 8.2110004425 -0.061999999 0.4135699868 2.1909999847 57.003303528 133.37739563 1.8430240154 83.012001038 2.2928678989 2.2928678989
 1871.7008057 4.0000000000 8.2110004425 -0.067000002 0.4174800217 2.1860001087 57.437297821 133.00090027 1.8390064240 83.762001038 2.3069775105 2.3069775105
 1871.8531494 4.0000000000 8.2110004425 -0.064999998 0.4106400013 2.2049999237 53.073509216 132.12780762 1.8370047808 84.231002808 2.2850530148 2.2850530148
 1872.0056152 4.0000000000 8.2189998627 -0.057999998 0.4218800068 2.2230000496 50.317405701 131.75090027 1.8260176182 83.512001038 2.2520530224 2.2520530224
 1872.1579590 4.0000000000 8.2110004425 -0.059000000 0.4091799855 2.2209999561 49.127853394 131.12699890 1.8130311966 83.262001038 2.2300529480 2.2300529480
 1872.3104248 4.0000000000 8.2110004425 -0.059000000 0.3994100094 2.2300000191 56.675880432 131.12500000 1.7900367975 83.262001038 2.2070369720 2.2070369720
 1872.4627686 4.0000000000 8.2110004425 -0.061000001 0.4189499915 2.2269999981 58.528045654 131.00039673 1.7680352926 83.731002808 2.1600754261 2.1600754261
 1872.6152344 4.0000000000 8.1879997253 -0.066000000 0.4350599945 2.2209999561 58.125648499 130.75059509 1.7460353374 83.262001038 2.1270530224 2.1270530224
 1872.7675781 4.0000000000 8.1879997253 -0.064999998 0.4501999915 2.2149999142 56.097255707 130.50079346 1.7160480022 82.981002808 2.1150193214 2.1150193214
 1872.9199219 4.0000000000 8.1879997253 -0.068000004 0.4233399928 2.2230000496 58.213897705 130.99839783 1.6940528154 83.231002808 2.1110095978 2.1110095978
 1873.0723877 4.0000000000 8.2030000687 -0.057000000 0.4125999808 2.2439999580 61.557640076 130.50160217 1.6760288477 83.231002808 2.1050095558 2.1050095558
 1873.2247314 4.0000000000 8.2110004425 -0.052999999 0.3989300132 2.2579998970 61.126052856 130.74919128 1.6640288830 82.731002808 2.0720791817 2.0720791817
 1873.3771973 4.0000000000 8.2189998627 -0.050000001 0.4101599753 2.2539999485 59.752204895 131.12409973 1.6520191431 82.731002808 2.0470399857 2.0470399857
 1873.5295410 4.0000000000 8.2340002060 -0.054000001 0.4287099838 2.2439999580 55.385509491 131.00039673 1.6460144520 84.481002808 2.0370240211 2.0370240211
 1873.6820068 4.0000000000 8.2419996262 -0.052999999 0.4384799898 2.2500000000 52.567504883 130.75059509 1.6420063972 83.949996948 2.0230224133 2.0230224133
 1873.8343506 4.0000000000 8.2340002060 -0.048999999 0.4511699975 2.2579998970 51.939502716 130.75000000 1.6360144615 84.449996948 2.0309805870 2.0309805870
 1873.9868164 4.0000000000 8.2419996262 -0.057000000 0.4316400290 2.2460000515 55.369491577 130.99940491 1.6369984150 84.449996948 2.0389871597 2.0389871597
 1874.1391602 4.0000000000 8.2419996262 -0.059000000 0.4409199953 2.2500000000 56.154121399 131.00000000 1.6429855824 84.699996948 2.0509712696 2.0509712696
 1874.2916260 4.0000000000 8.2419996262 -0.064999998 0.4243199825 2.2339999676 58.465293884 130.75059509 1.6459952593 84.199996948 2.0350258350 2.0350258350
 1874.4439697 4.0000000000 8.2340002060 -0.059999999 0.4204100072 2.2460000515 56.971405029 130.75000000 1.6539871693 83.981002808 2.0429871082 2.0429871082
 1874.5964355 4.0000000000 8.2189998627 -0.061000001 0.4008800089 2.2360000610 57.904499054 130.75000000 1.6520031691 83.418998718 2.0679600239 2.0679600239
 1874.7487793 4.0000000000 8.2189998627 -0.057000000 0.3935500085 2.2479999065 59.902793884 130.75000000 1.6470079422 83.199996948 2.1109311581 2.1109311581
 1874.9011230 4.0000000000 8.2340002060 -0.059999999 0.4062500000 2.2479999065 55.915607452 130.99919128 1.6450047493 82.949996948 2.0780792236 2.0780792236
 1875.0535889 4.0000000000 8.2340002060 -0.055000000 0.4091799855 2.2439999580 54.408401489 131.00000000 1.6400079727 83.199996948 2.0270817280 2.0270817280
 1875.2059326 4.0000000000 8.2419996262 -0.054000001 0.4213899970 2.2439999580 55.652996063 130.50160217 1.6310216188 83.231002808 2.0100407600 2.0100407600
 1875.3583984 4.0000000000 8.2580003738 -0.048000000 0.4145500064 2.2599999905 63.550327301 130.37530518 1.6300015450 84.699996948 2.0060064793 2.0060064793
