# LAS format log file from PETREL
# Project units are specified as depth units
#==================================================================
~Version information
VERS.   2.0:
WRAP.   NO:
#==================================================================
~Well
STRT .m      3455.1030273 :
STOP .m      4235.3911133 :
STEP .m     0.00000000 :
NULL .        -999.250000 :
COMP.           : COMPANY
WELL.  34/11-3 T2   : WELL
FLD.            : FIELD
LOC.            : LOCATION
SRVC.           : SERVICE COMPANY
DATE.  2018-09-11 14:48:48   : Log Export Date {yyyy-MM-dd HH:mm:ss}
PROV.           : PROVINCE
UWI.   34/11-3 T2   : UNIQUE WELL ID
API.            : API NUMBER
#==================================================================
~Curve
DEPT .m                   : DEPTH
Lithology_geolink ._      : Lithology_geolink
CALI .in                  : CALI
NPHI .m3/m3               : NPHI
RHOB .g/cm3               : RHOB
GR .gAPI                  : GR
DTC .us/ft                : DTC
RDEP .ohm.m               : RDEP
RMED .ohm.m               : RMED
~Parameter
#==================================================================
~Ascii
# ...
 4118.3481445 5.0000000000 8.2720003128 0.2423790395 2.4839134216 66.335502625 88.436363220 7.2614808083 7.0078620911
 4118.5004883 5.0000000000 8.2620000839 0.2334955782 2.4749422073 60.790424347 87.929901123 7.9563651085 7.5889644623
 4118.6528320 5.0000000000 8.2539997101 0.2249901891 2.4689905643 57.581363678 87.142425537 8.3353071213 8.2000675201
 4118.8051758 5.0000000000 8.2440004349 0.2188190371 2.4680192471 56.689769745 86.229904175 8.5046339035 8.2194995880
 4118.9575195 5.0000000000 8.2360000610 0.2156998068 2.4710257053 57.107131958 85.398666382 8.5419034958 7.7536005974
 4119.1098633 5.0000000000 8.2250003815 0.2152046114 2.4749999046 58.201713562 84.870941162 8.8001346588 7.9409999847
 4119.2622070 5.0000000000 8.2010002136 0.2165059596 2.4749615192 59.066425323 84.826728821 9.2289810181 8.6359996796
 4119.4145508 5.0000000000 8.1599998474 0.2189015448 2.4689104557 59.721405029 85.342475891 9.9583654404 9.4040002823
 4119.5673828 5.0000000000 8.1049995422 0.2215718329 2.4547979832 60.837867737 86.366172791 10.813798904 10.033682823
 4119.7197266 5.0000000000 8.0389995575 0.2233938426 2.4337308407 61.930633545 87.712997437 11.745403290 11.181736946
 4119.8720703 5.0000000000 7.9770007133 0.2230213434 2.4056921005 62.201362610 89.167053223 12.931403160 12.035814285
 4120.0244141 5.0000000000 7.9310007095 0.2199301869 2.3736741543 61.306674957 90.517944336 15.189500809 12.914372444
 4120.1767578 5.0000000000 7.8979997635 0.2147217244 2.3397948742 58.861213684 91.654808044 17.521287918 13.967815399
 4120.3291016 4.0000000000 7.8709998131 0.2085738480 2.3078269958 54.528251648 92.577926636 20.783538818 15.470000267
 4120.4814453 4.0000000000 7.8499999046 0.2025494128 2.2808651924 48.771751404 93.351974487 25.220634460 17.322000504
 4120.6337891 4.0000000000 7.8359994888 0.1973380744 2.2598910332 43.176654816 94.024681091 29.155115128 19.673999786
 4120.7861328 4.0000000000 7.8290004730 0.1930932850 2.2428975105 39.342712402 94.577171326 35.832061768 23.198999405
 4120.9389648 4.0000000000 7.8239994049 0.1896209568 2.2268173695 37.143249512 94.946670532 43.301864624 28.590221405
 4121.0913086 4.0000000000 7.8170003891 0.1865490377 2.2077980042 35.276672363 95.081123352 51.110076904 32.702331543
 4121.2436523 3.0000000000 7.8099999428 0.1833723038 2.1867794991 33.028057098 94.979675293 59.630538940 32.811843872
 4121.3959961 3.0000000000 7.8029999733 0.1798519194 2.1638717651 31.015941620 94.701080322 64.816558838 34.948535919
 4121.5483398 3.0000000000 7.8010001183 0.1763161421 2.1439039707 29.669635773 94.341560364 65.211906433 37.587471008
 4121.7006836 3.0000000000 7.8010001183 0.1730005741 2.1289358139 28.763942719 94.008712769 65.703216553 32.430000305
 4121.8530273 3.0000000000 7.8020000458 0.1699150056 2.1189742088 27.715557098 93.789077759 64.822036743 31.086000443
 4122.0053711 3.0000000000 7.8070001602 0.1670605689 2.1150128841 26.399902344 93.744918823 55.741439819 31.160999298
 4122.1582031 3.0000000000 7.8130002022 0.1644892246 2.1170578003 25.470760345 93.901870728 55.602100372 32.359279633
 4122.3105469 3.0000000000 7.8179998398 0.1622301936 2.1231057644 25.206134796 94.256195068 59.671943665 34.330242157
 4122.4628906 3.0000000000 7.8229999542 0.1601684541 2.1341154575 25.641193390 94.788406372 59.841133118 40.033107758
 4122.6152344 3.0000000000 7.8249998093 0.1585440338 2.1460957527 26.690250397 95.433593750 68.923080444 49.140808105
 4122.7675781 3.0000000000 7.8249998093 0.1577305794 2.1560256481 27.674385071 96.086166382 84.438095093 66.543594360
 4122.9199219 3.0000000000 7.8239994049 0.1577696055 2.1599807739 27.778287888 96.610595703 87.468658447 81.033538818
 4123.0722656 3.0000000000 7.8220000267 0.1582636535 2.1569104195 26.844980240 96.896003723 90.842170715 80.890998840
 4123.2246094 3.0000000000 7.8210000992 0.1584336609 2.1428716183 25.282825470 96.891082764 86.933929443 73.629997253
 4123.3769531 3.0000000000 7.8220000267 0.1575546116 2.1228525639 23.669347763 96.632118225 87.765945435 56.604999542
 4123.5297852 3.0000000000 7.8239994049 0.1551577002 2.0997979641 22.441886902 96.220474243 104.61309052 42.445243835
 4123.6821289 3.0000000000 7.8270001411 0.1514784545 2.0788364410 21.505191803 95.797843933 114.33363342 39.430740356
 4123.8344727 3.0000000000 7.8309998512 0.1472488493 2.0619039536 20.794155121 95.481193542 110.45339966 45.618850708
 4123.9868164 3.0000000000 7.8379998207 0.1435738504 2.0519711971 20.440519333 95.338325500 108.30059052 60.834709167
 4124.1386719 3.0000000000 7.8470001221 0.1412028521 2.0490000248 20.212656021 95.356735229 93.468917847 67.897003174
 4124.2915039 3.0000000000 7.8590002060 0.1401417255 2.0490128994 20.257692337 95.464904785 79.680770874 68.860000610
 4124.4438477 3.0000000000 7.8689999580 0.1397109479 2.0510001183 20.498308182 95.561958313 81.487388611 68.204002380
 4124.5961914 3.0000000000 7.8720002174 0.1392369121 2.0509808064 20.551212311 95.556884766 91.294090271 67.219001770
 4124.7485352 3.0000000000 7.8720002174 0.1385575384 2.0479743481 19.820032120 95.391578674 107.01435089 66.166000366
 4124.9008789 3.0000000000 7.8700003624 0.1379113495 2.0439870358 18.373086929 95.055458069 125.87982178 64.745002747
 4125.0532227 3.0000000000 7.8680000305 0.1373695880 2.0420320034 17.405246735 94.583267212 138.89605713 66.063003540
 4125.2055664 3.0000000000 7.8670001030 0.1367091686 2.0470957756 18.002166748 94.037826538 97.246124268 64.410003662
 4125.3579102 3.0000000000 7.8689999580 0.1353950500 2.0620737076 19.811893463 93.465538025 46.441879272 45.117000580
 4125.5102539 3.0000000000 7.8740000725 0.1332120150 2.0850834846 20.962688446 92.874870300 25.359771729 24.516000748
 4125.6630859 3.0000000000 7.8860001564 0.1308642328 2.1111474037 20.359231949 92.239479065 16.863058090 14.651000023
 4125.8154297 3.0000000000 7.9010000229 0.1301109642 2.1341154575 18.711673737 91.534965515 13.217711449 10.163999557
 4125.9677734 3.0000000000 7.9200000763 0.1328534633 2.1520895958 17.302539825 90.751716614 11.809154510 8.3699998856
 4126.1201172 5.0000000000 7.9450001717 0.1404032856 2.1661281586 16.511104584 89.904380798 10.937003136 7.9369997978
 4126.2724609 5.0000000000 7.9749999046 0.1525806934 2.1862115860 16.408496857 89.040733337 10.260334015 8.1059999466
 4126.4248047 5.0000000000 8.0080003738 0.1675981283 2.2193014622 19.351791382 88.214332581 9.5412435532 8.5019998550
 4126.5771484 5.0000000000 8.0399999619 0.1824062169 2.2663578987 28.797733307 87.488578796 9.3671598434 9.8900003433
 4126.7294922 5.0000000000 8.0679998398 0.1939393580 2.3221666813 44.320159912 86.903182983 9.0773715973 10.279999733
 4126.8823242 5.0000000000 8.0900001526 0.2000426948 2.3742244244 59.828807831 86.480194092 9.5471153259 10.595999718
 4127.0346680 3.0000000000 8.0989999771 0.2000863403 2.4090895653 67.358055115 86.233749390 10.448096275 10.359000206
 4127.1870117 3.0000000000 8.0889997482 0.1951665282 2.4229681492 64.128425598 86.172142029 11.913922310 11.125000000
 4127.3393555 3.0000000000 8.0640001297 0.1877146065 2.4179165363 55.189556122 86.285865784 13.637654305 12.425000191
 4127.4916992 3.0000000000 8.0419998169 0.1807339042 2.4049165249 48.150020599 86.540435791 15.927862167 14.553000450
 4127.6440430 3.0000000000 8.0360002518 0.1768379211 2.3919551373 46.655296326 86.875640869 16.581592560 15.987999916
 4127.7963867 3.0000000000 8.0389995575 0.1767495722 2.3849680424 49.111591339 87.226867676 16.305776596 16.218000412
 4127.9487305 3.0000000000 8.0399999619 0.1792240739 2.3799617290 51.786987305 87.529479980 15.989903450 15.156999588
 4128.1010742 5.0000000000 8.0270004272 0.1819473058 2.3739712238 51.679500580 87.745140076 16.294525146 15.545000076
 4128.2539063 5.0000000000 7.9939999580 0.1829869151 2.3649165630 48.823329926 87.878746033 16.522249222 17.417999268
 4128.4062500 5.0000000000 7.9530000687 0.1817567348 2.3519039154 45.596595764 87.969985962 17.109865189 17.329999924
 4128.5585938 5.0000000000 7.9260005951 0.1789878905 2.3369164467 44.050136566 88.074150085 17.824653625 16.572000504
