# LAS format log file from PETREL
# Project units are specified as depth units
#==================================================================
~Version information
VERS.   2.0:
WRAP.   NO:
#==================================================================
~Well
STRT .m      3900.0166016 :
STOP .m      4564.4804688 :
STEP .m     0.00000000 :
NULL .        -999.250000 :
COMP.           : COMPANY
WELL.  34/11-1   : WELL
FLD.            : FIELD
LOC.            : LOCATION
SRVC.           : SERVICE COMPANY
DATE.  2018-09-11 14:48:47   : Log Export Date {yyyy-MM-dd HH:mm:ss}
PROV.           : PROVINCE
UWI.   34/11-1   : UNIQUE WELL ID
API.            : API NUMBER
#==================================================================
~Curve
DEPT .m                   : DEPTH
Lithology_geolink ._      : Lithology_geolink
CALI .in                  : CALI
BS .in                    : BS
NPHI .m3/m3               : NPHI
RHOB .g/cm3               : RHOB
GR .gAPI                  : GR
DTC .us/ft                : DTC
DTS .us/ft                : DTS
RDEP .ohm.m               : RDEP
SP .mV                    : SP
RSHA .ohm.m               : RSHA
RMED .ohm.m               : RMED
~Parameter
#==================================================================
~Ascii
# ...
 3943.9077148 7.0000000000 8.9980001450 8.3750000000 0.3930123150 2.4630000591 204.58403015 120.33300781 270.44216919 1.5850000381 -1251.642700 1.7105962038 1.7280000448
 3944.0600586 7.0000000000 8.9899997711 8.3750000000 0.4046870172 2.4019999504 209.28430176 120.52353668 271.23348999 1.5880000591 -751.8772583 1.7001153231 1.7189999819
 3944.2124023 7.0000000000 8.9840002060 8.3750000000 0.3229203820 2.3829998970 214.15571594 121.03520966 271.88555908 1.6059999466 -251.8872681 1.6883599758 1.7159999609
 3944.3647461 7.0000000000 8.9619998932 8.3750000000 0.3348506987 2.4260001183 212.40878296 121.47200775 271.99194336 1.6130000353 247.30603027 1.6814326048 1.7059999704
 3944.5173340 7.0000000000 8.9469995499 8.3750000000 0.4450734556 2.4360001087 205.97332764 121.49569702 273.52386475 1.6050000191 743.44519043 1.6920095682 1.6920000315
 3944.6696777 7.0000000000 8.9090003967 8.3750000000 0.3515109718 2.4619998932 199.33592224 121.23941803 275.19940186 1.5980000496 1144.3956299 1.7232595682 1.6950000525
 3944.8220215 7.0000000000 8.8999996185 8.3750000000 0.5267343521 2.4739999771 199.61317444 121.35095978 276.65591431 1.6080000401 979.54565430 1.7793076038 1.7339999676
 3944.9743652 7.0000000000 8.8549995422 8.3750000000 0.5218607783 2.4309999943 205.15551758 121.33042145 276.18612671 1.6369999647 -56.91453552 1.8476799726 1.8020000458
 3945.1269531 7.0000000000 8.8290004730 8.3750000000 0.5216872096 2.3699998856 208.09033203 121.29483795 273.08001709 1.6670000553 -1234.125732 1.8979711533 1.8710000515
 3945.2792969 7.0000000000 8.7030000687 8.3750000000 0.3518541157 2.3550000191 205.78561401 121.09837341 268.86273193 1.6909999847 -1605.193481 1.9233653545 1.9199999571
 3945.4316406 7.0000000000 8.5080003738 8.3750000000 0.3465495408 2.4210000038 202.56788635 121.23549652 265.03701782 1.7059999704 -1252.619873 1.9342403412 1.9470000267
 3945.5839844 7.0000000000 8.8219995499 8.3750000000 0.3664447963 2.4230000973 203.05839539 121.56150055 264.76144409 1.7109999657 -752.0529785 1.9297199249 1.9450000525
 3945.7365723 7.0000000000 8.8999996185 8.3750000000 0.3763671219 2.4149999619 206.07478333 121.80159760 266.03665161 1.7189999819 -252.0630035 1.9050673246 1.9110000134
 3945.8889160 7.0000000000 8.8559999466 8.3750000000 0.3481294215 2.4340000153 208.95323181 121.90241241 267.27511597 1.7400000095 247.92999268 1.8787981272 1.8750000000
 3946.0412598 7.0000000000 8.8559999466 8.3750000000 0.3088111579 2.4660000801 208.98468018 121.94898987 267.26260376 1.7719999552 743.23999023 1.8862980604 1.8839999437
 3946.1936035 7.0000000000 8.8570003510 8.3750000000 0.2833040059 2.4639999866 209.11692810 121.94418335 267.28463745 1.8070000410 1144.0300293 1.9409600496 1.9459999800
 3946.3459473 7.0000000000 8.8640003204 8.3750000000 0.3347291052 2.4159998894 212.68914795 121.61917114 266.79977417 1.8380000591 979.62200928 2.0239229202 2.0420000553
 3946.4985352 7.0000000000 8.8920001984 8.3750000000 0.4113284647 2.4110000134 218.45933533 121.04075623 266.02301025 1.8609999418 -62.10100174 2.1200768948 2.1489999294
 3946.6508789 7.0000000000 8.8870000839 8.3750000000 0.4324811697 2.3989999294 224.15145874 120.33715820 265.62438965 1.8830000162 -1237.556030 2.2074232101 2.2379999161
 3946.8032227 7.0000000000 8.8559999466 8.3750000000 0.5500383973 2.3599998951 229.74612427 120.39416504 265.50765991 1.9179999828 -1606.894043 2.2570865154 2.2750000954
 3946.9555664 7.0000000000 8.8620004654 8.3750000000 0.4031863809 2.3689999580 235.26280212 120.65001678 265.91253662 1.9659999609 -1253.030029 2.2704799175 2.2809998989
 3947.1081543 7.0000000000 8.9099998474 8.3750000000 0.3697958589 2.4219999313 237.12223816 121.01016235 267.79391479 2.0109999180 -753.0300293 2.2729616165 2.2880001068
 3947.2604980 7.0000000000 8.9099998474 8.3750000000 0.4795829058 2.4739999771 230.95124817 121.36801147 271.05029297 2.0380001068 -253.0399933 2.2745575905 2.3010001183
 3947.4128418 7.0000000000 8.9090003967 8.3750000000 0.3906386495 2.4609999657 222.32232666 121.31171417 274.71051025 2.0339999199 246.78799438 2.2603845596 2.2969999313
 3947.5651855 7.0000000000 8.8999996185 8.3750000000 0.3686375916 2.4179999828 223.36691284 121.24508667 277.60012817 2.0009999275 740.75097656 2.2189600468 2.2650001049
 3947.7177734 7.0000000000 8.8559999466 8.3750000000 0.3217790425 2.3540000916 231.96525574 121.36180878 278.42129517 1.9730000496 1142.3409424 2.1840000153 2.2149999142
 3947.8701172 7.0000000000 8.8559999466 8.3750000000 0.4084617496 2.3580000401 234.21827698 121.87387848 277.39477539 1.9700000286 977.99700928 2.1919326782 2.1919999123
 3948.0224609 7.0000000000 8.8509998322 8.3750000000 0.4309034646 2.4560000896 231.32223511 122.51628876 274.71942139 1.9730000496 -63.96099854 2.2165191174 2.2190001011
 3948.1748047 7.0000000000 8.8079996109 8.3750000000 0.3889991939 2.4649999142 229.97718811 122.84195709 271.69717407 1.9670000076 -1239.100952 2.1989200115 2.2539999485
 3948.3271484 7.0000000000 8.8020000458 8.3750000000 0.3723663986 2.3789999485 231.50096130 122.78714752 270.22039795 1.9429999590 -1608.000977 2.1224503517 2.2460000515
 3948.4797363 7.0000000000 8.8030004501 8.3750000000 0.4494833648 2.3610000610 237.54721069 122.70997620 270.25375366 1.8999999762 -1254.006958 2.0212883949 2.1770000458
 3948.6320801 7.0000000000 8.8059997559 8.3750000000 0.3277833760 2.3719999790 245.22282410 122.58040619 271.65780640 1.8569999933 -754.0239868 1.9520288706 2.0629999638
 3948.7844238 7.0000000000 8.7379999161 8.3750000000 0.3885671794 2.3859999180 248.07438660 122.47939301 273.64242554 1.8380000591 -254.3359985 1.9312018156 1.9709999561
 3948.9367676 7.0000000000 8.4969997406 8.3750000000 0.4416163862 2.4300000668 249.56736755 122.46630859 275.03930664 1.8450000286 244.37300110 1.9424399137 1.9550000429
 3949.0893555 7.0000000000 8.7810001373 8.3750000000 0.4328142405 2.4489998817 249.88066101 122.54629517 275.80874634 1.8580000401 739.75897217 1.9784998894 2.0099999905
 3949.2416992 7.0000000000 8.8529996872 8.3750000000 0.4131948054 2.4240000248 246.36689758 122.77819061 275.25912476 1.8539999723 1141.1700439 2.0304999352 2.0810000896
 3949.3940430 7.0000000000 8.8420000076 8.3750000000 0.4366143346 2.4000000954 244.93971252 122.80279541 274.60839844 1.8129999638 976.37298584 2.0731248856 2.1119999886
 3949.5463867 7.0000000000 8.8479995728 8.3750000000 0.4979867637 2.3919999599 246.45075989 122.77420044 273.35189819 1.7599999905 -65.82099915 2.0743598938 2.0880000591
 3949.6989746 7.0000000000 8.8020000458 8.3750000000 0.4608234465 2.3910000324 248.62478638 122.51850891 271.91500854 1.7230000496 -1240.646973 2.0294518471 2.0269999504
 3949.8513184 7.0000000000 8.8020000458 8.3750000000 0.4127277136 2.4130001068 250.42454529 122.38307953 270.79943848 1.7070000172 -1609.108032 1.9506826401 1.9400000572
 3950.0036621 7.0000000000 8.7959995270 8.3750000000 0.6081256866 2.4360001087 247.27799988 122.37631989 270.31436157 1.7189999819 -1255.001953 1.8661826849 1.8339999914
 3950.1560059 7.0000000000 8.7770004272 8.3750000000 0.5167443752 2.4739999771 240.12036133 122.37557220 270.28924561 1.7510000467 -755.3029785 1.8511999846 1.8129999638
 3950.3085938 7.0000000000 8.8549995422 8.3750000000 0.4104033709 2.4739999771 235.30778503 122.35040283 270.36047363 1.7710000277 -256.5960083 1.9384422302 1.9220000505
 3950.4609375 7.0000000000 8.8559999466 8.3750000000 0.3302235603 2.4070000648 236.48371887 122.44836426 270.21511841 1.7719999552 243.39599609 2.0342595577 2.0429999828
 3950.6132813 7.0000000000 8.8549995422 8.3750000000 0.3212239444 2.4049999714 236.63932800 122.30906677 269.61749268 1.7690000534 738.76702881 2.0806922913 2.0850000381
 3950.7656250 7.0000000000 8.8479995728 8.3750000000 0.4292525649 2.4349999428 230.66577148 121.88293457 268.60888672 1.7730000019 1140.0000000 2.1129326820 2.1170001030
 3950.9179688 7.0000000000 8.8339996338 8.3750000000 0.4493331909 2.4530000687 227.49810791 121.47519684 266.63641357 1.7920000553 974.74902344 2.1478400230 2.1840000153
 3951.0705566 7.0000000000 8.8030004501 8.3750000000 0.3533536494 2.4240000248 230.03402710 121.06147766 263.60607910 1.8439999819 -67.68099976 2.1890959740 2.2449998856
