# LAS format log file from PETREL
# Project units are specified as depth units
#==================================================================
~Version information
VERS.   2.0:
WRAP.   NO:
#==================================================================
~Well
STRT .m      818.46392822 :
STOP .m      2256.5109863 :
STEP .m     0.00000000 :
NULL .        -999.250000 :
COMP.           : COMPANY
WELL.  34/10-7   : WELL
FLD.            : FIELD
LOC.            : LOCATION
SRVC.           : SERVICE COMPANY
DATE.  2018-09-11 14:48:47   : Log Export Date {yyyy-MM-dd HH:mm:ss}
PROV.           : PROVINCE
UWI.   34/10-7   : UNIQUE WELL ID
API.            : API NUMBER
#==================================================================
~Curve
DEPT .m                   : DEPTH
Lithology_geolink ._      : Lithology_geolink
CALI .in                  : CALI
DRHO .g/cm3               : DRHO
NPHI .m3/m3               : NPHI
RHOB .g/cm3               : RHOB
GR .gAPI                  : GR
DTC .us/ft                : DTC
RDEP .ohm.m               : RDEP
SP .mV                    : SP
RSHA .ohm.m               : RSHA
RMED .ohm.m               : RMED
~Parameter
#==================================================================
~Ascii
# ...
 1106.0428467  -999.250000 18.062999725 -0.011000000  -999.250000 1.7760000229 35.214595795 159.37399292 1.1819936037 55.896400452 1.1229903698 1.1229903698
 1106.1951904  -999.250000 18.516000748 -0.017999999  -999.250000 1.7760000229 33.382381439 160.37019348 1.1839920282 54.653007507 1.1150320768 1.1150320768
 1106.3476563  -999.250000 18.202999115 -0.016000001  -999.250000 1.7860000134 33.468700409 161.74449158 1.1879870892 57.393394470 1.1020417213 1.1020417213
 1106.5000000  -999.250000 17.906000137 -0.023000000  -999.250000 1.7779999971 35.585494995 161.37680054 1.1959679127 58.397598267 1.1010040045 1.1010040045
 1106.6524658  -999.250000 17.983999252 -0.017999999  -999.250000 1.7920000553 36.061496735 162.12199402 1.2039743662 56.654205322 1.0920288563 1.0920288563
 1106.8048096  -999.250000 18.062999725 -0.010000000  -999.250000 1.8009999990 34.754207611 162.00059509 1.2139679193 56.650001526 1.1029647589 1.1029647589
 1106.9572754  -999.250000 17.547000885 0.0010000000  -999.250000 1.8179999590 33.161102295 160.50601196 1.2199808359 55.901802063 1.1299135685 1.1299135685
 1107.1096191  -999.250000 17.656000137 0.0000000000  -999.250000 1.8240000010 35.149589539 160.00239563 1.2170096636 55.775302887 1.1808365583 1.1808365583
 1107.2620850  -999.250000 18.218999863 0.0080000004  -999.250000 1.8539999723 34.003700256 158.38151550 1.2150064707 54.902103424 1.1969487667 1.1969487667
 1107.4144287  -999.250000 17.577999115 0.0109999999  -999.250000 1.8439999819 35.526092529 158.00180054 1.2120096684 56.146995544 1.1800544262 1.1800544262
 1107.5668945  -999.250000 17.562999725 0.0030000000  -999.250000 1.8129999638 34.192298889 158.00000000 1.2110031843 54.653602600 1.1351441145 1.1351441145
 1107.7192383  -999.250000 17.891000748 -0.011000000  -999.250000 1.7660000324 35.433994293 158.99598694 1.2010320425 54.774700165 1.1031025648 1.1031025648
 1107.8715820  -999.250000 17.781000137 -0.018999999  -999.250000 1.7500000000 33.695003510 160.49279785 1.1860600710 53.652706146 1.0800920725 1.0800920725
 1108.0240479  -999.250000 17.718999863 -0.015000000  -999.250000 1.7510000467 32.254608154 161.99398804 1.1670609713 53.151203156 1.0690352917 1.0690352917
 1108.1763916  -999.250000 17.750000000 -0.012000000  -999.250000 1.7549999952 30.600629807 162.37318420 1.1460840702 55.145195007 1.0640200377 1.0640200377
 1108.3288574  -999.250000 17.812999725 -0.013000000  -999.250000 1.7510000467 30.796350479 162.37498474 1.1270608902 56.521697998 1.0540320873 1.0540320873
 1108.4812012  -999.250000 18.016000748 -0.008000000  -999.250000 1.7460000515 30.594812393 163.12139893 1.1140520573 56.150901794 1.0430439711 1.0430439711
 1108.6336670  -999.250000 17.625000000 -0.007000000  -999.250000 1.7500000000 31.497097015 162.37799072 1.1040320396 56.399402618 1.0439968109 1.0439968109
 1108.7860107  -999.250000 17.718999863 -0.012000000  -999.250000 1.7410000563 31.904699326 162.00180054 1.0980192423 55.153007507 1.0499807596 1.0499807596
 1108.9384766  -999.250000 17.625000000 -0.016000001  -999.250000 1.7389999628 30.972000122 160.50601196 1.0910223722 54.401802063 1.0599678755 1.0599678755
 1109.0908203  -999.250000 17.562999725 -0.024000000  -999.250000 1.7230000496 31.046751022 159.75360107 1.0870128870 53.651805878 1.0629903078 1.0629903078
 1109.2432861  -999.250000 17.483999252 -0.025000000  -999.250000 1.7259999514 32.589046478 159.75000000 1.0870000124 55.645198822 1.0610064268 1.0610064268
 1109.3956299  -999.250000 17.483999252 -0.033000000  -999.250000 1.7220000029 35.678081512 160.12319946 1.0879968405 53.654808044 1.0649871826 1.0649871826
 1109.5480957  -999.250000 17.483999252 -0.035000000  -999.250000 1.7289999723 35.189601898 159.37800598 1.0919872522 53.899402618 1.0610127449 1.0610127449
 1109.7004395  -999.250000 17.483999252 -0.028000001  -999.250000 1.7500000000 33.630008698 159.49949646 1.0969840288 53.650604248 1.0639903545 1.0639903545
 1109.8527832  -999.250000 17.468999863 -0.039000001  -999.250000 1.7519999743 30.559322357 159.12680054 1.1029760838 55.643596649 1.0630040169 1.0630040169
 1110.0052490  -999.250000 17.437999725 -0.039999999  -999.250000 1.7749999762 30.951698303 156.75952148 1.1079840660 56.398197174 1.0639967918 1.0639967918
 1110.1575928  -999.250000 17.468999863 -0.037000000  -999.250000 1.8109999895 31.062559128 156.75000000 1.1189559698 56.150604248 1.0669879913 1.0669879913
 1110.3100586  -999.250000 17.483999252 -0.024000000  -999.250000 1.8680000305 33.149288177 155.75401306 1.1289678812 55.401802063 1.0759711266 1.0759711266
 1110.4624023  -999.250000 17.531000137 -0.018999999  -999.250000 1.9290000200 33.685871124 155.37680054 1.1389600039 55.400001526 1.0859599113 1.0859599113
 1110.6148682  -999.250000 17.531000137 -0.029999999  -999.250000 1.9659999609 31.896760941 156.37098694 1.1439840794 54.901203156 1.1188942194 1.1188942194
 1110.7672119  -999.250000 17.625000000 -0.034000002  -999.250000 2.0060000420 30.504457474 157.99218750 1.1459935904 53.902404785 1.1688398123 1.1688398123
 1110.9196777  -999.250000 17.781000137 -0.020000000  -999.250000 2.0060000420 29.565999985 158.49798584 1.1460000277 54.398799896 1.2018942833 1.2018942833
 1111.0720215  -999.250000 17.983999252 -0.017000001  -999.250000 1.9459999800 30.029500961 159.74398804 1.1440064907 54.898799896 1.1820641756 1.1820641756
 1111.2244873  -999.250000 17.891000748 -0.012000000  -999.250000 1.8680000305 28.925552368 159.50100708 1.1430032253 54.650600433 1.1361473799 1.1361473799
 1111.3768311  -999.250000 17.766000748 -0.028000001  -999.250000 1.7949999571 29.810144424 159.12680054 1.1380159855 55.398197174 1.0981218815 1.0981218815
 1111.5292969  -999.250000 18.172000885 -0.020000000  -999.250000 1.7740000486 32.989791870 157.00851440 1.1350096464 55.649402618 1.0840448141 1.0840448141
 1111.6816406  -999.250000 17.968999863 -0.016000001  -999.250000 1.7710000277 35.959484100 157.12449646 1.1320096254 55.899398804 1.0849968195 1.0849968195
 1111.8339844  -999.250000 17.687999725 -0.011000000  -999.250000 1.7829999924 35.657249451 158.49337769 1.1310040951 56.647598267 1.0830079317 1.0830079317
 1111.9864502  -999.250000 17.531000137 -0.027000001  -999.250000 1.7779999971 34.254505157 161.36347961 1.1339902878 57.398197174 1.0839967728 1.0839967728
 1112.1387939  -999.250000 17.562999725 -0.028999999  -999.250000 1.7929999828 35.059745789 162.49459839 1.1389800310 56.402404785 1.0810120106 1.0810120106
 1112.2912598  -999.250000 17.937999725 -0.028999999  -999.250000 1.8049999475 37.804183960 163.74501038 1.1409935951 56.898799896 1.1079134941 1.1079134941
 1112.4436035  -999.250000 17.422000885 -0.013000000  -999.250000 1.8259999752 38.715373993 163.12800598 1.1429920197 56.151805878 1.1338958740 1.1338958740
 1112.5960693  -999.250000 17.422000885 -0.014000000  -999.250000 1.8099999428 40.557090759 161.75550842 1.1489808559 56.898200989 1.1379871368 1.1379871368
 1112.7484131  -999.250000 17.406000137 -0.021000000  -999.250000 1.7899999619 39.628753662 163.36718750 1.1569678783 56.900001526 1.1121040583 1.1121040583
 1112.9008789  -999.250000 17.516000748 -0.025000000  -999.250000 1.7779999971 39.189399719 165.74047852 1.1629807949 57.648200989 1.0980448723 1.0980448723
 1113.0532227  -999.250000 17.468999863 -0.027000001  -999.250000 1.7860000134 36.414913177 167.11839294 1.1620031595 56.652404785 1.0920192003 1.0920192003
 1113.2056885  -999.250000 17.312999725 -0.017000001  -999.250000 1.8020000458 34.070503235 167.12500000 1.1600064039 57.398200989 1.0920000076 1.0920000076
 1113.3580322  -999.250000 17.452999115 -0.012000000  -999.250000 1.8120000362 34.124801636 164.51260376 1.1619935036 57.649398804 1.0910031796 1.0910031796
 1113.5104980  -999.250000 17.500000000 -0.013000000  -999.250000 1.8040000200 34.997196198 163.00601196 1.1689776182 58.896999359 1.0959839821 1.0959839821
 1113.6628418  -999.250000 17.608999252 -0.015000000  -999.250000 1.7949999571 36.401493073 160.51200867 1.1779711246 56.655410767 1.0930097103 1.0930097103
