# LAS format log file from PETREL
# Project units are specified as depth units
#==================================================================
~Version information
VERS.   2.0:
WRAP.   NO:
#==================================================================
~Well
STRT .m      3166.7685547 :
STOP .m      4692.7500000 :
STEP .m     0.00000000 :
NULL .        -999.250000 :
COMP.           : COMPANY
WELL.  34/12-1   : WELL
FLD.            : FIELD
LOC.            : LOCATION
SRVC.           : SERVICE COMPANY
DATE.  2018-09-11 14:48:48   : Log Export Date {yyyy-MM-dd HH:mm:ss}
PROV.           : PROVINCE
UWI.   34/12-1   : UNIQUE WELL ID
API.            : API NUMBER
#==================================================================
~Curve
DEPT .m                   : DEPTH
Lithology_geolink ._      : Lithology_geolink
CALI .in                  : CALI
BS .in                    : BS
ROP .m/h                  : ROP
DRHO .g/cm3               : DRHO
THOR .ppm                 : THOR
SGR .gAPI                 : SGR
NPHI .m3/m3               : NPHI
RHOB .g/cm3               : RHOB
PEF .b/e                  : PEF
GR .gAPI                  : GR
URAN .ppm                 : URAN
DTC .us/ft                : DTC
DTS .us/ft                : DTS
RDEP .ohm.m               : RDEP
RSHA .ohm.m               : RSHA
RMED .ohm.m               : RMED
~Parameter
#==================================================================
~Ascii
# ...
 4084.2167969  -999.250000 12.454600334 12.250000954 84903.648438 0.0055032051 5.7371892929 0.0086983973 0.4051884711 2.6206047535 3.4566433430 87.478454590 1.8650902510 97.282157898 203.63667297 1.3915618658 1.4719098806 1.4514615536
 4084.3691406  -999.250000 12.468600273 12.250000954 86834.531250 0.0064996798 5.7921929359 0.0081987176 0.4016285241 2.6220760345 3.4076392651 88.014266968 1.5474578142 98.001991272 203.82009888 1.4107993841 1.4780691862 1.4396045208
 4084.5217285  -999.250000 12.405900002 12.250000954 106356.24219 0.0063985577 5.4765400887 0.0077990382 0.4104120135 2.6145586967 3.3262369633 84.868698120 1.5209490061 94.087509155 204.99826050 1.4107893705 1.4589744806 1.4720302820
 4084.6740723  -999.250000 12.395399094 12.250000954 106356.24219 0.0060899197 5.5514650345 0.0076004802 0.3922499120 2.6059525013 3.2715494633 79.392585754 1.4431462288 95.676330566 204.45227051 1.4500268698 1.4822189808 1.4576106071
 4084.8264160  -999.250000 12.385000229 12.250000954 106343.30469 0.0039955131 5.5928916931 0.0077028847 0.4025788307 2.5960924625 3.2194287777 77.208000183 1.6582535505 98.899871826 202.99897766 1.4556480646 1.4939858913 1.4598064423
 4084.9787598  -999.250000 12.391899109 12.250000954 98282.164063 0.0026032052 6.2119178772 0.0086019235 0.3960451782 2.5937156677 3.1661102772 75.781417847 1.3176027536 99.635864258 202.36112976 1.4705237150 1.4852194786 1.4617682695
 4085.1313477  -999.250000 12.411101341 12.250000954 98273.281250 0.0035985576 6.9084134102 0.0092038466 0.4100355804 2.5985834599 3.1382682323 77.196281433 1.1943156719 98.554756165 200.81384277 1.4467326403 1.4973562956 1.4519129992
 4085.2836914  -999.250000 12.405900002 12.250000954 95511.187500 0.0033000000 6.9746007919 0.0099966396 0.3966985643 2.5951797962 3.1526088715 79.540290833 1.0748195648 95.328376770 199.45329285 1.4329282045 1.5149257183 1.4547799826
 4085.4360352  -999.250000 12.416299820 12.250000954 98625.554688 0.0032945513 6.7876830101 0.0092990389 0.3964445591 2.5909647942 3.1961522102 81.297401428 1.2115870714 93.348655701 198.63478088 1.4594208002 1.5310130119 1.4920474291
 4085.5883789  -999.250000 12.405900002 12.250000954 101734.56250 0.0015990384 6.3406200409 0.0089974357 0.4102538228 2.5800158978 3.2748441696 86.521751404 1.2034826279 91.377258301 197.63668823 1.4347305298 1.5390813351 1.4756352901
 4085.7409668  -999.250000 12.391899109 12.250000954 101711.40625 0.0013370193 6.2269334793 0.0081966342 0.3959134817 2.5851504803 3.3516452312 86.448280334 1.1306443214 92.960601807 197.82054138 1.4131326675 1.5274634361 1.4556134939
 4085.8933105  -999.250000 12.426799774 12.250000954 94492.296875 0.0091017596 5.6769914627 0.0075004799 0.3985622525 2.6165833473 3.5274691582 87.366958618 1.2377465963 94.513160706 198.54594421 1.4203497171 1.5473381281 1.4794590473
 4086.0456543  -999.250000 12.442399979 12.250000954 90593.640625 0.0302092955 5.9209814072 0.0076006413 0.3700490296 2.6753537655 3.7079324722 81.447486877 1.1421819925 94.525299072 198.82025146 1.5140308142 1.6335953474 1.5542801619
 4086.1979980  -999.250000 12.454600334 12.250000954 90547.687500 0.0330698751 5.9104652405 0.0078009614 0.3852711618 2.6919982433 3.7800014019 80.664901733 1.1310209036 94.532966614 200.09439087 1.6480051279 1.7553232908 1.6724916697
 4086.3503418  -999.250000 12.468600273 12.250000954 61916.761719 0.0236317310 6.5737824440 0.0081006410 0.3763352633 2.6601312160 3.7177672386 79.807487488 1.1444667578 96.899414063 202.27648926 1.6494994164 1.7696897984 1.6697570086
 4086.5029297  -999.250000 12.479000092 12.250000954 61903.613281 0.0023879809 6.3141016960 0.0083024036 0.3873302937 2.6075315475 3.5827701092 83.949050903 1.4359618425 91.035949707 204.64396667 1.6179244518 1.7007956505 1.6249961853
 4086.6552734  -999.250000 12.468600273 12.250000954 57807.359375 -0.000096640 6.4695072174 0.0087971203 0.3935745358 2.5934152603 3.4936170578 85.729560852 1.6734964848 92.938339233 207.00218201 1.5606181622 1.6058678627 1.5618029833
 4086.8076172  -999.250000 12.454600334 12.250000954 57805.960938 0.0005974359 5.9762129784 0.0082003204 0.3882897496 2.5965943336 3.4557857513 83.621231079 1.7957344055 90.478897095 208.36474609 1.5020227432 1.5234998465 1.5000221729
 4086.9599609  -999.250000 12.479000092 12.250000954 56929.312500 -0.000208654 6.4200921059 0.0082996795 0.3850807846 2.5947618484 3.4827849865 81.656906128 1.6922562122 96.889999390 209.09133911 1.4467509985 1.4610283375 1.4445583820
 4087.1125488  -999.250000 12.468600273 12.250000954 53108.265625 -0.002906250 6.3537960052 0.0081985574 0.3791548014 2.5828645229 3.5717849731 77.067108154 1.4774496555 97.998924255 209.36331177 1.4002283812 1.4163199663 1.4003432989
 4087.2648926  -999.250000 12.479000092 12.250000954 52318.441406 -0.004197120 6.5699586868 0.0078985598 0.3904644847 2.5754981041 3.6514456272 79.327804565 1.2748417854 95.339614868 209.27198792 1.3647052050 1.3914191723 1.3679374456
 4087.4172363  -999.250000 12.482500076 12.250000954 52323.945313 -0.003591987 6.1079106331 0.0076009617 0.3831577003 2.5751192570 3.6398036480 79.957214355 1.2387521267 96.560012817 208.81675720 1.3658541441 1.4034776688 1.3757182360
 4087.5693359  -999.250000 12.473799706 12.250000954 55753.558594 -0.001096474 6.1143999100 0.0079003200 0.4010743797 2.5811102390 3.5163066387 81.985847473 1.3335000277 94.607597351 207.90910339 1.3826780319 1.4519000053 1.3813892603
 4087.7216797  -999.250000 12.484199524 12.250000954 55934.281250 0.0010996795 6.3456001282 0.0081001604 0.3850971162 2.5874896049 3.3334281445 82.766525269 1.5986000299 95.666549683 207.09089661 1.3689674139 1.4802000523 1.3746737242
 4087.8742676  -999.250000 12.461600304 12.250000954 55973.519531 0.0009012800 5.8155999184 0.0082003204 0.3832427263 2.5808999538 3.2262809277 82.537780762 1.6914000511 96.570266724 206.18179321 1.3486744165 1.4895000458 1.3582746983
 4088.0266113  -999.250000 12.496399879 12.250000954 74610.718750 0.0013000000 6.3038997650 0.0082991989 0.3654341102 2.5809020996 3.1892294884 84.239860535 1.6292999983 96.934883118 205.63639832 1.3406691551 1.5116000175 1.3503957987
 4088.1789551  -999.250000 12.536499023 12.250000954 74610.718750 0.0013022436 6.6272997856 0.0078006410 0.3867039979 2.5823183060 3.2077393532 81.039855957 1.6978000402 97.293395996 205.81820679 1.3213601112 1.5185999870 1.3477883339
 4088.3312988  -999.250000 12.520799637 12.250000954 71877.960938 0.0027019233 6.7671999931 0.0081991991 0.3892057836 2.5938141346 3.2323057652 82.441703796 1.8472000360 96.046974182 206.63639832 1.2964603901 1.4865000248 1.3404837847
 4088.4836426  -999.250000 12.526000977 12.250000954 79642.085938 0.0039017627 6.7425999641 0.0076996796 0.3927882910 2.6026129723 3.2983777523 79.956718445 1.9685001373 97.646224976 207.45460510 1.2717880011 1.4859999418 1.3303979635
 4088.6362305  -999.250000 12.499899864 12.250000954 79774.203125 0.0049977601 6.4159002304 0.0074996799 0.3855985701 2.6107029915 3.3468561172 83.699195862 1.8526999950 97.473251343 208.00000000 1.2645585537 1.4176000357 1.3293828964
 4088.7885742  -999.250000 12.484199524 12.250000954 79906.320313 0.0042972756 6.3488001823 0.0073995194 0.4163059294 2.6116912365 3.3642942905 81.673576355 1.7266000509 97.301574707 208.27270508 1.3453384638 1.4744999409 1.4177521467
 4088.9409180  -999.250000 12.461600304 12.250000954 79964.640625 0.0025967949 5.7442002296 0.0070995195 0.4200225770 2.6061832905 3.3608064651 82.843948364 1.7279000282 97.656982422 207.63639832 1.4938338995 1.5106999874 1.5746859312
 4089.0932617  -999.250000 12.475500107 12.250000954 85876.921875 0.0005988783 5.7298002243 0.0067998399 0.4341043234 2.5957915783 3.4274213314 82.069168091 1.9752001762 98.009941101 206.36360168 1.4526581764 1.5141999722 1.5035165548
 4089.2458496  -999.250000 12.482500076 12.250000954 85876.921875 -0.000088800 5.9991002083 0.0066999998 0.4367436767 2.5906441212 3.5657432079 85.975654602 1.8190000057 93.354789734 205.09089661 1.4267708063 1.5607999563 1.4515103102
 4089.3981934  -999.250000 12.505100250 12.250000954 78402.960938 0.0034057694 6.7664999962 0.0066996794 0.4191520810 2.6044220924 3.7038810253 86.363243103 1.6284999847 90.647628784 204.63639832 1.4801071882 1.5312000513 1.4547077417
