# LAS format log file from PETREL
# Project units are specified as depth units
#==================================================================
~Version information
VERS.   2.0:
WRAP.   NO:
#==================================================================
~Well
STRT .m      586.57812500 :
STOP .m      4014.2067871 :
STEP .m     0.00000000 :
NULL .        -999.250000 :
COMP.           : COMPANY
WELL.  34/10-21   : WELL
FLD.            : FIELD
LOC.            : LOCATION
SRVC.           : SERVICE COMPANY
DATE.  2018-09-11 14:48:44   : Log Export Date {yyyy-MM-dd HH:mm:ss}
PROV.           : PROVINCE
UWI.   34/10-21   : UNIQUE WELL ID
API.            : API NUMBER
#==================================================================
~Curve
DEPT .m                   : DEPTH
Lithology_geolink ._      : Lithology_geolink
CALI .in                  : CALI
DRHO .g/cm3               : DRHO
NPHI .m3/m3               : NPHI
RHOB .g/cm3               : RHOB
PEF .b/e                  : PEF
GR .gAPI                  : GR
DTC .us/ft                : DTC
RDEP .ohm.m               : RDEP
SP .mV                    : SP
RSHA .ohm.m               : RSHA
RMED .ohm.m               : RMED
~Parameter
#==================================================================
~Ascii
# ...
 2868.9206543 13.000000000 12.812999725 0.0039903848 0.3118889034 2.4649903774 4.1835050583 55.126804352 99.500099182 1.3979952335 29.749599457 2.3830511570 1.6379920244
 2869.0729980 13.000000000 12.815999031 0.0059967949 0.3089395463 2.4590096474 4.3177852631 55.329673767 99.437095642 1.4099807739 29.625200272 2.3750128746 1.6240223646
 2869.2253418 13.000000000 12.815999031 0.0040032053 0.3169015646 2.4480175972 4.1472740173 55.733352661 99.313201904 1.4179871082 29.625000000 2.3610224724 1.6140159369
 2869.3776855 13.000000000 12.808999062 -0.000984000 0.3270412087 2.4450094700 3.7363183498 54.550800323 99.562202454 1.4209903479 29.749599457 2.4317727089 1.6249648333
 2869.5302734 13.000000000 12.796999931 -0.001998398 0.3393306434 2.4549839497 3.6191859245 52.206756592 99.563003540 1.4229967594 29.750000000 2.4409856796 1.6509582996
 2869.6826172 13.000000000 12.788998604 -0.002998397 0.3416925073 2.4659824371 3.8935594559 49.908679962 99.187599182 1.4220016003 29.750000000 2.4110481739 1.6629807949
 2869.8349609 13.000000000 12.793000221 -0.002001603 0.3401449919 2.4620063305 4.3951954842 49.563549042 99.188003540 1.4249951839 29.750000000 2.4389550686 1.6570096016
 2869.9873047 13.000000000 12.793000221 -0.000003205 0.3381296992 2.4510176182 4.6895289421 52.943576813 99.312805176 1.4309903383 29.750000000 2.4609646797 1.6430224180
 2870.1396484 13.000000000 12.788998604 0.0009968000 0.3241972327 2.4440224171 4.7398395538 55.476886749 99.374809265 1.4260159731 29.625400543 2.4121568203 1.6370191574
 2870.2922363 13.000000000 12.793000221 0.0029967949 0.3198736906 2.4449982643 4.6461505890 55.858402252 99.375007629 1.4130208492 29.500200272 2.4209856987 1.6449871063
 2870.4445801 13.000000000 12.793000221 0.0089903846 0.3152348697 2.4499919415 4.7608160973 54.393352509 99.437904358 1.3990224600 29.375200272 2.4579405785 1.6519887447
 2870.5969238 13.000000000 12.796999931 0.0179855768 0.3202656507 2.4500000477 5.0724997520 55.103855133 99.874298096 1.3830256462 29.125400543 2.3960993290 1.6480064392
 2870.7492676 13.000000000 12.805000305 0.0339488015 0.3330682814 2.4460129738 5.3451266289 57.229179382 100.24880219 1.3710384369 29.125000000 2.2903392315 1.6220831871
 2870.9018555 13.000000000 12.819999695 0.0459807701 0.3484307826 2.4290270805 5.3020706177 55.179298401 100.43669891 1.3710000515 29.374599457 2.1092901230 1.5760736465
 2871.0541992 13.000000000 12.815999031 0.0519903861 0.3722535670 2.4190158844 5.2690529823 51.147464752 100.37509918 1.3729968071 29.375000000 2.0810449123 1.5360641479
 2871.2065430 13.000000000 12.800999641 0.0569919869 0.3759923577 2.4349741936 5.9519038200 49.191127777 100.06350708 1.3700047731 29.375000000 2.2557196617 1.5360000134
 2871.3588867 13.000000000 12.746000290 0.0510191992 0.3654808700 2.4429745674 7.0644316673 49.966503143 99.564605713 1.3670096397 29.375000000 2.3437185287 1.5718848705
 2871.5114746 13.000000000 12.687999725 0.0460080132 0.3460224271 2.4310193062 7.2596926689 50.948429108 99.188606262 1.3630064726 29.498802185 2.2811007500 1.6119358540
 2871.6638184 13.000000000 12.680000305 0.0489951894 0.3375171423 2.4130289555 6.3364825249 49.939620972 99.374710083 1.3610031605 29.624797821 2.2260882854 1.6309696436
 2871.8161621 13.000000000 12.659999847 0.0529935881 0.3439891040 2.4209871292 5.7908735275 47.847358704 99.624595642 1.3729808331 29.625000000 2.0373027325 1.6230129004
 2871.9685059 13.000000000 12.633000374 0.0480080135 0.3403775096 2.4429647923 5.5503849983 48.326225281 99.686904907 1.3889744282 29.874599457 2.0210256577 1.6040303707
 2872.1208496 13.000000000 12.550999641 0.0340448022 0.3292039037 2.4539647102 5.2200589180 50.954566956 99.936195374 1.3989681005 30.000000000 2.1535744667 1.5890480280
 2872.2734375 13.000000000 12.612999916 0.0230176281 0.3315821886 2.4500064850 5.0961971283 53.761505127 99.688400269 1.4089840651 30.125000000 2.1480095387 1.5919952393
 2872.4257813 13.000000000 12.684000015 0.0299887806 0.3462328911 2.4490015507 5.3116536140 51.800155640 99.064010620 1.4169871807 30.125000000 2.2558269501 1.6129664183
 2872.5781250 13.000000000 12.559000015 0.0409823731 0.3593768179 2.4440081120 5.3439483643 46.991714478 98.813407898 1.4199951887 30.000000000 1.5581202507 1.6429519653
 2872.7304688 13.000000000 12.593999863 0.0340224020 0.3480152190 2.4260578156 5.1137390137 45.145900726 99.061203003 1.4259808064 30.000000000 1.4613071680 1.6729040146
 2872.8830566 13.000000000 12.645001411 0.0240160264 0.3366065323 2.3990430832 5.5502982140 47.799732208 99.871704102 1.4299935102 29.875000000 2.0320832729 1.6819856167
 2873.0354004 13.000000000 12.699000359 0.0279935915 0.3302702904 2.3740401268 6.8888525963 51.556976318 100.37419891 1.4210144281 29.625000000 1.5367964506 1.6640288830
 2873.1877441 13.000000000 12.722999573 0.0479679480 0.3256024122 2.3610208035 9.2671861649 52.155048370 100.81230164 1.4010320902 29.750000000 1.0397964716 1.6370432377
 2873.3400879 13.000000000 12.785000801 0.0489967987 0.3432347178 2.3131535053 11.661326408 52.326454163 101.24860382 1.3671088219 30.000000000 1.1127632856 1.6060991287
 2873.4926758 13.000000000 12.996001244 0.0440080129 0.3926214874 2.2491025925 13.702735901 52.315017700 101.87200165 1.3190768957 29.750999451 1.1749006510 1.5640673637
 2873.6450195 13.000000000 13.160000801 0.0449983999 0.4208597243 2.2150545120 14.751322746 51.797832489 102.93629456 1.2720752954 29.875000000 0.8335480690 1.4931137562
 2873.7973633 13.000000000 13.663999557 0.0629711524 0.4318250418 2.2279791832 14.686107635 49.675407410 103.81159973 1.2390528917 30.125000000 0.5724182725 1.4071377516
 2873.9497070 13.000000000 14.015999794 0.0719855726 0.4225648046 2.2369856834 15.105326653 46.286434174 104.43700409 1.2190320492 30.000000000 0.5929663181 1.3341169357
 2874.1020508 13.000000000 13.558999062 0.0819680020 0.4169170558 2.2170639038 16.044986725 45.159599304 104.25159454 1.2070384026 29.875000000 0.5969871879 1.2961215973
 2874.2546387 13.000000000 13.451999664 0.0760096163 0.3943823576 2.1750671864 16.864688873 48.219081879 103.68890381 1.2060015202 29.750000000 0.5700432658 1.2890112400
 2874.4069824 13.000000000 13.371001244 0.0530368574 0.3675859272 2.1480431557 14.955066681 52.290473938 102.68959808 1.2159839869 29.750000000 0.6328990459 1.3019791842
 2874.5593262 13.000000000 12.835999489 0.0350288451 0.3693610430 2.1859393120 10.857571602 53.451145172 101.50190735 1.2349696159 29.750000000 1.1611522436 1.3449311256
 2874.7116699 13.000000000 12.586000443 0.0300159995 0.3863480091 2.2846832275 8.0330467224 51.913940430 100.62879944 1.2629103661 29.875000000 1.6255120039 1.4317216873
 2874.8642578 13.000000000 12.492000580 0.0389855765 0.3914039731 2.3848397732 7.5018382072 53.051166534 99.503799438 1.2959470749 30.125000000 1.6050353050 1.5448188782
 2875.0166016 13.000000000 12.559000015 0.0589679480 0.3833160400 2.4289293289 8.1809091568 54.810180664 99.063713074 1.3369343281 30.250000000 1.6079952717 1.6258702278
 2875.1689453 13.000000000 12.699000359 0.0799663439 0.3774581254 2.4339919090 8.2429018021 53.408252716 99.000099182 1.3919118643 30.000000000 1.3843588829 1.6479647160
 2875.3212891 13.000000000 12.640999794 0.0849840045 0.3754695058 2.4399807453 7.6499037743 51.646648407 98.938194275 1.4468240738 29.875000000 1.2145439386 1.6320511103
 2875.4738770 13.000000000 12.496000290 0.0610384606 0.3749915361 2.4320127964 6.9601044655 52.945907593 99.311393738 1.4879343510 30.000000000 1.4616025686 1.6290047169
 2875.6262207 13.000000000 12.586000443 0.0500176288 0.3660985529 2.4260096550 7.2076010704 55.870307922 99.250091553 1.5139583349 30.000000000 1.6886361837 1.6579535007
 2875.7785645 13.000000000 13.055000305 0.0659743622 0.3494733870 2.4220063686 8.8483667374 56.202472687 98.688903809 1.5080096722 30.125000000 1.6280977726 1.7069214582
 2875.9309082 13.000000000 13.203000069 0.0789791718 0.3298643231 2.4020318985 10.981579781 55.282474518 98.563201904 1.4780480862 30.250000000 1.6260032654 1.7429423332
 2876.0832520 13.000000000 12.824000359 0.0770063996 0.3198678493 2.3720960617 12.312738419 53.148841858 99.371406555 1.4480959177 30.375000000 1.3927487135 1.7420032024
