# LAS format log file from PETREL
# Project units are specified as depth units
#==================================================================
~Version information
VERS.   2.0:
WRAP.   NO:
#==================================================================
~Well
STRT .m      211.00001526 :
STOP .m      2222.9851074 :
STEP .m     0.00000000 :
NULL .        -999.250000 :
COMP.           : COMPANY
WELL.  34/10-19   : WELL
FLD.            : FIELD
LOC.            : LOCATION
SRVC.           : SERVICE COMPANY
DATE.  2018-09-11 14:48:44   : Log Export Date {yyyy-MM-dd HH:mm:ss}
PROV.           : PROVINCE
UWI.   34/10-19   : UNIQUE WELL ID
API.            : API NUMBER
#==================================================================
~Curve
DEPT .m                   : DEPTH
Lithology_geolink ._      : Lithology_geolink
CALI .in                  : CALI
DRHO .g/cm3               : DRHO
NPHI .m3/m3               : NPHI
RHOB .g/cm3               : RHOB
GR .gAPI                  : GR
DTC .us/ft                : DTC
RDEP .ohm.m               : RDEP
SP .mV                    : SP
RSHA .ohm.m               : RSHA
RMED .ohm.m               : RMED
~Parameter
#==================================================================
~Ascii
# ...
 1952.0178223 6.0000000000 8.8750000000 0.0009967949 0.3789166212 2.3669881821 60.169940948 117.25000000 1.4639999866 71.938880920 1.7400000095 1.7400000095
 1952.1701660 6.0000000000 8.8760004044 -0.003000000 0.3872053325 2.3519968987 59.910530090 118.50000000 1.4630000591 77.891159058 1.7339999676 1.7339999676
 1952.3226318 6.0000000000 8.8800001144 -0.003001603 0.3813750148 2.3479952812 61.329566956 118.25000000 1.4600000381 81.052986145 1.7289999723 1.7289999723
 1952.4749756 6.0000000000 8.8789997101 -0.004998398 0.4125866890 2.3419983387 63.715381622 119.00000000 1.4589999914 81.280639648 1.7209999561 1.7209999561
 1952.6274414 6.0000000000 8.8979997635 -0.002999199 0.3960042894 2.3400046825 65.555458069 118.50000000 1.4550000429 76.954139709 1.7089999914 1.7089999914
 1952.7797852 6.0000000000 8.9020004272 -0.001999199 0.4013575017 2.3459999561 66.413887024 118.50000000 1.4459999800 75.025451660 1.7220000029 1.7220000029
 1952.9322510 6.0000000000 8.9189996719 -0.000999199 0.3857439160 2.3460016251 66.381484985 118.25000000 1.4370000362 81.354515076 1.7369999886 1.7369999886
 1953.0845947 6.0000000000 8.9270000458 0.0000024038 0.3906198442 2.3480031490 65.499717712 117.75000000 1.4270000458 80.705940247 1.7519999743 1.7519999743
 1953.2370605 6.0000000000 8.9230003357 0.0029967974 0.3779565692 2.3520047665 63.414569855 117.75000000 1.4199999571 73.004295349 1.7460000515 1.7460000515
 1953.3894043 5.0000000000 8.9289999008 0.0009967949 0.3945178688 2.3549976349 57.584506989 117.75000000 1.4160000086 79.550643921 1.7309999466 1.7309999466
 1953.5418701 5.0000000000 8.9350004196 -0.003009608 0.3794009686 2.3519806862 56.216136932 117.25000000 1.4160000086 81.707908630 1.7059999704 1.7059999704
 1953.6942139 5.0000000000 8.9560003281 -0.008997596 0.3862300217 2.3400030136 55.760318756 117.75000000 1.4240000248 83.157432556 1.6879999638 1.6879999638
 1953.8466797 5.0000000000 8.9680004120 -0.006000000 0.3862605095 2.3440065384 57.581214905 117.75000000 1.4329999685 78.779464722 1.6859999895 1.6859999895
 1953.9990234 6.0000000000 8.9689998627 -0.005995193 0.4052703977 2.3480153084 57.401428223 115.75000000 1.4500000477 77.407432556 1.6940000057 1.6940000057
 1954.1513672 6.0000000000 8.9689998627 -0.000001601 0.4057443440 2.3670048714 61.241497040 114.00000000 1.4659999609 78.756645203 1.7400000095 1.7400000095
 1954.3038330 6.0000000000 8.9670000076 -0.001997596 0.3862355053 2.3730127811 61.703254700 112.50000000 1.4859999418 78.323844910 1.8780000210 1.8780000210
 1954.4561768 6.0000000000 8.9619998932 0.0009991995 0.3930563033 2.3889968395 61.012432098 111.74999237 1.5140000582 75.785629272 2.0000000000 2.0000000000
 1954.6086426 6.0000000000 8.9560003281 -0.000002404 0.3759815395 2.3849918842 59.132637024 112.50000000 1.5460000038 72.236595154 1.9739999771 1.9739999771
 1954.7609863 6.0000000000 8.9029998779 -0.003003203 0.3779182434 2.3749904633 60.029602051 113.75000000 1.5750000477 78.851356506 1.9119999409 1.9119999409
 1954.9134521 6.0000000000 8.8199996948 -0.006999199 0.3632917404 2.3630142212 58.434909821 114.50000000 1.5950000286 79.694297791 1.8999999762 1.8999999762
 1955.0657959 6.0000000000 8.7810001373 -0.005995994 0.3779374361 2.3810265064 57.665523529 113.75000000 1.5829999447 81.517494202 1.9470000267 1.9470000267
 1955.2182617 6.0000000000 8.7419996262 -0.000991994 0.3871865571 2.4140560627 57.312076569 113.75000000 1.5470000505 83.602027893 2.0469999313 2.0469999313
 1955.3706055 6.0000000000 8.7259998322 0.0040024039 0.3725384772 2.4489951134 60.814773560 116.00000000 1.5149999857 76.398361206 2.0590000153 2.0590000153
 1955.5230713 7.0000000000 8.6920003891 0.0070016016 0.3456835747 2.4429535866 61.768070221 117.50000000 1.4839999676 75.746978760 1.8890000582 1.8890000582
 1955.6754150 7.0000000000 8.6879997253 0.0079935901 0.3354676068 2.4139671326 65.520225525 119.50000000 1.4550000429 76.988883972 1.6690000296 1.6690000296
 1955.8278809 7.0000000000 8.6879997253 -0.000004804 0.3574770689 2.3729662895 66.818939209 120.49999237 1.4210000038 77.944038391 1.5609999895 1.5609999895
 1955.9802246 7.0000000000 8.6879997253 -0.003001603 0.3930558860 2.3519935608 66.300064087 120.49999237 1.3760000467 75.201797485 1.5820000172 1.5820000172
 1956.1325684 7.0000000000 8.6859998703 -0.004999199 0.3754861057 2.3440017700 64.569580078 119.75000000 1.3259999752 70.949226379 1.6390000582 1.6390000582
 1956.2850342 7.0000000000 8.6669998169 -0.004003205 0.3706049025 2.3459968567 62.891689301 120.25000000 1.2910000086 79.728073120 1.6599999666 1.6599999666
 1956.4373779 7.0000000000 8.6560001373 -0.008003203 0.3642971218 2.3419952393 64.806427002 121.00000000 1.2749999762 79.487495422 1.5930000544 1.5930000544
 1956.5898438 7.0000000000 8.6510000229 -0.011998397 0.4106407762 2.3360030651 65.253822327 120.49999237 1.2699999809 76.216285706 1.5329999924 1.5329999924
 1956.7421875 7.0000000000 8.6549997330 -0.009994395 0.4116231203 2.3400046825 66.196754456 121.00000000 1.2710000277 75.294380188 1.5970000029 1.5970000029
 1956.8946533 7.0000000000 8.6470003128 -0.003001603 0.4155049920 2.3460063934 64.384826660 120.00000000 1.2680000067 75.638824463 1.6629999876 1.6629999876
 1957.0469971 6.0000000000 8.6280002594 -0.005004006 0.3842765093 2.3539969921 62.094612122 119.24999237 1.2710000277 75.845252991 1.6660000086 1.6660000086
 1957.1994629 6.0000000000 8.6199998856 -0.010004804 0.3798893690 2.3500030041 59.498165131 119.50000000 1.2810000181 76.162002563 1.6460000277 1.6460000277
 1957.3518066 6.0000000000 8.6210002899 -0.013001603 0.3857458830 2.3519968987 56.556415558 119.24999237 1.2890000343 77.648857117 1.6390000582 1.6390000582
 1957.5042725 6.0000000000 8.6020002365 -0.014995196 0.3930707574 2.3480064869 56.664131165 119.00000000 1.2960000038 76.110076904 1.6629999876 1.6629999876
 1957.6566162 6.0000000000 8.5989999771 -0.012000801 0.3935351372 2.3520016670 57.694927216 119.24999237 1.2970000505 73.390808105 1.6790000200 1.6790000200
 1957.8090820 6.0000000000 8.5889997482 -0.012995197 0.3749976754 2.3540000916 58.669902802 119.24999237 1.2999999523 72.356872559 1.6809999943 1.6809999943
 1957.9614258 6.0000000000 8.5830001831 -0.009999199 0.3735548854 2.3540024757 58.160713196 119.00000000 1.3049999475 74.556167603 1.6690000296 1.6690000296
 1958.1137695 6.0000000000 8.5710000992 -0.008997598 0.3920931220 2.3569977283 61.334514618 119.00000000 1.3090000153 73.105918884 1.6430000067 1.6430000067
 1958.2662354 6.0000000000 8.5679998398 -0.006000801 0.3960054815 2.3540008068 64.606140137 118.50000000 1.3109999895 73.383247375 1.6419999599 1.6419999599
 1958.4185791 6.0000000000 8.5509996414 -0.006999200 0.4028218091 2.3549959660 65.129165649 117.99999237 1.3129999638 71.453865051 1.6599999666 1.6599999666
 1958.5710449 6.0000000000 8.5469999313 -0.006000801 0.3925925195 2.3500056267 62.067108154 117.50000000 1.3129999638 71.424278259 1.6940000057 1.6940000057
 1958.7233887 6.0000000000 8.5469999313 -0.006996798 0.4082097709 2.3570048809 61.102798462 117.50000000 1.3109999895 74.979904175 1.6979999542 1.6979999542
 1958.8758545 6.0000000000 8.5469999313 -0.003001603 0.4204088449 2.3629982471 61.814678192 117.50000000 1.3129999638 76.701164246 1.6809999943 1.6809999943
 1959.0281982 6.0000000000 8.5410003662 -0.005004804 0.4189406037 2.3609952927 65.705604553 117.75000000 1.3140000105 77.740859985 1.6740000248 1.6740000248
 1959.1806641 6.0000000000 8.5439996719 -0.011008013 0.4072018266 2.3549911976 64.112182617 117.50000000 1.3129999638 78.926376343 1.6729999781 1.6729999781
 1959.3330078 6.0000000000 8.5399999619 -0.020999199 0.3720547557 2.3440082073 63.397937775 117.75000000 1.3109999895 73.041786194 1.6779999733 1.6779999733
 1959.4854736 6.0000000000 8.5389995575 -0.020000000 0.3530112505 2.3540000916 59.649364471 117.75000000 1.3090000153 70.032119751 1.6729999781 1.6729999781
 1959.6378174 6.0000000000 8.5389995575 -0.019995993 0.3413283825 2.3540105820 59.230285645 117.75000000 1.3070000410 77.249534607 1.6590000391 1.6590000391
