# LAS format log file from PETREL
# Project units are specified as depth units
#==================================================================
~Version information
VERS.   2.0:
WRAP.   NO:
#==================================================================
~Well
STRT .m      127.75000000 :
STOP .m      3459.2514648 :
STEP .m     0.00000000 :
NULL .        -999.250000 :
COMP.           : COMPANY
WELL.  34/10-17   : WELL
FLD.            : FIELD
LOC.            : LOCATION
SRVC.           : SERVICE COMPANY
DATE.  2018-09-11 14:48:44   : Log Export Date {yyyy-MM-dd HH:mm:ss}
PROV.           : PROVINCE
UWI.   34/10-17   : UNIQUE WELL ID
API.            : API NUMBER
#==================================================================
~Curve
DEPT .m                   : DEPTH
Lithology_geolink ._      : Lithology_geolink
CALI .in                  : CALI
DRHO .g/cm3               : DRHO
NPHI .m3/m3               : NPHI
RHOB .g/cm3               : RHOB
GR .gAPI                  : GR
DTC .us/ft                : DTC
RDEP .ohm.m               : RDEP
SP .mV                    : SP
RSHA .ohm.m               : RSHA
RMED .ohm.m               : RMED
~Parameter
#==================================================================
~Ascii
# ...
 1900.0000000  -999.250000 19.906002045 -0.061999999 0.3458100259 1.8300000429 37.145999908 142.52200317 0.6489999890 42.743999481 0.5780000091 0.5400000215
 1900.1251221  -999.250000 19.777000427 -0.057000000 0.3352700174 1.8519999981 37.634998322 142.01400757 0.6539999843 42.770000458 0.5720000267 0.5490000248
 1900.2498779  -999.250000 19.575000763 -0.043000001 0.3306399882 1.9019999504 38.819999695 140.70700073 0.6579999924 42.805000305 0.5749999881 0.5580000281
 1900.3750000  -999.250000 19.450000763 -0.028000001 0.3330000043 1.9600000381 40.083999634 138.90100098 0.6600000262 42.825000763 0.5830000043 0.5659999847
 1900.4997559  -999.250000 19.458999634 -0.021000000 0.3393000066 2.0090000629 40.964000702 137.12800598 0.6629999876 42.833999634 0.5929999948 0.5720000267
 1900.6248779  -999.250000 19.552999496 -0.021000000 0.3438799977 2.0420000553 41.273998260 135.71600342 0.6669999957 42.852001190 0.6010000110 0.5780000091
 1900.7501221  -999.250000 19.586999893 -0.017999999 0.3425400257 2.0680000782 41.363998413 134.69900513 0.6719999909 42.879001617 0.6079999804 0.5830000043
 1900.8748779  -999.250000 19.474000931 -0.008000000 0.3363499939 2.0899999142 41.959999084 134.02499390 0.6759999990 42.901000977 0.6150000095 0.5849999785
 1900.9997559  -999.250000 19.253999710 0.0070000002 0.3317100108 2.1040000916 43.470001221 133.57000732 0.6779999733 42.909999847 0.6200000048 0.5839999914
 1901.1252441  -999.250000 19.031999588 0.0199999996 0.3366899788 2.1019999981 46.479000092  -999.250000 0.6790000200 42.917999268 0.6209999919 0.5799999833
 1901.2500000  -999.250000 18.905000687 0.0289999992 0.3499499857 2.0950000286 52.008998871  -999.250000 0.6830000281 42.943000793 0.6150000095 0.5770000219
 1901.3748779  -999.250000 18.870000839 0.0370000005 0.3628900051 2.0869998932 59.300998688  -999.250000 0.6899999976 42.994998932 0.6060000062 0.5770000219
 1901.5000000  -999.250000 18.868999481 0.0430000015 0.3678399920 2.0759999752 66.248001099  -999.250000 0.6980000138 43.061000824 0.5979999900 0.5809999704
 1901.6250000  -999.250000 18.841999054 0.0419999994 0.3619699776 2.0559999943 70.157997131  -999.250000 0.7049999833 43.113998413 0.5970000029 0.5879999995
 1901.7498779  -999.250000 18.757999420 0.0350000001 0.3514600098 2.0309998989 68.666999817  -999.250000 0.7089999914 43.137001038 0.6039999723 0.5979999900
 1901.8752441  -999.250000 18.659000397 0.0240000002 0.3412699997 2.0020000935 62.988998413  -999.250000 0.7110000253 43.134998322 0.6169999838 0.6079999804
 1902.0001221  -999.250000 18.582000732 0.0089999996 0.3346500099 1.9730000496 55.726001740  -999.250000 0.7129999995 43.131999969 0.6309999824 0.6159999967
 1902.1248779  -999.250000 18.545000076 -0.005000000 0.3327800035 1.9490000010 49.743999481  -999.250000 0.7160000205 43.147998810 0.6420000196 0.6230000257
 1902.2502441  -999.250000 18.563999176 -0.017999999 0.3356899917 1.9370000362 47.133998871  -999.250000 0.7229999900 43.194999695 0.6449999809 0.6259999871
 1902.3750000  -999.250000 18.632999420 -0.028000001 0.3440900147 1.9450000525 46.784000397  -999.250000 0.7300000191 43.270000458 0.6409999728 0.6269999743
 1902.5001221  -999.250000 18.731000900 -0.030999999 0.3576999903 1.9769999981 46.785999298  -999.250000 0.7340000272 43.351001740 0.6349999905 0.6259999871
 1902.6248779  -999.250000 18.815000534 -0.023000000 0.3713999987 2.0280001163 45.472999573  -999.250000 0.7329999804 43.401000977 0.6309999824 0.6219999790
 1902.7500000  -999.250000 18.827999115 -0.008000000 0.3787699938 2.0659999847 42.210998535  -999.250000 0.7260000110 43.390998840 0.6320000291 0.6150000095
 1902.8748779  -999.250000 18.767999649 0.0000000000 0.3760900199 2.0650000572 38.710998535  -999.250000 0.7170000076 43.328998566 0.6340000033 0.6060000062
 1902.9998779  -999.250000 18.683000565 -0.002000000 0.3625899851 2.0290000439 36.884998322 102.59100342 0.7110000253 43.280998230 0.6340000033 0.5979999900
 1903.1251221  -999.250000 18.638000488 -0.010000000 0.3421500027 1.9830000401 37.393001556 118.43400574 0.7080000043 43.292999268 0.6290000081 0.5939999819
 1903.2498779  -999.250000 18.679000854 -0.017000001 0.3248699903 1.9509999752 39.340000153 134.47799683 0.7110000253 43.356998444 0.6200000048 0.5960000157
 1903.3747559  -999.250000 18.801000595 -0.018999999 0.3164800107 1.9429999590 41.014999390 148.51400757 0.7149999738 43.429000854 0.6129999757 0.6000000238
 1903.5002441  -999.250000 18.996999741 -0.011000000 0.3167800009 1.9559999704 41.792999268 160.71398926 0.7170000076 43.467998505 0.6110000014 0.6060000062
 1903.6251221  -999.250000 19.247999191 0.0040000002 0.3216299713 1.9830000401 41.812999725 171.65899658 0.7160000205 43.469001770 0.6159999967 0.6100000143
 1903.7498779  -999.250000 19.479000092 0.0179999992 0.3263199925 2.0090000629 41.812999725 181.34700012 0.7129999995 43.441001892 0.6240000129 0.6110000014
 1903.8750000  -999.250000 19.582000732 0.0270000007 0.3295600116 2.0250000954 42.179000854 188.15800476 0.7099999785 43.370998383 0.6309999824 0.6110000014
 1904.0000000  -999.250000 19.482000351 0.0289999992 0.3327500224 2.0260000229 37.040000916 191.51499939 0.7110000253 43.250000000 0.6349999905 0.6090000272
 1904.1248779  -999.250000 19.186000824 0.0250000004 0.3361899853 2.0079998970 32.423999786 191.93899536 0.7179999948 43.092998505 0.6349999905 0.6069999933
 1904.2502441  -999.250000 18.840000153 0.0160000008 0.3353699744 1.9750000238 36.034000397 190.93800354 0.7300000191 42.963001251 0.6340000033 0.6079999804
 1904.3751221  -999.250000 18.663999557 0.0049999999 0.3271300197 1.9359999895 38.497001648 189.38999939 0.7480000257 42.914001465 0.6340000033 0.6119999886
 1904.4998779  -999.250000 18.753999710 -0.005000000 0.3147100210 1.9049999714 39.948001862 187.70199585 0.7670000196 42.941001892 0.6340000033 0.6029999852
 1904.6252441  -999.250000 19.054000854 -0.010000000 0.3057900071 1.8999999762 40.709999084 185.90602112 0.6510000229 43.011001587 0.6359999776 0.4979999959
 1904.7500000  -999.250000 19.875999451 -0.264999986 0.3068400025 1.9010000229 40.866001129 184.02299500 0.4659999907 43.073001862 0.6380000114 0.4609999955
 1904.8751221  -999.250000 20.902999878 -0.268000007 0.3186900020 1.8930000067 40.785999298 182.57400513 0.4129999876 43.103000641 0.6409999728 0.4639999866
 1905.0000000  -999.250000 21.707000732 -0.273000002 0.3380599916 1.8880000114 41.049999237 182.68400574 0.4189999998 43.098999023 0.6449999809 0.4779999852
 1905.1250000  -999.250000 22.221000671 -0.280999988 0.3477700055 1.8819999695 41.693000793 185.33700562 0.4560000002 43.071998596 0.6480000019 0.4920000136
 1905.2498779  -999.250000 22.447000504 -0.287000000 0.5627800226 1.8750000000 41.543998718 190.10400391 0.5059999824 42.632999420 0.6510000229 0.5019999743
 1905.3748779  -999.250000 22.523998260 -0.289999992 0.5382899642 1.8689999580 39.547000885 195.65600586 0.5490000248 42.780998230 0.5619999766 0.5090000033
 1905.5001221  -999.250000 22.543998718 -0.289999992 0.5165299773 1.8669999838 35.741001129 200.36599731 0.5749999881 42.944000244 0.5389999747 0.5090000033
 1905.6248779  -999.250000 22.548999786 -0.284000009 0.4992599785 1.8719999790 30.954000473 203.50502014 0.5830000043 43.070999146 0.5199999809 0.5040000081
 1905.7497559  -999.250000 22.549999237 -0.273999989 0.4858499765 1.8839999437 26.611000061 205.36999512 0.5749999881 43.126998901 0.5109999776 0.4950000048
 1905.8750000  -999.250000 22.551000595 -0.263000011 0.4745700061 1.8969999552 23.881999969 206.41000366 0.5569999814 43.131000519 0.5149999857 0.4850000143
 1906.0001221  -999.250000 22.554000854 -0.254999995 0.4701900184 1.9060000181 22.863000870 207.03799438 0.5320000052 43.115001678 0.5270000100 0.4769999981
 1906.1248779  -999.250000 22.561000824 -0.257999986 0.4807300270 1.8999999762 23.025999069 207.23699951 0.5090000033 43.099998474 0.5419999957 0.4720000029
 1906.2500000  -999.250000 22.568000793 -0.268999994 0.5112800002 1.8839999437 23.797000885 207.15699768 0.4979999959 43.097999573 0.5540000200 0.4699999988
