# LAS format log file from PETREL
# Project units are specified as depth units
#==================================================================
~Version information
VERS.   2.0:
WRAP.   NO:
#==================================================================
~Well
STRT .m      3900.0166016 :
STOP .m      4564.4804688 :
STEP .m     0.00000000 :
NULL .        -999.250000 :
COMP.           : COMPANY
WELL.  34/11-1   : WELL
FLD.            : FIELD
LOC.            : LOCATION
SRVC.           : SERVICE COMPANY
DATE.  2018-09-11 14:48:47   : Log Export Date {yyyy-MM-dd HH:mm:ss}
PROV.           : PROVINCE
UWI.   34/11-1   : UNIQUE WELL ID
API.            : API NUMBER
#==================================================================
~Curve
DEPT .m                   : DEPTH
Lithology_geolink ._      : Lithology_geolink
CALI .in                  : CALI
BS .in                    : BS
NPHI .m3/m3               : NPHI
RHOB .g/cm3               : RHOB
GR .gAPI                  : GR
DTC .us/ft                : DTC
DTS .us/ft                : DTS
RDEP .ohm.m               : RDEP
SP .mV                    : SP
RSHA .ohm.m               : RSHA
RMED .ohm.m               : RMED
~Parameter
#==================================================================
~Ascii
# ...
 4426.7109375 5.0000000000 9.0520000458 8.3750000000 0.2622390389 2.6080000401 121.31675720 74.925018311 175.18684387 2.4260001183 -842.1290283 2.4468557835 2.5529999733
 4426.8632813 6.0000000000 9.0520000458 8.3750000000 0.3267886639 2.5610001087 119.64797974 76.076141357 178.62260437 2.2980000973 -1679.420044 2.3843364716 2.4960000515
 4427.0156250 6.0000000000 9.0520000458 8.3750000000 0.2740359604 2.5639998913 119.34382629 78.033638000 181.65541077 2.2260000706 -1614.048950 2.3291058540 2.4409999847
 4427.1679688 6.0000000000 9.0570001602 8.3750000000 0.2841429710 2.6180000305 120.62590790 80.308410645 183.37658691 2.1919999123 -1137.734985 2.2973942757 2.3759999275
 4427.3203125 6.0000000000 9.0950002670 8.3750000000 0.3486422002 2.6270000935 122.87007904 82.668891907 184.51867676 2.1809999943 -637.7340088 2.2838435173 2.3250000477
 4427.4731445 6.0000000000 9.0520000458 8.3750000000 0.3057839572 2.6150000095 124.79243469 84.702522278 185.80313110 2.1740000248 -137.7440033 2.2753171921 2.3039999008
 4427.6254883 6.0000000000 9.0520000458 8.3750000000 0.2732612789 2.6199998856 125.60548401 86.099563599 188.23168945 2.1610000134 361.91900635 2.2714424133 2.2950000763
 4427.7778320 6.0000000000 9.0520000458 8.3750000000 0.2783117890 2.5989999771 124.78810120 86.932891846 190.74296570 2.1429998875 836.94897461 2.2858557701 2.2850000858
 4427.9301758 6.0000000000 9.0520000458 8.3750000000 0.2885603607 2.5769999027 124.71560669 87.570327759 193.45710754 2.1289999485 1035.4709473 2.3355095387 2.2850000858
 4428.0825195 6.0000000000 9.0520000458 8.3750000000 0.3125242293 2.5729999542 126.22847748 88.139633179 195.64952087 2.1329998970 405.89498901 2.4122693539 2.3090000153
 4428.2348633 6.0000000000 9.0520000458 8.3750000000 0.3361558616 2.5929999352 124.88669586 88.652740479 196.67558289 2.1600000858 -847.4290161 2.4894711971 2.3619999886
 4428.3872070 6.0000000000 9.0559997559 8.3750000000 0.3723033667 2.6359999180 121.98062897 89.200347900 196.75762939 2.2060000896 -1681.253052 2.5810482502 2.4470000267
 4428.5395508 6.0000000000 9.0830001831 8.3750000000 0.3202201724 2.6180000305 120.91989899 89.676818848 195.80769348 2.2739999294 -1613.656006 2.7224857807 2.5550000668
 4428.6918945 5.0000000000 9.1049995422 8.3750000000 0.2988735735 2.5859999657 119.44804382 90.010490417 193.73608398 2.3689999580 -1137.759033 2.9269230366 2.6879999638
 4428.8447266 5.0000000000 9.1049995422 8.3750000000 0.2999775708 2.5810000896 116.32465363 90.291046143 192.59652710 2.4860000610 -640.3129883 3.1621632576 2.8699998856
 4428.9970703 5.0000000000 9.1049995422 8.3750000000 0.2851191163 2.5910000801 113.40361786 90.532836914 189.72851563 2.6110000610 -140.3229980 3.3596923351 3.0899999142
 4429.1494141 5.0000000000 9.1090002060 8.3750000000 0.2972562909 2.5880000591 110.23635101 90.790718079 186.03057861 2.7320001125 359.35699463 3.4687693119 3.2929999828
 4429.3017578 5.0000000000 9.1330003738 8.3750000000 0.3181871772 2.5829999447 108.55387878 90.922309875 181.92636108 2.8269999027 834.71899414 3.4612789154 3.4349999428
 4429.4541016 5.0000000000 9.1479997635 8.3750000000 0.2919769287 2.5820000172 109.05027771 90.782463074 179.35153198 2.8770000935 1035.1600342 3.3336057663 3.4779999256
 4429.6064453 5.0000000000 9.1409997940 8.3750000000 0.2701950967 2.5559999943 107.96659088 90.388755798 178.20465088 2.8859999180 407.94699097 3.1442115307 3.3940000534
 4429.7587891 5.0000000000 9.1420001984 8.3750000000 0.2802331746 2.5859999657 105.95769501 89.726058960 178.34382629 2.8610000610 -845.6469727 2.9842402935 3.2179999352
 4429.9111328 5.0000000000 9.1540002823 8.3750000000 0.3057073951 2.6619999409 108.11805725 88.694778442 180.93585205 2.8090000153 -1682.022949 2.9002490044 3.0390000343
 4430.0639648 5.0000000000 9.1400003433 8.3750000000 0.2286343575 2.6429998875 114.01892853 87.340950012 181.00302124 2.7400000095 -1616.053955 2.8884904385 2.9210000038
 4430.2163086 5.0000000000 9.1409997940 8.3750000000 0.2538293600 2.6070001125 118.62459564 85.909225464 181.18087769 2.6689999104 -1139.688965 2.9157307148 2.8640000820
 4430.3686523 5.0000000000 9.1400003433 8.3750000000 0.4052138329 2.6329998970 120.04827118 84.644355774 180.67578125 2.6080000401 -639.6879883 2.9434905052 2.8440001011
 4430.5209961 5.0000000000 9.1429996490 8.3750000000 0.3786208928 2.6219999790 119.93492126 83.803825378 179.83106995 2.5659999847 -139.6979980 2.9772212505 2.8469998837
 4430.6733398 5.0000000000 9.1610002518 8.3750000000 0.3333243132 2.6400001049 120.40818024 83.434944153 177.98478699 2.5520000458 359.95901489 3.0379903316 2.8750000000
 4430.8256836 5.0000000000 9.1789999008 8.3750000000 0.3569822013 2.6259999275 120.88990021 83.521949768 176.29130554 2.5690000057 834.86999512 3.1162693501 2.9360001087
 4430.9780273 5.0000000000 9.1929998398 8.3750000000 0.3519339263 2.5859999657 121.48621368 84.096405029 176.84870911 2.6180000305 1032.7039795 3.1831345558 3.0230000019
 4431.1303711 5.0000000000 9.1940002441 8.3750000000 0.2074589431 2.6019999981 122.42475128 85.061599731 178.17550659 2.6800000668 402.27999878 3.2074327469 3.1189999580
 4431.2827148 5.0000000000 9.1929998398 8.3750000000 0.2470279783 2.6010000706 121.46937561 86.092208862 178.76785278 2.7279999256 -850.7919922 3.1788628101 3.1840000153
 4431.4355469 6.0000000000 9.1929998398 8.3750000000 0.2211982012 2.6099998951 120.54253387 86.762725830 177.93644714 2.7509999275 -1682.791992 3.1215000153 3.1979999542
 4431.5878906 6.0000000000 9.1929998398 8.3750000000 0.2952575684 2.6500000954 120.88361359 86.986640930 176.91351318 2.7569999695 -1618.489014 3.0788750648 3.1670000553
 4431.7402344 6.0000000000 9.1929998398 8.3750000000 0.3074705005 2.6099998951 120.13458252 86.921386719 177.22320557 2.7490000725 -1142.267944 3.0747692585 3.1080000401
 4431.8925781 6.0000000000 9.1929998398 8.3750000000 0.3530450165 2.5920000076 118.16710663 86.642677307 178.32444763 2.7369999886 -642.2680054 3.1045384407 3.0590000153
 4432.0449219 6.0000000000 9.1929998398 8.3750000000 0.2822675705 2.5940001011 115.89991760 86.152770996 179.00970459 2.7300000191 -142.2769928 3.1537404060 3.0510001183
 4432.1972656 6.0000000000 9.1929998398 8.3750000000 0.2753921151 2.5829999447 113.43421173 85.463981628 177.63143921 2.7230000496 357.39700317 3.2055385113 3.0899999142
 4432.3496094 6.0000000000 9.1929998398 8.3750000000 0.3239445984 2.5989999771 112.38349915 84.732414246 175.59605408 2.7139999866 832.64001465 3.2557020187 3.1570000648
 4432.5019531 5.0000000000 9.1929998398 8.3750000000 0.2655729651 2.6010000706 112.15750122 84.199119568 173.37255859 2.7219998837 1032.3929443 3.3243994713 3.2070000172
 4432.6547852 5.0000000000 9.1929998398 8.3750000000 0.2689637244 2.6029999256 112.28620148 83.993705750 172.58421326 2.7620000839 404.33200073 3.4350481033 3.2479999065
 4432.8071289 5.0000000000 9.1909999847 8.3750000000 0.2378771752 2.6250000000 113.69141388 84.019668579 175.28076172 2.8340001106 -849.1649780 3.5324037075 3.3299999237
 4432.9594727 5.0000000000 9.1730003357 8.3750000000 0.2327585965 2.6370000839 112.18417358 84.047981262 175.30387878 2.9100000858 -1684.625000 3.4969711304 3.4679999352
 4433.1118164 5.0000000000 9.1730003357 8.3750000000 0.2718907595 2.6340000629 105.55197906 83.971908569 174.62168884 2.9260001183 -1618.060059 3.2924904823 3.5759999752
 4433.2641602 5.0000000000 9.1569995880 8.3750000000 0.2548392415 2.6449999809 102.55135345 83.840896606 170.60067749 2.8610000610 -1141.642944 3.0103750229 3.5099999905
 4433.4165039 6.0000000000 9.1470003128 8.3750000000 0.2393250763 2.6530001163 108.42673492 83.689682007 167.91690063 2.7449998856 -641.6430054 2.7450673580 3.2730000019
 4433.5688477 6.0000000000 9.1400003433 8.3750000000 0.2334915400 2.6579999924 118.49560547 83.507652283 166.33715820 2.5940001011 -141.6519928 2.5139231682 2.9639999866
 4433.7211914 6.0000000000 9.1429996490 8.3750000000 0.2607737482 2.6229999065 127.52243805 83.286071777 169.19059753 2.4549999237 357.99899292 2.3307499886 2.6689999104
 4433.8735352 6.0000000000 9.1560001373 8.3750000000 0.2667479813 2.5869998932 132.53213501 83.034736633 175.67587280 2.3410000801 832.94598389 2.2142684460 2.4419999123
