# LAS format log file from PETREL
# Project units are specified as depth units
#==================================================================
~Version information
VERS.   2.0:
WRAP.   NO:
#==================================================================
~Well
STRT .m      818.46392822 :
STOP .m      2256.5109863 :
STEP .m     0.00000000 :
NULL .        -999.250000 :
COMP.           : COMPANY
WELL.  34/10-7   : WELL
FLD.            : FIELD
LOC.            : LOCATION
SRVC.           : SERVICE COMPANY
DATE.  2018-09-11 14:48:47   : Log Export Date {yyyy-MM-dd HH:mm:ss}
PROV.           : PROVINCE
UWI.   34/10-7   : UNIQUE WELL ID
API.            : API NUMBER
#==================================================================
~Curve
DEPT .m                   : DEPTH
Lithology_geolink ._      : Lithology_geolink
CALI .in                  : CALI
DRHO .g/cm3               : DRHO
NPHI .m3/m3               : NPHI
RHOB .g/cm3               : RHOB
GR .gAPI                  : GR
DTC .us/ft                : DTC
RDEP .ohm.m               : RDEP
SP .mV                    : SP
RSHA .ohm.m               : RSHA
RMED .ohm.m               : RMED
~Parameter
#==================================================================
~Ascii
# ...
 1673.4282227  -999.250000 12.516000748 -0.075000003  -999.250000 2.2560000420 32.826473236 118.38261414 2.7278430462 75.552024841 3.5412533283 3.5412533283
 1673.5806885  -999.250000 12.555000305 -0.043000001  -999.250000 2.2479999065 33.311496735 124.35578918 2.4847781658 75.691886902 2.6398887634 2.6398887634
 1673.7330322  -999.250000 12.624999046 -0.010000000  -999.250000 2.2149999142 31.973306656 129.73277283 2.3115546703 76.090362549 1.8834230900 1.8834230900
 1673.8854980  -999.250000 12.647999763 -0.020000000  -999.250000 2.1559998989 28.414564133 133.11688232 2.1683437824 76.199913025 1.4590167999 1.4590167999
 1674.0378418  -999.250000 12.586000443 -0.037999999  -999.250000 2.1040000916 29.449645996 137.11218262 2.0085122585 76.308914185 1.3483523130 1.3483523130
 1674.1903076  -999.250000 12.555000305 -0.061999999  -999.250000 2.0529999733 27.613431931 138.12258911 1.8294303417 76.169113159 1.5175913572 1.5175913572
 1674.3426514  -999.250000 12.555000305 -0.071999997  -999.250000 2.0179998875 30.382091522 138.99719238 1.6864579916 76.153015137 1.8369752169 1.8369752169
 1674.4951172  -999.250000 12.680000305 -0.048000000  -999.250000 2.0629999638 31.840507507 139.49879456 1.5972139835 76.168983459 2.0544784069 2.0544784069
 1674.6474609  -999.250000 12.750000000 -0.028999999  -999.250000 2.1110000610 35.612892151 139.50000000 1.5551344156 76.402809143 1.9194356203 1.9194356203
 1674.7999268  -999.250000 12.812999725 -0.017999999  -999.250000 2.1449999809 37.744892120 139.99879456 1.5240745544 76.044288635 1.6486514807 1.6486514807
 1674.9522705  -999.250000 12.867000580 -0.018999999  -999.250000 2.1449999809 39.120597839 138.38020325 1.4522305727 75.184684753 1.4416629076 1.4416629076
 1675.1047363  -999.250000 12.867000580 -0.021000000  -999.250000 2.1370000839 41.120193481 137.50210571 1.3203173876 75.543708801 1.3312643766 1.3312643766
 1675.2570801  -999.250000 12.835999489 -0.017999999  -999.250000 2.1600000858 41.966297150 136.37860107 1.1844356060 75.808784485 1.2622209787 1.2622209787
 1675.4094238  -999.250000 12.835999489 -0.015000000  -999.250000 2.1719999313 43.775192261 135.50280762 1.0803333521 74.171623230 1.1563397646 1.1563397646
 1675.5618896  -999.250000 12.843999863 -0.007000000  -999.250000 2.2049999237 45.308094025 136.12300110 1.0062370300 73.903213501 1.0294067860 1.0294067860
 1675.7142334  -999.250000 12.852000237 -0.007000000  -999.250000 2.1989998817 46.994594574 136.37419128 0.9581538439 74.449119568 0.9622147679 0.9622147679
 1675.8666992  -999.250000 12.812999725 -0.007000000  -999.250000 2.2130000591 48.621093750 136.49969482 0.9240817428 75.558113098 0.9510264397 0.9510264397
 1676.0190430  -999.250000 12.796999931 -0.013000000  -999.250000 2.1889998913 49.186195374 136.37539673 0.8930993080 75.458160400 0.9500032067 0.9500032067
 1676.1715088  -999.250000 12.788998604 -0.011000000  -999.250000 2.2070000172 50.278369904 135.75149536 0.8690577149 75.317115784 0.9430168271 0.9430168271
 1676.3238525  -999.250000 12.788998604 -0.014000000  -999.250000 2.1949999332 50.405597687 134.75320435 0.8560416102 75.386947632 0.9499775767 0.9499775767
 1676.4763184  -999.250000 12.750000000 -0.011000000  -999.250000 2.2170000076 50.250373840 134.50059509 0.8540048003 75.777687073 0.9659615755 0.9659615755
 1676.6286621  -999.250000 12.788998604 -0.015000000  -999.250000 2.2170000076 48.879402161 133.75239563 0.8639680147 75.879913330 0.9520448446 0.9520448446
 1676.7811279  -999.250000 12.772999763 -0.013000000  -999.250000 2.2320001125 48.563751221 133.75000000 0.8829543591 75.926963806 0.9091033340 0.9091033340
 1676.9334717  -999.250000 12.788998604 -0.009000000  -999.250000 2.2439999580 50.649295807 134.74679565 0.9049295187 76.191787720 0.8960416317 0.8960416317
 1677.0859375  -999.250000 12.727001190 -0.009000000  -999.250000 2.2379999161 53.586940765 133.75241089 0.9259495139 76.426811218 0.9319134355 0.9319134355
 1677.2382813  -999.250000 12.796999931 -0.012000000  -999.250000 2.2400000095 52.534400940 132.37940979 0.9439423680 76.660812378 0.9997822046 0.9997822046
 1677.3906250  -999.250000 12.835999489 -0.012000000  -999.250000 2.2479999065 53.153995514 131.50280762 0.9669262767 76.801773071 1.0318974257 1.0318974257
 1677.5430908  -999.250000 12.875000000 -0.002000000  -999.250000 2.2539999485 51.505302429 131.37539673 0.9829487205 75.817787170 1.0339936018 1.0339936018
 1677.6954346  -999.250000 13.147999763 0.0080000004  -999.250000 2.2500000000 51.126201630 130.37820435 0.9899775982 75.302825928 1.0479551554 1.0479551554
 1677.8479004  -999.250000 13.461000443 0.0040000002  -999.250000 2.2300000191 50.191001892 130.37500000 0.9900000095 75.036216736 1.0320512056 1.0320512056
 1678.0002441  -999.250000 13.897999763 -0.009000000  -999.250000 2.2249999046 48.319007874 129.75199890 0.9800320864 75.675971985 0.9482692480 0.9482692480
 1678.1527100  -999.250000 14.281001091 -0.023000000  -999.250000 2.2230000496 47.346332550 129.75000000 0.9580528736 73.537719727 0.9140816927 0.9140816927
 1678.3050537  -999.250000 14.015999794 -0.041000001  -999.250000 2.2300000191 46.409000397 131.36979675 0.9191249013 72.770606995 0.9339359403 0.9339359403
 1678.4575195  -999.250000 13.703000069 -0.034000002  -999.250000 2.2420001030 44.692131042 131.99850464 0.8790961504 73.496421814 0.9569447041 0.9569447041
 1678.6098633  -999.250000 13.484000206 -0.034000002  -999.250000 2.2439999580 46.026699066 133.37059021 0.8550769091 74.971817017 0.9390576482 0.9390576482
 1678.7623291  -999.250000 13.555001259 -0.017000001  -999.250000 2.2379999161 43.818332672 133.12559509 0.8470192552 75.066925049 0.8841322064 0.8841322064
 1678.9146729  -999.250000 13.555001259 -0.017999999  -999.250000 2.2190001011 50.198486328 133.74800110 0.8489935994 75.316802979 0.8371505141 0.8371505141
 1679.0671387  -999.250000 13.656000137 -0.015000000  -999.250000 2.2170000076 26.884227753 133.75000000 0.8539879322 75.192100525 0.8280216455 0.8280216455
 1679.2194824  -999.250000 13.687999725 -0.028000001  -999.250000 2.2149999142 24.928104401 132.75320435 0.8569903970 75.816497803 0.8499295712 0.8499295712
 1679.3718262  -999.250000 13.531000137 -0.026000001  -999.250000 2.2420001030 26.525842667 132.75000000 0.8569999933 75.980743408 0.8769134283 0.8769134283
 1679.5242920  -999.250000 13.156000137 -0.021000000  -999.250000 2.2639999390 27.419147491 131.13020325 0.8540095687 76.113891602 0.9088975191 0.9088975191
 1679.6766357  -999.250000 12.944999695 -0.014000000  -999.250000 2.2769999504 27.499750137 130.00360107 0.8510096073 74.998786926 0.9418941736 0.9418941736
 1679.8291016  -999.250000 12.835999489 -0.017000001  -999.250000 2.2679998875 29.415845871 129.00320435 0.8500032425 75.418663025 0.9589455724 0.9589455724
 1679.9814453  -999.250000 12.875000000 -0.010000000  -999.250000 2.2620000839 30.091846466 128.12780762 0.8539871573 75.777427673 0.9450448751 0.9450448751
 1680.1339111  -999.250000 13.133000374 -0.011000000  -999.250000 2.2439999580 29.579238892 129.37199402 0.8579903841 76.129714966 0.9011058211 0.9011058211
 1680.2862549  -999.250000 13.508000374 -0.015000000  -999.250000 2.2070000172 28.815448761 130.12260437 0.8629839420 75.012893677 0.8481697440 0.8481697440
 1680.4387207  -999.250000 13.937999725 -0.041999999  -999.250000 2.1740000248 27.674743652 131.74609375 0.8620023727 75.183860779 0.8300432563 0.8300432563
 1680.5910645  -999.250000 14.133000374 -0.059999999  -999.250000 2.1619999409 28.964845657 133.99279785 0.8430608511 74.333679199 0.8449519873 0.8449519873
 1680.7435303  -999.250000 13.397999763 -0.068000004  -999.250000 2.1889998913 31.524841309 134.99758911 0.8220505118 73.692512512 0.8938822150 0.8938822150
 1680.8958740  -999.250000 13.086000443 -0.041000001  -999.250000 2.2379999161 34.459590912 134.75079346 0.8050544262 72.677818298 0.9229071140 0.9229071140
 1681.0483398  -999.250000 12.867000580 -0.030999999  -999.250000 2.2560000420 34.780246735 134.00180054 0.7900360823 72.661018372 0.9010528922 0.9010528922
