# LAS format log file from PETREL
# Project units are specified as depth units
#==================================================================
~Version information
VERS.   2.0:
WRAP.   NO:
#==================================================================
~Well
STRT .m      211.00001526 :
STOP .m      2222.9851074 :
STEP .m     0.00000000 :
NULL .        -999.250000 :
COMP.           : COMPANY
WELL.  34/10-19   : WELL
FLD.            : FIELD
LOC.            : LOCATION
SRVC.           : SERVICE COMPANY
DATE.  2018-09-11 14:48:44   : Log Export Date {yyyy-MM-dd HH:mm:ss}
PROV.           : PROVINCE
UWI.   34/10-19   : UNIQUE WELL ID
API.            : API NUMBER
#==================================================================
~Curve
DEPT .m                   : DEPTH
Lithology_geolink ._      : Lithology_geolink
CALI .in                  : CALI
DRHO .g/cm3               : DRHO
NPHI .m3/m3               : NPHI
RHOB .g/cm3               : RHOB
GR .gAPI                  : GR
DTC .us/ft                : DTC
RDEP .ohm.m               : RDEP
SP .mV                    : SP
RSHA .ohm.m               : RSHA
RMED .ohm.m               : RMED
~Parameter
#==================================================================
~Ascii
# ...
 1819.8870850 5.0000000000 10.491998672 0.0060000001 0.4116262496 2.2809967995 54.877468109 132.99679565 0.9269919991 86.238403320 1.0870288610 1.0870288610
 1820.0394287 5.0000000000 10.491998672 0.0059959935 0.4155319929 2.2790129185 55.984188080 130.99899292 0.9219927788 78.145706177 1.1050297022 1.1050297022
 1820.1918945 6.0000000000 10.491998672 0.0009919937 0.4179856181 2.2950065136 55.036590576 129.74960327 0.9129823446 81.325347900 1.1420576572 1.1420576572
 1820.3442383 6.0000000000 10.491000175 -0.004000802 0.4277280271 2.2990081310 55.190742493 129.50140381 0.9019904137 86.144332886 1.1779791117 1.1779791117
 1820.4967041 6.0000000000 10.484000206 -0.005006405 0.4253064096 2.3089711666 56.874691010 131.25559998 0.8899759650 88.188331604 1.1519279480 1.1519279480
 1820.6490479 6.0000000000 10.479000092 -0.008992788 0.4355468750 2.2909951210 58.290039063 134.75000000 0.8749895692 81.047309875 1.1069543362 1.1069543362
 1820.8013916 6.0000000000 10.480999947 0.0000000000 0.4316427708 2.2849888802 58.300029755 134.75039673 0.8619895577 77.888465881 1.0499527454 1.0499527454
 1820.9538574 6.0000000000 10.479999542 0.0000040064 0.4350572526 2.2710030079 58.313159943 135.24980164 0.8489775658 77.443290710 0.9909695387 0.9909695387
 1821.1062012 6.0000000000 10.484000206 0.0049967975 0.4316588044 2.2750031948 59.105327606 134.99920654 0.8209799528 85.466072083 0.9530152082 0.9530152082
 1821.2586670 6.0000000000 10.484000206 0.0010032052 0.4550788105 2.2790000439 61.067012787 134.00039673 0.7959927917 82.354324341 0.9720216393 0.9720216393
 1821.4110107 6.0000000000 10.484000206 0.0049967975 0.4535928071 2.2789936066 59.572319031 134.50000000 0.7869943976 76.241317749 0.9989880323 0.9989880323
 1821.5634766 6.0000000000 10.484000206 0.0010000000 0.4321452677 2.2709894180 58.157566071 134.50019836 0.7799959779 81.311203003 0.9839839935 0.9839839935
 1821.7158203 6.0000000000 10.480999947 0.0009975982 0.4511594474 2.2579967976 57.802413940 134.75039673 0.7749999762 85.103515625 0.9640023708 0.9640023708
 1821.8682861 6.0000000000 10.461999893 -0.001998398 0.4380107522 2.2540016174 58.158672333 135.24980164 0.7750015855 87.937034607 0.9670048356 0.9670048356
 1822.0206299 6.0000000000 10.463000298 -0.000000801 0.4638563395 2.2560031414 59.074722290 135.00019836 0.7769984007 80.476539612 0.9730007648 0.9730007648
 1822.1730957 6.0000000000 10.473999977 -0.000998399 0.4467972219 2.2600064278 59.760414124 135.24839783 0.7750095725 77.875686646 0.9739791751 0.9739791751
 1822.3254395 6.0000000000 10.487000465 -0.000003205 0.4575113654 2.2640030384 61.853404999 134.24940491 0.7810096145 78.056991577 0.9609928131 0.9609928131
 1822.4779053 6.0000000000 10.526000023 -0.004009608 0.4467557967 2.2679934502 62.200275421 133.50000000 0.7930111885 80.536483765 0.9520240426 0.9520240426
 1822.6302490 6.0000000000 10.538999557 -0.010000000 0.4316239953 2.2640070915 61.506824493 133.50059509 0.8000016212 78.661781311 0.9670280814 0.9670280814
 1822.7827148 6.0000000000 10.543999672 -0.009988790 0.4116121829 2.2730193138 57.476856232 134.25120544 0.8019999862 76.868896484 1.0020816326 1.0020816326
 1822.9350586 6.0000000000 10.541999817 -0.002995192 0.4067286551 2.2850000858 55.946636200 134.99980164 0.8019992113 77.364791870 1.0529870987 1.0529870987
 1823.0874023 6.0000000000 10.543999672 0.0030000000 0.3925983906 2.2849864960 55.360553741 134.75059509 0.8009983897 83.294525146 1.0369839668 1.0369839668
 1823.2398682 6.0000000000 10.539999962 0.0029975963 0.4155284464 2.2679839134 56.155174255 135.49960327 0.7990000248 86.556365967 1.0169775486 1.0169775486
 1823.3922119 6.0000000000 10.538999557 0.0000000000 0.4135926664 2.2480080128 56.449127197 135.00039673 0.7990024090 83.647453308 0.9889880419 0.9889880419
 1823.5446777 6.0000000000 10.538999557 0.0000016026 0.4418880343 2.2580103874 56.983592987 135.50000000 0.8020007610 79.794395447 0.9739743471 0.9739743471
 1823.6970215 6.0000000000 10.538999557 0.0019983989 0.4394586086 2.2709999084 58.127891541 135.49960327 0.8029999733 83.870231628 0.9419879913 0.9419879913
 1823.8494873 6.0000000000 10.538999557 0.0000016026 0.4501768947 2.2709991932 58.845031738 134.99980164 0.8030048013 83.659133911 0.9270336628 0.9270336628
 1824.0018311 5.0000000000 10.538999557 0.0020016027 0.4213950634 2.2699999809 58.337219238 134.75019836 0.8090064526 78.956588745 0.9690488577 0.9690488577
 1824.1542969 5.0000000000 10.545999527 0.0040096077 0.4276612103 2.2700080872 53.653629303 135.00160217 0.8170303702 76.118362427 1.0300191641 1.0300191641
 1824.3066406 5.0000000000 10.563000679 0.0099975960 0.3847747147 2.2750000954 50.821788788 135.99960327 0.8360136747 76.729385376 1.0419985056 1.0419985056
 1824.4591064 5.0000000000 10.619000435 0.0069967979 0.3906526864 2.2749969959 49.533859253 135.50079346 0.8530191779 82.564292908 1.0400255919 1.0400255919
 1824.6114502 5.0000000000 10.668000221 0.0049959933 0.4048013687 2.2729983330 51.742923737 135.99919128 0.8650064468 86.601951599 1.0560120344 1.0560120344
 1824.7639160 5.0000000000 10.672000885 -0.000001601 0.4189562500 2.2709951401 53.470230103 135.00039673 0.8730112314 83.082199097 1.0709984303 1.0709984303
 1824.9162598 5.0000000000 10.672000885 -0.000998397 0.4228535295 2.2679951191 54.526035309 135.25039673 0.8800055981 76.687271118 1.0699976683 1.0699976683
 1825.0686035 6.0000000000 10.673000336 0.0010032026 0.4272507727 2.2619969845 55.529163361 135.74920654 0.8870040178 81.740142822 1.0669808388 1.0669808388
 1825.2210693 6.0000000000 10.680000305 0.0050032050 0.4282387495 2.2580029964 55.266838074 134.75039673 0.8920007944 84.554328918 1.0429952145 1.0429952145
 1825.3734131 6.0000000000 10.687000275 0.0089991987 0.4516459405 2.2619953156 54.723129272 135.25000000 0.8929967880 77.668487549 1.0370143652 1.0370143652
 1825.5258789 5.0000000000 10.673999786 0.0080040069 0.4340854883 2.2560000420 52.900215149 135.24960327 0.8889992237 77.199028015 1.0549943447 1.0549943447
 1825.6782227 5.0000000000 10.680000305 0.0129991993 0.4409047365 2.2559969425 53.702922821 134.75000000 0.8880016208 77.222236633 1.0479896069 1.0479896069
 1825.8306885 6.0000000000 10.666999817 0.0120000001 0.4218713939 2.2520031929 54.432407379 134.74980164 0.8900023699 81.268119812 1.0349903107 1.0349903107
 1825.9830322 6.0000000000 10.548000336 0.0119991992 0.4111331105 2.2560048103 55.033832550 134.50039673 0.8930007815 83.011253357 1.0230103731 1.0230103731
 1826.1354980 6.0000000000 10.663000107 0.0110032028 0.4150517285 2.2620000839 55.744155884 134.99879456 0.8940016031 76.600242615 1.0360176563 1.0360176563
 1826.2878418 6.0000000000 10.873999596 0.0129959937 0.4223756492 2.2619953156 57.021572113 134.24960327 0.8949999809 75.442718506 1.0470097065 1.0470097065
 1826.4403076 5.0000000000 10.932999611 0.0079951966 0.4418751597 2.2559871674 55.909854889 133.75000000 0.8949983716 81.859275818 1.0590112209 1.0590112209
 1826.5926514 5.0000000000 10.940999985 0.0049967947 0.4326258898 2.2479999065 53.373386383 133.75019836 0.8940007687 86.379653931 1.0660032034 1.0660032034
 1826.7451172 5.0000000000 10.961000443 0.0010032026 0.4399134219 2.2480094433 49.734512329 134.00039673 0.8949999809 81.052124023 1.0699985027 1.0699985027
 1826.8974609 5.0000000000 10.975999832 0.0029959937 0.4233450890 2.2539968491 49.117588043 134.25059509 0.8949992061 77.104728699 1.0689952374 1.0689952374
 1827.0498047 5.0000000000 10.994999886 -0.001997598 0.4296813905 2.2500000000 49.519012451 135.00079346 0.8940007687 77.058708191 1.0629919767 1.0629919767
 1827.2022705 5.0000000000 11.030000687 0.0009991988 0.4189593792 2.2499918938 51.704284668 135.99859619 0.8950015903 83.796440125 1.0529911518 1.0529911518
 1827.3546143 5.0000000000 11.038000107 0.0000024019 0.4306651056 2.2400047779 52.770519257 134.24940491 0.8970040083 80.903419495 1.0420000553 1.0420000553
 1827.5070801 5.0000000000 11.105999947 0.0029967949 0.4370142817 2.2460064888 52.930839539 133.50000000 0.9020056129 75.434112549 1.0419952869 1.0419952869
