# LAS format log file from PETREL
# Project units are specified as depth units
#==================================================================
~Version information
VERS.   2.0:
WRAP.   NO:
#==================================================================
~Well
STRT .m      3900.0166016 :
STOP .m      4564.4804688 :
STEP .m     0.00000000 :
NULL .        -999.250000 :
COMP.           : COMPANY
WELL.  34/11-1   : WELL
FLD.            : FIELD
LOC.            : LOCATION
SRVC.           : SERVICE COMPANY
DATE.  2018-09-11 14:48:47   : Log Export Date {yyyy-MM-dd HH:mm:ss}
PROV.           : PROVINCE
UWI.   34/11-1   : UNIQUE WELL ID
API.            : API NUMBER
#==================================================================
~Curve
DEPT .m                   : DEPTH
Lithology_geolink ._      : Lithology_geolink
CALI .in                  : CALI
BS .in                    : BS
NPHI .m3/m3               : NPHI
RHOB .g/cm3               : RHOB
GR .gAPI                  : GR
DTC .us/ft                : DTC
DTS .us/ft                : DTS
RDEP .ohm.m               : RDEP
SP .mV                    : SP
RSHA .ohm.m               : RSHA
RMED .ohm.m               : RMED
~Parameter
#==================================================================
~Ascii
# ...
 4558.3842773  -999.250000 10.147999763 8.3750000000  -999.250000 2.3299999237 83.414718628 73.195999146  -999.250000 4.3309998512  -999.250000 6.5527057648 4.0729999542
 4558.5371094  -999.250000 10.159999847 8.3750000000  -999.250000 2.3659999371 81.185356140 73.195999146  -999.250000 3.9939999580  -999.250000 6.5108556747 4.0370001793
 4558.6894531  -999.250000 10.180000305 8.3750000000  -999.250000 2.4040000439 78.109596252 73.195999146  -999.250000 4.0240001678  -999.250000 6.5508942604 4.0269999504
 4558.8417969  -999.250000 10.213999748 8.3750000000  -999.250000 2.4440000057 77.798088074 73.195999146  -999.250000 4.0440001488  -999.250000 6.5720291138 4.0120000839
 4558.9941406  -999.250000 10.242999077 8.3750000000  -999.250000 2.3859999180 80.913581848 73.195999146  -999.250000 4.0890002251  -999.250000 6.5278849602 3.9409999847
 4559.1464844  -999.250000 10.284000397 8.3750000000  -999.250000 2.4130001068 85.221908569 73.195999146  -999.250000 3.9660000801  -999.250000 6.4250674248 3.8680000305
 4559.2988281  -999.250000 10.305000305 8.3750000000  -999.250000 2.4460000992 88.253479004 73.195999146  -999.250000 3.9040000439  -999.250000 6.2890291214 3.8459999561
 4559.4511719  -999.250000 10.314999580 8.3750000000  -999.250000 2.4760000706 88.822830200 73.195999146  -999.250000 3.7039999962  -999.250000 6.1517019272 3.7579998970
 4559.6035156  -999.250000 10.265999794 8.3750000000  -999.250000 2.4619998932 87.498252869 73.195999146  -999.250000 3.6240000725  -999.250000 5.9977030754 3.6760001183
 4559.7558594  -999.250000 10.208998680 8.3750000000  -999.250000 2.3870000839 85.512573242 73.195999146  -999.250000 3.5460000038  -999.250000 5.8741860390 3.6670000553
 4559.9086914  -999.250000 10.260000229 8.3750000000  -999.250000 2.2780001163 83.536766052 73.195999146  -999.250000 3.4270000458  -999.250000 5.9068460464 3.7500000000
 4560.0610352  -999.250000 10.383999825 8.3750000000  -999.250000 2.2909998894 81.612892151 73.195999146  -999.250000 3.5629999638  -999.250000 6.0100193024 4.0139999390
 4560.2133789  -999.250000 10.429999352 8.3750000000  -999.250000 2.5669999123 79.449592590 73.195999146  -999.250000 3.5559999943  -999.250000 6.0455961227 4.0380001068
 4560.3657227  -999.250000 10.302000046 8.3750000000  -999.250000 2.5610001087 75.607933044 73.195999146  -999.250000 3.5380001068  -999.250000 6.0343942642 4.1100001335
 4560.5180664  -999.250000 10.187999725 8.3750000000  -999.250000 2.3429999352 69.030868530 73.195999146  -999.250000 3.5179998875  -999.250000 6.0193939209 4.1849999428
 4560.6704102  -999.250000 10.210000038 8.3750000000  -999.250000 2.3099999428 60.088768005 73.195999146  -999.250000 3.5060000420  -999.250000 6.0043940544 4.2329998016
 4560.8227539  -999.250000 10.286000252 8.3750000000  -999.250000 2.2860000134 51.678268433 73.195999146  -999.250000 3.4909999371  -999.250000 5.9917979240 4.2919998169
 4560.9750977  -999.250000 10.376999855 8.3750000000  -999.250000 2.3380000591 49.527053833 73.195999146  -999.250000 3.4779999256  -999.250000 5.9999809265 4.3410000801
 4561.1279297  -999.250000 10.418000221 8.3750000000  -999.250000 2.4000000954 57.388549805 73.195999146  -999.250000 3.4860000610  -999.250000 6.0706925392 4.3819999695
 4561.2802734  -999.250000 10.463999748 8.3750000000  -999.250000 2.4070000648 71.696189880 73.195999146  -999.250000 3.6280000210  -999.250000 6.2179903984 4.5949997902
 4561.4326172  -999.250000 10.518999100 8.3750000000  -999.250000 2.3459999561 87.163825989 73.195999146  -999.250000 3.8610000610  -999.250000 6.4000287056 4.9460000992
 4561.5849609  -999.250000 10.488000870 8.3750000000  -999.250000 2.3120000362 101.22792816 73.195999146  -999.250000 4.0770001411  -999.250000 6.5662884712 5.2719998360
 4561.7373047  -999.250000 10.366000175 8.3750000000  -999.250000 2.3610000610 110.34291840 73.195999146  -999.250000 4.2150001526  -999.250000 6.6720962524 5.4939999580
 4561.8896484  -999.250000 10.291000366 8.3750000000  -999.250000 2.4200000763 113.21069336 73.195999146  -999.250000 4.2080001831  -999.250000 6.7037596703 5.5419998169
 4562.0419922  -999.250000 10.213000298 8.3750000000  -999.250000 2.3919999599 112.14785004 73.195999146  -999.250000 4.2010002136  -999.250000 6.7027597427 5.5929999352
 4562.1943359  -999.250000 10.095000267 8.3750000000  -999.250000 2.3380000591 111.15603638 73.195999146  -999.250000 4.2010002136  -999.250000 6.7032017708 5.6189999580
 4562.3466797  -999.250000 10.050999641 8.3750000000  -999.250000 2.2929999828 112.33892059 73.195999146  -999.250000 4.2080001831  -999.250000 6.7077188492 5.6589999199
 4562.4995117  -999.250000 10.001000404 8.3750000000  -999.250000 2.3550000191 114.67887115 73.195999146  -999.250000 4.2150001526  -999.250000 6.7063941956 5.7010002136
 4562.6518555  -999.250000 9.9630012512  -999.250000  -999.250000 2.5309998989 116.58072662 73.195999146  -999.250000 4.2109999657  -999.250000 6.6894712448 5.6919999123
 4562.8041992  -999.250000 9.9270000458  -999.250000  -999.250000 2.5969998837 117.53013611 73.195999146  -999.250000 4.1640000343  -999.250000 6.6746439934 5.4800000191
 4562.9565430  -999.250000 9.8959999084  -999.250000  -999.250000 2.5840001106 116.19349670 73.195999146  -999.250000 4.2010002136  -999.250000 6.6844425201 5.3779997826
 4563.1088867  -999.250000 9.8949995041  -999.250000  -999.250000 2.5889999866 112.79758453 73.195999146  -999.250000 4.2259998322  -999.250000 6.6762595177 5.3899998665
 4563.2612305  -999.250000 9.9010000229  -999.250000  -999.250000 2.6099998951 110.58851624 73.195999146  -999.250000 4.1459999084  -999.250000 6.6347980499 5.4330000877
 4563.4135742  -999.250000 9.8990001678  -999.250000  -999.250000 2.5950000286 111.49300385 73.195999146  -999.250000 4.2109999657  -999.250000 6.6471056938 5.5149998665
 4563.5659180  -999.250000 9.8970003128  -999.250000  -999.250000 2.5840001106 113.57209778 73.195999146  -999.250000 4.2519998550  -999.250000 6.7085433006 5.5409998894
 4563.7187500  -999.250000 9.8940000534  -999.250000  -999.250000 2.6019999981 114.19345856 73.195999146  -999.250000 4.2350001335  -999.250000 6.7282981873 5.5520000458
 4563.8710938  -999.250000 9.8870000839  -999.250000  -999.250000 2.5899999142 114.03033447 73.195999146  -999.250000 4.2630000114  -999.250000 6.6556730270 5.7199997902
 4564.0234375  -999.250000 9.8940000534  -999.250000  -999.250000 2.5710000992 114.67971802 73.195999146  -999.250000 4.2769999504  -999.250000 6.5577116013 5.7880001068
 4564.1757813  -999.250000 9.8999996185  -999.250000  -999.250000 2.5769999027 115.41146851 73.195999146  -999.250000 4.3140001297  -999.250000 6.5508556366 5.9159998894
 4564.3281250  -999.250000 9.9010000229  -999.250000  -999.250000 2.5950000286 113.94123840 73.195999146  -999.250000 4.3750000000  -999.250000 6.6125288010 5.8790001869
 4564.4804688  -999.250000 9.8970003128  -999.250000  -999.250000 2.5550000668 111.07560730 73.195999146  -999.250000 4.6620001793  -999.250000 6.7522692680 6.2800002098
