# LAS format log file from PETREL
# Project units are specified as depth units
#==================================================================
~Version information
VERS.   2.0:
WRAP.   NO:
#==================================================================
~Well
STRT .m      492.56594849 :
STOP .m      2784.8139648 :
STEP .m     0.00000000 :
NULL .        -999.250000 :
COMP.           : COMPANY
WELL.  34/10-5   : WELL
FLD.            : FIELD
LOC.            : LOCATION
SRVC.           : SERVICE COMPANY
DATE.  2018-09-11 14:48:46   : Log Export Date {yyyy-MM-dd HH:mm:ss}
PROV.           : PROVINCE
UWI.   34/10-5   : UNIQUE WELL ID
API.            : API NUMBER
#==================================================================
~Curve
DEPT .m                   : DEPTH
Lithology_geolink ._      : Lithology_geolink
CALI .in                  : CALI
DRHO .g/cm3               : DRHO
NPHI .m3/m3               : NPHI
RHOB .g/cm3               : RHOB
GR .gAPI                  : GR
DTC .us/ft                : DTC
RDEP .ohm.m               : RDEP
SP .mV                    : SP
RSHA .ohm.m               : RSHA
RMED .ohm.m               : RMED
~Parameter
#==================================================================
~Ascii
# ...
 1557.3845215  -999.250000 17.297000885 0.0340000018  -999.250000 2.0639998913 46.815902710 134.00500488 0.8989959955 27.537500381  -999.250000 0.8429423571
 1557.5368652  -999.250000 17.483999252 0.0780000016  -999.250000 2.0840001106 45.598758698 134.99760437 0.8950160146 27.164503098  -999.250000 0.8748974204
 1557.6893311  -999.250000 17.468999863 0.0710000023  -999.250000 2.0409998894 42.792259216 132.00480652 0.8860359788 27.038499832  -999.250000 0.9138751030
 1557.8416748  -999.250000 17.422000885 0.0619999990  -999.250000 2.0099999905 48.446212769 129.00720215 0.8770360351 26.913501740  -999.250000 0.9538717866
 1557.9941406  -999.250000 17.233999252 0.0280000009  -999.250000 1.9889999628 48.748874664 129.49919128 0.8720200062 27.161998749  -999.250000 0.9939038754
 1558.1464844  -999.250000 17.375000000 0.0189999994  -999.250000 1.9950000048 51.302730560 127.75420380 0.8779760003 27.163000107  -999.250000 0.9581152797
 1558.2989502  -999.250000 17.483999252 0.0199999996  -999.250000 2.0179998875 56.634609222 131.11959839 0.8929399848 27.038499832  -999.250000 0.8562452197
 1558.4512939  -999.250000 17.547000885 0.0109999999  -999.250000 2.0199999809 58.586238861 132.74609375 0.9059479237 27.038000107  -999.250000 0.7902113795
 1558.6037598  -999.250000 17.483999252 0.0219999999  -999.250000 2.0529999733 57.255378723 130.00440979 0.9069960117 27.162500381  -999.250000 0.8189302683
 1558.7561035  -999.250000 17.483999252 0.0160000008  -999.250000 2.0550000668 48.722301483 125.76020813 0.8970400691 27.038501740  -999.250000 0.9256573319
 1558.9085693  -999.250000 17.625000000 0.0370000005  -999.250000 2.0759999752 43.704025269 120.57131958 0.8900223970 26.913400650  -999.250000 1.0287524462
 1559.0609131  -999.250000 17.608999252 0.0419999994  -999.250000 2.0859999657 41.198009491 117.19611359 0.8959760070 26.913000107  -999.250000 1.0688718557
 1559.2133789  -999.250000 17.562999725 0.0500000007  -999.250000 2.0880000591 41.000602722 117.56240082 0.9029775858 27.037599564  -999.250000 1.0460553169
 1559.3657227  -999.250000 17.577999115 0.0439999998  -999.250000 2.0880000591 39.973129272 120.37049103 0.8990160227 27.038000107  -999.250000 0.9901793599
 1559.5180664  -999.250000 17.656000137 0.0480000004  -999.250000 2.0799999237 39.657253265 122.99369049 0.8840600848 27.286998749  -999.250000 0.9411570430
 1559.6705322  -999.250000 17.468999863 0.0509999990  -999.250000 2.0920000076 34.800514221 125.74559021 0.8610920906 27.288000107  -999.250000 0.9170768857
 1559.8228760  -999.250000 17.547000885 0.0529999994  -999.250000 2.0840001106 31.808956146 125.99939728 0.8460600972 27.910495758  -999.250000 0.8940737247
 1559.9753418  -999.250000 17.562999725 0.0480000004  -999.250000 2.0959999561 30.521129608 125.37599945 0.8450040221 27.913000107  -999.250000 0.8690800667
 1560.1276855  -999.250000 17.468999863 0.0329999998  -999.250000 2.0940001011 31.371559143 124.75150299 0.8689038754 27.664001465  -999.250000 0.8540480733
 1560.2801514  -999.250000 17.437999725 0.0430000015  -999.250000 2.1310000420 30.846124649 125.99799347 0.9068478942 27.663000107  -999.250000 0.8569927812
 1560.4324951  -999.250000 17.406000137 0.0170000009  -999.250000 2.1389999390 26.999464035 118.20676422 0.9528157115 27.289503098  -999.250000 0.9028526545
 1560.5849609  -999.250000 17.452999115 0.0399999991  -999.250000 2.2009999752 28.275808334 107.76673126 1.0197317600 27.039001465  -999.250000 1.0047547817
 1560.7373047  -999.250000 17.437999725 0.0549999997  -999.250000 2.2290000916 31.954223633 104.38311768 1.0867315531 26.789001465  -999.250000 1.1355805397
 1560.8897705  -999.250000 17.483999252 0.0619999990  -999.250000 2.1619999409 38.287605286 100.75580597 1.1318198442 26.788000107  -999.250000 1.2886322737
 1561.0421143  -999.250000 17.516000748 0.0309999995  -999.250000 2.0940001011 42.421474457 105.36389160 1.1788116693 26.788000107  -999.250000 1.3657534122
 1561.1945801  -999.250000 17.375000000 0.0390000008  -999.250000 2.0980000496 40.661708832 118.72856903 1.2049167156 26.912599564  -999.250000 1.3211081028
 1561.3469238  -999.250000 17.391000748 0.0529999994  -999.250000 2.1329998970 38.944877625 114.56970978 1.1880680323 27.037500381  -999.250000 1.2243106365
 1561.4992676  -999.250000 17.483999252 0.0719999969  -999.250000 2.1329998970 36.167144775 125.72312927 1.1541363001 27.162498474  -999.250000 1.1492403746
 1561.6517334  -999.250000 17.437999725 0.0419999994  -999.250000 2.0720000267 40.202735901 121.38201141 1.1002161503 27.287500381  -999.250000 1.1180993319
 1561.8040771  -999.250000 17.452999115 0.0390000008  -999.250000 2.0590000153 39.441127777 122.74669647 1.0521923304 27.536998749  -999.250000 1.0721474886
 1561.9565430  -999.250000 17.391000748 0.0149999997  -999.250000 2.0590000153 39.032627106 119.19371033 1.0340720415 27.911499023  -999.250000 1.0341217518
 1562.1088867  -999.250000 17.531000137 0.0130000003  -999.250000 2.1050000191 31.903669357 122.74144745 1.0290200710 27.913000107  -999.250000 1.0150609016
 1562.2613525  -999.250000 17.500000000 0.0240000002  -999.250000 2.1619999409 31.439748764 113.01561737 1.0050960779 27.913000107  -999.250000 1.0559014082
 1562.4136963  -999.250000 17.577999115 0.0570000000  -999.250000 2.1860001087 29.289642334 104.20916748 0.9761161804 27.539503098  -999.250000 1.1905676126
 1562.5661621  -999.250000 17.625000000 0.0520000011  -999.250000 2.1519999504 33.670356750 107.55759430 0.9600640535 27.662500381  -999.250000 1.2817811966
 1562.7185059  -999.250000 17.516000748 0.0379999988  -999.250000 2.1040000916 29.967962265 109.37065887 0.9540240169 27.663000107  -999.250000 1.1444419622
 1562.8709717  -999.250000 17.531000137 0.0270000007  -999.250000 2.0899999142 32.396179199 109.00060272 0.9559919834 27.414001465  -999.250000 1.0202980042
 1563.0233154  -999.250000 17.547000885 0.0340000018  -999.250000 2.0899999142 30.554449081 123.15392303 0.9559999704 27.288501740  -999.250000 0.9761409163
 1563.1757813  -999.250000 17.562999725 0.0320000015  -999.250000 2.0940001011 32.338241577 123.37470245 0.9280897379 27.412599564  -999.250000 0.9750024080
 1563.3281250  -999.250000 17.483999252 0.0410000011  -999.250000 2.0859999657 32.499374390 120.37980652 0.8961281180 27.786499023  -999.250000 0.9789871573
 1563.4805908  -999.250000 17.500000000 0.0460000001  -999.250000 2.0880000591 30.397760391 125.36699677 0.8840384483 28.037199020  -999.250000 0.9680264592
 1563.6329346  -999.250000 17.516000748 0.0430000015  -999.250000 2.0859999657 33.425800323 127.99578857 0.8869880438 28.162500381  -999.250000 0.9679999948
 1563.7852783  -999.250000 17.516000748 0.0419999994  -999.250000 2.0999999046 31.274702072 125.19474792 0.8979559541 28.038501740  -999.250000 0.9829518795
 1563.9377441  -999.250000 17.562999725 0.0379999988  -999.250000 2.1070001125 32.962184906 128.36988831 0.9219039083 27.913499832  -999.250000 0.9969551563
 1564.0900879  -999.250000 17.656000137 0.0480000004  -999.250000 2.1210000515 29.871459961 132.36538696 0.9568597674 27.788501740  -999.250000 0.9989935756
 1564.2425537  -999.250000 17.483999252 0.0619999990  -999.250000 2.1189999580 30.170747757 125.01181793 1.0058039427 27.788000107  -999.250000 1.0049855709
 1564.3948975  -999.250000 17.483999252 0.0619999990  -999.250000 2.1129999161 27.900138855 121.57126617 1.0647636652 27.290002823  -999.250000 1.0478622913
 1564.5473633  -999.250000 17.656000137 0.0570000000  -999.250000 2.1019999981 29.213684082 117.56941223 1.1307358742 26.914501190  -999.250000 1.1547427177
 1564.6997070  -999.250000 17.702999115 0.0450000018  -999.250000 2.1019999981 32.766727448 118.74714661 1.2126715183 27.286497116  -999.250000 1.2576701641
 1564.8521729  -999.250000 17.593999863 0.0329999998  -999.250000 2.0859999657 38.290855408 117.75160217 1.2797317505 27.163499832  -999.250000 1.3138654232
 1565.0045166  -999.250000 17.562999725 0.0109999999  -999.250000 2.0469999313 42.638599396 114.75720215 1.3128677607 27.536497116  -999.250000 1.3877630234
