# LAS format log file from PETREL
# Project units are specified as depth units
#==================================================================
~Version information
VERS.   2.0:
WRAP.   NO:
#==================================================================
~Well
STRT .m      3455.1030273 :
STOP .m      4235.3911133 :
STEP .m     0.00000000 :
NULL .        -999.250000 :
COMP.           : COMPANY
WELL.  34/11-3 T2   : WELL
FLD.            : FIELD
LOC.            : LOCATION
SRVC.           : SERVICE COMPANY
DATE.  2018-09-11 14:48:48   : Log Export Date {yyyy-MM-dd HH:mm:ss}
PROV.           : PROVINCE
UWI.   34/11-3 T2   : UNIQUE WELL ID
API.            : API NUMBER
#==================================================================
~Curve
DEPT .m                   : DEPTH
Lithology_geolink ._      : Lithology_geolink
CALI .in                  : CALI
NPHI .m3/m3               : NPHI
RHOB .g/cm3               : RHOB
GR .gAPI                  : GR
DTC .us/ft                : DTC
RDEP .ohm.m               : RDEP
RMED .ohm.m               : RMED
~Parameter
#==================================================================
~Ascii
# ...
 4221.9799805 6.0000000000 8.1890001297 0.0000000000 2.5860192776 0.0000000000 99.488426208 2.0097115040 1.9539999962
 4222.1323242 6.0000000000 8.1879997253 0.0000000000 2.5880191326 0.0000000000 91.813499451 1.9434423447 1.8689999580
 4222.2846680 6.0000000000 8.1859998703 0.0000000000 2.5900127888 0.0000000000 78.713859558 1.9142692089 1.7940000296
 4222.4370117 6.0000000000 8.1840000153 0.0000000000 2.5920000076 0.0000000000 61.079391479 1.8758845329 1.7400000095
 4222.5893555 6.0000000000 8.1820001602 0.0000000000 2.5920000076 0.0000000000 41.725627899 1.8179230690 1.6970000267
 4222.7416992 6.0000000000 8.1840000153 0.0000000000 2.5920000076 0.0000000000 24.178176880 1.7622692585 1.6670000553
 4222.8940430 6.0000000000 8.1850004196 0.0000000000 2.5919871330 0.0000000000 11.173171997 1.7236731052 1.6210000515
 4223.0468750 6.0000000000 8.1850004196 0.0000000000 2.5899806023 0.0000000000 3.6337177753 1.6555080414 1.6419999599
 4223.1992188 6.0000000000 8.1859998703 0.0000000000 2.5879616737 0.0000000000 0.5985870361 1.6333652735 1.5779999495
 4223.3515625 6.0000000000 8.1859998703 0.0000000000 2.5839521885 0.0000000000 0.0000000000 1.6008268595 1.5219999552
 4223.5039063 7.0000000000 8.1859998703 0.0000000000 2.5789742470 0.0000000000 0.0000000000 1.5916538239 1.5240000486
 4223.6562500 7.0000000000 8.1850004196 0.0000000000 2.5749807358 0.0000000000 0.0000000000 1.5736154318 1.5190000534
 4223.8085938 7.0000000000 8.1840000153 0.0000000000 2.5719807148 0.0000000000 0.0000000000 1.5535000563 1.5349999666
 4223.9609375 7.0000000000 8.1859998703 0.0000000000 2.5689871311 0.0000000000 0.0000000000 1.5279808044 1.5260000229
 4224.1132813 7.0000000000 8.1870002747 0.0000000000 2.5669806004 0.0000000000 0.0000000000 1.5269807577 1.5119999647
 4224.2661133 7.0000000000 8.1859998703 0.0000000000 2.5639710426 0.0000000000 0.0000000000 1.5263130665 1.5039999485
 4224.4184570 7.0000000000 8.1850004196 0.0000000000 2.5609807968 0.0000000000 0.0000000000 1.5404807329 1.4700000286
 4224.5708008 7.0000000000 8.1840000153 0.0000000000 2.5590000153 0.0000000000 0.0000000000 1.5655577183 1.4989999533
 4224.7231445 6.0000000000 8.1859998703 0.0000000000 2.5590190887 0.0000000000 0.0000000000 1.5942307711 1.5820000172
 4224.8754883 6.0000000000 8.1879997253 0.0000000000 2.5610194206 0.0000000000 0.0000000000 1.6061153412 1.6150000095
 4225.0278320 6.0000000000 8.1879997253 0.0000000000 2.5640318394 0.0000000000 0.0000000000 1.6121922731 1.6139999628
 4225.1801758 6.0000000000 8.1879997253 0.0000000000 2.5690257549 0.0000000000 0.0000000000 1.6225192547 1.5870000124
 4225.3325195 6.0000000000 8.1870002747 0.0000000000 2.5730128288 0.0000000000 0.0000000000 1.6494808197 1.5870000124
 4225.4848633 6.0000000000 8.1829996109 0.0000000000 2.5750129223 0.0000000000 0.0000000000 1.6740385294 1.5959999561
 4225.6376953 6.0000000000 8.1809997559 0.0000000000 2.5769999027 0.0000000000 0.0000000000 1.6752395630 1.5789999962
 4225.7900391 6.0000000000 8.1820001602 0.0000000000 2.5769903660 0.0000000000 0.0000000000 1.6412115097 1.5950000286
 4225.9423828 6.0000000000 -9.604000092 0.0000000000 2.5759806633 0.0000000000 0.0000000000 1.6004229784 1.5809999704
 4226.0947266 6.0000000000 -9.446999550 0.0000000000 2.5739808083 0.0000000000 0.0000000000 1.5708268881 1.5429999828
 4226.2470703 6.0000000000 -9.317999840 0.0000000000 2.5718910694 0.0000000000 0.0000000000 1.5622500181 1.5060000420
 4226.3994141 6.0000000000 -9.321000099 0.0000000000 2.5544936657 0.0000000000 0.0000000000 1.5755193233 1.4839999676
 4226.5517578 6.0000000000 -9.420999527 0.0000000000 2.4747822285 0.0000000000 0.0000000000 1.6023845673 1.5110000372
 4226.7041016 6.0000000000 -9.536000252 0.0000000000 2.2839102745 0.0000000000 0.0000000000 1.6223076582 1.5789999962
 4226.8564453 6.0000000000 -9.692000389 0.0000000000 1.9571987391 0.0000000000 0.0000000000 1.6381342411 1.6360000372
 4227.0092773 6.0000000000 -9.833999634 0.0000000000 1.5183750391 0.0000000000 0.0000000000 1.6451922655 1.6269999743
 4227.1616211 6.0000000000 -9.812000275 0.0000000000 1.0377981663 0.0000000000 0.0000000000 1.6549999714 1.6740000248
 4227.3139648 6.0000000000 -9.654999733 0.0000000000 0.6018850207 0.0000000000 0.0000000000 1.6550961733 1.6820000410
 4227.4663086 6.0000000000 -9.513999939 0.0000000000 0.2787948847 0.0000000000 0.0000000000 1.6599807739 1.6770000458
 4227.6186523 6.0000000000 -9.468000412 0.0000000000 0.0915064141 0.0000000000 0.0000000000 1.6591154337 1.6569999456
 4227.7709961 6.0000000000 -9.534000397 0.0000000000  -999.250000 0.0000000000 0.0000000000 1.6649999619 1.6399999857
 4227.9233398 6.0000000000 -9.621000290 0.0000000000  -999.250000 0.0000000000 0.0000000000 1.6650384665 1.6310000420
 4228.0756836 6.0000000000 -9.609000206 0.0000000000  -999.250000 0.0000000000 0.0000000000 1.6670192480 1.6050000191
 4228.2285156 6.0000000000 -9.531999588 0.0000000000  -999.250000 0.0000000000 0.0000000000 1.6680223942 1.6039999723
 4228.3808594 6.0000000000 -9.560999870 0.0000000000  -999.250000 0.0000000000 0.0000000000 1.6690000296 1.5959999561
 4228.5332031 6.0000000000 -9.668000221 0.0000000000  -999.250000 0.0000000000 0.0000000000 1.6689231396 1.5709999800
 4228.6855469 6.0000000000 -9.640999794 0.0000000000  -999.250000 0.0000000000 0.0000000000 1.6649614573 1.5959999561
 4228.8378906 6.0000000000 -9.458999634 0.0000000000  -999.250000 0.0000000000 0.0000000000 1.6629614830 1.5720000267
 4228.9902344 6.0000000000 -9.357999802 0.0000000000  -999.250000 0.0000000000 0.0000000000 1.6609615088 1.5870000124
 4229.1425781 6.0000000000 -9.423000336 0.0000000000  -999.250000 0.0000000000 0.0000000000 1.6590385437 1.5939999819
 4229.2949219 6.0000000000 -9.513999939 0.0000000000  -999.250000 0.0000000000 0.0000000000 1.6610000134 1.5950000286
 4229.4472656 6.0000000000 -9.531999588 0.0000000000  -999.250000 0.0000000000 0.0000000000 1.6610192060 1.5959999561
 4229.6000977 6.0000000000 -9.506999969 0.0000000000  -999.250000 0.0000000000 0.0000000000 1.6619775295 1.5970000029
 4229.7524414 6.0000000000 -9.527999878 0.0000000000  -999.250000 0.0000000000 0.0000000000 1.6610192060 1.5880000591
 4229.9047852 6.0000000000 -9.574999809 0.0000000000  -999.250000 0.0000000000 0.0000000000 1.6619999409 1.5870000124
 4230.0571289 6.0000000000 -9.536999702 0.0000000000  -999.250000 0.0000000000 0.0000000000 1.6619807482 1.5859999657
 4230.2094727 6.0000000000 -9.402999878 0.0000000000  -999.250000 0.0000000000 0.0000000000 1.6610192060 1.5870000124
 4230.3618164 6.0000000000 -9.237999916 0.0000000000  -999.250000 0.0000000000 0.0000000000 1.6619807482 1.5870000124
 4230.5141602 6.0000000000 -9.112000465 0.0000000000  -999.250000 0.0000000000 0.0000000000 1.6610385180 1.5950000286
 4230.6665039 6.0000000000 -9.140999794 0.0000000000  -999.250000 0.0000000000 0.0000000000 1.6629614830 1.5959999561
 4230.8193359 6.0000000000 -9.199000359 0.0000000000  -999.250000 0.0000000000 0.0000000000 1.6609553099 1.5959999561
 4230.9716797 6.0000000000 -9.147999763 0.0000000000  -999.250000 0.0000000000 0.0000000000 1.6590192318 1.5959999561
 4231.1240234 6.0000000000 -9.036000252 0.0000000000  -999.250000 0.0000000000 0.0000000000 1.6600191593 1.5880000591
 4231.2763672 6.0000000000 -8.975999832 0.0000000000  -999.250000 0.0000000000 0.0000000000 1.6610385180 1.5880000591
 4231.4287109 6.0000000000 -8.963999748 0.0000000000  -999.250000 0.0000000000 0.0000000000  -999.250000 1.5880000591
 4231.5810547 6.0000000000 -9.031999588 0.0000000000  -999.250000 0.0000000000 0.0000000000  -999.250000 1.5650000572
 4231.7333984 6.0000000000 -9.137999535 0.0000000000  -999.250000 0.0000000000 0.0000000000  -999.250000 1.5880000591
 4231.8857422 6.0000000000 -9.180000305 0.0000000000  -999.250000 0.0000000000 0.0000000000  -999.250000 1.5950000286
 4232.0380859 6.0000000000 -9.062999725 0.0000000000  -999.250000 0.0000000000 0.0000000000  -999.250000 1.5629999638
 4232.1909180 6.0000000000 -8.803999901 0.0000000000  -999.250000 0.0000000000 0.0000000000  -999.250000 1.5950000286
