# LAS format log file from PETREL
# Project units are specified as depth units
#==================================================================
~Version information
VERS.   2.0:
WRAP.   NO:
#==================================================================
~Well
STRT .m      211.00001526 :
STOP .m      2222.9851074 :
STEP .m     0.00000000 :
NULL .        -999.250000 :
COMP.           : COMPANY
WELL.  34/10-19   : WELL
FLD.            : FIELD
LOC.            : LOCATION
SRVC.           : SERVICE COMPANY
DATE.  2018-09-11 14:48:44   : Log Export Date {yyyy-MM-dd HH:mm:ss}
PROV.           : PROVINCE
UWI.   34/10-19   : UNIQUE WELL ID
API.            : API NUMBER
#==================================================================
~Curve
DEPT .m                   : DEPTH
Lithology_geolink ._      : Lithology_geolink
CALI .in                  : CALI
DRHO .g/cm3               : DRHO
NPHI .m3/m3               : NPHI
RHOB .g/cm3               : RHOB
GR .gAPI                  : GR
DTC .us/ft                : DTC
RDEP .ohm.m               : RDEP
SP .mV                    : SP
RSHA .ohm.m               : RSHA
RMED .ohm.m               : RMED
~Parameter
#==================================================================
~Ascii
# ...
 343.13079834  -999.250000 16.795999527 0.0070000002 0.4570299983 2.0550000668 57.681873322 165.50000000 2.3110001087 -1.780040979 1.7929999828 1.7929999828
 343.28320313  -999.250000 16.781999588 0.0140000004 0.4921900034 2.0639998913 57.055355072 167.00000000 2.2969999313 -1.985008001 1.7250000238 1.7250000238
 343.43560791  -999.250000 16.673999786 0.0299999993 0.4921900034 2.0739998817 58.834850311 168.25000000 2.2579998970 -2.024987221 1.6599999666 1.6599999666
 343.58801270  -999.250000 16.450000763 0.0280000009 0.5229499936 2.0820000172 63.084705353 167.50000000 2.2190001011 -1.960947990 1.6230000257 1.6230000257
 343.74041748  -999.250000 16.138999939 0.0219999999 0.4863300025 2.0840001106 66.600502014 165.50000000 2.1879999638 -1.701079845 1.6219999790 1.6219999790
 343.89282227  -999.250000 16.016000748 0.0140000004 0.4946300089 2.0720000267 69.106277466 167.50000000 2.1659998894 -2.100038767 1.6640000343 1.6640000343
 344.04522705  -999.250000 15.902000427 0.0289999992 0.4692400098 2.0720000267 69.795776367 168.25000000 2.1909999847 -2.197021246 1.7120000124 1.7120000124
 344.19760132  -999.250000 15.694999695 0.0329999998 0.4726599753 2.0610001087 69.250595093 168.00000000 2.2730000019 -2.249943018 1.7489999533 1.7489999533
 344.35000610  -999.250000 15.350999832 0.0329999998 0.4819300175 2.0529999733 67.218879700 165.50000000 2.2869999409 -1.965983629 1.7920000553 1.7920000553
 344.50241089  -999.250000 15.174000740 0.0399999991 0.4536100030 2.0629999638 66.619583130 161.75000000 2.2809998989 -1.883843899 1.7840000391 1.7840000391
 344.65481567  -999.250000 15.168000221 0.0280000009 0.4819300175 2.0529999733 69.531150818 157.75000000 2.2639999390 -1.105029106 1.8389999866 1.8389999866
 344.80722046  -999.250000 15.231999397 0.0289999992 0.4477500021 2.0469999313 70.289726257 158.49998474 2.2190001011 -1.250050664 1.8470000029 1.8470000029
 344.95962524  -999.250000 15.319000244 0.0140000004 0.4467800260 2.0179998875 68.909133911 163.49998474 2.1909999847 -1.503043652 1.8400000334 1.8400000334
 345.11203003  -999.250000 15.621000290 0.0230000000 0.4218800068 2.0099999905 66.743652344 168.49998474 2.2130000591 -1.611881852 1.7489999533 1.7489999533
 345.26440430  -999.250000 15.602999687 0.0299999993 0.4174800217 2.0209999084 65.858863831 171.75000000 2.2320001125 -1.316998482 1.6979999542 1.6979999542
 345.41680908  -999.250000 15.484001160 0.0320000015 0.4604499936 2.0369999409 65.173576355 170.75000000 2.2360000610 -1.308963418 1.6490000486 1.6490000486
 345.56921387  -999.250000 15.329999924 0.0399999991 0.4399400055 2.0680000782 63.040588379 168.75001526 2.2269999981 -1.125994086 1.7050000429 1.7050000429
 345.72161865  -999.250000 15.192999840 0.0469999984 0.4384799898 2.0780000687 60.981433868 165.25000000 2.2300000191 -1.095960855 1.7100000381 1.7100000381
 345.87402344  -999.250000 15.161999702 0.0680000037 0.4121099710 2.0999999046 63.158615112 161.75000000 2.2170000076 -0.900971353 1.7719999552 1.7719999552
 346.02642822  -999.250000 14.890000343 0.0780000016 0.4277299941 2.1050000191 66.220771790 160.50000000 2.2400000095 -0.757936716 1.8220000267 1.8220000267
 346.17883301  -999.250000 14.807999611 0.0879999995 0.4521499872 2.1129999161 68.138374329 160.00000000 2.2809998989 -0.600048065 1.8569999933 1.8569999933
 346.33120728  -999.250000 14.925999641 0.0829999968 0.4482400119 2.1089999676 69.069747925 159.00000000 2.2990000248 -0.720100164 1.8609999418 1.8609999418
 346.48361206  -999.250000 14.975999832 0.0560000017 0.4375000000 2.0880000591 67.827438354 160.25000000 2.2850000858 -1.220214844 1.8810000420 1.8810000420
 346.63601685  -999.250000 14.977000237 0.0299999993 0.4184600115 2.0799999237 70.003044128 165.50000000 2.2909998894 -2.292976856 1.8530000448 1.8530000448
 346.78842163  -999.250000 14.979000092 0.0130000003 0.4243199825 2.0639998913 70.245483398 169.50000000 2.2809998989 -2.178043842 1.8090000153 1.8090000153
 346.94082642  -999.250000 14.946999550 0.0140000004 0.4150400162 2.0639998913 72.637191772 169.00000000 2.2699999809 -2.397012234 1.7150000334 1.7150000334
 347.09323120  -999.250000 14.881999969 0.0140000004 0.4174800217 2.0569999218 73.585327148 166.50000000 2.2599999905 -2.458075523 1.6859999895 1.6859999895
 347.24560547  -999.250000 14.866999626 0.0289999992 0.4389599860 2.0659999847 71.912231445 162.00000000 2.2560000420 -2.647028685 1.6970000267 1.6970000267
 347.39801025  -999.250000 14.824999809 0.0419999994 0.4448199868 2.0820000172 73.064064026 159.00000000 2.2639999390 -2.790017366 1.7610000372 1.7610000372
 347.55041504  -999.250000 14.583999634 0.0450000018 0.4345700145 2.1070001125 73.381797791 162.00000000 2.3259999752 -2.876948833 1.8289999962 1.8289999962
 347.70281982  -999.250000 14.491999626 0.0370000005 0.4081999958 2.1289999485 72.370918274 162.50000000 2.3770000935 -2.620975494 1.8769999743 1.8769999743
 347.85522461  -999.250000 14.491999626 0.0320000015 0.4052700102 2.1410000324 71.954673767 165.00000000 2.4389998913 -2.497945786 1.9090000391 1.9090000391
 348.00762939  -999.250000 14.559000015 0.0260000005 0.4018599987 2.1310000420 70.323532104 161.75000000 2.5000000000 -2.227825165 1.9199999571 1.9199999571
 348.16003418  -999.250000 14.708000183 0.0209999997 0.3979499936 2.1310000420 68.008361816 157.75000000 2.5510001183 -1.356106043 1.9459999800 1.9459999800
 348.31240845  -999.250000 14.782999992 0.0320000015 0.4038099945 2.1540000439 63.915676117 155.25000000 2.6070001125 -1.621047497 2.0230000019 2.0230000019
 348.46481323  -999.250000 14.814999580 0.0230000000 0.4052700102 2.1600000858 62.300201416 153.49998474 2.6579999924 -1.858078718 2.0799999237 2.0799999237
 348.61721802  -999.250000 14.819998741 0.0099999998 0.4018599987 2.1559998989 63.314174652 155.25000000 2.6970000267 -2.251001835 2.0899999142 2.0899999142
 348.76962280  -999.250000 14.807000160 0.0030000000 0.3769499958 2.1449999809 64.184738159 158.00000000 2.7320001125 -2.260945797 2.0369999409 2.0369999409
 348.92202759  -999.250000 14.734000206 0.0049999999 0.3828099966 2.1500000954 66.037773132 155.75000000 2.7149999142 -2.125849247 2.0799999237 2.0799999237
 349.07443237  -999.250000 14.755999565 0.0130000003 0.4023400247 2.1619999409 70.647026062 152.00000000 2.6619999409 -1.874789715 2.1070001125 2.1070001125
 349.22683716  -999.250000 14.770000458 0.0130000003 0.4194300175 2.1600000858 74.020446777 149.75000000 2.6349999905 -1.524786711 2.1579999924 2.1579999924
 349.37921143  -999.250000 14.809000015 0.0140000004 0.4243199825 2.1370000839 73.088066101 147.75000000 2.6579999924 -1.170087695 2.1170001030 2.1170001030
 349.53161621  -999.250000 15.435000420 0.0250000004 0.4018599987 2.0999999046 68.267761230 152.25000000 2.6949999332 -1.388905525 2.0250000954 2.0250000954
 349.68402100  -999.250000 15.416999817 0.0390000008 0.3891600072 2.0699999332 65.188293457 153.00000000 2.7909998894 -1.152972341 1.9720000029 1.9720000029
 349.83642578  -999.250000 15.039999962 0.0549999997 0.3940399885 2.0759999752 65.907089233 150.50000000 2.7790000439 -1.083966374 2.0099999905 2.0099999905
 349.98883057  -999.250000 14.451998711 0.0520000011 0.4047900140 2.1040000916 68.634506226 147.25000000 2.7339999676 -1.000593543 2.1050000191 2.1050000191
 350.14123535  -999.250000 14.402999878 0.0509999990 0.4291999936 2.1370000839 71.131599426 146.25000000 2.7300000191 -1.988021016 2.1619999409 2.1619999409
 350.29364014  -999.250000 14.387999535 0.0379999988 0.4248000085 2.1389999390 68.794708252 146.00000000 2.7269999981 -2.023147821 2.1740000248 2.1740000248
 350.44601440  -999.250000 14.420000076 0.0289999992 0.4160200059 2.1270000935 66.653083801 151.25001526 2.7269999981 -2.268456221 2.1480000019 2.1480000019
 350.59841919  -999.250000 14.444000244 0.0170000009 0.3984400034 2.1170001030 66.863471985 153.00000000 2.7869999409 -0.911443770 2.0959999561 2.0959999561
 350.75082397  -999.250000 14.258999825 0.0120000001 0.3901399970 2.1250000000 70.547264099 153.00000000 2.8359999657 -2.019259930 2.0880000591 2.0880000591
