# LAS format log file from PETREL
# Project units are specified as depth units
#==================================================================
~Version information
VERS.   2.0:
WRAP.   NO:
#==================================================================
~Well
STRT .m      492.56594849 :
STOP .m      2784.8139648 :
STEP .m     0.00000000 :
NULL .        -999.250000 :
COMP.           : COMPANY
WELL.  34/10-5   : WELL
FLD.            : FIELD
LOC.            : LOCATION
SRVC.           : SERVICE COMPANY
DATE.  2018-09-11 14:48:46   : Log Export Date {yyyy-MM-dd HH:mm:ss}
PROV.           : PROVINCE
UWI.   34/10-5   : UNIQUE WELL ID
API.            : API NUMBER
#==================================================================
~Curve
DEPT .m                   : DEPTH
Lithology_geolink ._      : Lithology_geolink
CALI .in                  : CALI
DRHO .g/cm3               : DRHO
NPHI .m3/m3               : NPHI
RHOB .g/cm3               : RHOB
GR .gAPI                  : GR
DTC .us/ft                : DTC
RDEP .ohm.m               : RDEP
SP .mV                    : SP
RSHA .ohm.m               : RSHA
RMED .ohm.m               : RMED
~Parameter
#==================================================================
~Ascii
 492.56594849  -999.250000 19.233999252 -0.463000000  -999.250000 1.7330000401 45.358104706 146.00270081 2.2699663639 27.144422531  -999.250000 1.9889928102
 492.71832275  -999.250000 19.250000000 -0.513999999  -999.250000 1.6879999638 47.587242126 144.12988281 2.2749850750 27.145999908  -999.250000 2.0079846382
 492.87072754  -999.250000 19.233999252 -0.583000004  -999.250000 1.6169999838 44.945976257 143.50149536 2.2700150013 26.927658081  -999.250000 2.0269846916
 493.02313232  -999.250000 19.250000000 -0.615000010  -999.250000 1.6069999933 44.781471252 143.99879456 2.2640180588 26.927000046  -999.250000 2.0269999504
 493.17553711  -999.250000 19.250000000 -0.600000024  -999.250000 1.6399999857 48.457923889 145.99519348 2.2460541725 26.677751541  -999.250000 2.0230031013
 493.32794189  -999.250000 19.233999252 -0.570999980  -999.250000 1.6740000248 49.652671814 146.99760437 2.2360281944 26.427701950  -999.250000 2.0080089569
 493.48034668  -999.250000 19.250000000 -0.531000018  -999.250000 1.7139999866 50.777843475 148.74578857 2.2320113182 26.146787643  -999.250000 1.9790173769
 493.63272095  -999.250000 19.233999252 -0.546000004  -999.250000 1.6879999638 47.478950500 151.36816406 2.2479517460 26.364341736  -999.250000 1.9350352287
 493.78512573  -999.250000 19.250000000 -0.544000030  -999.250000 1.6859999895 47.811965942 153.12043762 2.2519881725 26.645154953  -999.250000 1.9080215693
 493.93753052  -999.250000 19.250000000 -0.593999982  -999.250000 1.6449999809 49.464027405 148.76051331 2.2480118275 26.676906586  -999.250000 1.9549623728
 494.08993530  -999.250000 19.250000000 -0.639999986  -999.250000 1.6089999676 53.612518311 147.00421143 2.2519881725 26.895341873  -999.250000 2.0759031773
 494.24234009  -999.250000 19.233999252 -0.610000014  -999.250000 1.6640000343 56.304927826 142.51081848 2.2460181713 27.394498825  -999.250000 2.1289575100
 494.39474487  -999.250000 19.233999252 -0.573000014  -999.250000 1.7180000544 54.909942627 139.75660706 2.2479941845 27.645298004  -999.250000 2.1190059185
 494.54714966  -999.250000 19.250000000 -0.545000017  -999.250000 1.7430000305 53.753242493 143.49098206 2.2749245167 27.864385605  -999.250000 2.0610349178
 494.69952393  -999.250000 19.250000000 -0.611000001  -999.250000 1.6670000553 51.600479126 144.74674988 2.2969338894 27.864999771  -999.250000 2.0370192528
 494.85192871  -999.250000 19.281000137 -0.626999974  -999.250000 1.6380000114 52.715621948 145.12409973 2.2969999313 27.833095551  -999.250000 2.0270080566
 495.00433350  -999.250000 19.297000885 -0.626999974  -999.250000 1.6430000067 52.126785278 145.12500000 2.2910180092 28.145059586  -999.250000 2.0269999504
 495.15673828  -999.250000 19.312999725 -0.643000007  -999.250000 1.6299999952 49.289539337 146.12260437 2.2810299397 28.145999908  -999.250000 2.0180070400
 495.30914307  -999.250000 19.281000137 -0.712000012  -999.250000 1.5579999685 46.912658691 146.00030518 2.2680363655 27.865787506  -999.250000 2.0160017014
 495.46154785  -999.250000 19.281000137 -0.727999985  -999.250000 1.5399999619 47.404598236 146.12469482 2.2600224018 27.615699768  -999.250000 2.0100035667
 495.61395264  -999.250000 19.327999115 -0.703999996  -999.250000 1.5829999447 49.058353424 146.00030518 2.2619943619 27.365699768  -999.250000 2.0229921341
 495.76632690  -999.250000 19.312999725 -0.697000027  -999.250000 1.6069999933 50.028091431 147.12207031 2.2749609947 27.863498688  -999.250000 2.0200023651
 495.91873169  -999.250000 19.312999725 -0.689000010  -999.250000 1.6519999504 50.093811035 147.49909973 2.2869639397 27.615751266  -999.250000 2.0199999809
 496.07113647  -999.250000 19.327999115 -0.699999988  -999.250000 1.6679999828 51.651306152 147.12590027 2.3069398403 27.396657944  -999.250000 2.0369863510
 496.22354126  -999.250000 19.312999725 -0.666000009  -999.250000 1.7510000467 51.375843048 147.00030518 2.3379068375 27.395999908  -999.250000 2.0839624405
 496.37594604  -999.250000 19.327999115 -0.693000019  -999.250000 1.7430000305 54.148200989 157.72416687 2.3768906593 27.146701813  -999.250000 2.1169803143
 496.52835083  -999.250000 19.327999115 -0.700999975  -999.250000 1.7430000305 50.665809631 156.00419617 2.4278569221 27.145999908  -999.250000 2.1329903603
 496.68075562  -999.250000 19.327999115 -0.672999978  -999.250000 1.7680000067 50.032749176 145.52522278 2.4668905735 26.896699905  -999.250000 2.1599893570
 496.83312988  -999.250000 19.312999725 -0.570999980  -999.250000 1.8719999790 46.230449677 138.39355469 2.5038888454 27.114341736  -999.250000 2.2359545231
 496.98553467  -999.250000 19.312999725 -0.513000011  -999.250000 1.9299999475 48.212993622 134.75871277 2.5269308090 27.114999771  -999.250000 2.3009610176
 497.13793945  -999.250000 19.312999725 -0.545000017  -999.250000 1.8899999857 42.891052246 136.74519348 2.5489339828 27.114999771  -999.250000 2.2950036526
 497.29034424  -999.250000 19.312999725 -0.621999979  -999.250000 1.8029999733 41.566940308 145.72837830 2.5629580021 27.114999771  -999.250000 2.2500181198
 497.44274902  -999.250000 19.312999725 -0.675999999  -999.250000 1.7560000420 41.780387878 161.71154785 2.5719747543 26.833791733  -999.250000 2.2050180435
 497.59515381  -999.250000 19.312999725 -0.638999999  -999.250000 1.8099999428 47.048191071 158.38310242 2.5510590076 27.114210129  -999.250000 2.2069993019
 497.74755859  -999.250000 19.312999725 -0.638999999  -999.250000 1.8200000525 45.317905426 154.75871277 2.5141036510 27.083089828  -999.250000 2.2109982967
 497.89993286  -999.250000 19.297000885 -0.633000016  -999.250000 1.8300000429 45.374813080 149.01496887 2.4711291790 27.145811081  -999.250000 2.2090013027
 498.05233765  -999.250000 19.281000137 -0.638999999  -999.250000 1.8229999542 45.001125336 140.02163696 2.4380991459 27.145999908  -999.250000 2.1460378170
 498.20474243  -999.250000 19.297000885 -0.666000009  -999.250000 1.8079999685 46.152526855 140.37409973 2.4080901146 27.145999908  -999.250000 2.1000275612
 498.35714722  -999.250000 19.297000885 -0.629000008  -999.250000 1.8500000238 47.838932037 142.74429321 2.3830749989 27.176906586  -999.250000 2.0590164661
 498.50955200  -999.250000 19.312999725 -0.632000029  -999.250000 1.8509999514 49.869304657 143.99699402 2.3570730686 27.177000046  -999.250000 2.0230143070
 498.66195679  -999.250000 19.312999725 -0.592999995  -999.250000 1.8760000467 50.529159546 143.12710571 2.3320701122 26.927700043  -999.250000 2.0180017948
 498.81433105  -999.250000 19.312999725 -0.614000022  -999.250000 1.8539999723 51.216934204 145.11979675 2.3140540123 26.677751541  -999.250000 2.0199987888
 498.96673584  -999.250000 19.297000885 -0.648999989  -999.250000 1.8129999638 48.321727753 143.13020325 2.2930631638 26.178501129  -999.250000 2.0269956589
 499.11914063  -999.250000 19.281000137 -0.666999996  -999.250000 1.8170000315 48.562248230 145.49429321 2.2989819050 26.146093369  -999.250000 2.0000162125
 499.27154541  -999.250000 19.281000137 -0.725000024  -999.250000 1.7630000114 46.256946564 148.49279785 2.3089699745 26.145999908  -999.250000 1.9700120687
 499.42395020  -999.250000 19.281000137 -0.764999986  -999.250000 1.7309999466 47.122371674 145.00840759 2.3030180931 26.145999908  -999.250000 1.9410115480
 499.57635498  -999.250000 19.312999725 -0.713999987  -999.250000 1.7719999552 45.036869049 146.74578857 2.2970168591 26.426212311  -999.250000 1.9569935799
 499.72875977  -999.250000 19.312999725 -0.699999988  -999.250000 1.7779999971 44.813610077 144.75480652 2.2910168171 26.427000046  -999.250000 1.9869879484
 499.88113403  -999.250000 19.312999725 -0.630999982  -999.250000 1.8600000143 43.971538544 145.49804688 2.2830240726 27.174747467  -999.250000 2.0039896965
 500.03353882  -999.250000 19.312999725 -0.685000002  -999.250000 1.8129999638 47.520298004 149.36491394 2.2869880199 27.426248550  -999.250000 2.0039999485
 500.18594360  -999.250000 19.312999725 -0.698000014  -999.250000 1.8129999638 50.521987915 149.00090027 2.2869999409 27.427000046  -999.250000 1.9730186462
