# LAS format log file from PETREL
# Project units are specified as depth units
#==================================================================
~Version information
VERS.   2.0:
WRAP.   NO:
#==================================================================
~Well
STRT .m      211.00001526 :
STOP .m      2222.9851074 :
STEP .m     0.00000000 :
NULL .        -999.250000 :
COMP.           : COMPANY
WELL.  34/10-19   : WELL
FLD.            : FIELD
LOC.            : LOCATION
SRVC.           : SERVICE COMPANY
DATE.  2018-09-11 14:48:44   : Log Export Date {yyyy-MM-dd HH:mm:ss}
PROV.           : PROVINCE
UWI.   34/10-19   : UNIQUE WELL ID
API.            : API NUMBER
#==================================================================
~Curve
DEPT .m                   : DEPTH
Lithology_geolink ._      : Lithology_geolink
CALI .in                  : CALI
DRHO .g/cm3               : DRHO
NPHI .m3/m3               : NPHI
RHOB .g/cm3               : RHOB
GR .gAPI                  : GR
DTC .us/ft                : DTC
RDEP .ohm.m               : RDEP
SP .mV                    : SP
RSHA .ohm.m               : RSHA
RMED .ohm.m               : RMED
~Parameter
#==================================================================
~Ascii
# ...
 739.52331543  -999.250000 14.614000320 0.0909895822 0.4956217110 2.0699880123 69.092712402 138.24960327 2.1500194073 1.7409019470 1.7250088453 1.7250088453
 739.67572021  -999.250000 14.137999535 0.0780080110 0.5102406740 2.0549392700 69.531455994 137.74940491 2.1739935875 2.3027131557 1.7360175848 1.7360175848
 739.82812500  -999.250000 14.052000046 0.0880120173 0.4985427558 1.9789639711 68.571266174 137.00059509 2.1660199165 2.1232743263 1.7580271959 1.7580271959
 739.98046875  -999.250000 14.032999992 0.1030068099 0.5019453168 1.9339908361 68.112327576 137.74960327 2.1910142899 1.6701145172 1.7920056581 1.7920056581
 740.13287354  -999.250000 13.095999718 0.1200032011 0.4902342856 1.9110068083 67.554122925 136.75030518 2.2270052433 0.9348758459 1.8059967756 1.8059967756
 740.28527832  -999.250000 13.048000336 0.1279980093 0.5009711981 1.9280108213 67.656097412 137.49989319 2.2400016785 1.6635214090 1.7980096340 1.7980096340
 740.43768311  -999.250000 12.831000328 0.1230004057 0.4789851308 1.9550153017 66.904151917 137.24929810 2.2439975739 2.0970780849 1.8220080137 1.8220080137
 740.59008789  -999.250000 12.446000099 0.1239931881 0.4418692887 1.9930224419 66.197937012 135.49859619 2.2379727364 2.1622884274 1.8420256376 1.8420256376
 740.74249268  -999.250000 12.333999634 0.1069807783 0.3901489973 2.0489969254 64.481048584 132.00140381 2.1699869633 2.4037251472 1.9060064554 1.9060064554
 740.89489746  -999.250000 12.260999680 0.0589891858 0.4126111269 2.0409934521 62.015522003 135.50079346 2.1369881630 3.4777216911 1.9219896793 1.9219896793
 741.04730225  -999.250000 12.173999786 0.0319967978 0.4404534400 2.0249865055 59.224037170 137.50170898 2.1069900990 2.6800084114 1.8959403038 1.8959403038
 741.19970703  -999.250000 12.142000198 0.0240076091 0.4990194142 1.9909696579 59.250148773 141.75019836 2.0820024014 2.0647761822 1.7470123768 1.7470123768
 741.35211182  -999.250000 12.134000778 0.0430040061 0.4975648820 1.9149575233 61.219352722 142.24800110 2.0879983902 3.7951619625 1.7779847383 1.7779847383
 741.50451660  -999.250000 12.135000229 0.0529955924 0.5097619891 1.8089511395 66.436347961 137.24980164 2.0839796066 3.8979287148 1.7400220633 1.7400220633
 741.65692139  -999.250000 12.194999695 0.0420216247 0.4897370934 1.6869928837 72.889549255 136.75059509 2.0329935551 5.1007738113 1.7949775457 1.7949775457
 741.80932617  -999.250000 12.279000282 0.0690048039 0.4736268520 1.6780223846 75.102546692 137.49899292 2.0250048637 5.5807480812 1.7669799328 1.7669799328
 741.96173096  -999.250000 12.365999222 0.0749871880 0.4697389901 1.7060064077 74.817375183 136.25360107 2.0309815407 4.1755409241 1.7419743538 1.7419743538
 742.11407471  -999.250000 12.276000023 0.0589927919 0.4809633493 1.7140084505 73.185195923 140.75109863 2.0079975128 3.2659363747 1.7100108862 1.7100108862
 742.26647949  -999.250000 12.272999763 0.0409895889 0.4892525673 1.7350115776 74.182060242 143.49920654 2.0020108223 3.2128078938 1.7370212078 1.7370212078
 742.41888428  -999.250000 12.281999588 0.0150172208 0.4707050920 1.7640445232 72.568359375 141.50010681 2.0290031433 3.0526659489 1.7899827957 1.7899827957
 742.57128906  -999.250000 12.300000191 0.0580080077 0.4834019542 1.8749991655 70.374038696 141.74819946 2.0370140076 2.7750771046 1.7469947338 1.7469947338
 742.72369385  -999.250000 12.308000565 0.0780176222 0.4882852733 1.8730064631 68.745132446 137.24839783 2.0720229149 2.8406417370 1.7340008020 1.7340008020
 742.87609863  -999.250000 12.522000313 0.1219871864 0.5014438033 1.8889876604 68.845596313 133.24940491 2.1290116310 4.2030887604 1.7360384464 1.7360384464
 743.02850342  -999.250000 12.541000366 0.0900056139 0.4609386325 1.8580332994 66.101020813 131.74859619 2.1580016613 3.0110967159 1.8320304155 1.8320304155
 743.18090820  -999.250000 12.489000320 0.1039947942 0.4575076699 1.9410164356 64.866691589 128.24960327 2.1620147228 2.4475915432 1.9080284834 1.9080284834
 743.33331299  -999.250000 12.420000076 0.0910160169 0.4267586172 1.9820352793 62.803211212 127.25009918 2.1990139484 2.1953213215 1.9790223837 1.9790223837
 743.48571777  -999.250000 12.390000343 0.1309895813 0.4233329594 2.0699758530 63.561222076 127.50099945 2.2339982986 3.6419327259 2.0349900723 2.0349900723
 743.63812256  -999.250000 12.579999924 0.1050064042 0.4057701528 2.0099976063 64.326469421 130.00080872 2.2300024033 3.5995273590 2.0099935532 2.0099935532
 743.79052734  -999.250000 12.680000305 0.1209863797 0.4311359525 2.0039310455 67.119354248 132.00120544 2.2360258102 3.3041079044 1.9939134121 1.9939134121
 743.94293213  -999.250000 12.873998642 0.1040248349 0.4135966003 1.9179991484 69.835037231 133.50140381 2.2679805756 2.7470676899 1.8859888315 1.8859888315
 744.09533691  -999.250000 13.041999817 0.1349823773 0.4467667341 1.9169367552 71.098793030 135.25239563 2.2439880371 2.1672749519 1.8719911575 1.8719911575
 744.24768066  -999.250000 13.300000191 0.1130044013 0.4301897883 1.8380092382 68.471420288 138.25059509 2.2289960384 2.9621980190 1.8610243797 1.8610243797
 744.40008545  -999.250000 13.384999275 0.1239943877 0.4545848966 1.8610235453 63.835189819 139.74969482 2.2189936638 3.1268174648 1.9219808578 1.9219808578
 744.55249023  -999.250000 14.319999695 0.1099979952 0.4418964684 1.9200476408 61.500045776 138.99960327 2.2029953003 2.9756007195 1.8739823103 1.8739823103
 744.70489502  -999.250000 15.512000084 0.1049995944 0.4579974711 2.0390353203 63.204952240 137.99819946 2.1910064220 3.4757666588 1.8299956322 1.8299956322
 744.85729980  -999.250000 15.553000450 0.1039995998 0.4267635047 2.1270008087 67.323829651 133.49929810 2.2069835663 4.1125783920 1.8189979792 1.8189979792
 745.00970459  -999.250000 15.609999657 0.1030008048 0.4355511665 2.1289968491 70.332649231 131.74969482 2.1659841537 3.8494679928 1.8139752150 1.8139752150
 745.16210938  -999.250000 15.125000000 0.1050076038 0.4384880066 2.1209969521 70.736114502 131.00000000 2.1270008087 3.5178124905 1.7519899607 1.7519899607
 745.31451416  -999.250000 15.321999550 0.1240036041 0.4584966600 2.1129968166 68.937850952 131.00039673 2.1289968491 3.4011507034 1.7269852161 1.7269852161
 745.46691895  -999.250000 16.469999313 0.1330044121 0.4501945078 2.1050007343 68.842941284 132.00010681 2.1209952831 3.4954259396 1.6900197268 1.6900197268
 745.61932373  -999.250000 17.087999344 0.1439823657 0.4365262687 2.1069653034 67.553184509 132.25100708 2.1090095043 3.7627797127 1.7389911413 1.7389911413
 745.77172852  -999.250000 16.624000549 0.0999983996 0.4521437287 2.0199398994 65.171035767 134.75160217 2.1330246925 4.8726491928 1.7170040607 1.7170040607
 745.92413330  -999.250000 16.576000214 0.0979911834 0.4443849623 1.9449135065 62.078449249 136.75239563 2.1640231609 5.2766489983 1.7219847441 1.7219847441
 746.07653809  -999.250000 16.562999725 0.0870080069 0.5005400777 1.8369791508 64.857147217 139.74859619 2.1930143833 5.0563421249 1.7029895782 1.7029895782
 746.22888184  -999.250000 16.662000656 0.0969811827 0.5630038977 1.8110011816 68.699546814 137.99890137 2.2110016346 4.0227570534 1.6900160313 1.6900160313
 746.38128662  -999.250000 15.690999985 0.0499919914 0.5976402760 1.8140441179 74.970169067 135.24829102 2.2149975300 3.8203032017 1.7300308943 1.7300308943
 746.53369141  -999.250000 15.263999939 0.0299915895 0.5483026505 1.9240577221 73.449897766 130.99920654 2.2090206146 3.2410118580 1.8070129156 1.8070129156
 746.68609619  -999.250000 15.342000008 0.0090024024 0.4550639689 2.0680344105 75.030326843 128.99989319 2.2600483894 3.2511920929 1.8389964104 1.8389964104
 746.83850098  -999.250000 15.854000092 0.0149971964 0.4150312245 2.1540064812 73.641189575 128.74980164 2.3810148239 3.4108762741 1.8300108910 1.8300108910
 746.99090576  -999.250000 16.298000336 0.0080012018 0.3930737078 2.1700148582 73.796340942 128.24920654 2.4180092812 3.3068082333 1.8570144176 1.8570144176
 747.14331055  -999.250000 14.340000153 0.0109991990 0.4023447037 2.2070229053 72.766044617 126.25109863 2.4409992695 2.5637805462 1.8930600882 1.8930600882
