# LAS format log file from PETREL
# Project units are specified as depth units
#==================================================================
~Version information
VERS.   2.0:
WRAP.   NO:
#==================================================================
~Well
STRT .m      586.57812500 :
STOP .m      4014.2067871 :
STEP .m     0.00000000 :
NULL .        -999.250000 :
COMP.           : COMPANY
WELL.  34/10-21   : WELL
FLD.            : FIELD
LOC.            : LOCATION
SRVC.           : SERVICE COMPANY
DATE.  2018-09-11 14:48:44   : Log Export Date {yyyy-MM-dd HH:mm:ss}
PROV.           : PROVINCE
UWI.   34/10-21   : UNIQUE WELL ID
API.            : API NUMBER
#==================================================================
~Curve
DEPT .m                   : DEPTH
Lithology_geolink ._      : Lithology_geolink
CALI .in                  : CALI
DRHO .g/cm3               : DRHO
NPHI .m3/m3               : NPHI
RHOB .g/cm3               : RHOB
PEF .b/e                  : PEF
GR .gAPI                  : GR
DTC .us/ft                : DTC
RDEP .ohm.m               : RDEP
SP .mV                    : SP
RSHA .ohm.m               : RSHA
RMED .ohm.m               : RMED
~Parameter
#==================================================================
~Ascii
# ...
 3556.5495605 6.0000000000 10.940999985 0.0589695498 0.2974629402 2.6220064163 4.7410001755 76.813003540 73.438003540 5.9899997711 57.445999146 1.5950000286 7.2789998055
 3556.7019043 6.0000000000 10.925999641 0.0739759654 0.3068948686 2.6369760036 4.2399997711 81.094001770 75.063003540 6.2829999924 58.872001648 1.2660000324 7.2519998550
 3556.8542480 6.0000000000 10.265999794 0.0610416010 0.3087441027 2.6429805756 3.9690001011 85.063003540 81.063003540 6.0799999237 59.735000610 1.1239999533 7.4079999924
 3557.0068359 6.0000000000 9.9769992828 0.0260560904 0.3097983301 2.6290223598 3.9289999008 88.282997131 85.190994263 5.9099998474 58.992000580 1.0390000343 7.6370000839
 3557.1591797 6.0000000000 10.218998909 -0.000956731 0.3095503747 2.6090319157 3.8559999466 90.440002441 83.996009827 5.9369997978 58.375000000 1.1100000143 7.6069998741
 3557.3115234 6.0000000000 10.227000237 -0.005991987 0.3182460666 2.6040081978 3.8800001144 90.625000000 81.500000000 5.9730000496 58.176998138 4.2290000916 7.4000000954
 3557.4638672 6.0000000000 10.258000374 -0.005003200 0.3235330582 2.6049969196 3.9579999447 86.750000000 82.063003540 6.3460001945 58.477001190 7.0370001793 7.2090001106
 3557.6164551 6.0000000000 10.477000237 -0.005998398 0.3232604861 2.6059982777 3.8840000629 85.535003662 82.686996460 6.6719999313 58.417999268 4.7399997711 7.1680002213
 3557.7687988 6.0000000000 10.097000122 -0.006000000 0.3256361783 2.6069984436 3.7630000114 88.001998901 82.750000000 6.5390000343 58.235000610 2.1210000515 7.2399997711
 3557.9211426 6.0000000000 9.6680002213 -0.003004808 0.3261591792 2.6109936237 3.7170000076 91.188003540 82.438003540 6.3689999580 58.305000305 1.6189999580 7.2769999504
 3558.0734863 6.0000000000 10.097999573 -0.001003205 0.3237837851 2.6090030670 3.7999999523 94.344001770 82.375000000 6.2379999161 58.043998718 1.9500000477 7.2270002365
 3558.2258301 6.0000000000 10.297000885 -0.002993600 0.3125959039 2.6050128937 3.9049999714 94.685997009 82.625000000 5.8080000877 57.782001495 3.5090000629 7.1290001869
 3558.3784180 6.0000000000 10.250000000 -0.007991987 0.3057309687 2.6000080109 4.0089998245 94.405998230 82.188003540 5.5960001945 57.785999298 2.8859999180 6.9510002136
 3558.5307617 6.0000000000 10.421999931 -0.008998397 0.3018063009 2.5999999046 4.2270002365 92.094001770 82.750000000 5.6739997864 58.160999298 1.0859999657 6.7890000343
 3558.6831055 6.0000000000 10.863000870 -0.009998397 0.3018599153 2.5960063934 4.3070001602 87.127998352 82.939002991 5.5669999123 58.290000916 1.2510000467 6.8049998283
 3558.8354492 6.0000000000 11.171999931 -0.011993600 0.3028568029 2.5830414295 4.2420001030 84.844001770 81.938003540 5.4590001106 57.861000061 1.4110000134 6.9079999924
 3558.9880371 6.0000000000 11.184000015 -0.014995192 0.3077022135 2.5720176697 4.0190000534 84.719001770 82.438003540 5.2639999390 57.738998413 1.3539999723 6.8520002365
 3559.1403809 6.0000000000 11.277000427 -0.017995192 0.3132511079 2.5670080185 3.8750000000 86.438003540 83.313003540 5.0659999847 59.540000916 1.2269999981 6.6760001183
 3559.2927246 6.0000000000 11.121000290 -0.017001603 0.3165347576 2.5719919205 3.9349999428 86.658996582 84.435997009 5.0489997864 58.595001221 1.1640000343 6.5489997864
 3559.4450684 6.0000000000 11.229000092 -0.014009601 0.3240658343 2.5769839287 4.0500001907 84.720001221 85.375000000 4.9899997711 56.277000427 1.0779999495 6.4409999847
 3559.5976563 6.0000000000 11.550999641 -0.008009615 0.3284230530 2.5829904079 3.9969999790 83.688003540 85.063003540 4.9079999924 57.095001221 0.9419999719 6.4120001793
 3559.7500000 6.0000000000 11.343999863 -0.008000000 0.3335517645 2.5869934559 3.8810000420 83.688003540 84.688003540 4.9120001793 57.535999298 0.8259999752 6.4019999504
 3559.9023438 6.0000000000 11.074001312 -0.009996795 0.3363255560 2.5879983902 3.8910000324 85.155998230 84.813003540 4.9260001183 57.602001190 0.6729999781 6.3870000839
 3560.0546875 6.0000000000 10.968998909 -0.012995193 0.3420608044 2.5870015621 4.0679998398 88.063003540 84.750000000 4.7969999313 57.918998718 0.6650000215 6.3220000267
 3560.2070313 6.0000000000 10.953000069 -0.011006400 0.3433359563 2.5869998932 4.2589998245 89.435997009 84.563003540 4.6620001793 57.611000061 0.7030000091 6.1640000343
 3560.3596191 6.0000000000 11.199000359 -0.009003204 0.3410936296 2.5850031376 4.2899999619 88.469001770 84.063011169 4.5760002136 58.430000305 0.7749999762 6.0250000954
 3560.5119629 6.0000000000 10.722999573 -0.007003205 0.3413096368 2.5820047855 4.3000001907 86.625000000 82.625000000 4.4730000496 57.437999725 0.7760000229 5.9279999733
 3560.6643066 6.0000000000 10.496000290 -0.004004808 0.3430871069 2.5849952698 4.1409997940 83.344001770 82.438003540 4.4819998741 57.945999146 0.6809999943 5.7709999084
 3560.8166504 6.0000000000 10.913999557 -0.002006400 0.3431996405 2.5909807682 3.8759999275 81.655998230 82.251007080 4.5079998970 57.645999908 0.6449999809 5.5999999046
 3560.9692383 6.0000000000 10.953000069 -0.000003205 0.3347835243 2.5959918499 3.7170000076 83.094001770 82.563003540 4.5120000839 55.320999146 0.5979999900 5.4429998398
 3561.1215820 6.0000000000 11.074001312 0.0009983975 0.3243068159 2.5989952087 3.7160000801 87.250000000 83.937995911 4.5269999504 57.683998108 0.5630000234 5.4120001793
 3561.2739258 6.0000000000 11.081999779 -0.000996795 0.3123990893 2.5999982357 3.8559999466 90.688003540 83.937995911 4.4609999657 58.062999725 0.5709999800 5.5120000839
 3561.4262695 6.0000000000 11.086000443 -0.002993600 0.3079043627 2.6049840450 3.9639999866 92.375000000 84.813003540 4.3480000496 57.180000305 0.5759999752 5.6290001869
 3561.5788574 6.0000000000 11.093999863 -0.003998398 0.3041260540 2.6069970131 4.0209999084 93.343002319 84.808998108 4.3179998398 57.297000885 0.6620000005 5.6680002213
 3561.7312012 6.0000000000 11.050998688 -0.002003205 0.3047689497 2.6070001125 4.0560002327 92.092002869 83.813003540 4.3750000000 57.285999298 1.1100000143 5.6539998055
 3561.8835449 6.0000000000 11.272999763 -0.002998397 0.3079249263 2.6030063629 3.9579999447 88.405998230 85.438003540 4.3610000610 58.520000458 1.1319999695 5.6090002060
 3562.0358887 6.0000000000 11.137000084 -0.004996795 0.3139203787 2.5980081558 3.8250000477 85.594001770 86.250000000 4.3420000076 57.021999359 0.7480000257 5.5180001259
 3562.1882324 6.0000000000 10.886999130 -0.005000000 0.3098530769 2.5950095654 3.8110001087 85.939002991 85.750000000 4.3010001183 55.464000702 0.6439999938 5.3790001869
 3562.3408203 6.0000000000 11.343999863 -0.004001603 0.3003053069 2.5950000286 3.9270000458 86.906997681 86.063003540 4.1659998894 56.840999603 0.5070000291 5.1869997978
 3562.4931641 6.0000000000 11.616999626 -0.001004808 0.2955076694 2.5999917984 4.0260000229 87.313003540 86.000000000 4.1389999390 57.402999878 0.5360000134 5.0549998283
 3562.6455078 6.0000000000 11.218999863 -0.000001603 0.3008214533 2.6009984016 3.9340000153 86.655998230 85.375000000 4.2249999046 57.782001495 0.7469999790 4.9730000496
 3562.7978516 6.0000000000 11.027000427 0.0000000000 0.3082860708 2.5960159302 3.8540000916 85.750000000 85.250000000 4.3159999847 56.351001740 0.7319999933 5.0510001183
 3562.9504395 6.0000000000 10.804999352 0.0019967949 0.3124433756 2.5910081863 3.8499999046 87.000000000 85.187995911 4.4239997864 55.972999573 0.5350000262 5.2399997711
 3563.1027832 6.0000000000 10.206999779 0.0059935898 0.3167131543 2.5880048275 3.8789999485 90.000000000 85.438003540 4.5469999313 58.622001648 0.7329999804 5.4939999580
 3563.2551270 6.0000000000 10.152000427 0.0089951921 0.3185170889 2.5899968147 3.8169999123 93.497001648 86.935997009 4.5700001717 57.882999420 0.9580000043 5.6890001297
 3563.4074707 6.0000000000 10.498999596 0.0060096001 0.3143832982 2.5939872265 3.9010000229 93.879997253 84.635002136 4.4419999123 56.304000854 0.8389999866 5.8260002136
 3563.5600586 6.0000000000 10.383000374 -0.002985577 0.3108856082 2.5949983597 4.0980000496 91.688003540 80.250000000 4.4260001183 55.423000336 1.0290000439 5.8709998131
 3563.7124023 6.0000000000 10.288999557 -0.009988782 0.3107002974 2.6059823036 4.6869997978 89.405998230 79.688003540 4.6040000916 56.910999298 1.5900000334 5.8280000687
