# LAS format log file from PETREL
# Project units are specified as depth units
#==================================================================
~Version information
VERS.   2.0:
WRAP.   NO:
#==================================================================
~Well
STRT .m      3455.1030273 :
STOP .m      4235.3911133 :
STEP .m     0.00000000 :
NULL .        -999.250000 :
COMP.           : COMPANY
WELL.  34/11-3 T2   : WELL
FLD.            : FIELD
LOC.            : LOCATION
SRVC.           : SERVICE COMPANY
DATE.  2018-09-11 14:48:48   : Log Export Date {yyyy-MM-dd HH:mm:ss}
PROV.           : PROVINCE
UWI.   34/11-3 T2   : UNIQUE WELL ID
API.            : API NUMBER
#==================================================================
~Curve
DEPT .m                   : DEPTH
Lithology_geolink ._      : Lithology_geolink
CALI .in                  : CALI
NPHI .m3/m3               : NPHI
RHOB .g/cm3               : RHOB
GR .gAPI                  : GR
DTC .us/ft                : DTC
RDEP .ohm.m               : RDEP
RMED .ohm.m               : RMED
~Parameter
#==================================================================
~Ascii
# ...
 3817.8151855  -999.250000 12.383999825 0.0000000000 2.5809135437 75.136093140 87.292243958 1.8778237104 2.2647323608
 3817.9675293  -999.250000 12.401000023 0.0000000000 2.5719134808 75.371650696 87.079154968 1.8678413630 2.0979423523
 3818.1198730  -999.250000 12.440999031 0.0000000000 2.5629422665 75.812889099 86.862640381 1.8590527773 2.0622708797
 3818.2724609  -999.250000 12.454001427 0.0000000000 2.5569775105 76.662979126 86.731971741 1.8621939421 2.2308046818
 3818.4248047  -999.250000 12.465999603 0.0000000000 2.5550289154 77.733886719 86.791503906 1.8737580776 2.1699070930
 3818.5771484  -999.250000 12.404000282 0.0000000000 2.5580577850 78.447898865 87.108062744 1.9158060551 2.1120834351
 3818.7294922  -999.250000 12.450999260 0.0000000000 2.5640480518 78.214164734 87.682197571 1.9033279419 2.1637084484
 3818.8820801  -999.250000 12.463999748 0.0000000000 2.5690448284 77.975784302 88.432998657 1.8080785275 1.9816416502
 3819.0344238  -999.250000 12.472000122 0.0000000000 2.5730094910 79.816246033 89.225181580 1.6991490126 1.8698766232
 3819.1867676  -999.250000 12.418999672 0.0000000000 2.5740094185 83.745124817 89.912620544 1.5938140154 1.7927082777
 3819.3391113  -999.250000 12.447999001 0.0000000000 2.5749905109 87.689476013 90.397514343 1.4705544710 1.6109406948
 3819.4914551  -999.250000 12.432999611 0.0000000000 2.5739903450 89.729095459 90.649955750 1.3890848160 1.5739455223
 3819.6440430  -999.250000 12.454999924 0.0000000000 2.5729711056 90.126464844 90.701660156 1.3378766775 1.5396351814
 3819.7963867  -999.250000 12.432999611 0.0000000000 2.5699422359 90.210906982 90.624725342 1.3311586380 1.4260897636
 3819.9487305  -999.250000 12.420998573 0.0000000000 2.5639228821 90.360572815 90.495742798 1.3400353193 1.4820609093
 3820.1010742  -999.250000 12.447999001 0.0000000000 2.5559136868 89.633468628 90.368263245 1.3425104618 1.5201121569
 3820.2536621  -999.250000 12.468999863 0.0000000000 2.5469229221 87.680496216 90.269859314 1.3717932701 1.5896960497
 3820.4060059  -999.250000 12.468999863 0.0000000000 2.5389423370 86.248123169 90.205680847 1.4161586761 1.4951987267
 3820.5583496  -999.250000 12.456999779 0.0000000000 2.5329616070 85.627258301 90.188926697 1.4252467155 1.6189758778
 3820.7106934  -999.250000 12.454999924 0.0000000000 2.5290000439 84.784858704 90.243690491 1.4396336079 1.6039935350
 3820.8632813  -999.250000 12.449000359 0.0000000000 2.5290448666 83.588111877 90.398635864 1.4753526449 1.6004576683
 3821.0156250  -999.250000 12.472000122 0.0000000000 2.5330672264 82.651870728 90.663146973 1.4954407215 1.7429808378
 3821.1679688  -999.250000 12.420998573 0.0000000000 2.5400865078 82.937713623 91.012626648 1.5199823380 1.7308748960
 3821.3203125  -999.250000 12.434000969 0.0000000000 2.5490865707 83.754371643 91.387771606 1.5182949305 1.6529134512
 3821.4726563  -999.250000 12.454001427 0.0000000000 2.5580673218 83.524162292 91.712738037 1.4785248041 1.5990015268
 3821.6252441  -999.250000 12.413000107 0.0000000000 2.5650289059 81.951385498 91.922180176 1.4517179728 1.5999168158
 3821.7775879  -999.250000 12.454001427 0.0000000000 2.5680096149 80.921653748 91.986854553 1.4361410141 1.5739984512
 3821.9299316  -999.250000 12.383999825 0.0000000000 2.5690288544 81.368324280 91.920227051 1.4442467690 1.5731297731
 3822.0822754  -999.250000 12.423000336 0.0000000000 2.5720577240 82.522033691 91.762336731 1.4583694935 1.6539824009
 3822.2348633  -999.250000 12.380000114 0.0000000000 2.5780866146 83.702751160 91.553817749 1.4789646864 1.6434320211
 3822.3872070  -999.250000 12.423000336 0.0000000000 2.5870959759 84.072547913 91.316383362 1.4772996902 1.7777997255
 3822.5395508  -999.250000 12.395999908 0.0000000000 2.5970480442 83.707267761 91.054100037 1.4936826229 1.6529695988
 3822.6918945  -999.250000 12.404000282 0.0000000000 2.6019904613 83.382278442 90.776443481 1.4770383835 1.6342242956
 3822.8444824  -999.250000 12.387000084 0.0000000000 2.6008992195 83.051597595 90.519073486 1.5352467299 1.7736736536
 3822.9968262  -999.250000 12.414999962 0.0000000000 2.5918750763 82.416191101 90.356040955 1.5491586924 1.6722067595
 3823.1491699  -999.250000 12.424000740 0.0000000000 2.5788750648 82.448387146 90.361564636 1.5574711561 1.8008044958
 3823.3015137  -999.250000 12.427000999 0.0000000000 2.5658845901 83.664909363 90.566520691 1.5263606310 1.6788958311
 3823.4538574  -999.250000 12.424000740 0.0000000000 2.5539038181 85.067611694 90.937934875 1.4345775843 1.6138012409
 3823.6064453  -999.250000 12.371000290 0.0000000000 2.5439133644 85.889152527 91.388526917 1.4107179642 1.4898976088
 3823.7587891  -999.250000 12.409000397 0.0000000000 2.5349519253 86.234786987 91.813545227 1.3947355747 1.4581425190
 3823.9111328  -999.250000 12.364999771 0.0000000000 2.5299711227 86.388046265 92.124824524 1.3799647093 1.5470241308
 3824.0634766  -999.250000 12.397999763 0.0000000000 2.5270192623 86.275337219 92.281959534 1.3780528307 1.5619871616
 3824.2160645  -999.250000 12.427000999 0.0000000000 2.5290672779 86.061935425 92.277412415 1.3809119463 1.5539424419
 3824.3684082  -999.250000 12.362001419 0.0000000000 2.5361058712 85.548362732 92.128456116 1.3762468100 1.5359920263
 3824.5207520  -999.250000 12.406000137 0.0000000000 2.5471153259 85.057868958 91.869491577 1.3906170130 1.5310801268
 3824.6730957  -999.250000 12.381999969 0.0000000000 2.5590865612 84.529342651 91.556785583 1.4261440039 1.5809422731
 3824.8256836  -999.250000 12.355998993 0.0000000000 2.5680561066 83.413261414 91.262321472 1.4915689230 1.5454576015
 3824.9780273  -999.250000 12.336999893 0.0000000000 2.5729999542 82.363700867 91.055519104 1.5793526173 1.6881762743
 3825.1303711  -999.250000 12.329000473 0.0000000000 2.5729806423 82.067016602 90.973526001 1.5988236666 1.7978798151
 3825.2827148  -999.250000 12.317999840 0.0000000000 2.5709712505 81.997535706 91.004684448 1.5881727934 1.7229615450
 3825.4350586  -999.250000 12.317000389 0.0000000000 2.5679616928 81.172485352 91.100822449 1.5416314602 1.6990112066
 3825.5876465  -999.250000 12.317000389 0.0000000000 2.5639615059 80.086952209 91.214775085 1.5192291737 1.7061823606
 3825.7399902  -999.250000 12.317999840 0.0000000000 2.5599615574 79.524429321 91.315589905 1.5323700905 1.7630624771
 3825.8923340  -999.250000 12.362001419 0.0000000000 2.5559422970 79.375640869 91.405624390 1.5530705452 1.8020480871
 3826.0446777  -999.250000 12.375000000 0.0000000000 2.5499327183 79.084426880 91.497741699 1.5564544201 1.8316025734
 3826.1972656  -999.250000 12.303999901 0.0000000000 2.5429615974 79.527008057 91.596656799 1.5256650448 1.5843168497
 3826.3496094  -999.250000 12.317000389 0.0000000000 2.5390193462 81.123603821 91.690162659 1.5075287819 1.6829855442
 3826.5017090  -999.250000 12.314000130 0.0000000000 2.5411040783 83.126670837 91.755256653 1.5367275476 1.6740000248
 3826.6540527  -999.250000 12.333000183 0.0000000000 2.5541682243 84.261993408 91.770347595 1.5200959444 1.7619999647
 3826.8063965  -999.250000 12.291999817 0.0000000000 2.5751841068 83.559700012 91.728820801 1.5260865688 1.7699999809
 3826.9589844  -999.250000 12.326000214 0.0000000000 2.5981202126 81.810104370 91.646591187 1.5317435265 1.6809999943
 3827.1113281  -999.250000 12.321998596 0.0000000000 2.6130158901 80.530189514 91.559242249 1.5168493986 1.6430000067
 3827.2636719  -999.250000 12.325000763 0.0000000000 2.6149039268 80.734321594 91.513366699 1.5688079596 1.6510000229
 3827.4160156  -999.250000 12.266999245 0.0000000000 2.6028399467 81.239990234 91.537330627 1.5570000410 1.5930000544
 3827.5683594  -999.250000 12.314000130 0.0000000000 2.5828590393 80.800834656 91.629844666 1.5574904680 1.7089999914
 3827.7209473  -999.250000 12.291999817 0.0000000000 2.5608799458 78.841285706 91.757720947 1.5912083387 1.8580000401
 3827.8732910  -999.250000 12.322999954 0.0000000000 2.5459518433 76.718444824 91.864479065 1.6047852039 1.8200000525
 3828.0256348  -999.250000 12.276000023 0.0000000000 2.5400080681 77.285881042 91.892570496 1.6527919769 1.9069999456
