# LAS format log file from PETREL
# Project units are specified as depth units
#==================================================================
~Version information
VERS.   2.0:
WRAP.   NO:
#==================================================================
~Well
STRT .m      586.57812500 :
STOP .m      4014.2067871 :
STEP .m     0.00000000 :
NULL .        -999.250000 :
COMP.           : COMPANY
WELL.  34/10-21   : WELL
FLD.            : FIELD
LOC.            : LOCATION
SRVC.           : SERVICE COMPANY
DATE.  2018-09-11 14:48:44   : Log Export Date {yyyy-MM-dd HH:mm:ss}
PROV.           : PROVINCE
UWI.   34/10-21   : UNIQUE WELL ID
API.            : API NUMBER
#==================================================================
~Curve
DEPT .m                   : DEPTH
Lithology_geolink ._      : Lithology_geolink
CALI .in                  : CALI
DRHO .g/cm3               : DRHO
NPHI .m3/m3               : NPHI
RHOB .g/cm3               : RHOB
PEF .b/e                  : PEF
GR .gAPI                  : GR
DTC .us/ft                : DTC
RDEP .ohm.m               : RDEP
SP .mV                    : SP
RSHA .ohm.m               : RSHA
RMED .ohm.m               : RMED
~Parameter
#==================================================================
~Ascii
# ...
 3322.4633789 2.0000000000 8.6250000000 0.0109999999 0.1721106619 2.4849998951 5.7740001678 54.263999939 74.627998352 7.3880000114 43.213001251 10.671999931 9.1909999847
 3322.6157227 2.0000000000 8.6330003738 0.0140000004 0.1838311702 2.6099998951 5.9650001526 58.381000519 72.500000000 8.1470003128 43.323001862 9.8649997711 12.824999809
 3322.7680664 4.0000000000 8.6330003738 0.0070000002 0.2241952419 2.6689999104 5.9679999352 62.484001160 72.625000000 9.1370000839 43.823001862 7.7170000076 13.281000137
 3322.9204102 4.0000000000 8.6330003738 -0.002000000 0.2754977643 2.6449999809 5.8060002327 63.280998230 73.250000000 9.5780000687 43.654998779 10.111000061 12.503999710
 3323.0727539 4.0000000000 8.6370000839 -0.003000000 0.2994633317 2.5959999561 5.5749998093 59.785999298 75.872001648 9.2150001526 42.470001221 13.574999809 11.958000183
 3323.2253418 4.0000000000 8.6370000839 0.0000000000 0.2836155593 2.5409998894 5.3550000191 52.763000488 79.994003296 8.8129997253 42.888999939 9.7980003357 9.6610002518
 3323.3776855 2.0000000000 8.6330003738 0.0020000001 0.2508825064 2.4839999676 5.4479999542 46.219001770 84.188003540 8.5860004425 43.500000000 4.3299999237 6.2270002365
 3323.5300293 2.0000000000 8.6370000839 0.0020000001 0.2199795097 2.4249999523 5.6849999428 46.937999725 85.375000000 8.2659997940 44.124000549 2.1989998817 4.2579998970
 3323.6823730 2.0000000000 8.6370000839 0.0010000000 0.1997248679 2.3819999695 5.9359998703 54.515998840 83.125007629 7.5999999046 43.432998657 2.8399999142 3.9960000515
 3323.8349609 2.0000000000 8.6250000000 0.0000000000 0.1914699972 2.3849999905 5.8530001640 61.234001160 81.125000000 6.4840002060 42.305000305 4.6269998550 5.4299998283
 3323.9873047 4.0000000000 8.5860004425 0.0020000001 0.1987599880 2.4370000362 5.7859997749 62.423999786 80.250000000 5.4239997864 43.365001678 7.4559998512 8.1829996109
 3324.1396484 4.0000000000 8.5310001373 0.0080000004 0.2195799947 2.4930000305 5.6300001144 57.422000885 82.063003540 4.8610000610 44.112998962 9.7700004578 8.3500003815
 3324.2919922 4.0000000000 8.4960002899 0.0099999998 0.2409900129 2.4890000820 5.6669998169 50.327999115 86.813003540 4.6479997635 43.860000610 6.1609997749 5.4349999428
 3324.4445801 2.0000000000 8.4879999161 0.0060000001 0.2518799901 2.4149999619 5.6589999199 43.187999725 92.063003540 4.5120000839 43.088001251 1.7439999580 3.3789999485
 3324.5969238 2.0000000000 8.5039997101 0.0000000000 0.2426699996 2.3310000896 5.7569999695 39.125000000 94.687004089 4.3189997673 43.143001556 1.6619999409 2.7660000324
 3324.7492676 2.0000000000 8.5039997101 -0.001000000 0.2214999944 2.2899999619 5.7670001984 38.405998230 93.813003540 4.0310001373 42.823001862 1.7530000210 2.7139999866
 3324.9016113 2.0000000000 8.4919996262 0.0000000000 0.2025200129 2.2880001068 5.7020001411 37.265998840 92.813011169 3.7260000706 42.437999725 1.7369999886 2.7850000858
 3325.0539551 2.0000000000 8.4799995422 0.0010000000 0.1940699965 2.2939999104 5.5570001602 36.594001770 93.563003540 3.5520000458 42.633998871 1.7560000420 2.8519999981
 3325.2065430 2.0000000000 8.4689998627 -0.002000000 0.1951600015 2.2869999409 5.5100002289 37.937999725 95.625007629 3.5520000458 42.018001556 1.6879999638 3.0039999485
 3325.3588867 2.0000000000 8.4809999466 -0.008000000 0.1961199939 2.2679998875 5.3979997635 41.554000854 96.122001648 3.6579999924 41.592998505 1.8250000477 3.3080000877
 3325.5112305 2.0000000000 8.5039997101 -0.011000000 0.1935300082 2.2539999485 5.2690000534 44.563999176 93.934997559 3.8020000458 42.605998993 2.0629999638 3.6570000648
 3325.6635742 2.0000000000 8.5120000839 -0.010000000 0.1885799915 2.2590000629 5.2319998741 45.969001770 91.437995911 3.9349999428 42.866001129 2.4460000992 3.8420000076
 3325.8161621 2.0000000000 8.5469999313 -0.004000000 0.1830699891 2.2909998894 5.3920001984 47.015998840 90.125000000 4.0989999771 41.942001343 2.6900000572 3.7420001030
 3325.9685059 2.0000000000 8.6020002365 0.0000000000 0.1878899932 2.3180000782 5.5279998779 48.077999115 90.125000000 4.2950000763 42.005001068 2.1830000877 3.4040000439
 3326.1208496 2.0000000000 8.5699996948 0.0010000000 0.1987800002 2.3159999847 5.3740000725 48.108001709 90.313011169 4.4850001335 42.067001343 1.8090000153 3.0969998837
 3326.2731934 2.0000000000 8.5229997635 0.0000000000 0.2109300047 2.2990000248 5.2509999275 47.250000000 89.813003540 4.6389999390 41.709999084 2.2249999046 3.0099999905
 3326.4257813 2.0000000000 8.5550003052 0.0000000000 0.2126099914 2.2980000973 5.1479997635 45.922000885 88.750000000 4.7189998627 41.916999817 2.6029999256 3.1579999924
 3326.5781250 2.0000000000 8.6169996262 0.0020000001 0.2082500011 2.3180000782 5.3319997787 46.219001770 87.063003540 4.7010002136 42.250999451 2.6440000534 3.4660000801
 3326.7304688 2.0000000000 8.6599998474 0.0030000000 0.2027399987 2.3389999866 5.7690000534 49.411998749 84.621002197 4.6350002289 41.569000244 3.0710000992 3.8929998875
 3326.8828125 2.0000000000 8.6520004272 0.0049999999 0.2011400014 2.3570001125 6.4879999161 52.395000458 83.438003540 4.5700001717 40.768001556 3.3259999752 4.4310002327
 3327.0351563 4.0000000000 8.5819997787 0.0089999996 0.2028100044 2.3810000420 6.9759998322 51.730998993 83.875999451 4.5269999504 40.965999603 4.0720000267 4.7129998207
 3327.1877441 4.0000000000 8.5200004578 0.0089999996 0.2073100060 2.3959999084 6.7680001259 48.047000885 85.313011169 4.5590000153 41.645000458 3.6589999199 4.2880001068
 3327.3400879 4.0000000000 8.5000000000 0.0049999999 0.2169100046 2.3859999180 6.6199998856 45.452999115 86.563011169 4.6189999580 41.700000763 2.2899999619 3.5590000153
 3327.4924316 4.0000000000 8.5000000000 -0.002000000 0.2207500041 2.3589999676 6.4590001106 45.581001282 86.310997009 4.6680002213 41.505001068 2.3239998817 3.2239999771
 3327.6447754 2.0000000000 8.4879999161 -0.008000000 0.2164900005 2.3410000801 6.4429998398 47.032001495 85.499000549 4.6950001717 40.868999481 2.4400000572 3.3210000992
 3327.7973633 2.0000000000 8.4879999161 -0.011000000 0.2044799924 2.3510000706 6.2160000801 49.094001770 83.750000000 4.6700000763 40.733001709 2.5109999180 3.7279999256
 3327.9497070 2.0000000000 8.5310001373 -0.009000000 0.1978099942 2.3870000839 6.2300000191 50.155998230 81.437995911 4.6799998283 40.470001221 4.3530001640 4.3959999084
 3328.1020508 2.0000000000 8.5270004272 -0.001000000 0.2030799985 2.4319999218 5.9910001755 49.547000885 80.123992920 4.7829999924 40.518001556 5.3930001259 5.1960000992
 3328.2543945 2.0000000000 8.5000000000 0.0030000000 0.2052399963 2.4560000896 6.2529997826 47.937999725 80.187995911 4.9380002022 40.937999725 4.6310000420 5.7270002365
 3328.4069824 2.0000000000 8.4840002060 0.0030000000 0.2009399980 2.4530000687 6.8480000496 46.265998840 81.000000000 5.1459999084 40.796001434 3.9470000267 5.6350002289
 3328.5593262 2.0000000000 8.4919996262 -0.006000000 0.1886100024 2.4389998913 7.4850001335 45.765998840 81.436996460 5.4270000458 40.729999542 3.0699999332 5.1449999809
 3328.7116699 2.0000000000 8.5550003052 -0.013000000 0.1787400097 2.4260001183 7.2639999390 46.077999115 81.313003540 5.6700000763 40.179000854 3.0569999218 4.7129998207
 3328.8640137 2.0000000000 8.6129999161 -0.013000000 0.1778900027 2.4219999313 6.3229999542 49.952999115 80.813003540 5.8140001297 39.880001068 4.0710000992 4.6290001869
 3329.0166016 4.0000000000 8.6370000839 -0.007000000 0.1838900000 2.4330000877 5.1510000229 54.484001160 79.688003540 5.8949999809 40.255001068 5.5510001183 5.0570001602
 3329.1689453 4.0000000000 8.6479997635 0.0010000000 0.1996299922 2.4660000801 4.3740000725 58.120998383 77.752006531 5.8689999580 40.923999786 6.8600001335 6.1240000725
 3329.3212891 4.0000000000 8.6560001373 0.0030000000 0.2170799971 2.5099999905 3.8719999790 61.402999878 76.189002991 5.7620000839 41.606998444 8.2460002899 7.6789999008
 3329.4736328 4.0000000000 8.6560001373 -0.002000000 0.2311799973 2.5499999523 4.0850000381 66.280998230 75.875000000 5.6909999847 41.997001648 9.5159997940 8.7500000000
 3329.6259766 5.0000000000 8.6599998474 -0.009000000 0.2459900081 2.5829999447 4.7519998550 73.063003540 77.125000000 5.6449999809 41.869998932 6.3289999962 8.6129999161
