# LAS format log file from PETREL
# Project units are specified as depth units
#==================================================================
~Version information
VERS.   2.0:
WRAP.   NO:
#==================================================================
~Well
STRT .m      127.75000000 :
STOP .m      3459.2514648 :
STEP .m     0.00000000 :
NULL .        -999.250000 :
COMP.           : COMPANY
WELL.  34/10-17   : WELL
FLD.            : FIELD
LOC.            : LOCATION
SRVC.           : SERVICE COMPANY
DATE.  2018-09-11 14:48:44   : Log Export Date {yyyy-MM-dd HH:mm:ss}
PROV.           : PROVINCE
UWI.   34/10-17   : UNIQUE WELL ID
API.            : API NUMBER
#==================================================================
~Curve
DEPT .m                   : DEPTH
Lithology_geolink ._      : Lithology_geolink
CALI .in                  : CALI
DRHO .g/cm3               : DRHO
NPHI .m3/m3               : NPHI
RHOB .g/cm3               : RHOB
GR .gAPI                  : GR
DTC .us/ft                : DTC
RDEP .ohm.m               : RDEP
SP .mV                    : SP
RSHA .ohm.m               : RSHA
RMED .ohm.m               : RMED
~Parameter
#==================================================================
~Ascii
# ...
 1237.0000000  -999.250000 16.055000305 0.0399999991 0.2936100066 2.1150000095 27.023000717 141.04699707 0.8669999838 34.951000214 0.7139999866 0.8059999943
 1237.1250000  -999.250000 15.980999947 0.0520000011 0.2978599966 2.1219999790 27.353000641 140.96299744 0.8679999709 34.894001007 0.7149999738 0.8069999814
 1237.2500000  -999.250000 15.828000069 0.0649999976 0.3046599925 2.1199998856 27.583999634 140.83200073 0.8700000048 34.721000671 0.7160000205 0.8080000281
 1237.3748779  -999.250000 15.604999542 0.0719999969 0.3105700016 2.0999999046 27.315999985 140.66099548 0.8719999790 34.507999420 0.7170000076 0.8090000153
 1237.4998779  -999.250000 15.395000458 0.0680000037 0.3128199875 2.0639998913 26.308000565 140.48100281 0.8750000000 34.305999756 0.7179999948 0.8100000024
 1237.6248779  -999.250000 15.328000069 0.0509999990 0.3116199970 2.0260000229 24.670000076 140.30999756 0.8780000210 34.111000061 0.7189999819 0.8109999895
 1237.7501221  -999.250000 15.538000107 0.0299999993 0.3121599853 2.0009999275 22.965999603 140.14199829 0.8820000291 33.951000214 0.7189999819 0.8119999766
 1237.8751221  -999.250000 15.970000267 0.0130000003 0.3148100078 1.9989999533 22.183000565 139.96899414 0.8859999776 33.914001465 0.7200000286 0.8130000234
 1238.0001221  -999.250000 16.479999542 0.0070000002 0.3170799911 2.0220000744 22.881000519 139.79299927 0.8899999857 34.043998718 0.7210000157 0.8149999976
 1238.1250000  -999.250000 16.916999817 0.0149999997 0.3178700209 2.0620000362 24.774000168 139.61500549 0.8920000196 34.349998474 0.7229999900 0.8159999847
 1238.2500000  -999.250000 17.173999786 0.0260000005 0.3217900097 2.0969998837 27.062999725 139.43400574 0.8930000067 34.775001526 0.7260000110 0.8159999847
 1238.3750000  -999.250000 17.290000916 0.0320000015 0.3341199756 2.1170001030 28.792999268 139.27699280 0.8920000196 35.233001709 0.7300000191 0.8130000234
 1238.4998779  -999.250000 17.333000183 0.0309999995 0.3536100090 2.1159999371 29.419000626 139.24499512 0.8870000243 35.624000549 0.7329999804 0.8080000281
 1238.6248779  -999.250000 17.351999283 0.0219999999 0.3697399795 2.0899999142 28.899999619 139.59399414 0.8790000081 35.886001587 0.7360000014 0.7990000248
 1238.7498779  -999.250000 17.368000031 0.0120000001 0.3734899759 2.0520000458 27.701999664 140.59500122 0.8679999709 36.049999237 0.7340000272 0.7870000005
 1238.8751221  -999.250000 17.388000488 0.0049999999 0.3657000065 2.0120000839 26.665000916 142.59599304 0.8569999933 36.188999176 0.7260000110 0.7739999890
 1239.0001221  -999.250000 17.409000397 0.0010000000 0.3572300076 1.9800000191 26.384000778 145.62500000 0.8479999900 36.398998260 0.7129999995 0.7609999776
 1239.1251221  -999.250000 17.423999786 -0.001000000 0.3607000113 1.9579999447 27.330999374 149.55799866 0.8399999738 36.726001740 0.6959999800 0.7500000000
 1239.2500000  -999.250000 17.431999207 -0.002000000 0.3736999929 1.9470000267 29.711999893 153.92100525 0.8330000043 37.146999359 0.6809999943 0.7429999709
 1239.3750000  -999.250000 17.434000015 -0.001000000 0.3861100078 1.9450000525 32.700000763 158.05599976 0.8270000219 37.601001740 0.6719999909 0.7400000095
 1239.5000000  -999.250000 17.438999176 0.0000000000 0.3885900080 1.9500000477 35.665000916 161.32299805 0.8220000267 38.013999939 0.6690000296 0.7409999967
 1239.6250000  -999.250000 17.450000763 0.0010000000 0.3779900074 1.9639999866 38.181999207 163.18400574 0.8180000186 38.319999695 0.6729999781 0.7450000048
 1239.7498779  -999.250000 17.474000931 0.0040000002 0.3635100126 1.9809999466 39.785999298 163.67399597 0.8169999719 38.479000092 0.6819999814 0.7509999871
 1239.8748779  -999.250000 17.510000229 0.0070000002 0.3514199853 1.9960000515 40.409999847 162.97300720 0.8199999928 38.443000793 0.6940000057 0.7580000162
 1239.9998779  -999.250000 17.562000275 0.0060000001 0.3434999883 2.0030000210 40.289001465 161.61500549 0.8270000219 38.228000641 0.7080000043 0.7670000196
 1240.1251221  -999.250000 17.628000259 0.0020000001 0.3367800117 2.0079998970 39.761001587 159.84399414 0.8370000124 37.870998383 0.7189999819 0.7749999762
 1240.2501221  -999.250000 17.681999207 -0.002000000 0.3281899989 2.0220000744 38.798999786 157.70799255 0.8489999771 37.462001801 0.7260000110 0.7839999795
 1240.3751221  -999.250000 17.680999756 0.0020000001 0.3182100058 2.0539999008 37.127998352 155.04499817 0.8600000143 37.091999054 0.7300000191 0.7910000086
 1240.5000000  -999.250000 17.593999863 0.0179999992 0.3087400198 2.1019999981 34.462001801 151.86099243 0.8679999709 36.812999725 0.7340000272 0.7960000038
 1240.6250000  -999.250000 17.420999527 0.0460000001 0.3027999997 2.1519999504 30.892999649 148.36199951 0.8730000257 36.637001038 0.7400000095 0.7979999781
 1240.7500000  -999.250000 17.201000214 0.0769999996 0.3019700050 2.1860001087 27.771999359 144.94500732 0.8759999871 36.522998810 0.7440000176 0.7979999781
 1240.8748779  -999.250000 17.003000259 0.1019999981 0.3060500026 2.1979999542 26.681999207 142.11900330 0.8790000081 36.443000793 0.7419999838 0.7979999781
 1240.9998779  -999.250000 16.868000031 0.1190000027 0.3158200085 2.1879999638 27.750999451 140.20300293 0.8799999952 36.390998840 0.7360000014 0.7990000248
 1241.1248779  -999.250000 16.809000015 0.1230000034 0.3382300138 2.1519999504 29.708999634 139.46400452 0.8799999952 36.393001556 0.7300000191 0.8000000119
 1241.2501221  -999.250000 16.840000153 0.1120000035 0.3701399863 2.0969998837 30.580999374 139.79100037 0.8790000081 36.455001831 0.7300000191 0.8009999990
 1241.3751221  -999.250000 16.944999695 0.0869999975 0.4007200003 2.0339999199 29.767999649 141.05099487 0.8759999871 36.555000305 0.7340000272 0.8009999990
 1241.5001221  -999.250000 17.104999542 0.0549999997 0.4225800037 1.9709999561 28.041000366 142.86099243 0.8750000000 36.634998322 0.7390000224 0.8000000119
 1241.6250000  -999.250000 17.284999847 0.0240000002 0.4252399802 1.9240000248 26.530000687 144.98300171 0.8740000129 36.658000946 0.7400000095 0.7990000248
 1241.7500000  -999.250000 17.437000275 0.0010000000 0.4157400131 1.8980000019 25.993000031 147.23599243 0.8730000257 36.652000427 0.7360000014 0.7990000248
 1241.8750000  -999.250000 17.534999847 -0.011000000 0.4048799872 1.8930000067 26.048000336 149.39300537 0.8719999790 36.673999786 0.7300000191 0.7969999909
 1242.0000000  -999.250000 17.583999634 -0.014000000 0.3956000209 1.9029999971 26.347000122 151.13499451 0.8690000176 36.751998901 0.7260000110 0.7919999957
 1242.1248779  -999.250000 17.600999832 -0.012000000 0.3827999830 1.9170000553 26.999000549 152.06399536 0.8619999886 36.866001129 0.7250000238 0.7839999795
 1242.2498779  -999.250000 17.604999542 -0.012000000 0.3649000227 1.9199999571 28.475000381 152.09199524 0.8519999981 36.970001221 0.7250000238 0.7710000277
 1242.3748779  -999.250000 17.604999542 -0.017999999 0.3489699960 1.9040000439 30.889999390 151.38900757 0.8410000205 37.036998749 0.7239999771 0.7549999952
 1242.5001221  -999.250000 17.600000381 -0.028999999 0.3425000012 1.8719999790 33.798000336 150.68099976 0.8289999962 37.083999634 0.7210000157 0.7379999757
 1242.6251221  -999.250000 17.583999634 -0.039000001 0.3467900157 1.8350000381 36.326999664 150.88800049 0.8169999719 37.133998871 0.7149999738 0.7220000029
 1242.7501221  -999.250000 17.547000885 -0.045000002 0.3540700078 1.8059999943 37.342998505 152.52200317 0.8080000281 37.198001862 0.7049999833 0.7089999914
 1242.8750000  -999.250000 17.486000061 -0.045000002 0.3591699898 1.7899999619 36.750000000 155.73399353 0.7990000248 37.277000427 0.6930000186 0.7009999752
 1243.0000000  -999.250000 17.405000687 -0.043000001 0.3608199954 1.7860000134 35.196998596 159.82699585 0.7919999957 37.376998901 0.6809999943 0.6949999928
 1243.1250000  -999.250000 17.315000534 -0.043000001 0.3641600013 1.7860000134 33.821998596 163.91600037 0.7870000005 37.506999969 0.6700000167 0.6930000186
 1243.2500000  -999.250000 17.233999252 -0.048000000 0.3715299964 1.7829999924 33.730998993 167.25100708 0.7820000052 37.655998230 0.6639999747 0.6930000186
