# LAS format log file from PETREL
# Project units are specified as depth units
#==================================================================
~Version information
VERS.   2.0:
WRAP.   NO:
#==================================================================
~Well
STRT .m      818.46392822 :
STOP .m      2256.5109863 :
STEP .m     0.00000000 :
NULL .        -999.250000 :
COMP.           : COMPANY
WELL.  34/10-7   : WELL
FLD.            : FIELD
LOC.            : LOCATION
SRVC.           : SERVICE COMPANY
DATE.  2018-09-11 14:48:47   : Log Export Date {yyyy-MM-dd HH:mm:ss}
PROV.           : PROVINCE
UWI.   34/10-7   : UNIQUE WELL ID
API.            : API NUMBER
#==================================================================
~Curve
DEPT .m                   : DEPTH
Lithology_geolink ._      : Lithology_geolink
CALI .in                  : CALI
DRHO .g/cm3               : DRHO
NPHI .m3/m3               : NPHI
RHOB .g/cm3               : RHOB
GR .gAPI                  : GR
DTC .us/ft                : DTC
RDEP .ohm.m               : RDEP
SP .mV                    : SP
RSHA .ohm.m               : RSHA
RMED .ohm.m               : RMED
~Parameter
#==================================================================
~Ascii
# ...
 1580.1594238  -999.250000 12.984000206 -0.052000001  -999.250000 2.0920000076 32.903797150 161.50160217 0.5070064068 76.456703186 0.6358622909 0.6358622909
 1580.3118896  -999.250000 13.062999725 -0.033000000  -999.250000 2.1070001125 30.755182266 161.99879456 0.5060023665 76.442016602 0.6589446664 0.6589446664
 1580.4642334  -999.250000 13.352000237 -0.024000000  -999.250000 2.1019999981 32.681793213 161.50160217 0.5109839439 77.215385437 0.6560096145 0.6560096145
 1580.6165771  -999.250000 13.647999763 -0.033000000  -999.250000 2.0739998817 30.522962570 164.98878479 0.5179775953 77.075225830 0.6211121678 0.6211121678
 1580.7690430  -999.250000 13.796999931 -0.035999998  -999.250000 2.0759999752 32.026145935 167.36738586 0.5249775648 77.222877502 0.6140224338 0.6140224338
 1580.9213867  -999.250000 13.468999863 -0.037999999  -999.250000 2.0759999752 28.231218338 167.49960327 0.5269935727 76.592018127 0.6040320396 0.6040320396
 1581.0738525  -999.250000 13.397999763 -0.037000000  -999.250000 2.0880000591 28.841999054 168.37219238 0.5240095854 76.153350830 0.6229391694 0.6229391694
 1581.2261963  -999.250000 13.827999115 -0.039000001  -999.250000 2.0920000076 27.271059036 168.99800110 0.5190160275 76.402603149 0.6120352745 0.6120352745
 1581.3786621  -999.250000 13.843999863 -0.035000000  -999.250000 2.1070001125 31.053873062 167.37889099 0.5110192299 73.655204773 0.6149927974 0.6149927974
 1581.5310059  -999.250000 13.194999695 -0.034000002  -999.250000 2.0980000496 30.813800812 165.75520325 0.5060160160 74.183570862 0.6100160480 0.6100160480
 1581.6834717  -999.250000 13.171999931 -0.029999999  -999.250000 2.0959999561 29.799442291 162.13371277 0.5020095706 75.557899475 0.6169831753 0.6169831753
 1581.8358154  -999.250000 13.101999283 -0.023000000  -999.250000 2.1150000095 30.186746597 157.76400757 0.5000063777 76.058593750 0.6090256572 0.6090256572
 1581.9882813  -999.250000 13.227000237 -0.025000000  -999.250000 2.1229999065 30.951160431 157.37588501 0.4980047941 75.934097290 0.6010192633 0.6010192633
 1582.1406250  -999.250000 13.250000000 -0.021000000  -999.250000 2.1349999905 32.775142670 156.50280762 0.5089647770 75.933998108 0.5820608735 0.5820608735
 1582.2930908  -999.250000 13.772999763 -0.023000000  -999.250000 2.1289999485 31.253681183 159.49278259 0.5179783702 76.058898926 0.5839951634 0.5839951634
 1582.4454346  -999.250000 14.281001091 -0.035000000  -999.250000 2.1110000610 30.393751144 158.00480652 0.5180000067 76.183898926 0.5989519358 0.5989519358
 1582.5979004  -999.250000 13.508000374 -0.057999998  -999.250000 2.0980000496 28.816793442 155.50601196 0.5329639316 76.558700562 0.6468846202 0.6468846202
 1582.7502441  -999.250000 13.147999763 -0.066000000  -999.250000 2.1289999485 27.628805161 155.00160217 0.5369871855 76.683898926 0.6878687143 0.6878687143
 1582.9025879  -999.250000 12.875000000 -0.055000000  -999.250000 2.1819999218 26.971101761 154.37699890 0.5290256143 77.058395386 0.6939807534 0.6939807534
 1583.0550537  -999.250000 12.913999557 -0.034000002  -999.250000 2.1909999847 29.710193634 158.98518372 0.5489359498 77.183898926 0.6850288510 0.6850288510
 1583.2073975  -999.250000 12.867000580 -0.030999999  -999.250000 2.1449999809 30.264247894 161.99038696 0.5539839864 77.028251648 0.6640672684 0.6640672684
 1583.3598633  -999.250000 13.086000443 -0.029999999  -999.250000 2.0980000496 31.372333527 165.36688232 0.5500096083 77.277801514 0.6201058030 0.6201058030
 1583.5122070  -999.250000 13.015999794 -0.028999999  -999.250000 2.0920000076 28.260007858 168.73921204 0.5470095873 77.527603149 0.6060448289 0.6060448289
 1583.6646729  -999.250000 13.352000237 -0.032000002  -999.250000 2.0859999657 28.063449860 167.37829590 0.5420120358 76.115135193 0.6060000062 0.6060000062
 1583.8170166  -999.250000 13.555001259 -0.029999999  -999.250000 2.0959999561 29.558195114 166.75199890 0.5140896440 75.731307983 0.6259359121 0.6259359121
 1583.9694824  -999.250000 13.296999931 -0.045000002  -999.250000 2.1089999676 30.996545792 163.13371277 0.5000336766 75.972808838 0.6359759569 0.6359759569
 1584.1218262  -999.250000 13.281000137 -0.046999998  -999.250000 2.1310000420 33.491992950 163.99719238 0.4900320470 74.592109680 0.6300191879 0.6300191879
 1584.2742920  -999.250000 13.008000374 -0.048999999  -999.250000 2.1480000019 32.814651489 164.00000000 0.4840144217 73.950508118 0.5851081610 0.5851081610
 1584.4266357  -999.250000 13.250000000 -0.043000001  -999.250000 2.1189999580 33.311397552 159.76361084 0.4770224094 74.933212280 0.5580865145 0.5580865145
 1584.5791016  -999.250000 13.328000069 -0.041999999  -999.250000 2.0999999046 33.405773163 155.38551331 0.4839831591 76.323883057 0.5649831891 0.5649831891
 1584.7314453  -999.250000 13.437999725 -0.057999998  -999.250000 2.0840001106 35.057693481 160.48358154 0.4929711819 76.098182678 0.5739711523 0.5739711523
 1584.8837891  -999.250000 13.008000374 -0.054000001  -999.250000 2.0940001011 35.872398376 161.99519348 0.5239006281 76.091011047 0.5600448847 0.5600448847
 1585.0362549  -999.250000 12.835999489 -0.052999999  -999.250000 2.0859999657 31.918710709 163.74441528 0.5578911304 76.207908630 0.5470415950 0.5470415950
 1585.1885986  -999.250000 12.843999863 -0.035000000  -999.250000 2.0840001106 29.072111130 163.37620544 0.5719551444 76.316825867 0.6048141122 0.6048141122
 1585.3410645  -999.250000 13.008000374 -0.035000000  -999.250000 2.1040000916 26.648757935 142.81605530 0.5590416193 76.676712036 0.8342633843 0.8342633843
 1585.4934082  -999.250000 12.852000237 -0.039000001  -999.250000 2.1640000343 27.045700073 132.15905762 0.5450448990 76.910629272 1.1320449114 1.1320449114
 1585.6458740  -999.250000 12.343999863 -0.029999999  -999.250000 2.2579998970 27.498910904 125.01712799 0.5300360322 76.520309448 1.0462090969 1.0462090969
 1585.7982178  -999.250000 12.227000237 -0.020000000  -999.250000 2.2850000858 31.097440720 129.11178589 0.5419615507 76.161293030 0.7080856562 0.7080856562
 1585.9506836  -999.250000 12.406000137 -0.017999999  -999.250000 2.2009999752 31.701570511 149.94981384 0.5489832163 75.677391052 0.5553653836 0.5553653836
 1586.1030273  -999.250000 12.461001396 -0.025000000  -999.250000 2.1129999161 34.678440094 157.47598267 0.5440160632 76.535316467 0.5240992904 0.5240992904
 1586.2554932  -999.250000 12.508000374 -0.029999999  -999.250000 2.0739998817 34.126354218 144.03245544 0.5290360451 76.761817932 0.5349735618 0.5349735618
 1586.4078369  -999.250000 12.272999763 -0.028999999  -999.250000 2.0659999847 34.155899048 144.12460327 0.5190320015 77.113716125 0.5509487391 0.5509487391
 1586.5603027  -999.250000 12.586000443 -0.054000001  -999.250000 2.0329999924 30.696336746 143.00270081 0.5199975967 76.247695923 0.5899062157 0.5899062157
 1586.7126465  -999.250000 12.772999763 -0.057999998  -999.250000 2.0450000763 29.301456451 131.41223145 0.5219936371 75.794364929 0.6428302526 0.6428302526
 1586.8649902  -999.250000 12.835999489 -0.057000000  -999.250000 2.0940001011 29.358800888 138.10336304 0.5299743414 76.058570862 0.7845448852 0.7845448852
 1587.0174561  -999.250000 12.835999489 -0.026000001  -999.250000 2.1860001087 31.399444580 134.13781738 0.5579103827 74.084587097 0.8737149835 0.8737149835
 1587.1697998  -999.250000 12.812999725 -0.016000001  -999.250000 2.1640000343 31.764846802 134.99719238 0.5869070888 74.644096375 0.7234839797 0.7234839797
 1587.3222656  -999.250000 12.921999931 -0.017999999  -999.250000 2.1289999485 33.588146210 144.46957397 0.6059391499 76.143791199 0.6173394322 0.6173394322
 1587.4746094  -999.250000 12.852000237 -0.023000000  -999.250000 2.1019999981 33.563098907 156.71073914 0.6089904308 76.261810303 0.6120160222 0.6120160222
 1587.6270752  -999.250000 12.921999931 -0.032000002  -999.250000 2.1210000515 33.001354218 148.76922607 0.5950337052 76.255004883 0.6658701897 0.6658701897
 1587.7794189  -999.250000 12.835999489 -0.034000002  -999.250000 2.1189999580 32.875400543 166.06935120 0.5770576596 76.247009277 0.7068687081 0.7068687081
