# LAS format log file from PETREL
# Project units are specified as depth units
#==================================================================
~Version information
VERS.   2.0:
WRAP.   NO:
#==================================================================
~Well
STRT .m      818.46392822 :
STOP .m      2256.5109863 :
STEP .m     0.00000000 :
NULL .        -999.250000 :
COMP.           : COMPANY
WELL.  34/10-7   : WELL
FLD.            : FIELD
LOC.            : LOCATION
SRVC.           : SERVICE COMPANY
DATE.  2018-09-11 14:48:47   : Log Export Date {yyyy-MM-dd HH:mm:ss}
PROV.           : PROVINCE
UWI.   34/10-7   : UNIQUE WELL ID
API.            : API NUMBER
#==================================================================
~Curve
DEPT .m                   : DEPTH
Lithology_geolink ._      : Lithology_geolink
CALI .in                  : CALI
DRHO .g/cm3               : DRHO
NPHI .m3/m3               : NPHI
RHOB .g/cm3               : RHOB
GR .gAPI                  : GR
DTC .us/ft                : DTC
RDEP .ohm.m               : RDEP
SP .mV                    : SP
RSHA .ohm.m               : RSHA
RMED .ohm.m               : RMED
~Parameter
#==================================================================
~Ascii
# ...
 2054.2761230 4.0000000000 5.9400000572 -0.020000000 0.3118399978 2.4049999714 53.604469299 87.575820923 5.9476666451 90.194000244 5.2389264107 5.2389264107
 2054.4284668 4.0000000000 5.9200000763 -0.008000000 0.2325499952 2.4019999504 46.075069427 85.566207886 7.2249522209 89.912002563 9.1267652512 9.1267652512
 2054.5808105 3.0000000000 5.8359999657 -0.004000000 0.1761599928 2.3559999466 40.290264130 91.740074158 8.1784734726 89.037002563 17.050291061 17.050291061
 2054.7331543 3.0000000000 5.8109998703 -0.008000000 0.1679400057 2.2829999924 37.758098602 97.170600891 8.2109012604 88.005996704 23.650852203 23.650852203
 2054.8857422 3.0000000000 5.8049998283 -0.012000000 0.1743099988 2.2330000401 40.714244843 102.17999268 7.6768574715 87.662002563 20.427209854 20.427209854
 2055.0380859 3.0000000000 5.8049998283 -0.026000001 0.1793799996 2.1940000057 47.333385468 103.56079865 6.8563156128 86.287002563 14.767077446 14.767077446
 2055.1904297 3.0000000000 5.8049998283 -0.037000000 0.1788999885 2.1930000782 47.530696869 103.56300354 6.2310018539 86.569000244 10.428948402 10.428948402
 2055.3427734 3.0000000000 5.8049998283 -0.035999998 0.1906100065 2.2179999352 49.060543060 104.37370300 5.7467756271 86.162002563 7.3329582214 7.3329582214
 2055.4953613 3.0000000000 5.8080005646 -0.028000001 0.2252700031 2.2439999580 47.315799713 106.99579620 5.4344992638 86.912002563 5.3192191124 5.3192191124
 2055.6477051 3.0000000000 5.8260002136 -0.017999999 0.2606500089 2.2409999371 50.183391571 110.74398804 5.3591203690 86.880996704 4.5482320786 4.5482320786
 2055.8000488 3.0000000000 5.8379998207 -0.018999999 0.2876299918 2.2130000591 47.254707336 115.55529022 5.3789682388 87.380996704 4.5390129089 4.5390129089
 2055.9523926 3.0000000000 5.8699998856 -0.015000000 0.2950499952 2.2030000687 44.692104340 118.18379974 5.4339118004 86.630996704 5.4475417137 5.4475417137
 2056.1047363 3.0000000000 5.8830003738 -0.017999999 0.3075599968 2.1989998817 40.388801575 118.18800354 5.7180876732 86.130996704 7.2950735092 7.2950735092
 2056.2573242 3.0000000000 5.8860001564 -0.016000001 0.3069800138 2.1889998913 36.007011414 118.99869537 6.3120484352 87.099998474 9.3796634674 9.3796634674
 2056.4096680 3.0000000000 5.8979997635 -0.014000000 0.2898600101 2.1740000248 34.408554077 118.37599945 7.4361972809 87.880996704 11.200083733 11.200083733
 2056.5620117 3.0000000000 5.8790001869 -0.016000001 0.2606199980 2.1659998894 35.092899323 117.56430817 8.9505720139 86.412002563 11.515498161 11.515498161
 2056.7143555 3.0000000000 5.8800001144 -0.024000000 0.2359700054 2.1630001068 36.059898376 117.18920135 10.051473618 87.412002563 10.472350121 10.472350121
 2056.8669434 3.0000000000 5.8830003738 -0.033000000 0.2219800055 2.1640000343 38.371295929 116.00190735 9.9531631470 87.944000244 10.242362976 10.242362976
 2057.0192871 3.0000000000 5.8819999695 -0.025000000 0.2231399864 2.1819999218 36.533954620 115.75040436 8.3545656204 89.912002563 11.981208801 11.981208801
 2057.1716309 3.0000000000 5.8790001869 -0.022000000 0.2322400063 2.1909999847 38.434944153 113.00440216 6.0157499313 89.444000244 14.800479889 14.800479889
 2057.3239746 3.0000000000 5.8800001144 -0.012000000 0.2315800041 2.2160000801 42.456104279 108.38980103 4.3842258453 91.069000244 9.0345249176 9.0345249176
 2057.4765625 3.0000000000 5.8830003738 -0.013000000 0.2032099962 2.2409999371 59.192157745 105.56751251 3.4564807415 93.069000244 3.5827209949 3.5827209949
 2057.6289063 3.0000000000 5.8990001678 -0.014000000 0.1930499971 2.2569999695 80.903198242 107.99608612 2.7820799351 96.787002563 1.8248077631 1.8248077631
 2057.7812500 6.0000000000 6.0190000534 -0.024000000 0.2654999793 2.2530000210 100.46865082 112.74238586 2.3267290592 96.537002563 1.5264743567 1.5264743567
 2057.9335938 6.0000000000 6.2379999161 -0.026000001 0.3698799908 2.2449998856 108.05088043 116.36919403 1.9995239973 97.537002563 1.3652579784 1.3652579784
 2058.0859375 6.0000000000 6.2569999695 -0.026000001 0.4522899985 2.2460000515 106.56780243 125.96920013 1.6800240278 97.819000244 1.2842592001 1.2842592001
 2058.2385254 6.0000000000 6.2360000610 -0.026000001 0.4770799875 2.2369999886 98.326225281 127.18609619 1.4303989410 98.412002563 1.2710208893 1.2710208893
 2058.3908691 6.0000000000 6.2740001678 -0.024000000 0.4855599999 2.2290000916 89.701828003 125.56560516 1.2932195663 97.444000244 1.3478766680 1.3478766680
 2058.5432129 5.0000000000 6.2719998360 -0.017999999 0.4857800007 2.2279999256 79.953628540 129.11929321 1.1931601763 97.287002563 1.4099006653 1.4099006653
 2058.6955566 5.0000000000 6.1719999313 -0.006000000 0.4651399851 2.2349998951 81.993400574 131.11860657 1.1182399988 96.412002563 1.4319295883 1.4319295883
 2058.8481445 5.0000000000 6.0289998055 -0.001000000 0.4532899857 2.2219998837 80.377601624 130.75059509 1.0680800676 99.380996704 1.3691009283 1.3691009283
 2059.0004883 5.0000000000 6.0029997826 0.0040000002 0.4399299920 2.2139999866 83.682693481 132.74679565 1.0340545177 99.412002563 1.2571794987 1.2571794987
 2059.1528320 5.0000000000 5.9939994812 -0.003000000 0.4325700104 2.1909999847 78.258712769 135.37078857 1.0010529757 99.224998474 1.0932629108 1.0932629108
 2059.3051758 5.0000000000 6.0130000114 -0.003000000 0.4439199865 2.1860001087 80.430999756 137.99159241 0.9651151896 98.880996704 1.0132559538 1.0132559538
 2059.4577637 5.0000000000 6.0310001373 -0.016000001 0.4673400223 2.1659998894 77.567611694 138.74879456 0.9380432963 99.755996704 0.9800528884 0.9800528884
 2059.6101074 5.0000000000 6.1059999466 -0.028999999 0.4829600155 2.1579999924 73.007308960 136.12921143 0.9140384197 99.255996704 1.0468926430 1.0468926430
 2059.7624512 5.0000000000 6.1939997673 -0.041000001 0.4725199938 2.1589999199 66.698120117 134.37780762 0.9050143957 99.349998474 1.0929263830 1.0929263830
 2059.9147949 5.0000000000 6.2360000610 -0.035999998 0.4832699895 2.1830000877 59.075218201 134.12539673 0.9149839878 99.474998474 1.0620497465 1.0620497465
 2060.0671387 4.0000000000 6.3569993973 -0.039999999 0.4835499823 2.2079999447 55.480503082 135.49560547 0.9329424500 100.28700256 1.0310992002 1.0310992002
 2060.2197266 4.0000000000 6.5509996414 -0.052000001 0.4840499759 2.2400000095 50.695663452 138.49519348 0.9629518986 99.255996704 1.0210160017 1.0210160017
 2060.3720703 4.0000000000 6.7069997787 -0.059999999 0.4784899950 2.2720000744 49.564804077 134.50640869 1.0039342642 99.819000244 1.0948814154 1.0948814154
 2060.5244141 4.0000000000 6.8039999008 -0.046999998 0.4806199968 2.2980000973 50.810997009 133.50160217 1.0439358950 98.694000244 1.1119726896 1.1119726896
 2060.6767578 4.0000000000 6.9139995575 -0.028999999 0.4987300038 2.2969999313 57.167598724 128.76519775 1.0749008656 99.194000244 1.2136735916 1.2136735916
 2060.8293457 5.0000000000 6.8679995537 -0.011000000 0.4953799844 2.2969999313 66.173583984 122.75961304 1.0989614725 98.755996704 1.3098460436 1.3098460436
 2060.9816895 5.0000000000 6.8400001526 -0.009000000 0.4965900183 2.2990000248 71.117088318 117.75801086 1.1109807491 99.380996704 1.5256538391 1.5256538391
 2061.1340332 5.0000000000 6.8130002022 -0.012000000 0.4818600118 2.3099999428 70.251403809 113.19531250 1.0820465088 100.75599670 1.7985625267 1.7985625267
 2061.2863770 5.0000000000 6.6260004044 -0.011000000 0.4447299838 2.3329999447 70.811203003 109.01340485 1.0381407738 100.00599670 2.1199696064 2.1199696064
 2061.4389648 5.0000000000 6.3779997826 -0.007000000 0.4023300111 2.3450000286 71.811401367 110.74719238 0.9940705299 99.412002563 1.9622547626 1.9622547626
 2061.5913086 5.0000000000 6.1859998703 0.0030000000 0.3834799826 2.3329999447 75.057792664 120.17287445 0.9580577016 99.912002563 1.3439919949 1.3439919949
 2061.7436523 5.0000000000 6.0879998207 0.0049999999 0.4158499837 2.2929999828 73.377708435 128.11227417 0.9360352755 99.224998474 0.9156858921 0.9156858921
 2061.8959961 5.0000000000 5.9349999428 0.0130000003 0.4698199928 2.2469999790 74.622993469 138.73297119 0.9320064187 98.849998474 0.8461105824 0.8461105824
