# LAS format log file from PETREL
# Project units are specified as depth units
#==================================================================
~Version information
VERS.   2.0:
WRAP.   NO:
#==================================================================
~Well
STRT .m      3455.1030273 :
STOP .m      4235.3911133 :
STEP .m     0.00000000 :
NULL .        -999.250000 :
COMP.           : COMPANY
WELL.  34/11-3 T2   : WELL
FLD.            : FIELD
LOC.            : LOCATION
SRVC.           : SERVICE COMPANY
DATE.  2018-09-11 14:48:48   : Log Export Date {yyyy-MM-dd HH:mm:ss}
PROV.           : PROVINCE
UWI.   34/11-3 T2   : UNIQUE WELL ID
API.            : API NUMBER
#==================================================================
~Curve
DEPT .m                   : DEPTH
Lithology_geolink ._      : Lithology_geolink
CALI .in                  : CALI
NPHI .m3/m3               : NPHI
RHOB .g/cm3               : RHOB
GR .gAPI                  : GR
DTC .us/ft                : DTC
RDEP .ohm.m               : RDEP
RMED .ohm.m               : RMED
~Parameter
#==================================================================
~Ascii
# ...
 3506.9191895  -999.250000 12.907999039 0.0000000000 2.5859711170 71.990554810 84.588935852 3.7397708893 3.3299438953
 3507.0715332  -999.250000 12.866000175 0.0000000000 2.5829806328 70.669967651 84.699676514 3.7265944481 3.2948992252
 3507.2238770  -999.250000 12.860000610 0.0000000000 2.5809807777 69.889549255 84.852279663 3.7032420635 3.2319376469
 3507.3762207  -999.250000 12.904001236 0.0000000000 2.5789999962 69.980766296 85.038627625 3.6605775356 3.1931555271
 3507.5288086  -999.250000 12.899000168 0.0000000000 2.5790095329 70.248710632 85.244789124 3.6363654137 3.2899262905
 3507.6811523  -999.250000 12.909999847 0.0000000000 2.5800192356 70.347618103 85.459655762 3.5998718739 3.2666761875
 3507.8334961  -999.250000 12.909999847 0.0000000000 2.5820193291 70.565628052 85.666221619 3.5367355347 3.0650720596
 3507.9858398  -999.250000 12.927000046 0.0000000000 2.5840194225 71.508361816 85.848320007 3.5215072632 3.1101410389
 3508.1384277  -999.250000 12.895999908 0.0000000000 2.5860192776 72.419212341 85.979026794 3.4929599762 3.1976416111
 3508.2907715  -999.250000 12.875000000 0.0000000000 2.5880289078 72.251609802 86.036666870 3.4352290630 3.0861008167
 3508.4431152  -999.250000 12.892999649 0.0000000000 2.5910193920 71.560379028 86.016746521 3.4486522675 3.1489951611
 3508.5954590  -999.250000 12.913000107 0.0000000000 2.5930287838 71.539237976 85.945869446 3.4852287769 3.1460688114
 3508.7480469  -999.250000 12.916999817 0.0000000000 2.5960447788 72.281333923 85.883163452 3.4980528355 3.1888589859
 3508.9003906  -999.250000 12.924999237 0.0000000000 2.6000192165 72.448738098 85.894111633 3.5008413792 3.1448252201
 3509.0527344  -999.250000 12.878000259 0.0000000000 2.6020095348 71.413848877 86.015792847 3.4911539555 3.0361843109
 3509.2050781  -999.250000 12.873998642 0.0000000000 2.6029806137 70.466979980 86.231117249 3.4428207874 3.1506426334
 3509.3574219  -999.250000 12.911001205 0.0000000000 2.6009712219 70.997810364 86.463531494 3.3766956329 2.9278557301
 3509.5100098  -999.250000 12.920000076 0.0000000000 2.5979712009 72.856613159 86.619125366 3.3580529690 2.8385601044
 3509.6623535  -999.250000 12.899000168 0.0000000000 2.5949904919 74.456146240 86.623161316 3.3607180119 3.0128445625
 3509.8146973  -999.250000 12.907999039 0.0000000000 2.5940096378 74.731201172 86.460021973 3.3449823856 2.9162371159
 3509.9670410  -999.250000 12.906999588 0.0000000000 2.5950288773 74.054901123 86.177345276 3.3449153900 3.0639758110
 3510.1196289  -999.250000 12.880000114 0.0000000000 2.5980288982 72.960350037 85.857078552 3.3967225552 3.0491855145
 3510.2719727  -999.250000 12.924999237 0.0000000000 2.6010289192 71.324653625 85.579666138 3.4390978813 3.1071460247
 3510.4243164  -999.250000 12.921999931 0.0000000000 2.6040096283 69.093101501 85.392356873 3.5576746464 3.1981377602
 3510.5766602  -999.250000 12.883000374 0.0000000000 2.6050095558 66.910110474 85.300735474 3.6514575481 3.2840304375
 3510.7292480  -999.250000 12.860000610 0.0000000000 2.6059887409 66.097282410 85.286636353 3.6786041260 3.3030159473
 3510.8815918  -999.250000 12.852000237 0.0000000000 2.6050000191 67.145561218 85.323120117 3.7679822445 3.3081490993
 3511.0339355  -999.250000 12.857000351 0.0000000000 2.6049904823 68.806274414 85.385917664 3.7671585083 3.4010224342
 3511.1862793  -999.250000 12.852000237 0.0000000000 2.6039905548 69.545646667 85.436500549 3.7760353088 3.4148445129
 3511.3386230  -999.250000 12.890998840 0.0000000000 2.6029903889 69.528785706 85.406143188 3.7776155472 3.3180370331
 3511.4912109  -999.250000 12.923999786 0.0000000000 2.6019904613 69.697120667 85.224678040 3.7525897026 3.3407537937
 3511.6435547  -999.250000 12.875000000 0.0000000000 2.6010000706 69.512268066 84.863349915 3.6726427078 3.2640559673
 3511.7958984  -999.250000 12.848999977 0.0000000000 2.6009905338 68.094055176 84.372383118 3.6020767689 3.2996170521
 3511.9482422  -999.250000 12.854000092 0.0000000000 2.5999903679 65.844360352 83.886169434 3.8899631500 3.6835930347
 3512.1008301  -999.250000 12.895999908 0.0000000000 2.5989904404 64.531661987 83.559730530 4.1673521996 3.4306144714
 3512.2531738  -999.250000 12.916999817 0.0000000000 2.5980000496 64.929321289 83.492256165 4.1888332367 3.6221811771
 3512.4055176  -999.250000 12.873998642 0.0000000000 2.5980095863 66.436721802 83.680068970 4.2863106728 3.7348926067
 3512.5578613  -999.250000 12.913000107 0.0000000000 2.5990383625 68.744407654 84.024475098 4.0205650330 3.6677532196
 3512.7104492  -999.250000 12.927999496 0.0000000000 2.6030559540 70.894996643 84.391326904 3.7747628689 3.5140542984
 3512.8627930  -999.250000 12.927999496 0.0000000000 2.6080577374 71.256866455 84.691986084 3.8738284111 3.5311346054
 3513.0151367  -999.250000 12.890998840 0.0000000000 2.6140289307 69.656127930 84.917709351 3.9215338230 3.6149775982
 3513.1674805  -999.250000 12.854000092 0.0000000000 2.6170001030 67.817626953 85.128570557 4.0067710876 3.6010129452
 3513.3198242  -999.250000 12.904001236 0.0000000000 2.6169807911 67.479446411 85.389404297 3.9924614429 3.6089231968
 3513.4724121  -999.250000 12.924999237 0.0000000000 2.6149518490 68.565231323 85.727630615 3.8964135647 3.5606443882
 3513.6247559  -999.250000 12.918999672 0.0000000000 2.6099615097 69.362358093 86.103103638 3.8058319092 3.3388075829
 3513.7770996  -999.250000 12.862999916 0.0000000000 2.6059710979 69.619407654 86.447441101 3.6834135056 3.2188766003
 3513.9294434  -999.250000 12.878999710 0.0000000000 2.6029903889 70.448272705 86.697372437 3.5936095715 3.1420047283
 3514.0820313  -999.250000 12.881999969 0.0000000000 2.6019904613 71.946449280 86.830650330 3.5159294605 3.1447088718
 3514.2343750  -999.250000 12.906999588 0.0000000000 2.6009905338 73.734588623 86.866752625 3.5112245083 3.0538556576
 3514.3867188  -999.250000 12.899000168 0.0000000000 2.6000094414 75.736968994 86.852661133 3.4661490917 2.9638798237
 3514.5390625  -999.250000 12.861000061 0.0000000000 2.6010096073 76.784584045 86.833946228 3.3623135090 2.8890094757
 3514.6916504  -999.250000 12.880000114 0.0000000000 2.6020224094 76.231712341 86.831039429 3.3229246140 2.8952240944
 3514.8439941  -999.250000 12.887999535 0.0000000000 2.6040289402 74.687408447 86.832557678 3.2620832920 2.9649279118
 3514.9963379  -999.250000 12.871999741 0.0000000000 2.6070289612 73.366722107 86.806488037 3.2112467289 2.9195384979
 3515.1486816  -999.250000 12.909999847 0.0000000000 2.6100192070 73.020362854 86.719024658 3.2254927158 2.6322243214
 3515.3012695  -999.250000 12.890998840 0.0000000000 2.6120111942 73.195854187 86.548614502 3.2542340755 2.7718336582
 3515.4536133  -999.250000 12.894001007 0.0000000000 2.6130094528 72.490455627 86.298812866 3.3230528831 2.7199630737
 3515.6059570  -999.250000 12.899000168 0.0000000000 2.6140096188 70.876464844 86.004997253 3.3261234760 2.6974680424
 3515.7583008  -999.250000 12.924999237 0.0000000000 2.6150000095 69.560615540 85.722297668 3.3343572617 2.9886908531
 3515.9106445  -999.250000 12.909999847 0.0000000000 2.6150000095 69.343017578 85.514358521 3.4111263752 2.7961122990
 3516.0632324  -999.250000 12.916000366 0.0000000000 2.6149806976 70.893989563 85.423599243 3.4747755527 2.8666911125
 3516.2155762  -999.250000 12.927999496 0.0000000000 2.6129615307 73.314079285 85.459312439 3.5181760788 3.0819294453
 3516.3679199  -999.250000 12.927999496 0.0000000000 2.6089422703 74.642829895 85.590957642 3.5279471874 3.0379166603
 3516.5202637  -999.250000 12.868000031 0.0000000000 2.6029517651 73.893615723 85.758476257 3.5260560513 2.9861361980
 3516.6728516  -999.250000 12.907999039 0.0000000000 2.5979552269 73.062820435 85.898216248 3.5842244625 3.0716049671
 3516.8251953  -999.250000 12.869000435 0.0000000000 2.5939807892 74.671257019 85.965728760 3.5394310951 3.2600481510
 3516.9775391  -999.250000 12.845999718 0.0000000000 2.5920000076 77.949691772 85.949623108 3.4501314163 3.2896955013
 3517.1298828  -999.250000 12.843999863 0.0000000000 2.5919904709 79.686523438 85.871185303 3.3477246761 3.0998091698
