# LAS format log file from PETREL
# Project units are specified as depth units
#==================================================================
~Version information
VERS.   2.0:
WRAP.   NO:
#==================================================================
~Well
STRT .m      3166.7685547 :
STOP .m      4692.7500000 :
STEP .m     0.00000000 :
NULL .        -999.250000 :
COMP.           : COMPANY
WELL.  34/12-1   : WELL
FLD.            : FIELD
LOC.            : LOCATION
SRVC.           : SERVICE COMPANY
DATE.  2018-09-11 14:48:48   : Log Export Date {yyyy-MM-dd HH:mm:ss}
PROV.           : PROVINCE
UWI.   34/12-1   : UNIQUE WELL ID
API.            : API NUMBER
#==================================================================
~Curve
DEPT .m                   : DEPTH
Lithology_geolink ._      : Lithology_geolink
CALI .in                  : CALI
BS .in                    : BS
ROP .m/h                  : ROP
DRHO .g/cm3               : DRHO
THOR .ppm                 : THOR
SGR .gAPI                 : SGR
NPHI .m3/m3               : NPHI
RHOB .g/cm3               : RHOB
PEF .b/e                  : PEF
GR .gAPI                  : GR
URAN .ppm                 : URAN
DTC .us/ft                : DTC
DTS .us/ft                : DTS
RDEP .ohm.m               : RDEP
RSHA .ohm.m               : RSHA
RMED .ohm.m               : RMED
~Parameter
#==================================================================
~Ascii
# ...
 4585.6127930 4.0000000000 6.3914999962 6.4999995232 29459.533203 -0.003313141 5.4331998825 0.0097179487 0.1450618505 2.5552561283 4.2402639389  -999.250000 0.4781000018  -999.250000 136.76879883 4.3055338860 4.9088997841 4.5729203224
 4585.7651367 4.0000000000 6.3914999962 6.4999995232 29011.664063 -0.007391346 8.7273998260 0.0153150642 0.1331317425 2.5727524757 4.0426111221  -999.250000 0.6933000088  -999.250000 137.52420044 4.0691738129 5.0815000534 4.2704257965
 4585.9174805 4.0000000000 6.4239001274 6.4999995232 27770.742188 -0.004702564 11.064100266 0.0200022440 0.1118314117 2.5891420841 4.1091547012  -999.250000 0.8158000112  -999.250000 139.63529968 4.6816639900 5.8628001213 4.9612274170
 4586.0698242 4.0000000000 6.3656001091 6.4999995232 26535.042969 -0.005500000 10.796199799 0.0206884611 0.0905265138 2.6023075581 4.3750591278  -999.250000 0.6122999787  -999.250000 141.07640076 4.2981414795 5.7442002296 4.5042853355
 4586.2221680 4.0000000000 6.3969001770 6.4999995232 27035.640625 -0.005500000 8.6642999649 0.0170913469 0.0988000035 2.6045999527 4.4247999191  -999.250000 0.7681999803  -999.250000 147.11579895 4.5608000755 5.3154001236 4.8116998672
 4586.3745117 4.0000000000 6.4184999466 6.4999995232 28440.000000 -0.005400000 7.2933001518 0.0144096147 0.1351999938 2.6061999798 4.3653998375  -999.250000 0.6704000235  -999.250000 156.48510742 4.1097998619 5.2452001572 4.3134999275
 4586.5268555 4.0000000000 6.4088001251 6.4999995232 28385.640625 -0.005800000 8.6939001083 0.0174214747 0.1864999980 2.6215999126 4.2409000397  -999.250000 0.7627000213  -999.250000 164.76559448 3.5248000622 4.0637001991 3.6679000854
 4586.6796875 4.0000000000 6.4454002380 6.4999995232 28360.542969 -0.009193270 11.046899796 0.0241410248 0.2048785239 2.6400599480 4.1275911331  -999.250000 0.9362000227  -999.250000 171.53550720 3.2854464054 3.4003999233 3.4271605015
 4586.8320313 6.0000000000 6.4130997658 6.4999995232 22901.484375 -0.007108334 13.787300110 0.0305198077 0.1981910318 2.6587257385 4.2494792938  -999.250000 1.4737999439  -999.250000 174.85189819 3.1129975319 3.1870000362 3.2589585781
 4586.9843750 6.0000000000 6.4303002357 6.4999995232 21242.369141 -0.009699360 14.703900337 0.0335999988 0.1954041719 2.6666834354 4.3379154205  -999.250000 1.5520000458  -999.250000 175.42649841 3.0187089443 3.0464000702 3.1214582920
 4587.1367188 6.0000000000 6.4184999466 6.4999995232 19289.080078 -0.009496474 14.859900475 0.0335980766 0.1967134625 2.6615993977 4.8088765144  -999.250000 1.5913000107  -999.250000 174.53199768 2.9590368271 2.9686999321 3.0459797382
 4587.2890625 6.0000000000 6.4292998314 6.4999995232 18480.792969 -0.008389137 14.671299934 0.0329999998 0.2009316385 2.6613919735 4.7083730698  -999.250000 1.3604999781  -999.250000 174.05610657 2.8771586418 2.9442000389 2.9463429451
 4587.4414063 6.0000000000 6.4173998833 6.4999995232 18541.080078 -0.005000000 14.739999771 0.0330022424 0.2108000070 2.6588997841 4.7000999451  -999.250000 1.2043000460  -999.250000 174.92260742 2.8643000126 2.9015998840 2.9286000729
 4587.5937500 6.0000000000 6.4239001274 6.4999995232 18485.279297 -0.003000000 15.067399979 0.0337000005 0.2092999965 2.6631999016 4.9005999565  -999.250000 1.4503999949  -999.250000 174.93710327 2.8427000046 2.8850998878 2.9166998863
 4587.7460938 6.0000000000 6.4173998833 6.4999995232 16512.841797 0.0007000000 15.638298988 0.0336983986 0.1966000050 2.6575000286 5.1399998665  -999.250000 1.4838000536  -999.250000 174.75529480 2.8192999363 2.8633999825 2.8821001053
 4587.8984375 6.0000000000 6.4239001274 6.4999995232 15775.918945 0.0008000000 15.232899666 0.0331961550 0.1985999942 2.6605000496 4.8614997864  -999.250000 1.5541000366  -999.250000 176.26489258 2.7834999561 2.8296999931 2.8601999283
 4588.0512695 6.0000000000 6.4239001274 6.4999995232 14477.016602 0.0005987180 14.894900322 0.0320006423 0.2036134601 2.6517858505 4.4973411560  -999.250000 1.5262999535  -999.250000 178.08309937 2.7718887329 2.8296999931 2.8549406528
 4588.2036133 6.0000000000 6.4173998833 6.4999995232 14362.967773 0.0001935897 15.082099915 0.0321051106 0.2077903897 2.6473703384 4.3856587410  -999.250000 1.7532999516  -999.250000 179.90130615 2.7685360909 2.8696000576 2.8677458763
 4588.3559570 6.0000000000 6.4292998314 6.4999995232 16055.412109 -0.001806410 15.585399628 0.0328977592 0.2048227489 2.6382329464 4.3724727631  -999.250000 1.8861999512  -999.250000 181.10440063 2.8109381199 2.8943998814 2.9131481647
 4588.5083008 6.0000000000 6.4303002357 6.4999995232 15424.185547 -0.003791987 16.087299347 0.0321945511 0.2118842900 2.6485242844 4.2700223923  -999.250000 1.9380999804  -999.250000 181.27270508 2.8228700161 2.9444000721 2.9281697273
 4588.6606445 6.0000000000 6.4562001228 6.4999995232 15308.194336 -0.001299042 16.359699249 0.0304993596 0.2069738060 2.6561133862 4.0278377533  -999.250000 1.9695999622  -999.250000 179.88879395 2.8448364735 2.9535000324 2.9499468803
 4588.8129883 6.0000000000 6.4400000572 6.4999995232 15393.599609 -0.001000000 15.992400169 0.0302948728 0.1987999976 2.6603000164 3.9460000992  -999.250000 1.9968999624  -999.250000 178.55999756 2.8873999119 2.9760999680 2.9958000183
 4588.9653320 6.0000000000 6.4734997749 6.4999995232 13932.000000 -0.000100000 15.510000229 0.0286971144 0.1846999973 2.6614999771 4.2259001732  -999.250000 2.2211000919  -999.250000 176.67219543 3.0086998940 3.0755999088 3.1259999275
 4589.1176758 6.0000000000 6.4454002380 6.4999995232 13510.439453 -0.001700000 16.005800247 0.0277999993 0.1863999963 2.6558001041 4.2671999931  -999.250000 2.3726999760  -999.250000 174.36470032 3.1728999615 3.2216000557 3.3013000488
 4589.2705078 6.0000000000 6.4670000076 6.4999995232 12759.946289 0.0019913462 15.876199722 0.0277935900 0.1819891036 2.6644620895 4.4431920052  -999.250000 2.2695999146  -999.250000 173.23120117 3.3483808041 3.3408000469 3.4968597889
 4589.4228516 6.0000000000 6.4562001228 6.4999995232 13691.627930 -0.000696154 14.605099678 0.0267955270 0.1786259562 2.6526737213 4.2543196678  -999.250000 2.4897999763  -999.250000 174.16729736 3.4359202385 3.4261999130 3.5779342651
 4589.5751953 5.0000000000 6.4562001228 6.4999995232 14622.623047 0.0005016026 14.779899597 0.0260987189 0.1867140979 2.6444561481 4.3221588135  -999.250000 2.3218998909  -999.250000 174.36360168 3.5053250790 3.5090999603 3.6517748833
 4589.7275391 5.0000000000 6.4432997704 6.4999995232 15226.919922 0.0010048078 13.950799942 0.0256951917 0.1911067367 2.6308186054 4.1543593407  -999.250000 2.3887999058  -999.250000 175.13250732 3.7934856415 3.9017000198 3.9554977417
 4589.8798828 5.0000000000 6.4400000572 6.4999995232 15226.919922 0.0025028845 13.500100136 0.0241964739 0.1931900680 2.6366226673 4.3288469315  -999.250000 2.4426999092  -999.250000 174.19639587 3.9461040497 4.2899999619 4.1120014191
 4590.0322266 5.0000000000 6.4562001228 6.4999995232 15213.438477 0.0034035144 13.108900070 0.0230974350 0.1901070327 2.6437151432 4.4999370575  -999.250000 2.6157000065  -999.250000 172.30860901 4.4458751678 4.7526998520 4.6420016289
 4590.1845703 5.0000000000 6.4475998878 6.4999995232 11007.360352 0.0044999998 13.161499977 0.0223060884 0.1923000067 2.6484999657 4.7923002243  -999.250000 2.5706999302  -999.250000 171.07739258 4.7188000679 4.9506998062 4.9232997894
 4590.3369141 5.0000000000 6.4670000076 6.4999995232 10112.759766 0.0035999999 12.554599762 0.0241996795 0.2005999982 2.6433000565 4.7410001755  -999.250000 2.6928999424  -999.250000 169.52520752 4.6584000587 4.6726999283 4.8475999832
 4590.4892578 5.0000000000 6.4347000122 6.4999995232 12060.360352 0.0052000000 12.958999634 0.0241038464 0.1992000043 2.6466000080 4.7351999283  -999.250000 2.4460000992  -999.250000 168.50390625 4.5103998184 4.4509000778 4.6728000641
 4590.6420898 5.0000000000 6.4604997635 6.4999995232 10421.155273 0.0047926283 13.923999786 0.0253083333 0.1955775619 2.6416933537 4.8039970398  -999.250000 2.4014999866  -999.250000 166.51849365 5.0435471535 4.8298001289 5.2404618263
 4590.7944336 5.0000000000 6.4292998314 6.4999995232 10942.863281 0.0025060896 13.772199631 0.0265904143 0.1885903925 2.6396212578 4.5219841003  -999.250000 1.9814999104  -999.250000 163.41409302 5.3396320343 5.2572999001 5.5413327217
