# LAS format log file from PETREL
# Project units are specified as depth units
#==================================================================
~Version information
VERS.   2.0:
WRAP.   NO:
#==================================================================
~Well
STRT .m      818.46392822 :
STOP .m      2256.5109863 :
STEP .m     0.00000000 :
NULL .        -999.250000 :
COMP.           : COMPANY
WELL.  34/10-7   : WELL
FLD.            : FIELD
LOC.            : LOCATION
SRVC.           : SERVICE COMPANY
DATE.  2018-09-11 14:48:47   : Log Export Date {yyyy-MM-dd HH:mm:ss}
PROV.           : PROVINCE
UWI.   34/10-7   : UNIQUE WELL ID
API.            : API NUMBER
#==================================================================
~Curve
DEPT .m                   : DEPTH
Lithology_geolink ._      : Lithology_geolink
CALI .in                  : CALI
DRHO .g/cm3               : DRHO
NPHI .m3/m3               : NPHI
RHOB .g/cm3               : RHOB
GR .gAPI                  : GR
DTC .us/ft                : DTC
RDEP .ohm.m               : RDEP
SP .mV                    : SP
RSHA .ohm.m               : RSHA
RMED .ohm.m               : RMED
~Parameter
#==================================================================
~Ascii
# ...
 1486.8906250  -999.250000 13.208000183 -0.057999998  -999.250000 2.1219999790 29.059055328 138.30220032 0.6849254966 70.952972412 1.0775624514 1.0775624514
 1487.0429688  -999.250000 13.383999825 -0.041999999  -999.250000 2.1700000763 28.906503677 158.91737366 0.7657405734 70.993972778 0.9484163523 0.9484163523
 1487.1954346  -999.250000 13.541998863 -0.030999999  -999.250000 2.1730000973 27.612117767 144.43354797 0.8916971087 71.034973145 0.7604519129 0.7604519129
 1487.3477783  -999.250000 13.690999985 -0.023000000  -999.250000 2.1600000858 25.008356094 127.44310760 0.9817117453 71.149909973 0.7918975353 0.7918975353
 1487.5002441  -999.250000 13.873999596 -0.016000001  -999.250000 2.1679999828 26.091369629 126.19275665 0.9889832139 71.461746216 1.1351730824 1.1351730824
 1487.6525879  -999.250000 14.145999908 -0.011000000  -999.250000 2.1849999428 31.809635162 135.46269226 0.9790319800 71.150253296 1.2057757378 1.2057757378
 1487.8050537  -999.250000 14.444000244 -0.011000000  -999.250000 2.1860001087 34.244178772 130.51602173 0.9710192680 70.712348938 1.0344134569 1.0344134569
 1487.9573975  -999.250000 14.607000351 -0.011000000  -999.250000 2.1740000248 36.897491455 136.72497559 0.9341185093 70.650054932 0.9702050090 0.9702050090
 1488.1097412  -999.250000 14.765999794 -0.007000000  -999.250000 2.1640000343 32.857021332 138.36848450 0.8672147393 72.708694458 1.0009007454 1.0009007454
 1488.2622070  -999.250000 15.173000336 -0.003000000  -999.250000 2.1500000954 34.432895660 152.94145203 0.7892497778 73.399452209 0.9591345191 0.9591345191
 1488.4145508  -999.250000 15.576999664 -0.004000000  -999.250000 2.1210000515 32.506210327 166.44590759 0.7152371407 72.089103699 0.7895448208 0.7895448208
 1488.5670166  -999.250000 15.456000328 -0.010000000  -999.250000 2.0850000381 33.527694702 165.00601196 0.6522017717 71.650352478 0.6265220046 0.6265220046
 1488.7193604  -999.250000 15.027001381 -0.016000001  -999.250000 2.0599999428 32.597003937 171.47395325 0.6011634469 71.836700439 0.5701794624 0.5701794624
 1488.8718262  -999.250000 14.706000328 -0.024000000  -999.250000 2.0439999104 31.752029419 163.15852356 0.5541130304 71.899948120 0.5839663148 0.5839663148
 1489.0241699  -999.250000 14.484000206 -0.032000002  -999.250000 2.0420000553 28.105709076 137.10466003 0.5260896683 71.650199890 0.5929711461 0.5929711461
 1489.1766357  -999.250000 14.385999680 -0.039999999  -999.250000 2.0620000362 26.612569809 138.74299622 0.5070456862 71.711944580 0.6089615822 0.6089615822
 1489.3289795  -999.250000 14.403999329 -0.037999999  -999.250000 2.1040000916 27.029647827 147.09144592 0.4980288148 72.649246216 0.6408975124 0.6408975124
 1489.4814453  -999.250000 14.454000473 -0.026000001  -999.250000 2.1449999809 32.300304413 155.46647644 0.5039855838 72.650001526 0.6589567065 0.6589567065
 1489.6337891  -999.250000 14.470999718 -0.018999999  -999.250000 2.1600000858 34.680393219 158.11448669 0.5169584155 72.400199890 0.6151409149 0.6151409149
 1489.7862549  -999.250000 14.453000069 -0.021000000  -999.250000 2.1419999599 35.030174255 159.74479675 0.5279735327 72.212150574 0.6090144515 0.6090144515
 1489.9385986  -999.250000 14.428000450 -0.028999999  -999.250000 2.1129999161 34.501701355 157.38449097 0.5369711518 72.524749756 0.6099967957 0.6099967957
 1490.0910645  -999.250000 14.437000275 -0.037999999  -999.250000 2.1029999256 31.460323334 156.12901306 0.5419879556 72.711845398 0.6299518943 0.6299518943
 1490.2434082  -999.250000 14.477000237 -0.044000000  -999.250000 2.1150000095 31.998249054 154.75550842 0.5519679785 71.962600708 0.6509327888 0.6509327888
 1490.3957520  -999.250000 14.488999367 -0.046000000  -999.250000 2.1380000114 31.174654007 145.03906250 0.5659551024 71.650497437 0.6928654313 0.6928654313
 1490.5482178  -999.250000 14.449999809 -0.046000000  -999.250000 2.1540000439 30.440349579 145.00000000 0.5889263153 71.650001526 0.6959903836 0.6959903836
 1490.7005615  -999.250000 14.390999794 -0.045000002  -999.250000 2.1570000648 29.067407608 135.16456604 0.6119262576 71.525199890 0.6581217647 0.6581217647
 1490.8530273  -999.250000 14.328000069 -0.045000002  -999.250000 2.1589999199 27.816003799 130.51850891 0.6479134560 71.711845398 0.6410408616 0.6410408616
 1491.0053711  -999.250000 14.255999565 -0.046000000  -999.250000 2.1809999943 28.622400284 128.13452148 0.6828879118 71.462394714 0.6998110414 0.6998110414
 1491.1578369  -999.250000 14.172000885 -0.046000000  -999.250000 2.2230000496 24.323364258 124.76351166 0.7398629785 70.775550842 0.8296874762 0.8296874762
 1491.3101807  -999.250000 14.085000038 -0.044000000  -999.250000 2.2590000629 21.617658615 123.00700378 0.8336989284 72.024002075 0.8918014765 0.8918014765
 1491.4626465  -999.250000 14.010999680 -0.039999999  -999.250000 2.2739999294 19.489107132 124.99199677 0.9497211576 72.461647034 0.8610745072 0.8610745072
 1491.6149902  -999.250000 13.984998703 -0.035999998  -999.250000 2.2880001068 21.991941452 93.128196716 1.0317373276 72.461997986 0.9387502074 0.9387502074
 1491.7674561  -999.250000 14.081999779 -0.028999999  -999.250000 2.3250000477 23.091369629 100.16495514 1.0319999456 72.275154114 1.3121008873 1.3121008873
 1491.9197998  -999.250000 14.230999947 -0.018999999  -999.250000 2.3670001030 23.856550217 100.37425232 1.0010993481 72.461845398 1.7097253799 1.7097253799
 1492.0722656  -999.250000 14.329999924 -0.012000000  -999.250000 2.3910000324 23.578674316 96.387817383 0.9491249919 73.461196899 1.5533797741 1.5533797741
 1492.2246094  -999.250000 14.581999779 -0.010000000  -999.250000 2.3740000725 27.222290039 122.64441681 0.8891921639 73.150253296 1.0864988565 1.0864988565
 1492.3769531  -999.250000 15.078000069 -0.016000001  -999.250000 2.3159999847 33.947414398 135.94691467 0.8321827054 72.712699890 0.8328109384 0.8328109384
 1492.5294189  -999.250000 15.633000374 -0.025000000  -999.250000 2.2330000401 37.426891327 143.71897888 0.7592337728 72.462196350 0.6944419742 0.6944419742
 1492.6817627  -999.250000 15.817999840 -0.032000002  -999.250000 2.1419999599 38.371997833 146.98698425 0.6882275939 72.461997986 0.6272147298 0.6272147298
 1492.8342285  -999.250000 15.652000427 -0.037999999  -999.250000 2.0750000477 35.101890564 161.44195557 0.6490937471 71.900451660 0.5841033459 0.5841033459
 1492.9865723  -999.250000 15.338999748 -0.043000001  -999.250000 2.0520000458 33.848003387 160.13050842 0.6290640831 71.650398254 0.5700448155 0.5700448155
 1493.1390381  -999.250000 14.928000450 -0.041999999  -999.250000 2.0759999752 31.724107742 129.12460327 0.6040600538 71.587051392 0.6138942242 0.6138942242
 1493.2913818  -999.250000 14.751999855 -0.033000000  -999.250000 2.1489999294 28.946905136 119.41356659 0.5910416245 71.649948120 0.8123627305 0.8123627305
 1493.4438477  -999.250000 14.920999527 -0.015000000  -999.250000 2.2490000725 31.103780746 98.272819519 0.5969855785 71.899803162 1.1651514769 1.1651514769
 1493.5961914  -999.250000 14.973999977 0.0049999999  -999.250000 2.3190000057 36.825634003 99.557495117 0.6129487157 71.650199890 1.1590224504 1.1590224504
 1493.7486572  -999.250000 14.668999672 0.0149999997  -999.250000 2.3150000572 42.580181122 125.10586548 0.6469182968 71.212348938 0.8457548618 0.8457548618
 1493.9010010  -999.250000 14.418000221 0.0089999996  -999.250000 2.2539999485 44.120098114 137.69970703 0.6679327488 72.960594177 0.6695636511 0.6695636511
 1494.0534668  -999.250000 14.392999649 0.0000000000  -999.250000 2.2049999237 39.355495453 136.75320435 0.6610168219 73.774353027 0.6739879847 0.6739879847
 1494.2058105  -999.250000 14.467000008 -0.004000000  -999.250000 2.1949999332 37.319503784 134.13551331 0.6470448375 73.212448120 0.7527469993 0.7527469993
 1494.3581543  -999.250000 14.557999611 0.0000000000  -999.250000 2.1909999847 36.533504486 131.38601685 0.6460032463 72.712799072 0.7848974466 0.7848974466
 1494.5106201  -999.250000 14.630999565 0.0020000001  -999.250000 2.1640000343 36.842998505 128.13801575 0.6569647789 73.024749756 0.7351601720 0.7351601720
