# LAS format log file from PETREL
# Project units are specified as depth units
#==================================================================
~Version information
VERS.   2.0:
WRAP.   NO:
#==================================================================
~Well
STRT .m      492.56594849 :
STOP .m      2784.8139648 :
STEP .m     0.00000000 :
NULL .        -999.250000 :
COMP.           : COMPANY
WELL.  34/10-5   : WELL
FLD.            : FIELD
LOC.            : LOCATION
SRVC.           : SERVICE COMPANY
DATE.  2018-09-11 14:48:46   : Log Export Date {yyyy-MM-dd HH:mm:ss}
PROV.           : PROVINCE
UWI.   34/10-5   : UNIQUE WELL ID
API.            : API NUMBER
#==================================================================
~Curve
DEPT .m                   : DEPTH
Lithology_geolink ._      : Lithology_geolink
CALI .in                  : CALI
DRHO .g/cm3               : DRHO
NPHI .m3/m3               : NPHI
RHOB .g/cm3               : RHOB
GR .gAPI                  : GR
DTC .us/ft                : DTC
RDEP .ohm.m               : RDEP
SP .mV                    : SP
RSHA .ohm.m               : RSHA
RMED .ohm.m               : RMED
~Parameter
#==================================================================
~Ascii
# ...
 2015.9561768 4.0000000000 8.8590002060 0.0399999991 0.4355816841 2.3069999218 69.923240662 118.99884796 1.5210560560 39.262119293 2.1754550934 1.8159855604
 2016.1085205 4.0000000000 8.8129997253 0.0270000007 0.4751391113 2.2769999504 67.074523926 121.74778748 1.5170159340 39.264999390 1.9116317034 1.8020448685
 2016.2609863 4.0000000000 8.7889995575 0.0140000004 0.5239495635 2.2679998875 67.561004639 123.18685150 1.5160040855 39.280933380 2.0717420578 1.6862788200
 2016.4133301 4.0000000000 8.6639995575 0.0120000001 0.5360885262 2.2730000019 72.667472839 125.56110382 1.5349237919 39.171443939 2.7623379230 1.6012722254
 2016.5657959 4.0000000000 8.6330003738 0.0280000009 0.4842846096 2.3239998817 71.503807068 124.75064850 1.5629101992 38.517101288 2.7520194054 1.6389087439
 2016.7181396 4.0000000000 8.5389995575 0.0209999997 0.4247792661 2.3299999237 70.006004333 122.75160217 1.5749520063 37.783935547 2.8109054565 1.7984876633
 2016.8706055 4.0000000000 8.4919996262 0.0219999999 0.3989386261 2.3359999657 63.739131927 117.56715393 1.5779902935 36.923759460 2.7680687904 1.9346730709
 2017.0229492 4.0000000000 8.4919996262 0.0040000002 0.4043277800 2.3050000668 66.800621033 115.37675476 1.5600719452 36.189937592 2.7011072636 1.9898238182
 2017.1752930 4.0000000000 8.4919996262 0.0120000001 0.4389541149 2.2990000248 65.629760742 114.56430054 1.4653806686 35.673069000 2.6880311966 1.9790352583
 2017.3277588 4.0000000000 8.4919996262 0.0060000001 0.4316423833 2.2850000858 69.982482910 114.37516022 1.2996644974 34.597312927 2.5142788887 1.9241762161
 2017.4801025 4.0000000000 8.4530000687 0.0240000002 0.4345403016 2.2869999409 64.024040222 114.74939728 1.0719134808 34.110939026 2.5369446278 1.8542243242
 2017.6325684 4.0000000000 8.4530000687 0.0160000008 0.3974443376 2.2460000515 60.327758789 114.56315613 0.8668206334 33.127944946 1.2870063782 1.5646971464
 2017.7849121 4.0000000000 8.4530000687 0.0109999999 0.3779081106 2.1860001087 42.260616302 115.18699646 0.7245689034 31.910881042 1.0216341019 1.0715820789
 2017.9373779 3.0000000000 8.4530000687 -0.013000000 0.3505993783 2.1150000095 32.569656372 116.18720245 0.6194203496 31.112190247 1.0070223808 0.6939062476
 2018.0897217 3.0000000000 8.4530000687 -0.017000001 0.3623187840 2.0980000496 27.348844528 116.56271362 0.5433044434 30.376945496 1.0289472342 0.5614227057
 2018.2421875 3.0000000000 8.4530000687 -0.026000001 0.3857345283 2.0899999142 29.693490982 116.37515259 0.4822441936 30.327188492 0.9750865698 0.5400505066
 2018.3945313 3.0000000000 8.4689998627 -0.010000000 0.3823184371 2.1150000095 32.768665314 116.56285858 0.4351882935 30.218437195 1.0288703442 0.6097758412
 2018.5469971 3.0000000000 8.4530000687 -0.010000000 0.3803223073 2.1150000095 32.376300812 117.18750000 0.4040993750 30.171150208 1.1428172588 0.6688582301
 2018.6993408 3.0000000000 8.4530000687 -0.007000000 0.3506099284 2.1229999065 33.682743073 117.37484741 0.3900560439 30.389122009 1.1260409355 0.6989039183
 2018.8518066 3.0000000000 8.4770002365 -0.005000000 0.3754720390 2.1270000935 34.248199463 117.74970245 0.3929903805 31.012996674 1.2178525925 0.7089759707
 2019.0041504 3.0000000000 8.5389995575 0.0040000002 0.3642638922 2.1329998970 35.682243347 118.74919891 0.4129199088 31.139499664 1.1261475086 0.6960415840
 2019.1564941 3.0000000000 8.5389995575 -0.006000000 0.3691423833 2.1170001030 35.002758026 117.75160217 0.4608076811 31.139999390 1.0890889168 0.6441666484
 2019.3089600 3.0000000000 8.5699996948 -0.015000000 0.3720727563 2.1170001030 38.859489441 117.75000000 0.5287277699 30.891000748 1.2397580147 0.5911697745
 2019.4613037 3.0000000000 8.5699996948 -0.034000002 0.3754817843 2.1559998989 43.699596405 119.37240601 0.6136595011 30.765501022 1.5741953850 0.5850192308
 2019.6137695 3.0000000000 8.5699996948 -0.027000001 0.3651881218 2.2699999809 50.192981720 117.00189972 0.7016477585 31.262996674 5.5835657120 0.6886669397
 2019.7661133 3.0000000000 8.5229997635 -0.023000000 0.3129696846 2.3889999390 49.253883362 106.20531464 0.7806835175 31.887496948 8.3683109283 1.1854038239
 2019.9185791 16.000000000 8.4689998627 -0.001000000 0.2876164317 2.4260001183 49.405372620 100.19280243 0.8487277627 32.154933929 4.0659165382 2.5846321583
 2020.0709229 16.000000000 8.4530000687 0.0109999999 0.3081436455 2.3519999981 48.597255707 96.003356934 0.9147356153 32.575313568 1.6059063673 3.7692048550
 2020.2233887 16.000000000 8.4530000687 0.0010000000 0.3501555026 2.2400000095 51.924613953 99.560150146 0.9976677895 32.686561584 1.4662146568 2.5748870373
 2020.3757324 3.0000000000 8.4770002365 -0.001000000 0.3847652972 2.1860001087 55.018608093 108.55579376 1.0517836809 32.203941345 1.6246180534 1.3130449057
 2020.5281982 3.0000000000 8.4919996262 -0.004000000 0.3788841665 2.1700000763 60.757980347 115.74424744 1.0280960798 31.968936920 1.4922131300 0.9438798428
 2020.6805420 3.0000000000 8.5000000000 0.0099999998 0.3627935052 2.1879999638 64.547851563 120.37129211 0.9513084888 31.610437393 1.6226854324 0.9330320358
 2020.8330078 3.0000000000 8.5229997635 0.0080000004 0.3672001660 2.1930000782 59.360729218 120.00029755 0.8742468357 31.811349869 1.5311474800 0.9579399228
 2020.9853516 3.0000000000 8.5699996948 0.0209999997 0.3735431433 2.2070000172 56.200634003 119.37551117 0.8251961470 31.951440811 1.6188589334 0.9958782792
 2021.1376953 3.0000000000 8.6330003738 0.0099999998 0.3774423599 2.2009999752 50.118415833 119.18830109 0.8130481243 32.139247894 1.7267405987 1.0627852678
 2021.2901611 3.0000000000 8.6639995575 0.0049999999 0.3803758621 2.2030000687 53.673610687 116.75194550 0.8349118829 32.280433655 1.9176938534 1.1616828442
 2021.4425049 4.0000000000 8.7189998627 -0.003000000 0.3876890242 2.2149999142 53.905124664 116.74999237 0.8847996593 32.840747833 2.2003202438 1.2756346464
 2021.5949707 4.0000000000 8.8129997253 -0.003000000 0.3740012348 2.2479999065 56.925861359 116.00060272 0.9467518330 33.589996338 2.3956873417 1.3836541176
 2021.7473145 4.0000000000 8.9300003052 0.0130000003 0.3506263494 2.2790000439 60.859226227 114.75199890 1.0097476244 35.164680481 2.5057358742 1.4986313581
 2021.8997803 4.0000000000 9.3979997635 0.0419999994 0.3960387409 2.3129999638 64.983489990 115.74919891 1.0787237883 36.852245331 1.5934647322 1.5199495554
 2022.0521240 4.0000000000 9.6949996948 0.0630000010 0.4443693161 2.3259999752 71.722953796 118.74759674 1.1477235556 38.290245056 1.3056893349 1.5279743671
 2022.2045898 4.0000000000 9.7340002060 0.0719999969 0.4809666574 2.3320000172 71.251998901 121.99739838 1.2107477188 39.167499542 1.3439375162 1.4162691832
 2022.3569336 4.0000000000 9.7189998627 0.0570000000 0.4892658591 2.3110001087 72.743988037 124.37310791 1.2707597017 39.668998718 1.3070889711 1.3631697893
 2022.5093994 4.0000000000 9.1639995575 0.0399999991 0.4965979755 2.2829999924 73.870498657 127.37259674 1.3277717829 40.075374603 1.3689006567 1.3390576839
 2022.6617432 4.0000000000 9.0159997940 0.0179999992 0.5077826381 2.2790000439 74.435745239 125.00189972 1.3538957834 39.828002930 2.3456485271 1.3838558197
 2022.8142090 4.0000000000 8.6639995575 -0.001000000 0.4736307561 2.2829999924 69.204833984 123.18945313 1.3868942261 39.577800751 2.3979198933 1.4937355518
 2022.9665527 3.0000000000 8.5860004425 -0.003000000 0.4741004407 2.3069999218 65.639266968 121.37644958 1.4288319349 38.332004547 2.3980000019 1.6255773306
 2023.1190186 3.0000000000 8.5860004425 -0.005000000 0.4496701360 2.2969999313 60.890224457 117.19135284 1.4748525620 37.704002380 2.4589023590 1.7307475805
 2023.2713623 3.0000000000 8.5389995575 -0.006000000 0.4247694910 2.2730000019 57.389011383 117.37484741 1.5347597599 37.235874176 2.5139117241 1.8217085600
 2023.4237061 3.0000000000 8.5389995575 -0.006000000 0.3867141306 2.2599999905 58.619991302 116.37660217 1.5897797346 36.487007141 2.5698654652 1.9127082825
 2023.5761719 3.0000000000 8.5629997253 0.0189999994 0.3794690371 2.1860001087 58.625000000 116.74969482 1.5790439844 35.986003876 2.6718363762 1.9678238630
