# LAS format log file from PETREL
# Project units are specified as depth units
#==================================================================
~Version information
VERS.   2.0:
WRAP.   NO:
#==================================================================
~Well
STRT .m      818.46392822 :
STOP .m      2256.5109863 :
STEP .m     0.00000000 :
NULL .        -999.250000 :
COMP.           : COMPANY
WELL.  34/10-7   : WELL
FLD.            : FIELD
LOC.            : LOCATION
SRVC.           : SERVICE COMPANY
DATE.  2018-09-11 14:48:47   : Log Export Date {yyyy-MM-dd HH:mm:ss}
PROV.           : PROVINCE
UWI.   34/10-7   : UNIQUE WELL ID
API.            : API NUMBER
#==================================================================
~Curve
DEPT .m                   : DEPTH
Lithology_geolink ._      : Lithology_geolink
CALI .in                  : CALI
DRHO .g/cm3               : DRHO
NPHI .m3/m3               : NPHI
RHOB .g/cm3               : RHOB
GR .gAPI                  : GR
DTC .us/ft                : DTC
RDEP .ohm.m               : RDEP
SP .mV                    : SP
RSHA .ohm.m               : RSHA
RMED .ohm.m               : RMED
~Parameter
#==================================================================
~Ascii
# ...
 1393.6217041  -999.250000 19.641000748 -0.026000001  -999.250000 1.9889999628 38.755508423 154.37500000 0.6999903917 66.898803711 0.7479872108 0.7479872108
 1393.7741699  -999.250000 17.891000748 -0.028000001  -999.250000 1.9780000448 38.282501221 155.12199402 0.7019936442 66.900001526 0.7539808154 0.7539808154
 1393.9265137  -999.250000 18.468999863 -0.020000000  -999.250000 1.9980000257 39.558891296 154.75149536 0.7000064254 67.398803711 0.7599807382 0.7599807382
 1394.0789795  -999.250000 17.983999252 -0.008000000  -999.250000 2.0039999485 41.338298798 158.36048889 0.6970096231 66.401603699 0.7759487629 0.7759487629
 1394.2313232  -999.250000 17.547000885 -0.008000000  -999.250000 2.0160000324 41.313098907 157.13000488 0.6950064301 66.150604248 0.7899551392 0.7899551392
 1394.3837891  -999.250000 17.625000000 -0.004000000  -999.250000 2.0179998875 38.412986755 157.49850464 0.6910095811 65.650802612 0.7780288458 0.7780288458
 1394.5361328  -999.250000 18.858999252 -0.005000000  -999.250000 2.0329999924 38.842597961 151.52403259 0.6939904094 66.148803711 0.7441089153 0.7441089153
 1394.6885986  -999.250000 19.108999252 -0.003000000  -999.250000 2.0269999504 39.810668945 151.37550354 0.7139518857 66.649200439 0.7320288420 0.7320288420
 1394.8409424  -999.250000 17.952999115 -0.004000000  -999.250000 2.0350000858 40.965297699 146.76852417 0.7339359522 66.151199341 0.7389776111 0.7389776111
 1394.9934082  -999.250000 17.077999115 -0.007000000  -999.250000 2.0429999828 38.319385529 142.14350891 0.7599374652 66.649200439 0.7779062390 0.7779062390
 1395.1457520  -999.250000 17.047000885 -0.003000000  -999.250000 2.0699999332 35.447208405 136.02453613 0.8118334413 65.652404785 0.8069071174 0.8069071174
 1395.2982178  -999.250000 17.125000000 0.0099999998  -999.250000 2.0840001106 33.005859375 125.22264862 0.8788389564 65.650001526 0.8229615688 0.8229615688
 1395.4505615  -999.250000 17.358999252 0.0080000004  -999.250000 2.0899999142 29.651758194 100.66158295 0.9099007249 66.149200439 0.8977597952 0.8977597952
 1395.6029053  -999.250000 17.358999252 -0.017000001  -999.250000 2.1129999161 30.294898987 96.579040527 0.9329262972 66.150001526 1.0644648075 1.0644648075
 1395.7553711  -999.250000 17.858999252 -0.020000000  -999.250000 2.1879999638 32.119144440 101.97823334 0.9738686681 66.399597168 1.3490872383 1.3490872383
 1395.9077148  -999.250000 19.141000748 -0.017999999  -999.250000 2.2269999981 36.485977173 107.72696686 0.9939359426 66.400001526 1.1157531738 1.1157531738
 1396.0601807  -999.250000 18.358999252 -0.012000000  -999.250000 2.1760001183 40.207092285 125.11818695 1.0298846960 65.900802612 0.9345796704 0.9345796704
 1396.2125244  -999.250000 19.391000748 -0.007000000  -999.250000 2.1370000839 40.219001770 141.68363953 1.0449519157 65.900001526 0.8113942146 0.8113942146
 1396.3649902  -999.250000 19.156000137 -0.006000000  -999.250000 2.1070001125 40.094303131 139.75801086 0.9841466546 65.650405884 0.8119975924 0.8119975924
 1396.5173340  -999.250000 18.812999725 0.0049999999  -999.250000 2.1040000916 36.698905945 138.50500488 0.9281793237 65.899398804 0.8548623323 0.8548623323
 1396.6697998  -999.250000 18.937999725 -0.011000000  -999.250000 2.0369999409 34.194007874 133.39552307 0.9050552845 66.399200439 0.8250721097 0.8250721097
 1396.8221436  -999.250000 18.483999252 -0.030999999  -999.250000 1.9520000219 32.225307465 165.86927795 0.8960288763 67.397598267 0.8549039364 0.8549039364
 1396.9746094  -999.250000 20.375000000 -0.059000000  -999.250000 1.8450000286 28.478013992 151.80705261 0.9029831886 67.400001526 0.8260697126 0.8260697126
 1397.1269531  -999.250000 20.406000137 -0.082999997  -999.250000 1.7719999552 29.061098099 152.49699402 0.9079839587 67.898803711 0.8588943481 0.8588943481
 1397.2794189  -999.250000 20.187999725 -0.064999998  -999.250000 1.8040000200 28.688901901 145.39784241 0.9000192285 67.900001526 0.8400456309 0.8400456309
 1397.4317627  -999.250000 19.672000885 -0.045000002  -999.250000 1.8650000095 30.665647507 139.52351379 0.8690993190 67.400802612 0.8998078108 0.8998078108
 1397.5841064  -999.250000 20.437997818 -0.028999999  -999.250000 1.9160000086 30.235403061 149.08644104 0.8380993605 67.150604248 0.8970096111 0.8970096111
 1397.7365723  -999.250000 20.437997818 -0.044000000  -999.250000 1.8860000372 30.078498840 152.11299133 0.8180640936 66.900405884 0.9149423838 0.9149423838
 1397.8889160  -999.250000 20.437997818 -0.052999999  -999.250000 1.8710000515 32.741436005 158.97245789 0.8040449023 66.151802063 0.8312692046 0.8312692046
 1398.0413818  -999.250000 20.437997818 -0.061000001  -999.250000 1.8719999790 33.622196198 175.93193054 0.7790800333 66.649200439 0.8399711251 0.8399711251
 1398.1937256  -999.250000 19.016000748 -0.041000001  -999.250000 1.9379999638 35.432189941 172.38951111 0.7540801167 66.400604248 0.7662371397 0.7662371397
 1398.3461914  -999.250000 20.280998230 -0.023000000  -999.250000 1.9980000257 32.725536346 169.51150513 0.7440240383 66.649597168 0.7729831934 0.7729831934
 1398.4985352  -999.250000 20.437997818 0.0000000000  -999.250000 2.0629999638 34.058696747 160.16256714 0.7440000176 65.403007507 0.7510704398 0.7510704398
 1398.6510010  -999.250000 20.437997818 0.0080000004  -999.250000 2.0820000172 35.870643616 155.14501953 0.7390120625 65.899200439 0.7490048409 0.7490048409
 1398.8033447  -999.250000 20.297000885 -0.002000000  -999.250000 2.0699999332 37.494796753 151.76351929 0.7439839840 66.149398804 0.7579711676 0.7579711676
 1398.9558105  -999.250000 19.297000885 -0.025000000  -999.250000 2.0590000153 35.878906250 162.45697021 0.7529783845 66.150001526 0.7659807205 0.7659807205
 1399.1081543  -999.250000 18.375000000 -0.027000001  -999.250000 2.0409998894 37.837696075 159.13851929 0.7609743476 66.399398804 0.7919167280 0.7919167280
 1399.2606201  -999.250000 18.718999863 -0.028999999  -999.250000 2.0450000763 37.095806122 159.00039673 0.7619976401 66.649597168 0.8119518757 0.8119518757
 1399.4129639  -999.250000 18.375000000 -0.043000001  -999.250000 2.0390000343 37.841598511 158.12850952 0.7739615440 66.650001526 0.8209711313 0.8209711313
 1399.5654297  -999.250000 20.187999725 -0.078000002  -999.250000 2.0369999409 34.601814270 160.36778259 0.7859711647 66.650001526 0.8010481000 0.8010481000
 1399.7177734  -999.250000 20.437997818 -0.119999997  -999.250000 2.0020000935 36.120098114 161.49549866 0.7889903784 66.150802612 0.7850512862 0.7850512862
 1399.8701172  -999.250000 20.202999115 -0.143999994  -999.250000 1.8789999485 38.616985321 161.37550354 0.7860096097 65.651199341 0.7840031981 0.7840031981
 1400.0225830  -999.250000 21.104999542 -0.153999999  -999.250000 1.8980000019 41.147891998 159.13400269 0.7810160518 65.899597168 0.8009455800 0.8009455800
 1400.1749268  -999.250000 21.368999481 -0.160999998  -999.250000 1.9129999876 41.000499725 157.13301086 0.7790064216 65.401199341 0.8129615784 0.8129615784
 1400.3273926  -999.250000 21.378997803 -0.165000007  -999.250000 1.9170000553 41.405021667 157.37397766 0.7889759541 65.899200439 0.8080120683 0.8080120683
 1400.4797363  -999.250000 21.381999969 -0.163000003  -999.250000 1.9199999571 42.216396332 158.12199402 0.8009615541 66.897598267 0.8169711232 0.8169711232
 1400.6322021  -999.250000 21.382999420 -0.155000001  -999.250000 1.9229999781 39.880634308 164.34997559 0.8099783659 67.399200439 0.8419399261 0.8419399261
 1400.7845459  -999.250000 21.382999420 -0.152999997  -999.250000 1.9220000505 38.410701752 167.00543213 0.8169775605 67.898803711 0.8619359136 0.8619359136
 1400.9370117  -999.250000 21.384000778 -0.158999994  -999.250000 1.9149999619 36.473659515 169.64344788 0.8249807358 66.652008057 0.8460384607 0.8460384607
 1401.0893555  -999.250000 21.385002136 -0.166999996  -999.250000 1.9079999924 37.061096191 172.28442383 0.8409487605 67.148803711 0.8081217408 0.8081217408
 1401.2418213  -999.250000 21.385002136 -0.167999998  -999.250000 1.9090000391 34.412384033 174.92456055 0.8559639454 66.650802612 0.7920384407 0.7920384407
