# LAS format log file from PETREL
# Project units are specified as depth units
#==================================================================
~Version information
VERS.   2.0:
WRAP.   NO:
#==================================================================
~Well
STRT .m      492.56594849 :
STOP .m      2784.8139648 :
STEP .m     0.00000000 :
NULL .        -999.250000 :
COMP.           : COMPANY
WELL.  34/10-5   : WELL
FLD.            : FIELD
LOC.            : LOCATION
SRVC.           : SERVICE COMPANY
DATE.  2018-09-11 14:48:46   : Log Export Date {yyyy-MM-dd HH:mm:ss}
PROV.           : PROVINCE
UWI.   34/10-5   : UNIQUE WELL ID
API.            : API NUMBER
#==================================================================
~Curve
DEPT .m                   : DEPTH
Lithology_geolink ._      : Lithology_geolink
CALI .in                  : CALI
DRHO .g/cm3               : DRHO
NPHI .m3/m3               : NPHI
RHOB .g/cm3               : RHOB
GR .gAPI                  : GR
DTC .us/ft                : DTC
RDEP .ohm.m               : RDEP
SP .mV                    : SP
RSHA .ohm.m               : RSHA
RMED .ohm.m               : RMED
~Parameter
#==================================================================
~Ascii
# ...
 1254.2611084  -999.250000 18.858999252 0.0160000008  -999.250000 1.9429999590 51.965095520 159.99839783 0.9430096149 27.412399292  -999.250000 0.8481394053
 1254.4134521  -999.250000 19.047000885 0.0099999998  -999.250000 1.9290000200 54.087196350 159.37600708 0.9200736880 28.035999298  -999.250000 0.8629759550
 1254.5659180  -999.250000 19.141000748 0.0260000005  -999.250000 1.9459999800 59.705478668 157.37818909 0.8920673132 28.038000107  -999.250000 0.8859631419
 1254.7182617  -999.250000 19.047000885 0.0529999994  -999.250000 1.9559999704 64.298294067 155.75260925 0.8860191703 28.162599564  -999.250000 0.9309278727
 1254.8706055  -999.250000 18.437999725 0.0570000000  -999.250000 1.9670000076 64.063804626 156.12409973 0.9059359431 28.287599564  -999.250000 0.9549423456
 1255.0230713  -999.250000 18.202999115 0.0439999998  -999.250000 1.9529999495 63.315402985 157.49780273 0.9508558512 28.163400650  -999.250000 0.9420208335
 1255.1754150  -999.250000 18.187999725 0.0240000002  -999.250000 1.9459999800 59.076622009 162.73739624 1.0137981176 28.287599564  -999.250000 0.9180576205
 1255.3278809  -999.250000 18.187999725 0.0109999999  -999.250000 1.9440000057 60.870643616 160.12921143 1.0608869791 27.789201736  -999.250000 0.9429599643
 1255.4802246  -999.250000 18.187999725 0.0109999999  -999.250000 1.9759999514 51.560924530 154.38880920 1.0739583969 27.538801193  -999.250000 1.0627117157
 1255.6326904  -999.250000 18.312999725 0.0080000004  -999.250000 1.9880000353 49.318332672 149.00862122 1.0600335598 27.662698746  -999.250000 1.1967853308
 1255.7850342  -999.250000 18.281000137 0.0270000007  -999.250000 2.0139999390 42.989318848 144.76020813 1.0420577526 27.912199020  -999.250000 1.2249327898
 1255.9375000  -999.250000 18.266000748 0.0209999997  -999.250000 1.9850000143 48.206382751 145.74839783 1.0240433216 28.411798477  -999.250000 1.1101843119
 1256.0898438  -999.250000 18.266000748 0.0209999997  -999.250000 1.9620000124 52.424488068 150.11448669 1.0140321255 28.163801193  -999.250000 0.9932810068
 1256.2423096  -999.250000 18.266000748 0.0089999996  -999.250000 1.9359999895 54.276569366 156.11538696 1.0010312796 28.163000107  -999.250000 0.9051409960
 1256.3946533  -999.250000 18.343999863 0.0089999996  -999.250000 1.9400000572 52.256504059 159.11779785 0.9820608497 28.412199020  -999.250000 0.8471392989
 1256.5471191  -999.250000 18.641000748 0.0189999994  -999.250000 1.9650000334 44.207378387 159.49940491 0.9450889230 28.413000107  -999.250000 0.8310256004
 1256.6994629  -999.250000 19.000000000 0.0289999992  -999.250000 1.9780000448 43.906902313 160.37359619 0.9140992761 28.039201736  -999.250000 0.8609519005
 1256.8518066  -999.250000 19.406000137 0.0289999992  -999.250000 1.9739999771 43.844200134 159.00329590 0.8821026087 27.788801193  -999.250000 0.9278390408
 1257.0042725  -999.250000 20.468999863 0.0270000007  -999.250000 1.9700000286 47.177291870 158.50079346 0.8620640635 27.538801193  -999.250000 0.9599487185
 1257.1566162  -999.250000 19.422000885 0.0500000007  -999.250000 1.9889999628 47.499000549 155.50720215 0.8510352969 27.288801193  -999.250000 0.9809495807
 1257.3090820  -999.250000 19.093999863 0.0740000010  -999.250000 2.0099999905 49.462696075 155.74960327 0.8510000110 27.412599564  -999.250000 0.9330769777
 1257.4614258  -999.250000 19.062999725 0.0759999976  -999.250000 2.0000000000 49.718200684 157.12170410 0.8450192809 27.786798477  -999.250000 0.8851152658
 1257.6138916  -999.250000 19.062999725 0.0619999990  -999.250000 1.9900000095 52.088291168 159.37139893 0.8330288529 28.411497116  -999.250000 0.8330833316
 1257.7662354  -999.250000 18.875000000 0.0570000000  -999.250000 1.9880000353 51.782001495 162.49249268 0.8120672107 28.911397934  -999.250000 0.8180360198
 1257.9187012  -999.250000 18.875000000 0.0489999987  -999.250000 1.9859999418 53.340244293 162.50000000 0.7900528908 29.287097931  -999.250000 0.8130080104
 1258.0710449  -999.250000 18.952999115 0.0370000005  -999.250000 1.9789999723 55.119297028 163.74700928 0.7710608840 29.412599564  -999.250000 0.7970384359
 1258.2235107  -999.250000 19.047000885 0.0070000002  -999.250000 1.9479999542 56.216373444 163.99960327 0.7600264549 29.163600922  -999.250000 0.7810256481
 1258.3758545  -999.250000 19.000000000 0.0030000000  -999.250000 1.9470000267 56.219001770 164.49879456 0.7570096254 29.163000107  -999.250000 0.7720216513
 1258.5283203  -999.250000 19.016000748 0.0089999996  -999.250000 1.9440000057 50.794071198 163.75122070 0.7579976320 29.038301468  -999.250000 0.7789887786
 1258.6806641  -999.250000 19.031000137 0.0439999998  -999.250000 1.9789999723 50.531799316 163.99960327 0.7599936128 28.788801193  -999.250000 0.7839919925
 1258.8330078  -999.250000 19.077999115 0.0509999990  -999.250000 1.9800000191 47.821712494 162.75300598 0.7669776082 28.538801193  -999.250000 0.7919808030
 1258.9854736  -999.250000 19.093999863 0.0769999996  -999.250000 2.0060000420 49.245399475 164.37239075 0.7709872127 28.662599564  -999.250000 0.7939968109
 1259.1378174  -999.250000 19.108999252 0.0759999976  -999.250000 2.0160000324 47.848506927 164.12559509 0.7690064311 28.538400650  -999.250000 0.7949976325
 1259.2902832  -999.250000 19.093999863 0.0799999982  -999.250000 2.0269999504 50.335994720 163.00180054 0.7640160322 28.288801193  -999.250000 0.7959983945
 1259.4426270  -999.250000 18.952999115 0.0460000001  -999.250000 1.9989999533 48.505908966 160.38130188 0.7620064616 27.914201736  -999.250000 0.7870216370
 1259.5950928  -999.250000 18.233999252 0.0250000004  -999.250000 1.9689999819 49.777919769 159.50140381 0.7629976273 27.788301468  -999.250000 0.7570481300
 1259.7474365  -999.250000 17.766000748 0.0170000009  -999.250000 1.9490000010 46.947105408 158.50238037 0.7659903765 27.040401459  -999.250000 0.7170960903
 1259.8999023  -999.250000 17.577999115 0.0030000000  -999.250000 1.9500000477 50.023563385 161.74479675 0.7719855905 26.788600922  -999.250000 0.6930384636
 1260.0522461  -999.250000 17.577999115 0.0080000004  -999.250000 1.9859999418 46.605007172 166.98739624 0.7720000148 25.666603088  -999.250000 0.6969904304
 1260.2047119  -999.250000 17.577999115 -0.001000000  -999.250000 2.0179998875 39.547977448 163.13121033 0.7670120597 24.416004181  -999.250000 0.7149711251
 1260.3570557  -999.250000 17.562999725 0.0010000000  -999.250000 2.0390000343 32.179618835 157.76290894 0.7620160580 23.665401459  -999.250000 0.7568991780
 1260.5095215  -999.250000 17.516000748 -0.010000000  -999.250000 2.0329999924 29.116323471 154.00601196 0.7580096126 23.039503098  -999.250000 0.7819599509
 1260.6618652  -999.250000 17.468999863 -0.005000000  -999.250000 2.0409998894 31.974792480 149.50721741 0.7520191669 22.415000916  -999.250000 0.7889887691
 1260.8143311  -999.250000 17.468999863 -0.004000000  -999.250000 2.0409998894 31.641824722 150.99758911 0.7490072250 22.288301468  -999.250000 0.7640400529
 1260.9666748  -999.250000 17.562999725 -0.001000000  -999.250000 2.0369999409 30.317253113 151.74879456 0.7430191636 21.914201736  -999.250000 0.7510208488
 1261.1190186  -999.250000 17.562999725 -0.003000000  -999.250000 2.0230000019 27.524965286 152.37348938 0.7340288758 21.539201736  -999.250000 0.7380312085
 1261.2714844  -999.250000 17.562999725 0.0000000000  -999.250000 2.0209999084 27.422302246 152.99899292 0.7270224094 21.288801193  -999.250000 0.7300128341
 1261.4238281  -999.250000 17.562999725 0.0000000000  -999.250000 2.0290000439 24.151515961 154.49639893 0.7230128050 21.288000107  -999.250000 0.7220191956
 1261.5762939  -999.250000 17.562999725 0.0000000000  -999.250000 2.0469999313 26.806575775 153.37680054 0.7190095782 21.038600922  -999.250000 0.7160096169
 1261.7286377  -999.250000 17.562999725 0.0049999999  -999.250000 2.0529999733 25.908905029 153.49967957 0.7160096169 20.913400650  -999.250000 0.7070216537
 1261.8811035  -999.250000 17.608999252 0.0010000000  -999.250000 2.0469999313 27.745567322 153.99919128 0.7150023580 20.913000107  -999.250000 0.7000111938
