# LAS format log file from PETREL
# Project units are specified as depth units
#==================================================================
~Version information
VERS.   2.0:
WRAP.   NO:
#==================================================================
~Well
STRT .m      3900.0166016 :
STOP .m      4564.4804688 :
STEP .m     0.00000000 :
NULL .        -999.250000 :
COMP.           : COMPANY
WELL.  34/11-1   : WELL
FLD.            : FIELD
LOC.            : LOCATION
SRVC.           : SERVICE COMPANY
DATE.  2018-09-11 14:48:47   : Log Export Date {yyyy-MM-dd HH:mm:ss}
PROV.           : PROVINCE
UWI.   34/11-1   : UNIQUE WELL ID
API.            : API NUMBER
#==================================================================
~Curve
DEPT .m                   : DEPTH
Lithology_geolink ._      : Lithology_geolink
CALI .in                  : CALI
BS .in                    : BS
NPHI .m3/m3               : NPHI
RHOB .g/cm3               : RHOB
GR .gAPI                  : GR
DTC .us/ft                : DTC
DTS .us/ft                : DTS
RDEP .ohm.m               : RDEP
SP .mV                    : SP
RSHA .ohm.m               : RSHA
RMED .ohm.m               : RMED
~Parameter
#==================================================================
~Ascii
# ...
 4207.2548828 5.0000000000 8.5909996033 8.3750000000 0.2184007615 2.3629999161 111.54620361 87.479187012 151.65707397 2.0729999542 -666.8569946 2.7064807415 2.6140000820
 4207.4077148 5.0000000000 8.4230003357 8.3750000000 0.1943847090 2.3399679661 102.07246399 87.856536865 151.96643066 2.1100993156 -1503.711060 2.8040511608 2.6893908978
 4207.5600586 5.0000000000 8.1890001297 8.3750000000 0.1903098375 2.3300895691 89.972633362 87.854804993 152.26699829 2.1410288811 -1438.074951 2.8582179546 2.8111891747
 4207.7124023 5.0000000000 8.1949996948 8.3750000000 0.1870430857 2.3579807281 79.151138306 87.641510010 152.49807739 2.1499648094 -961.7399902 2.8571281433 2.8699486256
 4207.8647461 5.0000000000 8.2600002289 8.3750000000 0.1595992446 2.3518974781 75.578689575 87.280662537 152.65919495 2.1389582157 -461.7399902 2.8381025791 2.8539295197
 4208.0170898 5.0000000000 8.3389997482 8.3750000000 0.1714389771 2.3200030327 79.827133179 86.925247192 152.52265930 2.1260159016 38.250000000 2.8189585209 2.8319776058
 4208.1694336 5.0000000000 8.2650003433 8.3750000000 0.1610530764 2.3210000992 84.774063110 86.781417847 152.04087830 2.1310000420 537.91101074 2.7869038582 2.8250000477
 4208.3217773 5.0000000000 8.1890001297 8.3750000000 0.1696929485 2.3220000267 85.432632446 86.632949829 151.57879639 2.1449999809 1012.8740234 2.7489905357 2.7990000248
 4208.4741211 5.0000000000 8.1909999847 8.3750000000 0.2015728205 2.3020000458 84.626510620 86.584793091 151.32020569 2.1500000954 1211.0529785 2.7321634293 2.7590000629
 4208.6264648 5.0000000000 8.2159996033 8.3750000000 0.1919234693 2.3139998913 87.210914612 86.541198730 151.23059082 2.1500000954 581.09002686 2.7476539612 2.7269999981
 4208.7792969 5.0000000000 8.2500000000 8.3750000000 0.2231092006 2.3120641708 90.578422546 86.732604980 151.01586914 2.1550319195 -672.1560059 2.7847437859 2.7240929604
 4208.9316406 5.0000000000 8.2500000000 8.3750000000 0.2337474227 2.3320417404 89.062744141 87.169036865 150.52330017 2.1650128365 -1505.576050 2.8188974857 2.7531442642
 4209.0839844 5.0000000000 8.2919998169 8.3750000000 0.1750707626 2.3449807167 85.565940857 87.504264832 149.87500000 2.1689968109 -1438.256958 2.8275897503 2.7981026173
 4209.2363281 5.0000000000 8.3920001984 8.3750000000 0.2069761604 2.3390481472 87.184783936 87.641883850 149.11819458 2.1680095196 -964.3189697 2.8113973141 2.8299775124
 4209.3886719 5.0000000000 8.3579998016 8.3750000000 0.2090730816 2.3538563251 94.985725403 87.627655029 148.18365479 2.1710608006 -464.3190002 2.7906005383 2.8229105473
 4209.5410156 5.0000000000 8.4409999847 8.3750000000 0.1807305068 2.3090000153 102.12673187 87.411781311 147.36007690 2.1900000572 35.671001434 2.7816827297 2.7950000763
 4209.6933594 5.0000000000 8.3229999542 8.3750000000 0.2252296060 2.2709999084 102.11908722 87.194808960 147.09858704 2.2309999466 535.34899902 2.7958941460 2.7739999294
 4209.8457031 4.0000000000 8.2539997101 8.3750000000 0.1505512744 2.3110001087 92.839118958 86.999977112 147.27975464 2.2799999714 1010.6439819 2.8364999294 2.7730000019
 4209.9985352 4.0000000000 8.2919998169 8.3750000000 0.2064723372 2.3511412144 79.722877502 86.817382813 147.36318970 2.3210961819 1210.7409668 2.8881795406 2.8061761856
 4210.1508789 4.0000000000 8.3570003510 8.3750000000 0.2438561767 2.3952627182 72.926773071 86.807937622 146.94815063 2.3510930538 583.14202881 2.9355001450 2.8611795902
 4210.3032227 4.0000000000 8.4510002136 8.3750000000 0.1857761592 2.4771761894 73.600517273 86.953643799 146.19197083 2.3801186085 -670.3750000 2.9688973427 2.9171249866
 4210.4555664 4.0000000000 8.4770002365 8.3750000000 0.1642392427 2.5318493843 75.135353088 87.344490051 145.47547913 2.4171602726 -1506.312988 2.9827051163 2.9560353756
 4210.6079102 4.0000000000 8.6499996185 8.3750000000 0.1799874455 2.4847850800 76.813308716 86.974891663 144.94558716 2.4672083855 -1440.081055 2.9945769310 2.9670159817
 4210.7602539 5.0000000000 8.8559999466 8.3750000000 0.2223138511 2.4179041386 80.180618286 86.054092407 144.93978882 2.5322077274 -963.6939697 3.0278692245 2.9720988274
 4210.9125977 5.0000000000 8.8559999466 8.3750000000 0.1943225712 2.3880000114 82.798225403 85.280746460 145.40267944 2.5969998837 -463.6940002 3.0807404518 3.0030000210
 4211.0649414 5.0000000000 8.8559999466 8.3750000000 0.1898255199 2.4089999199 83.110244751 84.676795959 146.14009094 2.6410000324 36.296001434 3.1236443520 3.0639998913
 4211.2172852 5.0000000000 8.8559999466 8.3750000000 0.1932618022 2.4230000973 82.972396851 84.261199951 146.81080627 2.6619999409 535.95098877 3.1226248741 3.1170001030
 4211.3701172 5.0000000000 8.8500003815 8.3750000000 0.1671880782 2.4180128574 84.833595276 84.239852905 147.13615417 2.6649935246 1010.7940674 3.0815513134 3.1117980480
 4211.5224609 5.0000000000 8.7939996719 8.3750000000 0.1845031828 2.4219999313 88.722366333 84.652534485 147.04638672 2.6630578041 1208.2850342 3.0464870930 3.0489006042
 4211.6748047 5.0000000000 8.7860002518 8.3750000000 0.2147285938 2.4220318794 89.758659363 85.368896484 146.76651001 2.6811122894 578.26800537 3.0626153946 3.0181729794
 4211.8271484 5.0000000000 8.7840003967 8.3750000000 0.2035926878 2.4321985245 86.437812805 86.278526306 146.59968567 2.7160866261 -668.5930176 3.1216411591 3.0722372532
 4211.9794922 5.0000000000 8.7670001984 8.3750000000 0.2118256390 2.4940030575 84.018836975 87.035156250 147.01333618 2.7430255413 -1507.086060 3.1644856930 3.1460382938
 4212.1318359 5.0000000000 8.7069997787 8.3750000000 0.3329993784 2.4949998856 85.496490479 87.405082703 148.61236572 2.7509999275 -1442.573975 3.1626346111 3.1579999924
 4212.2841797 6.0000000000 8.6770000458 8.3750000000 0.2695906460 2.4949998856 89.602745056 87.615425110 150.29051208 2.7469999790 -966.3339844 3.1563270092 3.1280000210
 4212.4365234 6.0000000000 8.6709995270 8.3750000000 0.2223720551 2.5150001049 94.170989990 87.778541565 151.55966187 2.7439999580 -466.3340149 3.1781730652 3.1349999905
 4212.5888672 6.0000000000 8.6569995880 8.3750000000 0.2186579555 2.4920001030 97.411499023 87.746665955 152.35418701 2.7599999905 33.655998230 3.2090480328 3.1840000153
 4212.7416992 6.0000000000 8.6549997330 8.3750000000 0.3019832671 2.5111088753 98.037933350 87.519836426 153.33695984 2.7941024303 533.32800293 3.2308461666 3.2110671997
 4212.8940430 5.0000000000 8.6370000839 8.3750000000 0.3535951376 2.5449519157 94.229843140 87.197059631 154.68186951 2.8260896206 1008.5300293 3.2604486942 3.2322020531
 4213.0463867 5.0000000000 8.6199998856 8.3750000000 0.2203543633 2.5297851563 87.156761169 87.094123840 155.95404053 2.8540706635 1208.0419922 3.3115897179 3.2952308655
 4213.1987305 5.0000000000 8.6269998550 8.3750000000 0.1898301244 2.4628014565 79.177658081 86.984779358 156.18833923 2.8760128021 579.68499756 3.3716921806 3.3670995235
 4213.3510742 5.0000000000 8.6560001373 8.3750000000 0.1734974235 2.4009680748 72.520454407 86.774169922 156.20805359 2.8799521923 -673.7789917 3.4106709957 3.3979551792
 4213.5034180 5.0000000000 8.6339998245 8.3750000000 0.1717240959 2.3910000324 69.964752197 86.900146484 154.77514648 2.8650000095 -1508.918945 3.4141921997 3.3840000629
 4213.6557617 5.0000000000 8.5240001678 8.3750000000 0.1690587252 2.3750000000 72.567588806 87.590446472 151.99343872 2.8499999046 -1442.145020 3.3862595558 3.3480000496
 4213.8081055 5.0000000000 8.7110004425 8.3750000000 0.1720212847 2.3710000515 79.265670776 88.678192139 148.50645447 2.8389999866 -965.7089844 3.3274903297 3.2899999619
 4213.9609375 4.0000000000 8.7729997635 8.3750000000 0.1588144600 2.3751153946 86.769012451 89.669731140 145.42274475 2.8431570530 -465.7090149 3.2687563896 3.2170095444
 4214.1132813 4.0000000000 8.8020000458 8.3750000000 0.1512708366 2.4111123085 91.268562317 90.165962219 143.30070496 2.8923428059 34.280998230 3.3116025925 3.2206025124
 4214.2656250 4.0000000000 8.7959995270 8.3750000000 0.1617434621 2.4461507797 88.869636536 90.169204712 141.94970703 2.9994583130 533.89801025 3.5249488354 3.4092178345
 4214.4179688 4.0000000000 8.7629995346 8.3750000000 0.1684085876 2.4931218624 79.631805420 89.710227966 139.29014587 3.1424934864 1008.5519409 3.8432435989 3.7894072533
