# LAS format log file from PETREL
# Project units are specified as depth units
#==================================================================
~Version information
VERS.   2.0:
WRAP.   NO:
#==================================================================
~Well
STRT .m      3900.0166016 :
STOP .m      4564.4804688 :
STEP .m     0.00000000 :
NULL .        -999.250000 :
COMP.           : COMPANY
WELL.  34/11-1   : WELL
FLD.            : FIELD
LOC.            : LOCATION
SRVC.           : SERVICE COMPANY
DATE.  2018-09-11 14:48:47   : Log Export Date {yyyy-MM-dd HH:mm:ss}
PROV.           : PROVINCE
UWI.   34/11-1   : UNIQUE WELL ID
API.            : API NUMBER
#==================================================================
~Curve
DEPT .m                   : DEPTH
Lithology_geolink ._      : Lithology_geolink
CALI .in                  : CALI
BS .in                    : BS
NPHI .m3/m3               : NPHI
RHOB .g/cm3               : RHOB
GR .gAPI                  : GR
DTC .us/ft                : DTC
DTS .us/ft                : DTS
RDEP .ohm.m               : RDEP
SP .mV                    : SP
RSHA .ohm.m               : RSHA
RMED .ohm.m               : RMED
~Parameter
#==================================================================
~Ascii
# ...
 3987.7988281 7.0000000000 8.6020002365 8.3750000000 0.4191486537 2.5009999275 213.32475281 113.16331482 253.97917175 2.0280225277 -1270.735962 2.3092532158 2.2880001068
 3987.9514160 7.0000000000 8.6020002365 8.3750000000 0.3543745577 2.4460000992 210.23045349 112.92341614 256.18795776 2.0419969559 -1639.770996 2.3257596493 2.3210000992
 3988.1037598 7.0000000000 8.6020002365 8.3750000000 0.3539041281 2.4460000992 205.29420471 113.31281281 258.54650879 2.0409679413 -1285.817017 2.3144230843 2.3459999561
 3988.2561035 7.0000000000 8.6020002365 8.3750000000 0.3052706718 2.3750000000 203.96672058 114.39779663 260.09918213 2.0209534168 -785.8170166 2.2624902725 2.3380000591
 3988.4084473 7.0000000000 8.6070003510 8.3750000000 0.3779853880 2.3259999752 204.61975098 115.99666595 260.56356812 1.9919502735 -285.9909973 2.1847999096 2.2790000439
 3988.5610352 7.0000000000 8.6750001907 8.3750000000 0.4889687002 2.3629999161 204.71424866 117.45853424 259.97018433 1.9609007835 212.56300354 2.1066923141 2.1960000992
 3988.7133789 7.0000000000 8.7580003738 8.3750000000 0.4903765321 2.3529999256 205.32055664 118.55465698 258.39031982 1.9299519062 707.95300293 2.0385384560 2.1170001030
 3988.8657227 7.0000000000 8.8020000458 8.3750000000 0.3725303710 2.3789999485 207.23789978 119.10740662 256.21493530 1.8999646902 1109.4200439 1.9919134378 2.0460000038
 3989.0180664 7.0000000000 8.8020000458 8.3750000000 0.4956533611 2.3840000629 207.05232239 119.17787933 252.80531311 1.8779743910 944.76300049 1.9830800295 1.9930000305
 3989.1706543 7.0000000000 8.8020000458 8.3750000000 0.4498299062 2.4010000229 206.90173340 118.92474365 248.96606445 1.8619519472 -97.35800171 1.9996057749 1.9800000191
 3989.3229980 7.0000000000 8.8020000458 8.3750000000 0.6590007544 2.4349999428 210.71740723 118.56535339 245.25975037 1.8469759226 -1272.281006 2.0081152916 2.0050001144
 3989.4753418 7.0000000000 8.8020000458 8.3750000000 0.5231291652 2.4460000992 214.63021851 118.12845612 241.80319214 1.8319727182 -1640.878052 1.9965960979 2.0309998989
 3989.6276855 7.0000000000 8.8020000458 8.3750000000 0.3373747468 2.4549999237 216.12930298 117.60319519 238.67939758 1.8149936199 -1286.793945 1.9983600378 2.0260000229
 3989.7800293 7.0000000000 8.7969999313 8.3750000000 0.3487542868 2.4820001125 220.05490112 116.92322540 236.67344666 1.8110383749 -786.9589844 2.0499680042 1.9989999533
 3989.9326172 7.0000000000 8.7480001450 8.3750000000 0.4001571238 2.5020000935 226.15605164 116.08808899 236.03622437 1.8350689411 -288.4060059 2.1394710541 1.9960000515
 3990.0849609 7.0000000000 8.7480001450 8.3750000000 0.3962144554 2.5160000324 228.54499817 115.22849274 236.33952332 1.8780641556 211.58599854 2.2082114220 2.0420000553
 3990.2373047 7.0000000000 8.7480001450 8.3750000000 0.3379792273 2.5060000420 224.68403625 114.46404266 236.24345398 1.9180384874 706.96099854 2.2259519100 2.1159999371
 3990.3896484 7.0000000000 8.7500000000 8.3750000000 0.3836427331 2.5020000935 218.60423279 113.76380157 235.25915527 1.9419920444 1108.2500000 2.1948800087 2.1879999638
 3990.5422363 7.0000000000 8.7659997940 8.3750000000 0.4894551933 2.5109999180 212.87586975 113.08091736 233.52778625 1.9369264841 943.13897705 2.1304135323 2.2330000401
 3990.6945801 7.0000000000 8.7690000534 8.3750000000 0.3706097603 2.4920001030 202.97636414 112.12436676 232.15982056 1.9139744043 -99.21900177 2.0739135742 2.2190001011
 3990.8469238 6.0000000000 8.7849998474 8.3750000000 0.4737258554 2.4619998932 187.31710815 110.84175873 231.20071411 1.8980047703 -1273.827026 2.0698943138 2.1429998875
 3990.9992676 6.0000000000 8.7880001068 8.3750000000 0.5862149000 2.4760000706 170.53288269 109.38037872 230.58720398 1.9010320902 -1642.003052 2.1092801094 2.0699999332
 3991.1518555 6.0000000000 8.8020000458 8.3750000000 0.3993091881 2.5220000744 155.75575256 108.13172913 229.90060425 1.9210864305 -1288.090942 2.1486058235 2.0529999733
 3991.3041992 6.0000000000 8.8020000458 8.3750000000 0.4340874851 2.5429999828 145.84399414 107.41155243 229.28614807 1.9480335712 -789.3729858 2.1475000381 2.0980000496
 3991.4565430 6.0000000000 8.8039999008 8.3750000000 0.3521820605 2.5420000553 141.25466919 107.32278442 228.88810730 1.9690223932 -289.3829956 2.0858845711 2.1530001163
 3991.6088867 6.0000000000 8.8269996643 8.3750000000 0.3820512891 2.5280001163 138.57978821 107.57788086 227.89799500 1.9830000401 210.60899353 2.0004000664 2.1730000973
 3991.7614746 6.0000000000 8.8559999466 8.3750000000 0.4080219567 2.5280001163 139.71621704 107.82254028 226.60836792 1.9828400612 705.96899414 1.9327307940 2.1610000134
 3991.9138184 6.0000000000 8.8559999466 8.3750000000 0.2877619863 2.5179998875 146.35487366 107.58574677 225.01408386 1.9328141212 1107.0789795 1.8322114944 2.1250000000
 3992.0661621 6.0000000000 8.8559999466 8.3750000000 0.4069695175 2.5150001049 151.47962952 106.91427612 224.12776184 1.8167483807 941.51397705 1.6222404242 2.0120000839
 3992.2185059 7.0000000000 8.8559999466 8.3750000000 0.4607564509 2.4849998951 155.15676880 106.21240234 223.28228760 1.6596987247 -101.0790024 1.3220577240 1.7949999571
 3992.3708496 7.0000000000 8.8559999466 8.3750000000 0.3272738755 2.4820001125 167.00241089 105.73650360 222.11848450 1.4717243910 -1275.438965 1.1101599932 1.5160000324
 3992.5234375 7.0000000000 8.8579998016 8.3750000000 0.4571934640 2.5009999275 193.23649597 105.57621765 220.67300415 1.2997024059 -1643.838013 1.0898172855 1.2289999723
 3992.6757813 7.0000000000 8.8710002899 8.3750000000 0.5828090310 2.5130000114 230.69458008 105.93387604 219.62803650 1.2069311142 -1290.350952 1.1261634827 1.0349999666
 3992.8281250 7.0000000000 8.8660001755 8.3750000000 0.4662535191 2.6229999065 263.00460815 106.72761536 218.90983582 1.1639343500 -790.3499756 1.1320384741 1.0089999437
 3992.9804688 7.0000000000 8.9049997330 8.3750000000 0.4357265234 2.7119998932 269.96621704 107.48414612 218.40219116 1.1229166985 -290.3599854 1.1304399967 1.0909999609
 3993.1330566 7.0000000000 8.8710002899 8.3750000000 0.3542302251 2.6199998856 245.24026489 107.36240387 217.44439697 1.0708848238 209.63200378 1.1470192671 1.1699999571
 3993.2854004 7.0000000000 8.8559999466 8.3750000000 0.2876662910 2.5539999008 207.86387634 106.24728394 215.60401917 1.0350817442 704.97802734 1.2092788219 1.1849999428
 3993.4377441 7.0000000000 8.8559999466 8.3750000000 0.2549847066 2.5550000668 186.82188416 104.84893036 212.64649963 1.0862675905 1105.9079590 1.3136442900 1.2120000124
 3993.5900879 7.0000000000 8.8559999466 8.3750000000 0.2828831673 2.5810000896 188.78489685 103.13787079 209.04405212 1.2532980442 939.89001465 1.4276399612 1.3220000267
 3993.7426758 7.0000000000 8.8570003510 8.3750000000 0.2678858638 2.5910000801 196.64027405 101.91476440 205.42684937 1.4393104315 -102.6869965 1.5350768566 1.4720000029
 3993.8950195 7.0000000000 8.8620004654 8.3750000000 0.3821901381 2.5510001183 201.36250305 101.21833038 202.07969666 1.5360400677 -1274.781006 1.6144903898 1.5679999590
 3994.0473633 7.0000000000 8.8789997101 8.3750000000 0.3617695868 2.4909999371 207.12956238 101.01980591 199.33262634 1.5609519482 -1644.944946 1.6097595692 1.6369999647
 3994.1997070 7.0000000000 8.8559999466 8.3750000000 0.3781948388 2.4560000896 210.52394104 100.96154022 197.39192200 1.5308749676 -1291.328003 1.4855288267 1.6560000181
 3994.3520508 7.0000000000 8.8559999466 8.3750000000 0.3273235559 2.4690001011 208.23997498 101.07206726 197.18124390 1.4528701305 -791.3270264 1.3200399876 1.5160000324
 3994.5046387 7.0000000000 8.8520002365 8.3750000000 0.3300662041 2.4719998837 209.12774658 101.35223389 198.72700500 1.3718432188 -291.3370056 1.2316250801 1.3170000315
 3994.6569824 7.0000000000 8.8170003891 8.3750000000 0.3284212649 2.4419999123 218.32258606 101.61916351 200.59242249 1.3229390383 208.65499878 1.1851730347 1.2730000019
 3994.8093262 7.0000000000 8.7969999313 8.3750000000 0.3792098463 2.4340000153 228.47691345 101.61322021 202.06790161 1.2848942280 703.98602295 1.1228653193 1.3090000153
 3994.9616699 7.0000000000 8.7480001450 8.3750000000 0.2934659123 2.4630000591 231.67562866 101.61011505 203.67340088 1.2188637257 1104.7650146 1.0961600542 1.2920000553
