# LAS format log file from PETREL
# Project units are specified as depth units
#==================================================================
~Version information
VERS.   2.0:
WRAP.   NO:
#==================================================================
~Well
STRT .m      3166.7685547 :
STOP .m      4692.7500000 :
STEP .m     0.00000000 :
NULL .        -999.250000 :
COMP.           : COMPANY
WELL.  34/12-1   : WELL
FLD.            : FIELD
LOC.            : LOCATION
SRVC.           : SERVICE COMPANY
DATE.  2018-09-11 14:48:48   : Log Export Date {yyyy-MM-dd HH:mm:ss}
PROV.           : PROVINCE
UWI.   34/12-1   : UNIQUE WELL ID
API.            : API NUMBER
#==================================================================
~Curve
DEPT .m                   : DEPTH
Lithology_geolink ._      : Lithology_geolink
CALI .in                  : CALI
BS .in                    : BS
ROP .m/h                  : ROP
DRHO .g/cm3               : DRHO
THOR .ppm                 : THOR
SGR .gAPI                 : SGR
NPHI .m3/m3               : NPHI
RHOB .g/cm3               : RHOB
PEF .b/e                  : PEF
GR .gAPI                  : GR
URAN .ppm                 : URAN
DTC .us/ft                : DTC
DTS .us/ft                : DTS
RDEP .ohm.m               : RDEP
RSHA .ohm.m               : RSHA
RMED .ohm.m               : RMED
~Parameter
#==================================================================
~Ascii
# ...
 3785.5124512  -999.250000 12.412799835 12.250000954 110851.20313 -0.001903365 5.0802998543 0.0073000002 0.3324875236 2.5114998817 2.9507999420 50.999107361 0.5868999958 93.696327209 181.90911865 2.0227575302 2.9860999584 2.1304707527
 3785.6650391  -999.250000 12.391899109 12.250000954 110924.64063 -0.003998080 5.2287998199 0.0072980803 0.3246519864 2.5092999935 3.0081000328 48.953907013 0.5238999724 94.584564209 180.90910339 1.9957786798 3.0243999958 2.0493118763
 3785.8173828  -999.250000 12.395399094 12.250000954 112221.35938 -0.003385417 4.9236998558 0.0067003202 0.3097152412 2.5204000473 3.0940001011 50.481964111 0.5221999884 94.948608398 179.90910339 1.8331911564 2.6988000870 1.8347160816
 3785.9697266  -999.250000 12.398899078 12.250000954 112221.35938 0.0057025640 5.0809001923 0.0069008013 0.3192343116 2.5487999916 3.1705000401 50.585083008 0.4501999915 94.951499939 177.90910339 1.7029762268 2.4331998825 1.6577180624
 3786.1220703  -999.250000 12.405900002 12.250000954 112221.35938 0.0073027248 5.6111998558 0.0073995194 0.3406346142 2.5497999191 3.1681001186 50.942516327 0.2258999944 94.951499939 176.63639832 1.6259697676 2.3048999310 1.6067719460
 3786.2746582  -999.250000 12.398899078 12.250000954 112221.35938 0.0089766392 5.3959999084 0.0070977602 0.3622121513 2.5485999584 3.1698000431 46.780860901 0.3010999858 94.947486877 177.18180847 1.6695090532 2.2704000473 1.6517616510
 3786.4270020  -999.250000 12.405900002 12.250000954 100072.80469 0.0016985578 5.0694999695 0.0063999998 0.3660003245 2.5423998833 3.2932999134 47.083923340 0.4293999970 93.700271606 178.00000000 1.7034175396 2.2495000362 1.7020368576
 3786.5793457  -999.250000 12.398899078 12.250000954 98246.156250 0.0008003205 5.0244002342 0.0064003202 0.3661705256 2.5597000122 3.6108000278 49.282291412 0.4460000098 95.299240112 178.18179321 1.6519421339 2.1626999378 1.6626707315
 3786.7316895  -999.250000 12.433698654 12.250000954 98242.921875 0.0010012821 4.9042000771 0.0066006412 0.3478217721 2.5905001163 3.8420999050 51.335731506 0.7908999920 94.960037231 179.18179321 1.6158099174 2.1338999271 1.6443651915
 3786.8840332  -999.250000 12.395399094 12.250000954 107093.51563 0.0017996795 4.8404998779 0.0070003206 0.3614190817 2.5980000496 3.8185000420 53.409641266 0.8504999876 98.533653259 180.45451355 1.5596064329 2.1675000191 1.6225944757
 3787.0366211  -999.250000 12.391899109 12.250000954 108563.39844 0.0015955199 5.0652999878 0.0072009601 0.3733444810 2.5803999901 3.5385000706 53.319152832 1.0049999952 98.558929443 181.90911865 1.5010855198 2.0559000969 1.5566097498
 3787.1889648  -999.250000 12.398899078 12.250000954 106287.84375 0.0002001603 4.9310002327 0.0074991984 0.3871854246 2.5502998829 3.2650001049 55.982936859 1.0210000277 97.665138245 183.63638306 1.4341802597 2.0360999107 1.4660780430
 3787.3413086  -999.250000 12.395399094 12.250000954 105378.47656 0.0003025641 4.8376002312 0.0069993590 0.3780767620 2.5364999771 3.1322000027 55.447814941 1.2453999519 96.939064026 184.72729492 1.3596968651 1.8497999907 1.3901866674
 3787.4936523  -999.250000 12.398899078 12.250000954 104502.24219 0.0019011218 4.7314000130 0.0065993587 0.3635953367 2.5459001064 3.1168000698 56.265518188 1.3047000170 94.604751587 186.09089661 1.4202322960 1.9250999689 1.4443528652
 3787.6462402  -999.250000 12.385000229 12.250000954 96558.484375 0.0026032000 4.4503002167 0.0061987201 0.3606782556 2.5546998978 3.1586000919 54.846527100 1.3794000149 92.101753235 189.00000000 1.5027937889 2.1317999363 1.5397303104
 3787.7985840  -999.250000 12.398899078 12.250000954 108525.24219 0.0035996793 3.8352999687 0.0057996796 0.3539041579 2.5641000271 3.2016000748 55.663516998 1.5052000284 97.969467163 191.45449829 1.5319460630 2.3157000542 1.5802501440
 3787.9509277  -999.250000 12.371000290 12.250000954 115147.07813 0.0033983975 3.6094000340 0.0055995192 0.3565072119 2.5681002140 3.1940999031 54.614372253 1.4642000198 95.334815979 192.00000000 1.4982485771 2.2446000576 1.5490391254
 3788.1032715  -999.250000 12.416299820 12.250000954 117561.96094 0.0023972758 3.7286999226 0.0052996795 0.3609774113 2.5592000484 3.1607999802 54.595493317 1.4808000326 96.027183533 192.45449829 1.4038249254 2.0564000607 1.4487433434
 3788.2558594  -999.250000 12.412799835 12.250000954 114047.28125 0.0006984000 3.2263998985 0.0051016002 0.3468321562 2.5408999920 3.0991001129 53.469650269 1.5118999481 94.959869385 192.90910339 1.3572530746 1.9178999662 1.4138282537
 3788.4082031  -999.250000 12.419799805 12.250000954 114661.44531 0.0002004808 4.0973000526 0.0055990382 0.3257115483 2.5269999504 3.0499999523 54.014118195 1.1564999819 94.943748474 192.36360168 1.4363522530 2.0357000828 1.5163949728
 3788.5605469  -999.250000 12.416299820 12.250000954 111468.24219 0.0005000000 4.1763000488 0.0050001601 0.3328756392 2.5220000744 2.9909000397 53.092937469 1.2186000347 90.133346558 190.90910339 1.5936839581 2.3559999466 1.7003124952
 3788.7128906  -999.250000 12.412799835 12.250000954 114244.56250 0.0004985577 4.3866000175 0.0051000002 0.3177059293 2.5183000565 2.9419999123 53.927188873 1.2268999815 101.17333984 189.45449829 1.7082836628 2.6540999413 1.8326705694
 3788.8652344  -999.250000 12.395399094 12.250000954 127898.28906 -0.000401763 4.5859999657 0.0051016025 0.3213490248 2.5109999180 2.9109001160 53.608032227 1.2238999605 95.719711304 188.36358643 1.6981450319 2.8190999031 1.8143595457
 3789.0178223  -999.250000 12.405900002 12.250000954 132170.40625 -0.001500960 4.9760999680 0.0061015999 0.2895926535 2.5062999725 2.8801999092 52.688545227 1.2477999926 97.278091431 187.36360168 1.7263852358 2.9820001125 1.8516203165
 3789.1701660  -999.250000 12.385000229 12.250000954 135636.48438 -0.001799359 5.9619002342 0.0065998398 0.2873051167 2.4978001118 2.8989999294 51.273521423 1.0777000189 94.976661682 187.09089661 1.7841019630 3.0550999641 1.8890068531
 3789.3225098  -999.250000 12.395399094 12.250000954 131025.60156 -0.001397276 6.3787999153 0.0064996798 0.2905554473 2.4997999668 2.9377000332 53.526950836 0.8300999999 99.248901367 187.63639832 1.7850770950 2.8710000515 1.8308469057
 3789.4748535  -999.250000 12.398899078 12.250000954 114833.51563 0.0003060898 6.7775001526 0.0062996796 0.3251432776 2.5099999905 3.0090999603 52.499820709 0.6893000007 98.560218811 188.36358643 1.6460285187 2.5092999935 1.7353243828
 3789.6274414  -999.250000 12.426799774 12.250000954 107151.47656 0.0041025602 6.8273000717 0.0061022397 0.3520990610 2.5385999680 3.0850999355 51.510189056 0.7340999842 94.083984375 188.72729492 1.5393557549 2.2246999741 1.6261358261
 3789.7797852  -999.250000 12.398899078 12.250000954 107151.47656 0.0049048075 6.9544000626 0.0067995195 0.3517701924 2.5553998947 3.1582999229 49.671394348 0.5454000235 94.048896790 187.45449829 1.5881593227 2.2620999813 1.6998800039
 3789.9321289  -999.250000 12.374500275 12.250000954 100254.24219 0.0078955125 6.9383997917 0.0064995196 0.3331881464 2.5724000931 3.2172999382 51.788749695 0.4971000254 94.050903320 185.09089661 1.7499363422 2.6240999699 1.8745554686
 3790.0844727  -999.250000 12.371000290 12.250000954 98814.601563 0.0050995196 6.4254999161 0.0061998400 0.3257661760 2.5596001148 3.2593998909 53.561233521 0.5277000070 95.304611206 182.90910339 1.8972699642 2.9721999168 2.0337481499
 3790.2370605  -999.250000 12.374500275 12.250000954 97786.078125 0.0047974400 6.2090997696 0.0061012800 0.3047396541 2.5450997353 3.3397998810 52.037372589 0.3977000117 96.571365356 181.36360168 1.9407444000 3.1150999069 2.0635504723
 3790.3894043  -999.250000 12.398899078 12.250000954 100702.43750 0.0040017632 6.4811000824 0.0065003205 0.3170950115 2.5281999111 3.4667000771 56.295764923 0.2808000147 98.149925232 181.09089661 1.8921478987 3.1215000153 1.9856073856
 3790.5417480  -999.250000 12.391899109 12.250000954 100752.47656 0.0051028850 6.9765000343 0.0067003202 0.3140320480 2.5257000923 3.5701000690 56.399215698 0.3630999923 98.162300110 181.09089661 1.7972626686 2.7625999451 1.8654482365
 3790.6940918  -999.250000 12.364100456 12.250000954 101289.96094 0.0068985578 7.4106001854 0.0069003203 0.3339962959 2.5286002159 3.6342999935 56.964778900 0.4084999859 98.152603149 180.81820679 1.7116340399 2.5306000710 1.7708182335
