# LAS format log file from PETREL
# Project units are specified as depth units
#==================================================================
~Version information
VERS.   2.0:
WRAP.   NO:
#==================================================================
~Well
STRT .m      3455.1030273 :
STOP .m      4235.3911133 :
STEP .m     0.00000000 :
NULL .        -999.250000 :
COMP.           : COMPANY
WELL.  34/11-3 T2   : WELL
FLD.            : FIELD
LOC.            : LOCATION
SRVC.           : SERVICE COMPANY
DATE.  2018-09-11 14:48:48   : Log Export Date {yyyy-MM-dd HH:mm:ss}
PROV.           : PROVINCE
UWI.   34/11-3 T2   : UNIQUE WELL ID
API.            : API NUMBER
#==================================================================
~Curve
DEPT .m                   : DEPTH
Lithology_geolink ._      : Lithology_geolink
CALI .in                  : CALI
NPHI .m3/m3               : NPHI
RHOB .g/cm3               : RHOB
GR .gAPI                  : GR
DTC .us/ft                : DTC
RDEP .ohm.m               : RDEP
RMED .ohm.m               : RMED
~Parameter
#==================================================================
~Ascii
# ...
 3662.3671875  -999.250000 12.468999863 0.0000000000 2.6020095348 57.450656891 78.284225464 3.9581954479 4.4844102859
 3662.5195313  -999.250000 12.527000427 0.0000000000 2.6030287743 58.267566681 77.699035645 5.4115128517 5.9847102165
 3662.6718750  -999.250000 12.482999802 0.0000000000 2.6060192585 64.627204895 78.571449280 5.0273137093 5.1790533066
 3662.8244629  -999.250000 12.532999039 0.0000000000 2.6079888344 72.654640198 80.535758972 3.7405159473 3.9625055790
 3662.9768066  -999.250000 12.549999237 0.0000000000 2.6069617271 77.661262512 82.899375916 2.5893573761 2.8732724190
 3663.1291504  -999.250000 12.555999756 0.0000000000 2.6029422283 78.268783569 84.950111389 2.0507836342 2.4197661877
 3663.2814941  -999.250000 12.555999756 0.0000000000 2.5969517231 77.138717651 86.246704102 1.9854327440 2.2743926048
 3663.4338379  -999.250000 12.491000175 0.0000000000 2.5919520855 76.974708557 86.730575562 2.1234641075 2.5191667080
 3663.5864258  -999.250000 12.527999878 0.0000000000 2.5869615078 78.036857605 86.645378113 2.2629919052 2.6238639355
 3663.7387695  -999.250000 12.553999901 0.0000000000 2.5829710960 79.028877258 86.326339722 2.3740706444 2.8930494785
 3663.8911133  -999.250000 12.549999237 0.0000000000 2.5799903870 78.818740845 86.006256104 2.3771009445 2.9239342213
 3664.0434570  -999.250000 12.509000778 0.0000000000 2.5790193081 76.739036560 85.737022400 2.3262782097 2.8825223446
 3664.1960449  -999.250000 12.541000366 0.0000000000 2.5810289383 73.390884399 85.453987122 2.2858414650 2.5850608349
 3664.3483887  -999.250000 12.553999901 0.0000000000 2.5840482712 70.187530518 85.112358093 2.2788157463 2.6044793129
 3664.5007324  -999.250000 12.546999931 0.0000000000 2.5890288353 69.070144653 84.736076355 2.3859407902 2.9036538601
 3664.6530762  -999.250000 12.543999672 0.0000000000 2.5920193195 70.393455505 84.401756287 2.7211184502 3.3112084866
 3664.8056641  -999.250000 12.516000748 0.0000000000 2.5940001011 72.261299133 84.162109375 2.9474742413 3.4401872158
 3664.9580078  -999.250000 12.491000175 0.0000000000 2.5940001011 72.245651245 83.998252869 2.7486729622 3.1867437363
 3665.1103516  -999.250000 12.509000778 0.0000000000 2.5940001011 70.412559509 83.841720581 2.6177132130 3.0268926620
 3665.2626953  -999.250000 12.501999855 0.0000000000 2.5940289497 68.709678650 83.656105042 2.5449423790 2.9598076344
 3665.4150391  -999.250000 12.548000336 0.0000000000 2.5970191956 68.382682800 83.494766235 2.4904353619 2.8407018185
 3665.5676270  -999.250000 12.526000977 0.0000000000 2.5990095139 69.861274719 83.485671997 2.7452275753 3.2791936398
 3665.7199707  -999.250000 12.536999702 0.0000000000 2.5999999046 72.427047729 83.755912781 3.1435577869 3.6501698494
 3665.8723145  -999.250000 12.489000320 0.0000000000 2.5999805927 74.837242126 84.321014404 2.8879261017 3.1324229240
 3666.0246582  -999.250000 12.468999863 0.0000000000 2.5979807377 75.447097778 85.058670044 2.4366271496 2.7728157043
 3666.1772461  -999.250000 12.520000458 0.0000000000 2.5959806442 74.492080688 85.775444031 2.3592066765 2.6577537060
 3666.3295898  -999.250000 12.491000175 0.0000000000 2.5939617157 73.841156006 86.307273865 2.3145945072 2.5810112953
 3666.4819336  -999.250000 12.538999557 0.0000000000 2.5899422169 74.596458435 86.603233337 2.2920706272 2.5880882740
 3666.6342773  -999.250000 12.555999756 0.0000000000 2.5839328766 75.844306946 86.729209900 2.2955951691 2.6429662704
 3666.7868652  -999.250000 12.546999931 0.0000000000 2.5769326687 75.607307434 86.798744202 2.2741634846 2.6224768162
 3666.9392090  -999.250000 12.545000076 0.0000000000 2.5709712505 73.870574951 86.898857117 2.3414855003 2.7709774971
 3667.0915527  -999.250000 12.509000778 0.0000000000 2.5680096149 72.403396606 87.061820984 2.4795594215 2.7570657730
 3667.2438965  -999.250000 12.505998611 0.0000000000 2.5690383911 72.713134766 87.279472351 2.4529054165 2.7978816032
 3667.3962402  -999.250000 12.538999557 0.0000000000 2.5730671883 73.219139099 87.533370972 2.3349742889 2.7237787247
 3667.5488281  -999.250000 12.527999878 0.0000000000 2.5800671577 72.992721558 87.806533813 2.2706251144 2.5856511593
 3667.7011719  -999.250000 12.508000374 0.0000000000 2.5870480537 73.621536255 88.061851501 2.1930480003 2.4770064354
 3667.8535156  -999.250000 12.484000206 0.0000000000 2.5920383930 75.396011353 88.220222473 2.1392774582 2.4809517860
 3668.0058594  -999.250000 12.484999657 0.0000000000 2.5960383415 76.321685791 88.170806885 2.0981903076 2.4508173466
 3668.1584473  -999.250000 12.538999557 0.0000000000 2.6000480652 75.040069580 87.812400818 2.0536699295 2.3374991417
 3668.3107910  -999.250000 12.510999680 0.0000000000 2.6050577164 73.021942139 87.090942383 2.0948429108 2.4935016632
 3668.4631348  -999.250000 12.546999931 0.0000000000 2.6110482216 72.127632141 86.003952026 2.3151168823 2.8066346645
 3668.6154785  -999.250000 12.489000320 0.0000000000 2.6160192490 72.148902893 84.577629089 2.6597311497 3.2023189068
 3668.7680664  -999.250000 12.480999947 0.0000000000 2.6179776192 71.311386108 82.847785950 2.8717372417 3.4010608196
 3668.9204102  -999.250000 12.517000198 0.0000000000 2.6159710884 68.436805725 80.907066345 3.0869805813 3.4206490517
 3669.0727539  -999.250000 12.555999756 0.0000000000 2.6129710674 65.384178162 78.989593506 3.4892036915 3.8264119625
 3669.2250977  -999.250000 12.559000015 0.0000000000 2.6099903584 63.533756256 77.508110046 4.2410159111 4.7072577477
 3669.3774414  -999.250000 12.505998611 0.0000000000 2.6090192795 62.365547180 76.968215942 5.1443910599 5.4914712906
 3669.5300293  -999.250000 12.541000366 0.0000000000 2.6110384464 63.527034760 77.755371094 5.7278575897 5.7873101234
 3669.6823730  -999.250000 12.545000076 0.0000000000 2.6150383949 68.331527710 79.892112732 6.1291618347 6.5076713562
 3669.8347168  -999.250000 12.489000320 0.0000000000 2.6190192699 75.207809448 82.966133118 7.1627306938 6.9230322838
 3669.9870605  -999.250000 12.541000366 0.0000000000 2.6210000515 81.047782898 86.254791260 5.2048463821 5.0698862076
 3670.1396484  -999.250000 12.491000175 0.0000000000 2.6209807396 84.117568970 89.008476257 2.5023157597 2.5047280788
 3670.2919922  -999.250000 12.492000580 0.0000000000 2.6189517975 84.747138977 90.717033386 1.6801923513 1.7967292070
 3670.4443359  -999.250000 12.477999687 0.0000000000 2.6139328480 83.891448975 91.270271301 1.4697980881 1.6283301115
 3670.5966797  -999.250000 12.473999977 0.0000000000 2.6068942547 82.301216125 90.938133240 1.5735024214 1.8344727755
 3670.7492676  -999.250000 12.517000198 0.0000000000 2.5958654881 79.183250427 90.208618164 1.7749230862 2.1296687126
 3670.9016113  -999.250000 12.538000107 0.0000000000 2.5839328766 75.853553772 89.569801331 2.1084551811 2.3381972313
 3671.0539551  -999.250000 12.526000977 0.0000000000 2.5769999027 75.892219543 89.340530396 2.2990434170 2.4608733654
 3671.2062988  -999.250000 12.529998779 0.0000000000 2.5770671368 79.482795715 89.604286194 2.1851775646 2.3813989162
 3671.3586426  -999.250000 12.538999557 0.0000000000 2.5841152668 83.301872253 90.247016907 1.9134519100 2.0068335533
 3671.5112305  -999.250000 12.496999741 0.0000000000 2.5961058140 85.458511353 91.059837341 1.7567002773 1.9031442404
 3671.6635742  -999.250000 12.494999886 0.0000000000 2.6070771217 86.340576172 91.842529297 1.7430849075 1.9932820797
 3671.8159180  -999.250000 12.541000366 0.0000000000 2.6150193214 87.342987061 92.494041443 1.9154759645 2.1688139439
 3671.9682617  -999.250000 12.553001404 0.0000000000 2.6169807911 88.631988525 93.004989624 1.9400815964 2.0528669357
 3672.1208496  -999.250000 12.553999901 0.0000000000 2.6149518490 89.080398560 93.400146484 1.8297740221 1.9693280458
 3672.2731934  -999.250000 12.492000580 0.0000000000 2.6099615097 89.242927551 93.689903259 1.6475319862 1.7597515583
 3672.4255371  -999.250000 12.527000427 0.0000000000 2.6059710979 90.903320313 93.852371216 1.5088365078 1.6048734188
 3672.5778809  -999.250000 12.494000435 0.0000000000 2.6029710770 93.592674255 93.870887756 1.4446336031 1.5262435675
