# LAS format log file from PETREL
# Project units are specified as depth units
#==================================================================
~Version information
VERS.   2.0:
WRAP.   NO:
#==================================================================
~Well
STRT .m      3166.7685547 :
STOP .m      4692.7500000 :
STEP .m     0.00000000 :
NULL .        -999.250000 :
COMP.           : COMPANY
WELL.  34/12-1   : WELL
FLD.            : FIELD
LOC.            : LOCATION
SRVC.           : SERVICE COMPANY
DATE.  2018-09-11 14:48:48   : Log Export Date {yyyy-MM-dd HH:mm:ss}
PROV.           : PROVINCE
UWI.   34/12-1   : UNIQUE WELL ID
API.            : API NUMBER
#==================================================================
~Curve
DEPT .m                   : DEPTH
Lithology_geolink ._      : Lithology_geolink
CALI .in                  : CALI
BS .in                    : BS
ROP .m/h                  : ROP
DRHO .g/cm3               : DRHO
THOR .ppm                 : THOR
SGR .gAPI                 : SGR
NPHI .m3/m3               : NPHI
RHOB .g/cm3               : RHOB
PEF .b/e                  : PEF
GR .gAPI                  : GR
URAN .ppm                 : URAN
DTC .us/ft                : DTC
DTS .us/ft                : DTS
RDEP .ohm.m               : RDEP
RSHA .ohm.m               : RSHA
RMED .ohm.m               : RMED
~Parameter
#==================================================================
~Ascii
# ...
 4484.2666016 2.0000000000 8.3239002228 8.3750000000 9878.7607422 -0.001200000 5.3105001450 0.0200996790 0.1136000007 2.6368000507 5.5528001785  -999.250000 1.7891999483  -999.250000 132.81820679 4.9120631218 5.6269998550 5.1584300995
 4484.4189453 2.0000000000 8.3330001831 8.3750000000 10499.040039 -0.002100000 5.1269998550 0.0200003199 0.1129999980 2.6375000477 5.2708997726  -999.250000 1.7404999733  -999.250000 134.81820679 5.0876893997 5.5929999352 5.3549785614
 4484.5717773 4.0000000000 8.3269996643 8.3750000000 9963.2050781 -0.003396154 4.6961002350 0.0200948715 0.1148208305 2.6382243633 4.8933629990  -999.250000 1.7588000298  -999.250000 136.36827087 5.2406907082 5.5985445976 5.5359635353
 4484.7241211 4.0000000000 8.3246002197 8.3750000000 9353.0312500 -0.002208654 4.9812002182 0.0193006396 0.1213394180 2.6458208561 4.6968235970  -999.250000 1.7259000540  -999.250000 137.82083130 5.3642530441 5.7373528481 5.7021136284
 4484.8764648 4.0000000000 8.3149003983 8.3750000000 8640.8242188 -0.004900320 4.8555002213 0.0193990394 0.1336057633 2.6523089409 5.2044487000  -999.250000 1.9306999445  -999.250000 138.63464355 5.5278911591 5.9092707634 5.9063634872
 4485.0288086 4.0000000000 8.3360004425 8.3750000000 8561.2441406 -0.005003205 5.0002999306 0.0191019215 0.1353721172 2.6550881863 6.0591130257  -999.250000 2.0576999187  -999.250000 138.08593750 5.4935283661 5.9000096321 5.8942422867
 4485.1811523 4.0000000000 8.3360004425 8.3750000000 8587.5244141 -0.006010224 5.0886998177 0.0196996797 0.1266753972 2.6513760090 6.0297317505  -999.250000 2.2523000240  -999.250000 136.53736877 5.3154492378 5.8412876129 5.6895337105
 4485.3334961 5.0000000000 8.3360004425 8.3750000000 8613.7197266 -0.009200000 4.8734002113 0.0195987187 0.1190000027 2.6438999176 5.2908000946  -999.250000 2.3821001053  -999.250000 134.00000000 5.2374362946 5.9622998238 5.6067280769
 4485.4858398 5.0000000000 8.3273000717 8.3750000000 9320.7597656 -0.008600000 4.8378000259 0.0192006417 0.1291999966 2.6470999718 4.8998999596  -999.250000 2.5369999409  -999.250000 131.81820679 5.2177224159 5.9394998550 5.5845122337
 4485.6381836 5.0000000000 8.3269996643 8.3750000000 8892.7207031 -0.005800000 4.8773999214 0.0194012821 0.1474999934 2.6452000141 4.6234998703  -999.250000 2.4904000759  -999.250000 130.63639832 5.2561573982 5.9390001297 5.6195898056
 4485.7905273 5.0000000000 8.3299999237 8.3750000000 8376.4804688 -0.006400000 4.6817002296 0.0197996795 0.1641999930 2.6377999783 5.0282001495  -999.250000 2.4993000031  -999.250000 129.45449829 5.3367419243 5.9419999123 5.7103385925
 4485.9433594 4.0000000000 8.3269996643 8.3750000000 8970.7636719 -0.007089103 4.9043002129 0.0196955130 0.1627951860 2.6226272583 4.7618556023  -999.250000 2.5250000954  -999.250000 130.28086853 5.5061979294 5.9095072746 5.9101223946
 4486.0957031 4.0000000000 8.3360004425 8.3750000000 7939.1674805 -0.003692949 5.2600002289 0.0189993605 0.1613000035 2.6311156750 4.8106403351  -999.250000 2.3694000244  -999.250000 132.82141113 5.6613044739 6.2538280487 6.1000041962
 4486.2480469 4.0000000000 8.3459997177 8.3750000000 7856.4848633 -0.001495833 5.6332998276 0.0188996792 0.1612762809 2.6360521317 4.9492468834  -999.250000 2.3515999317  -999.250000 133.81645203 5.7247152328 6.2633967400 6.1634821892
 4486.4003906 4.0000000000 8.3570995331 8.3750000000 8478.6103516 -0.000203205 5.1743998528 0.0188009609 0.1539028883 2.6523039341 5.4947571754  -999.250000 2.3789000511  -999.250000 133.26950073 5.8849277496 6.5106258392 6.3443922997
 4486.5527344 4.0000000000 8.3330001831 8.3750000000 7996.2221680 -0.001191054 5.3453001976 0.0191003196 0.1547837108 2.6535634995 6.1958470345  -999.250000 2.3213000298  -999.250000 132.26689148 5.8620762825 6.3316755295 6.3105292320
 4486.7050781 4.0000000000 8.3208999634 8.3750000000 7853.3999023 0.0016000000 5.3164000511 0.0191996805 0.1497000009 2.6421000957 5.8983998299  -999.250000 2.3164000511  -999.250000 130.45449829 5.7599821091 6.1992001534 6.1935591698
 4486.8574219 4.0000000000 8.2968997955 8.3750000000 7997.3999023 0.0016000000 5.0837998390 0.0190980770 0.1262000054 2.6308999062 6.0157999992  -999.250000 2.4412999153  -999.250000 128.18179321 5.3183002472 6.1097002029 5.6825437546
 4487.0097656 4.0000000000 8.2877998352 8.3750000000 8187.1196289 -0.000400000 4.9566998482 0.0184993595 0.1263000071 2.6236999035 5.4649000168  -999.250000 2.2084000111  -999.250000 127.27270508 5.1332397461 5.5746998787 5.4802012444
 4487.1625977 4.0000000000 8.2952003479 8.3750000000 8378.2021484 0.0016012820 4.7841000557 0.0183064099 0.1373964697 2.6277945042 5.3888211250  -999.250000 2.0641000271  -999.250000 129.10137939 5.5795021057 5.8429279327 6.0077161789
 4487.3149414 4.0000000000 8.3269996643 8.3750000000 8690.0400391 0.0019884617 4.9594001770 0.0193127804 0.1673993617 2.6260869503 5.1792440414  -999.250000 2.0290000439  -999.250000 132.37525940 5.3616542816 6.3486871719 5.7609686852
 4487.4672852 4.0000000000 8.3330001831 8.3750000000 8690.0400391 -0.001602244 5.6233000755 0.0213028844 0.1672086567 2.6220328808 5.6905527115  -999.250000 2.1005001068  -999.250000 136.01486206 5.1832747459 6.1881451607 5.5692591667
 4487.6196289 4.0000000000 8.3661003113 8.3750000000 8690.0400391 -0.002294872 5.5963997841 0.0222009607 0.1698987186 2.6323382854 5.7059845924  -999.250000 2.3080999851  -999.250000 140.65184021 5.1137332916 5.8613934517 5.4949011803
 4487.7719727 4.0000000000 8.3620996475 8.3750000000 9445.9873047 -0.000684936 4.8477997780 0.0224948730 0.1694121659 2.6443455219 5.3895144463  -999.250000 2.3998999596  -999.250000 145.46684265 5.2490477562 6.2641668320 5.6514496803
 4487.9243164 4.0000000000 8.3570995331 8.3750000000 244545.46875 0.0040009585 5.0036997795 0.0208987184 0.1420469731 2.6585123539 5.1452126503  -999.250000 2.1770000458  -999.250000 149.27879333 5.4201979637 6.4110336304 5.8543667793
 4488.0766602 4.0000000000 8.3600997925 8.3750000000 244545.46875 0.0043000001 4.9608001709 0.0205000006 0.1254999936 2.6624000072 5.1180000305  -999.250000 2.0669999123  -999.250000 151.18179321 5.6367959976 6.9520001411 6.1544022560
 4488.2290039 4.0000000000 8.3420000076 8.3750000000 231638.76563 0.0035999999 5.0008001328 0.0204990394 0.1083000004 2.6443998814 5.3646001816  -999.250000 2.1245999336  -999.250000 152.00000000 5.4792685509 6.4341001511 5.9675760269
 4488.3813477 5.0000000000 8.3149003983 8.3750000000 231638.76563 0.0034000000 5.0707998276 0.0202006400 0.1146999970 2.6254999638 5.3913998604  -999.250000 2.2376000881  -999.250000 152.90910339 5.2241082191 5.7288999557 5.6844072342
 4488.5341797 5.0000000000 8.2871999741 8.3750000000 231638.76563 0.0012929487 5.3526000977 0.0203967951 0.1243445575 2.6016743183 5.4877548218  -999.250000 2.1702001095  -999.250000 152.63114929 6.2905073166 6.6594834328 7.0011253357
 4488.6865234 5.0000000000 8.2938003540 8.3750000000 231638.76563 -0.000900641 5.4232997894 0.0198987219 0.1381955147 2.5936822891 5.7530961037  -999.250000 2.3104000092  -999.250000 150.99386597 7.2877383232 8.7083101273 8.2971582413
 4488.8388672 5.0000000000 8.2968997955 8.3750000000 231638.76563 -0.001096154 5.2425999641 0.0196980778 0.1367897540 2.5882027149 5.5641002655  -999.250000 2.4584000111  -999.250000 149.08390808 7.9300255775 9.1450920105 9.1754503250
 4488.9912109 5.0000000000 8.2938003540 8.3750000000 231638.76563 0.0000983974 5.4182000160 0.0190999992 0.1336060911 2.5890066624 5.1581492424  -999.250000 2.6329998970  -999.250000 146.89862061 7.5313987732 8.5802497864 8.6906538010
 4489.1435547 5.0000000000 8.2908000946 8.3750000000 231638.76563 -0.000397764 5.4766998291 0.0191003196 0.1355108619 2.5911097527 4.6436772346  -999.250000 2.9403998852  -999.250000 143.62042236 6.8455500603 7.8175230026 7.7729454041
 4489.2958984 4.0000000000 8.3004999161 8.3750000000 231638.76563 0.0003000000 5.4274997711 0.0191990398 0.1388999969 2.5940999985 4.3246002197  -999.250000 3.0780000687  -999.250000 138.63639832 6.4557266235 7.5440001488 7.2567815781
 4489.4482422 4.0000000000 8.3149003983 8.3750000000 419172.46875 -0.0000000000 5.9187998772 0.0188983977 0.1375000030 2.5940001011 4.4170999527  -999.250000 3.1847000122  -999.250000 134.00000000 6.0899515152 7.2453999519 6.7835874557
