# LAS format log file from PETREL
# Project units are specified as depth units
#==================================================================
~Version information
VERS.   2.0:
WRAP.   NO:
#==================================================================
~Well
STRT .m      586.57812500 :
STOP .m      4014.2067871 :
STEP .m     0.00000000 :
NULL .        -999.250000 :
COMP.           : COMPANY
WELL.  34/10-21   : WELL
FLD.            : FIELD
LOC.            : LOCATION
SRVC.           : SERVICE COMPANY
DATE.  2018-09-11 14:48:44   : Log Export Date {yyyy-MM-dd HH:mm:ss}
PROV.           : PROVINCE
UWI.   34/10-21   : UNIQUE WELL ID
API.            : API NUMBER
#==================================================================
~Curve
DEPT .m                   : DEPTH
Lithology_geolink ._      : Lithology_geolink
CALI .in                  : CALI
DRHO .g/cm3               : DRHO
NPHI .m3/m3               : NPHI
RHOB .g/cm3               : RHOB
PEF .b/e                  : PEF
GR .gAPI                  : GR
DTC .us/ft                : DTC
RDEP .ohm.m               : RDEP
SP .mV                    : SP
RSHA .ohm.m               : RSHA
RMED .ohm.m               : RMED
~Parameter
#==================================================================
~Ascii
# ...
 813.34936523  -999.250000 20.687999725 0.0350360423  -999.250000 2.2160289288 3.2239859104 68.282936096 136.24984741 2.0539958477 17.075000763 1.7468341589 1.6989567280
 813.50170898  -999.250000 20.461000443 0.0200420506  -999.250000 2.2010419369 3.2929446697 64.627929688 135.93887329 2.0490000248 17.450000763 1.7450056076 1.6990000010
 813.65411377  -999.250000 20.319999695 0.0219943933  -999.250000 2.2049887180 3.4558694363 63.079238892 135.68870544 2.0489995480 17.575000763 1.6811794043 1.7129608393
 813.80651855  -999.250000 20.375000000 0.0210024044  -999.250000 2.2000119686 3.5729062557 63.530635834 135.87455750 2.0480024815 17.075000763 1.6829952002 1.7359446287
 813.95892334  -999.250000 20.336000443 0.0239927918  -999.250000 2.1950118542 3.5899930000 65.108367920 135.93785095 2.0540070534 16.950000763 1.6790096760 1.7499663830
 814.11132813  -999.250000 20.250000000 0.0170168206  -999.250000 2.1810336113 3.3361017704 66.561416626 135.62574768 2.0720093250 17.200000763 1.6710191965 1.7629687786
 814.26373291  -999.250000 20.538999557 0.0179975964  -999.250000 2.1809999943 3.2300424576 69.372871399 134.62739563 2.0950100422 17.075000763 1.5931874514 1.7620023489
 814.41613770  -999.250000 20.538999557 0.0160048064  -999.250000 2.1790046692 3.1230428219 73.310417175 133.12860107 2.1200103760 16.950000763 1.5441178083 1.7580096722
 814.56854248  -999.250000 20.797000885 0.0259759724  -999.250000 2.1939640045 3.1659827232 73.718841553 132.25210571 2.1460080147 16.825000763 1.5699375868 1.7699711323
 814.72094727  -999.250000 21.297000885 0.0339839756  -999.250000 2.2039799690 3.2829530239 70.971099854 132.00059509 2.1660070419 16.575000763 1.6298558712 1.8059134483
 814.87335205  -999.250000 21.516000748 0.0429819785  -999.250000 2.2189700603 3.2979941368 66.939620972 132.24940491 2.1840040684 16.450000763 1.6748918295 1.8199664354
 815.02575684  -999.250000 21.288999557 0.0380100124  -999.250000 2.2120139599 3.2460207939 65.656509399 132.81063843 2.1940023899 16.450000763 1.6700119972 1.8200000525
 815.17816162  -999.250000 21.211000443 0.0340080112  -999.250000 2.2090060711 3.2310059071 67.342323303 132.99954224 2.2000072002 16.075000763 1.6530408859 1.8259855509
 815.33056641  -999.250000 21.780998230 0.0280096158  -999.250000 2.2010128498 3.3169655800 69.124282837 132.75059509 2.2090072632 16.075000763 1.6739495993 1.8160240650
 815.48297119  -999.250000 22.117000580 0.0280000009  -999.250000 2.2029969692 3.4629416466 72.716560364 132.18936157 2.2180070877 16.450000763 1.6969447136 1.8169976473
 815.63531494  -999.250000 22.281000137 0.0220120139  -999.250000 2.1950159073 3.5089631081 76.465995789 131.68940735 2.2270023823 16.200000763 1.6870280504 1.8239803314
 815.78771973  -999.250000 21.764999390 0.0180080086  -999.250000 2.1830241680 3.7218291759 77.249374390 131.31289673 2.2329983711 16.325000763 1.6570720673 1.8429543972
 815.94012451  -999.250000 20.992000580 0.0110140163  -999.250000 2.1670320034 3.8359086514 73.130302429 131.18730164 2.2289943695 16.825000763 1.6220840216 1.8599591255
 816.09252930  -999.250000 21.225999832 0.0090040043  -999.250000 2.1620099545 3.8869795799 69.969268799 131.00044250 2.2149958611 17.075000763 1.7277452946 1.8709735870
 816.24493408  -999.250000 21.586000443 0.0129919909  -999.250000 2.1709818840 3.7310624123 69.907020569 130.87530518 2.2049970627 16.950000763 1.7479519844 1.8640167713
 816.39733887  -999.250000 21.523000717 0.0239779744  -999.250000 2.1949517727 3.6330392361 70.342826843 131.56034851 2.1979959011 16.950000763 1.6462451220 1.8420528173
 816.54974365  -999.250000 21.391002655 0.0369739681  -999.250000 2.2149598598 3.6399972439 69.220451355 133.05839539 2.1879980564 17.450000763 1.6519855261 1.8330215216
 816.70214844  -999.250000 21.358997345 0.0340060107  -999.250000 2.2149999142 3.6589922905 65.845352173 134.05960083 2.1830005646 17.700000763 1.6470119953 1.8270144463
 816.85455322  -999.250000 21.600999832 0.0349979959  -999.250000 2.2100100517 3.6979842186 65.500137329 134.31140137 2.1839995384 17.950000763 1.6250528097 1.8359783888
 817.00695801  -999.250000 22.172000885 0.0330040045  -999.250000 2.2010180950 3.5770483017 66.124748230 134.25012207 2.1830000877 18.075000763 1.6559379101 1.8300120831
 817.15936279  -999.250000 22.235000610 0.0409839824  -999.250000 2.1990039349 3.5480117798 67.280532837 133.75100708 2.1829996109 17.700000763 1.6879358292 1.8270059824
 817.31176758  -999.250000 21.952999115 0.0439939909  -999.250000 2.1970040798 3.3800673485 67.499916077 133.25100708 2.1819975376 17.575000763 1.6620520353 1.8449640274
 817.46417236  -999.250000 22.016000748 0.0439999998  -999.250000 2.1910095215 3.4279806614 68.779487610 132.68890381 2.1789975166 17.575000763 1.6340447664 1.8599759340
 817.61657715  -999.250000 21.797000885 0.0439999998  -999.250000 2.1949934959 3.3960127831 72.747413635 132.37550354 2.1760001183 17.575000763 1.6050465107 1.8659904003
 817.76892090  -999.250000 21.398998260 0.0400080085  -999.250000 2.1910080910 3.4969191551 75.496795654 132.31312561 2.1759994030 17.575000763 1.5970159769 1.8660000563
 817.92132568  -999.250000 21.437000275 0.0439919904  -999.250000 2.1949918270 3.5509569645 77.154670715 132.93574524 2.1739995480 17.200000763 1.5999940634 1.8610099554
 818.07373047  -999.250000 21.382999420 0.0410060100  -999.250000 2.1940019131 3.5010399818 75.752128601 134.80824280 2.1730036736 16.950000763 1.7277437449 1.8270680904
 818.22613525  -999.250000 21.608999252 0.0509799756  -999.250000 2.2049779892 3.3570578098 73.157035828 135.74812317 2.1820023060 16.700000763 1.7509540319 1.7960621119
 818.37854004  -999.250000 22.218999863 0.0569879860  -999.250000 2.2159781456 3.1260924339 69.940292358 135.75000000 2.1879980564 16.450000763 1.6392242908 1.7840241194
 818.53094482  -999.250000 21.344001770 0.0589959957  -999.250000 2.2219879627 3.0740206242 68.375625610 135.99949646 2.1829960346 16.575000763 1.6479820013 1.7760159969
 818.68334961  -999.250000 20.242000580 0.0609959960  -999.250000 2.2349739075 3.0110251904 69.249649048 135.50100708 2.1729924679 16.450000763 1.6599758863 1.7819879055
 818.83575439  -999.250000 20.141000748 0.0550120138  -999.250000 2.2439818382 2.9980051517 68.594261169 135.68661499 2.1539924145 16.575000763 1.6580040455 1.8129378557
 818.98815918  -999.250000 20.288999557 0.0589919910  -999.250000 2.2559759617 3.0149931908 67.282524109 137.05924988 2.1349959373 16.950000763 1.6051061153 1.8339579105
 819.14056396  -999.250000 20.577999115 0.0390400477  -999.250000 2.2390341759 3.1119611263 67.156051636 137.56199646 2.1249976158 16.825000763 1.5810480118 1.8330019712
 819.29296875  -999.250000 20.750000000 0.0330120139  -999.250000 2.2230319977 3.0740151405 70.185783386 137.74961853 2.1189935207 16.825000763 1.6219178438 1.8260140419
 819.44537354  -999.250000 21.218999863 0.0280100126  -999.250000 2.2100260258 3.0759992599 74.341339111 137.99949646 2.1109943390 16.825000763 1.5790860653 1.8060400486
 819.59777832  -999.250000 21.413999557 0.0289983973  -999.250000 2.2040095329 3.0939929485 77.123886108 137.43890381 2.1039919853 16.700000763 1.5620273352 1.7740513086
 819.75012207  -999.250000 20.976997375 0.0260060076  -999.250000 2.1940200329 3.2678604126 77.032073975 136.93901062 2.0939929485 16.950000763 1.6148939133 1.7580320835
 819.90252686  -999.250000 20.781000137 0.0210100114  -999.250000 2.1870141029 3.2170407772 74.721855164 136.93699646 2.0759942532 17.075000763 1.6429439783 1.7609940767
 820.05493164  -999.250000 20.516000748 0.0239939932  -999.250000 2.1879980564 3.2579669952 73.064331055 137.12461853 2.0619969368 17.075000763 1.6709439754 1.7600020170
 820.20733643  -999.250000 20.156000137 0.0150180217  -999.250000 2.1830101013 3.2110188007 73.280914307 137.06312561 2.0539994240 17.200000763 1.6620179415 1.7619959116
 820.35974121  -999.250000 19.976999283 0.0110080093  -999.250000 2.1780099869 3.2889688015 75.092277527 136.93725586 2.0529992580 17.200000763 1.6659920216 1.7520200014
 820.51214600  -999.250000 19.773000717 0.0100020021  -999.250000 2.1809940338 3.3139898777 74.188369751 137.37413025 2.0509984493 17.450000763 1.6939439774 1.7420200109
