# LAS format log file from PETREL
# Project units are specified as depth units
#==================================================================
~Version information
VERS.   2.0:
WRAP.   NO:
#==================================================================
~Well
STRT .m      211.00001526 :
STOP .m      2222.9851074 :
STEP .m     0.00000000 :
NULL .        -999.250000 :
COMP.           : COMPANY
WELL.  34/10-19   : WELL
FLD.            : FIELD
LOC.            : LOCATION
SRVC.           : SERVICE COMPANY
DATE.  2018-09-11 14:48:44   : Log Export Date {yyyy-MM-dd HH:mm:ss}
PROV.           : PROVINCE
UWI.   34/10-19   : UNIQUE WELL ID
API.            : API NUMBER
#==================================================================
~Curve
DEPT .m                   : DEPTH
Lithology_geolink ._      : Lithology_geolink
CALI .in                  : CALI
DRHO .g/cm3               : DRHO
NPHI .m3/m3               : NPHI
RHOB .g/cm3               : RHOB
GR .gAPI                  : GR
DTC .us/ft                : DTC
RDEP .ohm.m               : RDEP
SP .mV                    : SP
RSHA .ohm.m               : RSHA
RMED .ohm.m               : RMED
~Parameter
#==================================================================
~Ascii
# ...
 475.26165771  -999.250000 13.534998894 0.0149991987 0.3955083191 2.1389980316 62.111934662 152.50050354 2.5350017548 -2.063284636 2.0269942284 2.0269942284
 475.41406250  -999.250000 14.020999908 0.0110032037 0.3872082531 2.1290030479 63.278942108 154.99829102 2.5429942608 -1.170995235 1.9979959726 1.9979959726
 475.56646729  -999.250000 14.760999680 0.0189979970 0.3828221262 2.1370017529 64.455329895 150.74789429 2.5289976597 -1.164371252 1.9880056381 1.9880056381
 475.71884155  -999.250000 15.204000473 0.0140002007 0.4130992889 2.1410019398 66.112243652 145.49954224 2.5229980946 -0.379869044 2.0020031929 2.0020031929
 475.87124634  -999.250000 15.501999855 0.0149995992 0.4594716430 2.1500005722 68.179962158 143.24960327 2.5139980316 -0.162198886 2.0180008411 2.0180008411
 476.02365112  -999.250000 15.418999672 0.0130002005 0.4677675664 2.1520018578 69.781288147 141.24995422 2.5040004253 -0.492683649 2.0229961872 2.0229961872
 476.17605591  -999.250000 16.016000748 0.0139998002 0.4555615783 2.1620018482 70.139236450 141.00024414 2.5060005188 -0.098310769 2.0040018559 2.0040018559
 476.32846069  -999.250000 16.410999298 0.0129987989 0.4135705829 2.1720016003 69.184631348 142.25015259 2.5080006123 -0.487118930 2.0139970779 2.0139970779
 476.48086548  -999.250000 16.934999466 0.0069975974 0.4164859354 2.1800017357 67.485626221 142.99949646 2.5119993687 -1.882813334 2.0000023842 2.0000023842
 476.63327026  -999.250000 15.750000954 0.0009995996 0.3813560307 2.1840028763 68.267898560 141.75149536 2.5100007057 -1.649699569 2.0059976578 2.0059976578
 476.78564453  -999.250000 15.970999718 -0.000000801 0.3964767754 2.1909999847 70.635986328 145.49975586 2.5119972229 -1.275075078 1.9999996424 1.9999996424
 476.93804932  -999.250000 16.520999908 -0.003999600 0.3803809285 2.1909980774 72.271896362 144.24995422 2.4979994297 -1.400162816 1.9979944229 1.9979944229
 477.09045410  -999.250000 17.343999863 -0.001999800 0.4350561798 2.1819987297 72.088554382 143.99984741 2.4960017204 -1.671269894 1.9700000286 1.9700000286
 477.24285889  -999.250000 16.908000946 -0.000999800 0.4160273373 2.1759984493 66.539222717 143.24980164 2.5040030479 -2.007991076 1.9700109959 1.9700109959
 477.39526367  -999.250000 17.127000809 0.0000006008 0.4526335299 2.1680004597 64.317939758 142.25035095 2.5200054646 -1.996763825 2.0250070095 2.0250070095
 477.54766846  -999.250000 17.235000610 0.0030016019 0.4204076529 2.1699993610 62.997520447 143.99949646 2.5470099449 -1.701695681 2.0590093136 2.0590093136
 477.70004272  -999.250000 16.295999527 0.0070004007 0.4145455062 2.1680004597 63.644657135 142.75015259 2.5720007420 -1.321819186 2.0820040703 2.0820040703
 477.85244751  -999.250000 15.542000771 0.0089993989 0.3920931220 2.1699995995 64.735130310 143.50024414 2.5760006905 -1.019550443 2.1019999981 2.1019999981
 478.00485229  -999.250000 15.536000252 0.0059985984 0.4077117443 2.1679995060 64.953033447 144.74980164 2.5799994469 1.3921248913 2.1020038128 2.1020038128
 478.15725708  -999.250000 15.362000465 -0.001001802 0.4164975584 2.1659982204 65.009178162 143.75010681 2.5779981613 1.6000792980 2.1210000515 2.1210000515
 478.30966187  -999.250000 15.402001381 -0.009999800 0.4042988420 2.1580016613 63.987525940 144.24980164 2.5679979324 1.6989166737 2.1209988594 2.1209988594
 478.46206665  -999.250000 15.609000206 -0.008999599 0.3984414637 2.1660006046 65.894523621 143.25030518 2.5569958687 1.5944209099 2.1149992943 2.1149992943
 478.61447144  -999.250000 16.625000000 -0.006998799 0.4057597816 2.1699993610 70.292968750 144.75030518 2.5369968414 0.8703523874 2.1109769344 2.1109769344
 478.76681519  -999.250000 15.924000740 -0.004000000 0.4052700102 2.1679999828 73.991996765 145.50000000 2.5290000439 -1.185164094 2.0529999733 2.0529999733
 478.91921997  -999.250000 16.385999680 -0.005000000 0.3867200017 2.1559998989 71.495033264 145.50000000 2.5290000439 -1.595061660 2.0309998989 2.0309998989
 479.07162476  -999.250000 16.983999252 -0.006000000 0.3798799813 2.1480000019 69.074363708 145.75000000 2.5250000954 -1.748848200 1.9980000257 1.9980000257
 479.22402954  -999.250000 17.056999207 -0.002000000 0.3764599860 2.1540000439 67.486808777 144.50000000 2.5160000324 -1.370317221 2.0179998875 2.0179998875
 479.37643433  -999.250000 16.434999466 0.0000000000 0.3696300089 2.1559998989 68.827796936 143.50000000 2.5120000839 -1.898312330 2.0230000019 2.0230000019
 479.52883911  -999.250000 15.703000069 0.0070000002 0.3583999872 2.1719999313 66.822814941 143.25000000 2.4920001030 -2.418120623 2.0469999313 2.0469999313
 479.68121338  -999.250000 15.900000572 0.0040000002 0.3369100094 2.1779999733 69.842536926 144.00000000 2.4790000916 -2.618611813 2.0590000153 2.0590000153
 479.83361816  -999.250000 16.111999512 0.0030000000 0.3676800132 2.1860001087 73.666503906 144.25000000 2.4549999237 -1.649531007 2.0659999847 2.0659999847
 479.98602295  -999.250000 16.422000885 0.0010000000 0.3706099987 2.1800000668 74.919281006 145.25000000 2.4409999847 -0.479247153 2.0510001183 2.0510001183
 480.13842773  -999.250000 15.569999695 0.0060000001 0.3920899928 2.1719999313 70.626098633 146.25000000 2.4379999638 -1.094909668 2.0160000324 2.0160000324
 480.29083252  -999.250000 16.492000580 0.0070000002 0.3886699975 2.1619999409 64.133430481 147.75000000 2.4409999847 0.7189897895 1.9720000029 1.9720000029
 480.44323730  -999.250000 17.149000168 0.0049999999 0.3735400140 2.1519999504 61.516544342 146.75000000 2.4240000248 0.7017555237 1.9479999542 1.9479999542
 480.59561157  -999.250000 16.770999908 0.0049999999 0.3862300217 2.1449999809 62.426330566 146.50000000 2.4100000858 0.2947725058 1.9520000219 1.9520000219
 480.74801636  -999.250000 16.815999985 0.0040000002 0.3559600115 2.1370000839 63.255050659 146.25000000 2.4000000954 -0.273207843 1.9789999723 1.9789999723
 480.90042114  -999.250000 16.049999237 0.0099999998 0.3745099902 2.1370000839 65.873756409 146.50000000 2.3849999905 -0.792193413 1.9919999838 1.9919999838
 481.05282593  -999.250000 15.361000061 0.0109999999 0.3764599860 2.1389999390 65.262908936 148.00000000 2.3849999905 -1.275040388 2.0020000935 2.0020000935
 481.20523071  -999.250000 15.970000267 0.0120000001 0.4389599860 2.1449999809 65.026741028 146.00000000 2.3889999390 -1.375932217 2.0160000324 2.0160000324
 481.35763550  -999.250000 17.142999649 0.0109999999 0.4389599860 2.1519999504 66.257751465 178.00000000 2.3889999390 -1.262861848 1.9960000515 1.9960000515
 481.51004028  -999.250000 16.791000366 0.0049999999 0.4243199825 2.1500000954 67.498649597 142.75000000 2.3929998875 -1.032894254 1.9939999580 1.9939999580
 481.66241455  -999.250000 17.722999573 0.0089999996 0.3798799813 2.1559998989 68.571830750 145.00000000 2.4019999504 -0.856861830 1.9960000515 1.9960000515
 481.81481934  -999.250000 17.361000061 0.0089999996 0.3867200017 2.1500000954 66.628356934 148.00000000 2.3959999084 -0.626966357 2.0020000935 2.0020000935
 481.96722412  -999.250000 17.291000366 0.0099999998 0.3774400055 2.1429998875 65.567504883 147.75000000 2.3949999809 -0.570855200 1.9700000286 1.9700000286
 482.11962891  -999.250000 16.587999344 0.0089999996 0.3798799813 2.1410000324 64.740501404 147.00000000 2.3949999809 -0.330861837 1.9479999542 1.9479999542
 482.27203369  -999.250000 17.035999298 0.0060000001 0.3896499872 2.1500000954 65.369796753 145.50000000 2.3949999809 -1.406099319 1.9359999895 1.9359999895
 482.42443848  -999.250000 16.628000259 0.0089999996 0.3710900247 2.1600000858 66.358444214 145.00000000 2.3910000324 -1.529667616 1.9609999657 1.9609999657
 482.57684326  -999.250000 16.531999588 0.0089999996 0.3530300260 2.1659998894 65.658905029 144.25000000 2.3870000839 -1.115282774 1.9589999914 1.9589999914
 482.72921753  -999.250000 16.607000351 0.0060000001 0.3500999808 2.1559998989 63.037567139 143.50000000 2.3870000839 -1.468181491 1.9379999638 1.9379999638
 482.88162231  -999.250000 17.045999527 0.0060000001 0.3852500021 2.1519999504 58.990501404 146.75000000 2.3929998875 -1.770102739 1.9110000134 1.9110000134
