# LAS format log file from PETREL
# Project units are specified as depth units
#==================================================================
~Version information
VERS.   2.0:
WRAP.   NO:
#==================================================================
~Well
STRT .m      3900.0166016 :
STOP .m      4564.4804688 :
STEP .m     0.00000000 :
NULL .        -999.250000 :
COMP.           : COMPANY
WELL.  34/11-1   : WELL
FLD.            : FIELD
LOC.            : LOCATION
SRVC.           : SERVICE COMPANY
DATE.  2018-09-11 14:48:47   : Log Export Date {yyyy-MM-dd HH:mm:ss}
PROV.           : PROVINCE
UWI.   34/11-1   : UNIQUE WELL ID
API.            : API NUMBER
#==================================================================
~Curve
DEPT .m                   : DEPTH
Lithology_geolink ._      : Lithology_geolink
CALI .in                  : CALI
BS .in                    : BS
NPHI .m3/m3               : NPHI
RHOB .g/cm3               : RHOB
GR .gAPI                  : GR
DTC .us/ft                : DTC
DTS .us/ft                : DTS
RDEP .ohm.m               : RDEP
SP .mV                    : SP
RSHA .ohm.m               : RSHA
RMED .ohm.m               : RMED
~Parameter
#==================================================================
~Ascii
# ...
 4514.4936523 5.0000000000 11.385000229 8.3750000000 0.1952999979 2.5529487133 92.497573853 80.356910706 141.48913574 3.4220318794  -999.250000 3.8406152725 3.7024967670
 4514.6459961 5.0000000000 11.508999825 8.3750000000 0.2361138463 2.5369968414 87.633758545 79.633705139 140.95771790 3.4319391251  -999.250000 3.8250513077 3.8571891785
 4514.7983398 5.0000000000 11.628000259 8.3750000000 0.2182562798 2.5359454155 81.502136230 78.314704895 140.64210510 3.4129135609  -999.250000 3.8024358749 3.9156985283
 4514.9506836 4.0000000000 11.739999771 8.3750000000 0.2021498680 2.5187668800 76.503395081 77.076042175 140.69029236 3.3859870434  -999.250000 3.7276899815 3.8216900826
 4515.1030273 4.0000000000 11.828000069 8.3750000000 0.2431240976 2.4460000992 74.422439575 76.188125610 140.86143494 3.3819999695  -999.250000 3.6355288029 3.7249999046
 4515.2553711 4.0000000000 11.956000328 8.3750000000 0.1500697434 2.4470000267 73.469673157 76.792358398 141.29434204 3.4030001163  -999.250000 3.5619807243 3.7200000286
 4515.4077148 4.0000000000 12.006999969 8.3750000000 0.1706824452 2.4600000381 72.064765930 78.705711365 142.32847595 3.4130001068  -999.250000 3.5155866146 3.7100000381
 4515.5605469 4.0000000000 11.803001404 8.3750000000 0.2144136578 2.4458365440 71.920616150 80.625846863 143.87063599 3.3827948570  -999.250000 3.4848589897 3.6186249256
 4515.7128906 4.0000000000 12.142999649 8.3750000000 0.2624029815 2.3952372074 73.088111877 81.724403381 145.29853821 3.3187756538  -999.250000 3.4739487171 3.5017404556
 4515.8652344 4.0000000000 12.319000244 8.3750000000 0.2287403792 2.4693880081 74.607597351 82.183784485 146.34019470 3.2488462925  -999.250000 3.4778077602 3.4208815098
 4516.0175781 4.0000000000 12.522998810 8.3750000000 0.2615974247 2.5898492336 76.223526001 82.146636963 147.17063904 3.2009198666  -999.250000 3.4544358253 3.3839166164
 4516.1699219 2.0000000000 12.578000069 8.3750000000 0.2831349969 2.5429134369 77.028511047 81.532402039 147.81904602 3.1759455204  -999.250000 3.3731343746 3.3579680920
 4516.3222656 2.0000000000 12.591000557 8.3750000000 0.2507615387 2.5160255432 76.318595886 80.379829407 148.54216003 3.1589264870  -999.250000 3.2492306232 3.3480608463
 4516.4746094 2.0000000000 12.690999985 8.3750000000 0.2306388468 2.5239999294 73.678665161 79.354064941 148.97859192 3.1359999180  -999.250000 3.1332499981 3.3670001030
 4516.6269531 2.0000000000 12.661999702 8.3750000000 0.2304796129 2.4800000191 68.231399536 79.772048950 149.28477478 3.0969998837  -999.250000 3.0715961456 3.3599998951
 4516.7792969 2.0000000000 11.968000412 8.3750000000 0.2207384706 2.4530000687 62.219814301 81.635093689 149.58718872 3.0429999828  -999.250000 3.0772211552 3.2609999180
 4516.9321289 2.0000000000 11.545000076 8.3750000000 0.2259673476 2.4720191956 59.723136902 84.270988464 149.18309021 2.9928941727  -999.250000 3.1375126839 3.1066155434
 4517.0844727 2.0000000000 11.664999962 8.3750000000 0.2815404236 2.4780287743 61.981250763 85.917144775 148.76815796 2.9599230289  -999.250000 3.2047436237 2.9868109226
 4517.2368164 4.0000000000 12.092000008 8.3750000000 0.3343398571 2.4869999886 67.495864868 86.637718201 147.04393005 2.9359583855  -999.250000 3.2430384159 2.9280383587
 4517.3891602 4.0000000000 12.601000786 8.3750000000 0.3114565313 2.4868588448 73.004684448 86.579330444 145.34246826 2.9230000973  -999.250000 3.2969870567 2.9401795864
 4517.5415039 4.0000000000 13.034999847 8.3750000000 0.2358542234 2.4425239563 76.349037170 86.129974365 143.45559692 2.9230384827  -999.250000 3.4603290558 2.9962046146
 4517.6938477 4.0000000000 12.951999664 8.3750000000 0.2601339519 2.2939999104 79.189201355 85.393829346 142.37510681 2.9349999428  -999.250000 3.7899615765 3.0599999428
 4517.8461914 4.0000000000 13.045000076 8.3750000000 0.2630320489 2.3220000267 84.216857910 84.628509521 141.00437927 2.9500000477  -999.250000 4.1931347847 3.0989999771
 4517.9985352 5.0000000000 13.220999718 8.3750000000 0.3106250167 2.4560000896 91.662033081 84.027053833 139.72624207 2.9809999466  -999.250000 4.5440964699 3.1570000648
 4518.1508789 5.0000000000 13.149000168 8.3750000000 0.2891415358 2.4820001125 97.638801575 83.431900024 138.66833496 3.0569999218  -999.250000 4.9067502022 3.3069999218
 4518.3037109 5.0000000000 13.150000572 8.3750000000 0.2611090243 2.4569392204 96.464721680 82.309410095 138.01037598 3.1875224113  -999.250000 5.2617049217 3.5951988697
 4518.4560547 5.0000000000 13.156000137 8.3750000000 0.2621161640 2.4382307529 87.208206177 80.644958496 137.54188538 3.3506057262  -999.250000 5.4284100533 3.9689550400
 4518.6083984 5.0000000000 13.180001259 8.3750000000 0.2661882043 2.5100672245 76.125366211 78.772377014 137.08874512 3.5397114754  -999.250000 5.2981538773 4.2669582367
 4518.7607422 5.0000000000 13.140000343 8.3750000000 0.2450432181 2.5309581757 71.393287659 77.547325134 136.29257202 3.7617435455  -999.250000 4.9443721771 4.5660672188
 4518.9130859 2.0000000000 13.079999924 8.3750000000 0.2233356386 2.5180668831 71.816452026 76.457885742 134.96205139 3.9936199188  -999.250000 4.5602140427 4.8987855911
 4519.0654297 2.0000000000 13.029999733 8.3750000000 0.1938405037 2.5390000343 71.342422485 75.355766296 134.22505188 4.1869997978  -999.250000 4.2880578041 5.1440000534
 4519.2177734 2.0000000000 13.003999710 8.3750000000 0.2111826986 2.5399999619 70.815391541 74.426055908 134.45407104 4.2859997749  -999.250000 4.1395192146 5.0989999771
 4519.3701172 2.0000000000 12.959000587 8.3750000000 0.1889459044 2.4719998837 73.239295959 74.548583984 135.73036194 4.2659997940  -999.250000 4.0308752060 4.7340002060
 4519.5229492 2.0000000000 12.892000198 8.3750000000 0.2055492252 2.4401924610 80.728950500 75.572105408 137.16513062 4.1716408730  -999.250000 3.9195897579 4.3422241211
 4519.6752930 2.0000000000 12.812001228 8.3750000000 0.2233712226 2.5001025200 92.300270081 76.908638000 138.67111206 4.0595798492  -999.250000 3.8380639553 4.1006250381
 4519.8276367 2.0000000000 12.723999023 8.3750000000 0.2451807708 2.5318014622 102.08364868 77.557357788 140.83245850 3.9284710884  -999.250000 3.7885770798 3.9836826324
 4519.9799805 2.0000000000 12.645001411 8.3750000000 0.2288723141 2.4699583054 104.25579834 77.960441589 142.77088928 3.7634646893  -999.250000 3.7336795330 3.8846409321
 4520.1323242 6.0000000000 12.614998817 8.3750000000 0.2172094882 2.4572083950 102.15503693 78.178749084 143.24421692 3.5965704918  -999.250000 3.6783866882 3.7726891041
 4520.2846680 6.0000000000 12.595000267 8.3750000000 0.2376519293 2.5220768452 100.81615448 78.681358337 142.30070496 3.4627029896  -999.250000 3.6728942394 3.6757893562
 4520.4370117 6.0000000000 12.508000374 8.3750000000 0.2404334545 2.5460000038 96.917961121 79.101654053 141.22019958 3.3699998856  -999.250000 3.7091729641 3.6099998951
 4520.5893555 6.0000000000 12.439000130 8.3750000000 0.2273388356 2.5169999599 90.383766174 79.993247986 140.49528503 3.3289999962  -999.250000 3.7371633053 3.5499999523
 4520.7416992 6.0000000000 12.350999832 8.3750000000 0.2387179434 2.5039999485 86.409828186 81.003799438 140.60476685 3.3359999657  -999.250000 3.7526538372 3.5030000210
 4520.8945313 6.0000000000 12.222000122 8.3750000000 0.2343831360 2.4699518681 87.404129028 81.592781067 139.80943298 3.3590257168  -999.250000 3.8114230633 3.5151443481
 4521.0468750 6.0000000000 12.133000374 8.3750000000 0.2356859446 2.4550318718 93.440879822 81.611488342 138.29266357 3.3669905663  -999.250000 3.9781794548 3.5600607395
 4521.1992188 6.0000000000 12.027999878 8.3750000000 0.2379746139 2.4646954536 103.63349152 81.248733521 136.64823914 3.3640642166  -999.250000 4.3313589096 3.5789904594
 4521.3515625 6.0000000000 11.916999817 8.3750000000 0.2314420491 2.3706312180 112.03111267 81.096405029 135.81657410 3.3842885494  -999.250000 4.9568462372 3.5761985779
 4521.5039063 6.0000000000 11.873000145 8.3750000000 0.2327153832 2.5676963329 114.34108734 81.634857178 135.19308472 3.4746069908  -999.250000 5.7162718773 3.6386358738
 4521.6562500 6.0000000000 11.795000076 8.3750000000 0.2716467977 2.7850000858 111.47478485 81.701232910 134.92210388 3.6640000343  -999.250000 6.2452116013 3.8369998932
