# LAS format log file from PETREL
# Project units are specified as depth units
#==================================================================
~Version information
VERS.   2.0:
WRAP.   NO:
#==================================================================
~Well
STRT .m      211.00001526 :
STOP .m      2222.9851074 :
STEP .m     0.00000000 :
NULL .        -999.250000 :
COMP.           : COMPANY
WELL.  34/10-19   : WELL
FLD.            : FIELD
LOC.            : LOCATION
SRVC.           : SERVICE COMPANY
DATE.  2018-09-11 14:48:44   : Log Export Date {yyyy-MM-dd HH:mm:ss}
PROV.           : PROVINCE
UWI.   34/10-19   : UNIQUE WELL ID
API.            : API NUMBER
#==================================================================
~Curve
DEPT .m                   : DEPTH
Lithology_geolink ._      : Lithology_geolink
CALI .in                  : CALI
DRHO .g/cm3               : DRHO
NPHI .m3/m3               : NPHI
RHOB .g/cm3               : RHOB
GR .gAPI                  : GR
DTC .us/ft                : DTC
RDEP .ohm.m               : RDEP
SP .mV                    : SP
RSHA .ohm.m               : RSHA
RMED .ohm.m               : RMED
~Parameter
#==================================================================
~Ascii
# ...
 871.65405273  -999.250000 19.232999802 0.1049999967 0.4199199975 1.9910000563 21.553018570 143.25000000 0.9959999919 4.3604578972 0.8460000157 0.8460000157
 871.80645752  -999.250000 19.667999268 0.1580000073 0.4663099945 1.9989999533 22.402313232 141.25000000 0.9929999709 3.0783207417 0.8809999824 0.8809999824
 871.95886230  -999.250000 19.541000366 0.2029999942 0.4692400098 2.0409998894 24.467401505 140.25000000 0.9840000272 2.6570663452 0.8870000243 0.8870000243
 872.11126709  -999.250000 19.416000366 0.1739999950 0.4853500128 2.0469999313 24.718957901 141.75000000 0.9860000014 3.9470279217 0.8840000033 0.8840000033
 872.26367188  -999.250000 19.586999893 0.1449999958 0.4692400098 2.0590000153 25.315975189 143.50000000 0.9879999757 5.2106938362 0.8769999743 0.8769999743
 872.41607666  -999.250000 19.437000275 0.1330000013 0.4624000192 2.0529999733 25.301677704 145.50000000 1.0000000000 5.0199713707 0.8590000272 0.8590000272
 872.56848145  -999.250000 18.916000366 0.1340000033 0.4794900119 2.0309998989 25.723993301 146.75000000 0.9990000129 5.0021409988 0.8460000157 0.8460000157
 872.72088623  -999.250000 18.424999237 0.1449999958 0.4721699953 2.0269999504 25.719392776 147.00000000 0.9950000048 5.0874724388 0.8389999866 0.8389999866
 872.87329102  -999.250000 18.068000793 0.1319999993 0.4594699740 1.9809999466 25.961992264 147.75000000 0.9860000014 3.5133810043 0.8270000219 0.8270000219
 873.02569580  -999.250000 18.239000320 0.1270000041 0.4819300175 1.9630000591 24.709093094 148.75000000 0.9840000272 4.3729219437 0.8109999895 0.8109999895
 873.17803955  -999.250000 18.364999771 0.0960000008 0.4858399928 1.9379999638 24.144351959 149.25000000 0.9670000076 3.7008593082 0.7990000248 0.7990000248
 873.33044434  -999.250000 18.577999115 0.0689999983 0.4892599881 1.9730000496 24.439271927 148.50000000 0.9660000205 3.5837190151 0.8019999862 0.8019999862
 873.48284912  -999.250000 19.631999969 0.0309999995 0.4443399906 1.9830000401 25.495346069 150.50000000 0.9620000124 3.3497440815 0.7960000038 0.7960000038
 873.63525391  -999.250000 20.406999588 0.0560000017 0.4668000042 1.9960000515 24.118690491 152.50000000 0.9700000286 3.1392755508 0.7860000134 0.7860000134
 873.78765869  -999.250000 21.267999649 0.0860000029 0.4555699825 1.9709999561 23.029367447 154.00000000 0.9800000191 5.0319700241 0.7680000067 0.7680000067
 873.94006348  -999.250000 21.807998657 0.1260000020 0.4902299941 1.9659999609 23.337451935 154.75000000 0.9850000143 5.8371558189 0.7500000000 0.7500000000
 874.09246826  -999.250000 22.118000031 0.1389999986 0.4594699740 1.9650000334 24.867227554 152.50000000 0.9800000191 5.3115463257 0.7500000000 0.7500000000
 874.24487305  -999.250000 22.326999664 0.1360000074 0.4956099987 1.9689999819 25.630594254 149.25000000 0.9639999866 5.6501946449 0.7720000148 0.7720000148
 874.39727783  -999.250000 22.104999542 0.1220000014 0.5087900162 1.9830000401 24.128635406 147.00000000 0.9499999881 4.5254535675 0.7870000005 0.7870000005
 874.54968262  -999.250000 22.341999054 0.1080000028 0.5288100243 2.0039999485 22.651702881 147.00000000 0.9330000281 4.8070983887 0.7850000262 0.7850000262
 874.70208740  -999.250000 22.904998779 0.1080000028 0.4882799983 2.0160000324 21.219367981 147.75000000 0.9250000119 4.2439856529 0.7810000181 0.7810000181
 874.85449219  -999.250000 23.326999664 0.1280000061 0.4985400140 1.9880000353 20.201292038 149.00000000 0.9250000119 3.6102330685 0.7620000243 0.7620000243
 875.00689697  -999.250000 23.361000061 0.1430000067 0.4921900034 1.8930000067 19.764245987 149.25000000 0.9380000234 2.5121910572 0.7480000257 0.7480000257
 875.15924072  -999.250000 23.371999741 0.1480000019 0.5288100243 1.7799999714 22.414411545 149.75000000 0.9629999995 4.5021929741 0.7260000110 0.7260000110
 875.31164551  -999.250000 23.375001907 0.1140000001 0.4819300175 1.6440000534 25.252258301 151.50000000 0.9860000014 5.4941778183 0.7120000124 0.7120000124
 875.46405029  -999.250000 23.375001907 0.0740000010 0.4907199740 1.5479999781 26.296159744 150.75000000 1.0269999504 5.6419906616 0.7129999995 0.7129999995
 875.61645508  -999.250000 23.279998779 0.0399999991 0.5073199868 1.5410000086 24.763784409 147.75000000 1.0319999456 5.6323466301 0.7480000257 0.7480000257
 875.76885986  -999.250000 21.635999680 0.0419999994 0.5200200081 1.6759999990 22.920782089 144.25000000 1.0349999666 4.2576308250 0.7990000248 0.7990000248
 875.92126465  -999.250000 20.622999191 0.0430000015 0.4990200102 1.8819999695 22.740564346 140.75000000 1.0290000439 3.9509952068 0.9070000052 0.9070000052
 876.07366943  -999.250000 20.559999466 0.0820000023 0.4921900034 2.0610001087 23.092069626 143.00000000 1.0429999828 3.9485092163 0.9369999766 0.9369999766
 876.22607422  -999.250000 21.690999985 0.1199999973 0.4780300260 2.0450000763 23.135635376 143.75000000 1.0620000362 4.2637972832 0.8920000196 0.8920000196
 876.37847900  -999.250000 23.322000504 0.1539999992 0.4833999872 1.9539999962 22.906555176 145.50000000 1.0980000496 2.8910737038 0.8240000010 0.8240000010
 876.53088379  -999.250000 23.358999252 0.1480000019 0.4741199911 1.8049999475 22.004245758 147.50000000 1.1009999514 2.9373507500 0.7490000129 0.7490000129
 876.68328857  -999.250000 23.363000870 0.1049999967 0.5239300132 1.6460000277 20.910036087 148.50000000 1.0629999638 3.1576418877 0.7340000272 0.7340000272
 876.83569336  -999.250000 23.369001389 0.0610000007 0.5825200081 1.5240000486 20.310935974 148.25000000 1.0410000086 4.1829018593 0.7260000110 0.7260000110
 876.98809814  -999.250000 23.362001419 0.0209999997 0.6162099838 1.4450000525 20.896221161 147.50000000 1.0219999552 5.3696403503 0.7310000062 0.7310000062
 877.14050293  -999.250000 23.375001907 0.0030000000 0.5830099583 1.4149999619 21.659997940 148.00000000 1.0000000000 6.3895430565 0.7390000224 0.7390000224
 877.29284668  -999.250000 23.388000488 0.0000000000 0.5112299919 1.4069999456 23.528926849 147.25000000 1.0049999952 4.8575673103 0.7490000129 0.7490000129
 877.44525146  -999.250000 23.393999100 -0.004000000 0.4775400162 1.4019999504 23.466857910 147.50000000 1.0210000277 4.4975614548 0.7530000210 0.7530000210
 877.59765625  -999.250000 23.402002335 0.0000000000 0.4965800047 1.4029999971 22.514671326 147.00000000 1.0429999828 4.1332607269 0.7590000033 0.7590000033
 877.75006104  -999.250000 23.391000748 0.0010000000 0.5053699613 1.4019999504 20.576309204 145.25000000 1.0529999733 4.3503661156 0.7659999728 0.7659999728
 877.90246582  -999.250000 23.391000748 0.0049999999 0.5390599966 1.4029999971 19.171546936 145.00000000 1.0640000105 4.6549339294 0.7749999762 0.7749999762
 878.05487061  -999.250000 23.391000748 0.0049999999 0.5014600158 1.4029999971 19.627696991 145.00000000 1.0620000362 4.5996522903 0.7689999938 0.7689999938
 878.20727539  -999.250000 23.388000488 0.0049999999 0.5019500256 1.4029999971 20.686630249 146.75000000 1.0659999847 4.3822340965 0.7549999952 0.7549999952
 878.35968018  -999.250000 23.375997543 0.0049999999 0.5166000128 1.4019999504 21.080535889 147.25000000 1.0590000153 3.9048686028 0.7319999933 0.7319999933
 878.51208496  -999.250000 23.375001907 0.0029987986 0.6030452847 1.3989996910 22.036817551 147.25000000 1.0499999523 3.8225851059 0.7179999948 0.7179999948
 878.66448975  -999.250000 23.375001907 -0.000001201 0.6411060691 1.3979984522 21.299924850 148.00000000 1.0390000343 3.5640158653 0.7080000043 0.7080000043
 878.81689453  -999.250000 23.375001907 -0.002999199 0.6313313842 1.3940004110 21.252809525 148.25000000 1.0260000229 3.5744068623 0.7009999752 0.7009999752
 878.96929932  -999.250000 23.375001907 -0.001003204 0.5849486589 1.3949959278 20.510845184 149.50000000 1.0099999905 3.8299512863 0.6890000105 0.6890000105
 879.12170410  -999.250000 23.375001907 -0.004995194 0.5707550049 1.3900047541 20.412668228 150.75000000 1.0010000467 5.0450210571 0.6840000153 0.6840000153
 879.27410889  -999.250000 23.375001907 0.0009991991 0.5146672130 1.3959984779 19.581922531 152.00000000 0.9879999757 4.4364705086 0.6809999943 0.6809999943
