# LAS format log file from PETREL
# Project units are specified as depth units
#==================================================================
~Version information
VERS.   2.0:
WRAP.   NO:
#==================================================================
~Well
STRT .m      211.00001526 :
STOP .m      2222.9851074 :
STEP .m     0.00000000 :
NULL .        -999.250000 :
COMP.           : COMPANY
WELL.  34/10-19   : WELL
FLD.            : FIELD
LOC.            : LOCATION
SRVC.           : SERVICE COMPANY
DATE.  2018-09-11 14:48:44   : Log Export Date {yyyy-MM-dd HH:mm:ss}
PROV.           : PROVINCE
UWI.   34/10-19   : UNIQUE WELL ID
API.            : API NUMBER
#==================================================================
~Curve
DEPT .m                   : DEPTH
Lithology_geolink ._      : Lithology_geolink
CALI .in                  : CALI
DRHO .g/cm3               : DRHO
NPHI .m3/m3               : NPHI
RHOB .g/cm3               : RHOB
GR .gAPI                  : GR
DTC .us/ft                : DTC
RDEP .ohm.m               : RDEP
SP .mV                    : SP
RSHA .ohm.m               : RSHA
RMED .ohm.m               : RMED
~Parameter
#==================================================================
~Ascii
# ...
 1415.7221680  -999.250000 12.678999901 0.0049991985 0.4824227393 2.0549871922 47.744125366 151.75000000 0.6949999928 62.533496857 0.7360000014 0.7360000014
 1415.8746338  -999.250000 12.664999962 0.0040048040 0.4858259261 2.0389904976 44.670970917 153.00000000 0.6980000138 61.752655029 0.7210000157 0.7210000157
 1416.0269775  -999.250000 12.810000420 0.0069975965 0.4770410061 2.0329864025 44.974933624 153.75001526 0.6990000010 61.644737244 0.7319999933 0.7319999933
 1416.1794434  -999.250000 13.067000389 0.0039951964 0.4658661485 2.0160000324 45.578445435 152.25000000 0.6980000138 61.251976013 0.7390000224 0.7390000224
 1416.3317871  -999.250000 13.159000397 0.0009983975 0.4946335256 2.0160105228 46.021305084 151.50000000 0.6990000010 61.243564606 0.7429999709 0.7429999709
 1416.4841309  -999.250000 12.670000076 -0.001000801 0.4990423024 2.0290129185 43.937587738 151.25001526 0.6999999881 60.798603058 0.7440000176 0.7440000176
 1416.6365967  -999.250000 12.772000313 -0.001993590 0.5268424153 2.0450129509 44.181919098 151.25001526 0.6999999881 61.459892273 0.7429999709 0.7429999709
 1416.7889404  -999.250000 12.676000595 0.0060040033 0.5048835278 2.0609970093 44.159019470 149.50000000 0.6990000010 60.491355896 0.7509999871 0.7509999871
 1416.9414063  -999.250000 12.630999565 0.0110056093 0.5092682838 2.0569934845 45.000961304 150.00000000 0.7009999752 60.223930359 0.7559999824 0.7559999824
 1417.0937500  -999.250000 12.630999565 0.0179943945 0.4946276546 2.0489807129 46.551368713 149.50000000 0.7049999833 60.202678680 0.7480000257 0.7480000257
 1417.2462158  -999.250000 12.661000252 0.0109975962 0.4917148650 2.0249984264 48.777908325 150.50000000 0.7089999914 60.483551025 0.7360000014 0.7360000014
 1417.3985596  -999.250000 12.593999863 0.0079959938 0.5102500319 2.0230031013 48.433361053 150.00000000 0.7149999738 60.344264984 0.7440000176 0.7440000176
 1417.5510254  -999.250000 12.581000328 0.0029951963 0.5102320313 2.0270094872 46.501083374 149.25000000 0.7170000076 60.452362061 0.7459999919 0.7459999919
 1417.7033691  -999.250000 12.591000557 -0.000003205 0.4989875555 2.0329999924 44.348304749 149.50000000 0.7200000286 60.257144928 0.7500000000 0.7500000000
 1417.8558350  -999.250000 12.565999985 -0.003996798 0.4585109353 2.0330128670 44.062679291 149.25000000 0.7220000029 61.571022034 0.7519999743 0.7519999743
 1418.0081787  -999.250000 12.597998619 -0.001997596 0.4653347135 2.0410029888 44.898887634 150.25000000 0.7289999723 64.691406250 0.7639999986 0.7639999986
 1418.1606445  -999.250000 12.586000443 0.0010096077 0.4712298810 2.0449936390 46.106910706 152.75000000 0.7329999804 65.742324829 0.7749999762 0.7749999762
 1418.3129883  -999.250000 12.574999809 0.0070008016 0.4960900247 2.0409870148 45.456768036 155.00000000 0.7480000257 63.040508270 0.7710000277 0.7710000277
 1418.4653320  -999.250000 12.569999695 0.0080008013 0.4960829914 2.0249969959 45.382278442 153.75001526 0.7620000243 61.643970490 0.7639999986 0.7639999986
 1418.6177979  -999.250000 12.541000366 0.0090032043 0.4872867167 2.0210175514 44.670345306 149.25000000 0.7749999762 61.631828308 0.7570000291 0.7570000291
 1418.7701416  -999.250000 12.541000366 0.0130000003 0.4706953168 2.0430159569 45.089851379 144.49920654 0.7920232415 61.889808655 0.7760192156 0.7760192156
 1418.9226074  -999.250000 12.538000107 0.0130000003 0.4648619294 2.0630056858 45.030158997 143.50019836 0.8210208416 62.227191925 0.8000336885 0.8000336885
 1419.0749512  -999.250000 12.496999741 0.0129951965 0.4921849072 2.0699880123 45.710491180 143.75300598 0.8470152020 62.598464966 0.8420520425 0.8420520425
 1419.2274170  -999.250000 12.477999687 0.0069967951 0.4858544767 2.0549793243 49.239513397 147.50500488 0.8660112023 62.785823822 0.9070584774 0.9070584774
 1419.3797607  -999.250000 12.484999657 0.0029983988 0.5039021969 2.0289752483 50.949466705 153.75102234 0.8800144196 60.562911987 0.9800288677 0.9800288677
 1419.5322266  -999.250000 12.510000229 0.0009991988 0.4941560626 1.9979767799 48.640434265 154.99899292 0.8980016112 65.499374390 1.0159575939 1.0159575939
 1419.6845703  -999.250000 12.477000237 0.0000024038 0.5141576529 1.9689975977 45.030185699 153.74942017 0.8999887705 63.122505188 0.9629310966 0.9629310966
 1419.8370361  -999.250000 12.465000153 0.0030064052 0.5112151504 1.9660031796 40.538417816 152.99760437 0.8859391212 62.088119507 0.8769823313 0.8769823313
 1419.9893799  -999.250000 12.574000359 0.0070008016 0.5019570589 1.9679960012 39.420833588 151.50120544 0.8479711413 62.434566498 0.8659647107 0.8659647107
 1420.1418457  -999.250000 12.574000359 0.0079855891 0.5107564926 1.9629584551 38.442638397 153.00039673 0.8119311333 61.986183167 0.8219327927 0.8219327927
 1420.2941895  -999.250000 12.645999908 -0.001003205 0.5210039020 1.9369871616 40.819477081 153.25199890 0.7689719200 61.421211243 0.7799510956 0.7799510956
 1420.4466553  -999.250000 12.673000336 -0.005004804 0.5259073973 1.9210159779 41.274223328 155.75160217 0.7339711785 61.177253723 0.7189583778 0.7189583778
 1420.5989990  -999.250000 12.631999016 -0.007998398 0.5429344177 1.9310247898 39.789939880 156.74879456 0.7159776092 61.570949554 0.6929984093 0.6929984093
 1420.7513428  -999.250000 12.609999657 -0.005995997 0.4985220134 1.9620336294 40.089279175 155.24940491 0.6879783869 62.489299774 0.6910151839 0.6910151839
 1420.9038086  -999.250000 12.623999596 -0.000993590 0.4760566950 2.0040152073 43.115760803 154.49819946 0.6609832048 62.622631073 0.7100232244 0.7100232244
 1421.0561523  -999.250000 12.637999535 0.0070048040 0.4594781995 2.0230000019 44.906948090 152.24899292 0.6399919987 65.000732422 0.7390096188 0.7390096188
 1421.2086182  -999.250000 12.647000313 0.0129975965 0.4697612822 2.0229880810 44.046550751 151.00018311 0.6299992204 66.124214172 0.7509863377 0.7509863377
 1421.3609619  -999.250000 12.628999710 0.0099975979 0.5088009834 2.0079917908 41.101505280 151.25122070 0.6290007830 62.764415741 0.7339823842 0.7339823842
 1421.5134277  -999.250000 12.847999573 0.0070008016 0.5224834681 1.9979935884 39.654582977 152.74980164 0.6299992204 62.109066010 0.7119967937 0.7119967937
 1421.6657715  -999.250000 12.819999695 0.0080008013 0.5517298579 1.9899928570 40.456401825 152.50019836 0.6289992332 62.752567291 0.7080104351 0.7080104351
 1421.8182373  -999.250000 12.633000374 0.0089999996 0.5141451359 1.9810127020 39.790870667 152.74960327 0.6279951930 62.573825836 0.7210288644 0.7210288644
 1421.9705811  -999.250000 12.633999825 0.0090016024 0.5048800111 1.9890167713 39.122524261 152.49879456 0.6249992251 62.527530670 0.7389976382 0.7389976382
 1422.1230469  -999.250000 12.723999023 0.0110048037 0.5048737526 2.0100400448 37.114002228 150.99877930 0.6239984035 64.880287170 0.7359679937 0.7359679937
 1422.2753906  -999.250000 12.673999786 0.0139959939 0.5009526610 2.0349936485 39.607555389 150.25039673 0.6229951978 67.144287109 0.7159928083 0.7159928083
 1422.4278564  -999.250000 12.666000366 0.0089871893 0.4668164253 2.0269792080 41.026931763 150.75039673 0.6169839501 66.293167114 0.7070464492 0.7070464492
 1422.5802002  -999.250000 12.751999855 0.0009991988 0.4770523608 2.0139846802 41.622463226 151.00178528 0.6069959998 64.164306641 0.7359927893 0.7359927893
 1422.7325439  -999.250000 12.842999458 0.0000016013 0.4800156057 1.9949864149 40.209743500 153.24940491 0.6019960046 63.323177338 0.7269791961 0.7269791961
 1422.8850098  -999.250000 12.860000610 0.0020064104 0.5243622661 1.9779936075 39.682926178 152.50080872 0.5969967842 62.562812805 0.7009783387 0.7009783387
 1423.0373535  -999.250000 12.861000061 0.0099967970 0.4648623168 1.9699968100 37.789802551 153.50057983 0.5929967761 61.889328003 0.6740080118 0.6740080118
 1423.1898193  -999.250000 12.795999527 0.0060000001 0.4926573336 1.9660176039 36.457103729 154.24919128 0.5889943838 64.518974304 0.6840056181 0.6840056181
 1423.3421631  -999.250000 12.740999222 0.0060008005 0.4643994868 1.9880056381 34.614318848 153.25039673 0.5819928050 65.746994019 0.6910088062 0.6910088062
