# LAS format log file from PETREL
# Project units are specified as depth units
#==================================================================
~Version information
VERS.   2.0:
WRAP.   NO:
#==================================================================
~Well
STRT .m      127.75000000 :
STOP .m      3459.2514648 :
STEP .m     0.00000000 :
NULL .        -999.250000 :
COMP.           : COMPANY
WELL.  34/10-17   : WELL
FLD.            : FIELD
LOC.            : LOCATION
SRVC.           : SERVICE COMPANY
DATE.  2018-09-11 14:48:44   : Log Export Date {yyyy-MM-dd HH:mm:ss}
PROV.           : PROVINCE
UWI.   34/10-17   : UNIQUE WELL ID
API.            : API NUMBER
#==================================================================
~Curve
DEPT .m                   : DEPTH
Lithology_geolink ._      : Lithology_geolink
CALI .in                  : CALI
DRHO .g/cm3               : DRHO
NPHI .m3/m3               : NPHI
RHOB .g/cm3               : RHOB
GR .gAPI                  : GR
DTC .us/ft                : DTC
RDEP .ohm.m               : RDEP
SP .mV                    : SP
RSHA .ohm.m               : RSHA
RMED .ohm.m               : RMED
~Parameter
#==================================================================
~Ascii
# ...
 3009.2497559 6.0000000000 8.5790004730 -0.015000000  -999.250000 2.5460000038 116.34700012  -999.250000 3.1819999218 67.041999817 3.7360000610 2.9670000076
 3009.3747559 6.0000000000 8.5729999542 -0.021000000  -999.250000 2.5350000858 115.62699890  -999.250000 3.1219999790 67.117996216 3.7650001049 2.9260001183
 3009.5000000 6.0000000000 8.5659999847 -0.023000000  -999.250000 2.5280001163 114.99900055  -999.250000 3.0429999828 67.216003418 3.7829999924 2.8840000629
 3009.6250000 6.0000000000 8.5590000153 -0.024000000  -999.250000 2.5269999504 114.78500366  -999.250000 2.9639999866 67.315002441 3.7669999599 2.8489999771
 3009.7500000 6.0000000000 8.5530004501 -0.024000000  -999.250000 2.5260000229 114.78500366  -999.250000 2.9019999504 67.396003723 3.7109999657 2.8169999123
 3009.8750000 6.0000000000 8.5480003357 -0.026000001  -999.250000 2.5260000229 115.54100037  -999.250000 2.8619999886 67.440002441 3.6280000210 2.7839999199
 3010.0000000 7.0000000000 8.5439996719 -0.025000000  -999.250000  -999.250000 116.79199982  -999.250000 2.8380000591 67.449996948 3.5269999504 2.7490000725
 3010.1250000 7.0000000000  -999.250000  -999.250000 0.3961700201  -999.250000 118.07800293  -999.250000 2.8180000782 67.447998047 3.4179999828 2.7160000801
 3010.2500000 7.0000000000  -999.250000  -999.250000 0.4164699912  -999.250000 120.59899902  -999.250000 2.7960000038 67.458999634 3.3110001087 2.6830000877
 3010.3752441 7.0000000000  -999.250000  -999.250000 0.4533900023  -999.250000 122.91500092  -999.250000 2.7669999599 67.480003357 3.2219998837 2.6500000954
 3010.5002441 7.0000000000  -999.250000  -999.250000 0.4674499929  -999.250000 122.82700348  -999.250000 2.7320001125 67.484001160 3.1700000763 2.6159999371
 3010.6247559 6.0000000000  -999.250000  -999.250000 0.4623700082  -999.250000 120.27899933  -999.250000 2.6940000057 67.466003418 3.1670000553 2.5850000381
 3010.7497559 6.0000000000  -999.250000  -999.250000 0.4430099726  -999.250000 115.96199799  -999.250000 2.6549999714 67.453002930 3.1989998817 2.5620000362
 3010.8750000 6.0000000000  -999.250000  -999.250000 0.4293399751  -999.250000 111.13800049  -999.250000 2.6180000305 67.481002808 3.2279999256 2.5480000973
 3011.0000000 6.0000000000  -999.250000  -999.250000 0.4161600173  -999.250000 105.01899719  -999.250000 2.5889999866 67.564002991 3.2260000706 2.5399999619
 3011.1250000 6.0000000000  -999.250000  -999.250000 0.4075599909  -999.250000 103.49099731  -999.250000 2.5690000057 67.679000854 3.1889998913 2.5329999924
 3011.2500000 6.0000000000  -999.250000  -999.250000 0.4067100286  -999.250000 108.05400085  -999.250000 2.5590000153 67.769996643 3.1410000324 2.5250000954
 3011.3750000 6.0000000000  -999.250000  -999.250000 0.4092900157  -999.250000 116.14299774  -999.250000 2.5580000877 67.792999268 3.1089999676 2.5179998875
 3011.5000000 7.0000000000  -999.250000  -999.250000 0.4091700017  -999.250000 122.28099823  -999.250000 2.5650000572 67.757003784 3.1029999256 2.5209999084
 3011.6247559 7.0000000000  -999.250000  -999.250000 0.4032899737  -999.250000 123.71900177  -999.250000 2.5799999237 67.700996399 3.1150000095 2.5429999828
 3011.7497559 7.0000000000  -999.250000  -999.250000 0.3957899809  -999.250000 123.52400208  -999.250000 2.5980000496 67.660003662 3.1349999905 2.5929999352
 3011.8747559 7.0000000000  -999.250000  -999.250000 0.3843899965  -999.250000 123.27899933  -999.250000 2.6129999161 67.652999878 3.1579999924 2.6579999924
 3012.0000000 7.0000000000  -999.250000  -999.250000 0.3820900023  -999.250000 123.05200195  -999.250000  -999.250000 67.669998169 3.1819999218 2.7160000801
 3012.1250000 7.0000000000  -999.250000  -999.250000 0.3832300305  -999.250000 122.93499756  -999.250000  -999.250000 67.694000244 3.2070000172 2.7460000515
 3012.2500000 7.0000000000  -999.250000  -999.250000 0.3775600195  -999.250000 105.40699768  -999.250000  -999.250000 67.710998535 3.2279999256 2.7379999161
 3012.3750000 7.0000000000  -999.250000  -999.250000 0.3686500192  -999.250000 79.456001282  -999.250000  -999.250000 67.724998474 3.2420001030 2.7100000381
 3012.5000000 26.000000000  -999.250000  -999.250000 0.3602899909  -999.250000 77.677001953  -999.250000  -999.250000 67.736999512 3.2449998856 2.6819999218
 3012.6250000 26.000000000  -999.250000  -999.250000 0.3576100171  -999.250000 75.039001465  -999.250000  -999.250000 67.739997864 3.2339999676  -999.250000
 3012.7502441 26.000000000  -999.250000  -999.250000 0.3636500239  -999.250000 72.430999756  -999.250000  -999.250000 67.730003357 3.2100000381  -999.250000
 3012.8752441 26.000000000  -999.250000  -999.250000 0.3854399920  -999.250000 70.811996460  -999.250000  -999.250000 67.703002930 3.1849999428  -999.250000
 3012.9997559 26.000000000  -999.250000  -999.250000 0.4000599980  -999.250000 70.213996887  -999.250000  -999.250000 67.664001465 3.1689999104  -999.250000
 3013.1250000 26.000000000  -999.250000  -999.250000 0.4114699960  -999.250000 70.262001038  -999.250000  -999.250000 67.620002747 3.1670000553  -999.250000
 3013.2500000 26.000000000  -999.250000  -999.250000 0.4107699990  -999.250000 70.248001099  -999.250000  -999.250000 67.577003479 3.1830000877  -999.250000
 3013.3750000 26.000000000  -999.250000  -999.250000 0.4079000056  -999.250000 69.885002136  -999.250000  -999.250000 67.550003052 3.2100000381  -999.250000
 3013.5000000 26.000000000  -999.250000  -999.250000 0.4077600241  -999.250000 69.648002625  -999.250000  -999.250000 67.542999268 3.2390000820  -999.250000
 3013.6250000 26.000000000  -999.250000  -999.250000 0.4060900211  -999.250000 70.336997986  -999.250000  -999.250000 67.551002502 3.2599999905  -999.250000
 3013.7500000 26.000000000  -999.250000  -999.250000 0.4037400186  -999.250000 72.541999817  -999.250000  -999.250000 67.556999207 3.2650001049  -999.250000
 3013.8750000 26.000000000  -999.250000  -999.250000 0.4016700089  -999.250000 75.366996765  -999.250000  -999.250000 67.540000916 3.2539999485  -999.250000
 3013.9997559 26.000000000  -999.250000  -999.250000 0.4019100070  -999.250000 77.380996704  -999.250000  -999.250000 67.507003784 3.2339999676  -999.250000
 3014.1247559 26.000000000  -999.250000  -999.250000 0.4088900089  -999.250000 77.449996948  -999.250000  -999.250000 67.489997864 3.2149999142  -999.250000
 3014.2497559 26.000000000  -999.250000  -999.250000 0.4181700051  -999.250000 74.702003479  -999.250000  -999.250000 67.503997803 3.2039999962  -999.250000
 3014.3750000 26.000000000  -999.250000  -999.250000 0.4261500239  -999.250000 70.458999634  -999.250000  -999.250000 67.541000366 3.1949999332  -999.250000
 3014.5000000 26.000000000  -999.250000  -999.250000 0.4288800061  -999.250000 67.184997559  -999.250000  -999.250000 67.567001343 3.1819999218  -999.250000
 3014.6250000 26.000000000  -999.250000  -999.250000 0.4171999991  -999.250000 67.786003113  -999.250000  -999.250000 67.555999756 3.1600000858  -999.250000
 3014.7500000 26.000000000 6.3550004959  -999.250000 0.3985500038 2.3499999046 75.001998901  -999.250000  -999.250000 67.517997742 3.1319999695  -999.250000
 3014.8750000 26.000000000 6.4300003052  -999.250000 0.3799200058 2.4309999943 86.767997742  -999.250000  -999.250000 67.475997925 3.1099998951  -999.250000
 3015.0000000 26.000000000 6.5029997826  -999.250000 0.3696399927 2.4879999161 99.132003784 137.19200134  -999.250000 67.449996948 3.0999999046  -999.250000
 3015.1252441 6.0000000000 6.5720000267 -0.071000002 0.3685599864 2.5239999294 108.51000214 131.67100525  -999.250000 67.445999146 3.1050000191  -999.250000
 3015.2502441 6.0000000000 6.6339998245 0.0299999993 0.3694700003 2.5399999619 113.02300262 122.48600006 4.1729998589 67.452003479 3.1180000305 2.6960000992
 3015.3752441 6.0000000000 6.6859998703 0.0780000016 0.3691599965 2.5360000134 114.52899933 112.28899384 1.9029999971 67.454002380 3.1280000210 1.8509999514
 3015.5000000 6.0000000000 6.7210001945 0.0869999975 0.3610199988 2.5179998875 115.31800079 103.95400238 1.2539999485 67.450996399 2.6570000648 1.5909999609
