# LAS format log file from PETREL
# Project units are specified as depth units
#==================================================================
~Version information
VERS.   2.0:
WRAP.   NO:
#==================================================================
~Well
STRT .m      3166.7685547 :
STOP .m      4692.7500000 :
STEP .m     0.00000000 :
NULL .        -999.250000 :
COMP.           : COMPANY
WELL.  34/12-1   : WELL
FLD.            : FIELD
LOC.            : LOCATION
SRVC.           : SERVICE COMPANY
DATE.  2018-09-11 14:48:48   : Log Export Date {yyyy-MM-dd HH:mm:ss}
PROV.           : PROVINCE
UWI.   34/12-1   : UNIQUE WELL ID
API.            : API NUMBER
#==================================================================
~Curve
DEPT .m                   : DEPTH
Lithology_geolink ._      : Lithology_geolink
CALI .in                  : CALI
BS .in                    : BS
ROP .m/h                  : ROP
DRHO .g/cm3               : DRHO
THOR .ppm                 : THOR
SGR .gAPI                 : SGR
NPHI .m3/m3               : NPHI
RHOB .g/cm3               : RHOB
PEF .b/e                  : PEF
GR .gAPI                  : GR
URAN .ppm                 : URAN
DTC .us/ft                : DTC
DTS .us/ft                : DTS
RDEP .ohm.m               : RDEP
RSHA .ohm.m               : RSHA
RMED .ohm.m               : RMED
~Parameter
#==================================================================
~Ascii
# ...
 3481.4746094  -999.250000 12.210800171 12.250000954 42724.441406 0.0011990401  -999.250000  -999.250000 0.2124590427 2.5952000618 3.6712999344 43.076801300  -999.250000 78.085670471 136.18179321 3.8737235069 5.8284001350 4.0354871750
 3481.6269531  -999.250000 12.203800201 12.250000954 43979.402344 0.0008955128  -999.250000  -999.250000 0.1996769160 2.5934000015 3.7155001163 40.818099976  -999.250000 75.260879517 132.54539490 4.2866692543 6.2221999168 4.3436207771
 3481.7792969  -999.250000 12.217800140 12.250000954 45914.398438 -0.001902724  -999.250000  -999.250000 0.1852072030 2.5861999989 3.9437000751 35.376499176  -999.250000 68.074577332 129.00000000 4.7044134140 6.4944000244 4.7935323715
 3481.9316406  -999.250000 12.217800140 12.250000954 40575.960938 -0.003592628  -999.250000  -999.250000 0.1273482293 2.5845000744 4.5025000572 27.310699463  -999.250000 62.331775665 126.27269745 5.1508011818 8.3364000320 5.2521057129
 3482.0842285  -999.250000 12.217800140 12.250000954 38387.160156 0.0010406401  -999.250000  -999.250000 0.0951031968 2.6110000610 5.2941999435 19.122600555  -999.250000 64.387641907 124.90910339 6.4031534195 11.574600220 6.6317572594
 3482.2365723  -999.250000 12.210800171 12.250000954 38494.437500 0.0137060899  -999.250000  -999.250000 0.0961780474 2.6598000526 5.7807998657 21.176099777  -999.250000 68.737426758 125.90910339 8.0981101990 16.133600235 8.3276805878
 3482.3889160  -999.250000 12.207300186 12.250000954 38595.960938 0.0174923074  -999.250000  -999.250000 0.1448764503 2.6723999977 5.5914998055 29.022800446  -999.250000 74.001419067 128.72729492 5.6723470688 9.2271003723 5.8208146095
 3482.5412598  -999.250000 12.210800171 12.250000954 38664.718750 0.0126850959  -999.250000  -999.250000 0.1925165057 2.6398999691 4.8217000961 37.005500793  -999.250000 80.183158875 132.81820679 4.2675466537 5.8702001572 4.3955116272
 3482.6938477  -999.250000 12.207300186 12.250000954 35775.000000 0.0033955202  -999.250000  -999.250000 0.2028112113 2.5940999985 4.1057000160 41.388801575  -999.250000 81.402427673 136.36360168 3.4873378277 4.9089999199 3.5311028957
 3482.8461914  -999.250000 12.182999611 12.250000954 35955.000000 0.0020004809  -999.250000  -999.250000 0.2063094676 2.5843999386 3.7381999493 41.242500305  -999.250000 81.037139893 138.45449829 3.6237447262 4.8663001060 3.7189614773
 3482.9985352  -999.250000 12.217800140 12.250000954 36303.480469 0.0022961539  -999.250000  -999.250000 0.2121953517 2.5882000923 3.6779000759 41.139801025  -999.250000 80.500419617 140.27270508 3.6516935825 5.0931000710 3.7574961185
 3483.1508789  -999.250000 12.217800140 12.250000954 35531.640625 -0.000101763  -999.250000  -999.250000 0.2093022466 2.5840001106 3.7265999317 40.701698303  -999.250000 80.139419556 143.54550171 3.7099580765 5.2813000679 3.8797285557
 3483.3032227  -999.250000 12.196900368 12.250000954 35435.878906 -0.001200481  -999.250000  -999.250000 0.2106796503 2.5822000504 3.7757000923 39.777599335  -999.250000 79.778419495 145.81820679 3.6216678619 5.4390001297 3.8352818489
 3483.4558105  -999.250000 12.186400414 12.250000954 37105.199219 -0.001494880  -999.250000  -999.250000 0.1979862452 2.5815000534 3.7809000015 37.700199127  -999.250000 79.416702271 147.54550171 3.6638045311 5.5562000275 3.9482808113
 3483.6081543  -999.250000 12.210800171 12.250000954 36281.882813 0.0000991987  -999.250000  -999.250000 0.1936924756 2.5887999535 3.7490999699 35.089698792  -999.250000 79.041725159 149.63639832 3.6027488708 5.4928998947 3.8486893177
 3483.7604980  -999.250000 12.210800171 12.250000954 38729.160156 -0.000400801  -999.250000  -999.250000 0.1890027225 2.5887999535 3.7084999084 34.736099243  -999.250000 78.187812805 149.63639832 3.5084652901 5.3350000381 3.7795274258
 3483.9128418  -999.250000 12.182999611 12.250000954 40924.078125 -0.000900320  -999.250000  -999.250000 0.1907084882 2.5880000591 3.6605000496 34.862800598  -999.250000 79.066101074 149.00000000 3.4246215820 5.2048001289 3.6720046997
 3484.0654297  -999.250000 12.210800171 12.250000954 45381.238281 -0.001093600  -999.250000  -999.250000 0.1959881485 2.5857000351 3.5950000286 35.939701080  -999.250000 79.066261292 146.18179321 3.4384088516 5.1083998680 3.6751549244
 3484.2177734  -999.250000 12.217800140 12.250000954 53208.359375 0.0009024038  -999.250000  -999.250000 0.1923064142 2.5913999081 3.5408999920 36.909400940  -999.250000 79.119567871 143.09089661 3.5036022663 5.0356998444 3.7234416008
 3484.3701172  -999.250000 12.196900368 12.250000954 50220.359375 0.0024009617  -999.250000  -999.250000 0.1962876618 2.5966999531 3.4876000881 37.012001038  -999.250000 81.027236938 142.00000000 3.5674040318 4.9907999039 3.7493603230
 3484.5224609  -999.250000 12.203800201 12.250000954 49167.363281 0.0029971155  -999.250000  -999.250000 0.1885810941 2.6031000614 3.5222001076 34.378299713  -999.250000 80.041961670 140.36360168 3.6322915554 5.0476999283 3.7871551514
 3484.6750488  -999.250000 12.217800140 12.250000954 52035.480469 0.0011993600  -999.250000  -999.250000 0.1767264009 2.6038999557 3.5922000408 30.686700821  -999.250000 76.080093384 138.27270508 3.7524313927 5.0381999016 3.8846228123
 3484.8273926  -999.250000 12.203800201 12.250000954 54180.359375 0.0009996796  -999.250000  -999.250000 0.1537842900 2.6119000912 3.6182999611 26.297000885  -999.250000 72.777282715 136.09089661 4.0432076454 5.8640999794 4.1415472031
 3484.9797363  -999.250000 12.196900368 12.250000954 47018.878906 0.0007998397  -999.250000  -999.250000 0.1440400630 2.6092998981 3.5729999542 24.260200500  -999.250000 73.894432068 134.81820679 4.4213147163 7.0457000732 4.5441842079
 3485.1320801  -999.250000 12.210800171 12.250000954 45861.480469 0.0006995192  -999.250000  -999.250000 0.1690411866 2.5989999771 3.5258998871 23.331699371  -999.250000 76.221618652 135.54539490 4.1185383797 6.5852999687 4.2223353386
 3485.2844238  -999.250000 12.224699974 12.250000954 41545.437500 0.0004032051  -999.250000  -999.250000 0.1947232336 2.5887000561 3.5392000675 29.031099319  -999.250000 77.855995178 137.18179321 3.8311457634 5.6279001236 3.9331924915
 3485.4370117  -999.250000 12.203800201 12.250000954 35326.437500 0.0024057601  -999.250000  -999.250000 0.2091775984 2.5926001072 3.5792999268 32.419300079  -999.250000 79.788040161 138.81820679 3.8596010208 5.4155001640 3.9907662868
 3485.5893555  -999.250000 12.196900368 12.250000954 33731.640625 0.0041991984  -999.250000  -999.250000 0.2022017539 2.5996000767 3.5927999020 37.603401184  -999.250000 79.768608093 140.09089661 3.8286209106 5.5244998932 3.9802236557
 3485.7416992  -999.250000 12.217800140 12.250000954 34657.199219 0.0036963141  -999.250000  -999.250000 0.2032959908 2.5955998898 3.6359999180 37.628398895  -999.250000 79.023544312 140.54539490 3.7169730663 5.4609999657 3.9325940609
 3485.8940430  -999.250000 12.203800201 12.250000954 35306.277344 0.0013937500  -999.250000  -999.250000 0.2008056045 2.5873000622 3.6958999634 38.552398682  -999.250000 78.236442566 140.45449829 3.6377854347 5.4456000328 3.8666887283
 3486.0466309  -999.250000 12.196900368 12.250000954 35955.722656 -0.002505120  -999.250000  -999.250000 0.2042987198 2.5773000717 3.7657999992 36.027400970  -999.250000 77.451698303 142.00000000 3.5662384033 5.4678997993 3.8595232964
 3486.1989746  -999.250000 12.189900398 12.250000954 37042.199219 -0.004098878  -999.250000  -999.250000 0.2039105743 2.5778999329 3.7757000923 35.513999939  -999.250000 77.792747498 144.63639832 3.5158131123 5.4963998795 3.8044040203
 3486.3513184  -999.250000 12.217800140 12.250000954 35896.679688 -0.003394712  -999.250000  -999.250000 0.2105060965 2.5838999748 3.7314999104 37.515300751  -999.250000 77.451133728 145.63639832 3.4617524147 5.4022998810 3.7445204258
 3486.5036621  -999.250000 12.203800201 12.250000954 37055.878906 -0.000097756  -999.250000  -999.250000 0.2142995298 2.5957999229 3.6770999432 38.963100433  -999.250000 77.782951355 145.45449829 3.4318983555 5.2673001289 3.6947693825
 3486.6562500  -999.250000 12.207300186 12.250000954 37055.878906 0.0013006401  -999.250000  -999.250000 0.2139878422 2.5952000618 3.6984000206 40.503200531  -999.250000 77.065040588 145.27270508 3.3683822155 5.1663999557 3.6130971909
