# LAS format log file from PETREL
# Project units are specified as depth units
#==================================================================
~Version information
VERS.   2.0:
WRAP.   NO:
#==================================================================
~Well
STRT .m      818.46392822 :
STOP .m      2256.5109863 :
STEP .m     0.00000000 :
NULL .        -999.250000 :
COMP.           : COMPANY
WELL.  34/10-7   : WELL
FLD.            : FIELD
LOC.            : LOCATION
SRVC.           : SERVICE COMPANY
DATE.  2018-09-11 14:48:47   : Log Export Date {yyyy-MM-dd HH:mm:ss}
PROV.           : PROVINCE
UWI.   34/10-7   : UNIQUE WELL ID
API.            : API NUMBER
#==================================================================
~Curve
DEPT .m                   : DEPTH
Lithology_geolink ._      : Lithology_geolink
CALI .in                  : CALI
DRHO .g/cm3               : DRHO
NPHI .m3/m3               : NPHI
RHOB .g/cm3               : RHOB
GR .gAPI                  : GR
DTC .us/ft                : DTC
RDEP .ohm.m               : RDEP
SP .mV                    : SP
RSHA .ohm.m               : RSHA
RMED .ohm.m               : RMED
~Parameter
#==================================================================
~Ascii
# ...
 1292.5805664  -999.250000 17.500000000 -0.021000000  -999.250000 2.0550000668 25.076948166 135.00640869 0.7439951897 56.900001526 0.6889807582 0.6889807582
 1292.7329102  -999.250000 17.452999115 -0.015000000  -999.250000 2.0820000172 23.754253387 134.12850952 0.7469903827 56.650402069 0.6939839721 0.6939839721
 1292.8852539  -999.250000 17.483999252 -0.020000000  -999.250000 2.0739998817 22.379407883 133.50250244 0.7529807687 56.400600433 0.6999807358 0.6999807358
 1293.0377197  -999.250000 17.781000137 -0.017000001  -999.250000 2.0720000267 22.951148987 132.50399780 0.7599775791 57.398399353 0.7069776058 0.7069776058
 1293.1900635  -999.250000 17.891000748 -0.017999999  -999.250000 2.0610001087 24.433240891 132.37550354 0.7669776082 57.400001526 0.7109872103 0.7109872103
 1293.3425293  -999.250000 17.922000885 -0.017000001  -999.250000 2.0610001087 26.775367737 132.12600708 0.7719879746 58.148799896 0.7090048194 0.7090048194
 1293.4948730  -999.250000 17.843999863 -0.023000000  -999.250000 2.0590000153 30.939638138 131.37800598 0.7769839764 58.150001526 0.7060095668 0.7060095668
 1293.6473389  -999.250000 17.858999252 -0.017999999  -999.250000 2.0659999847 32.371582031 132.12199402 0.7789951563 57.900402069 0.7079951763 0.7079951763
 1293.7996826  -999.250000 17.781000137 -0.021000000  -999.250000 2.0739998817 31.347301483 131.75149536 0.7809936404 57.650600433 0.7129839659 0.7129839659
 1293.9521484  -999.250000 17.625000000 -0.017000001  -999.250000 2.0799999237 27.509241104 131.50100708 0.7839927673 57.150802612 0.7179879546 0.7179879546
 1294.1044922  -999.250000 17.547000885 -0.021000000  -999.250000 2.0780000687 26.768350601 131.37550354 0.7869904041 56.651203156 0.7199936509 0.7199936509
 1294.2569580  -999.250000 17.437999725 -0.018999999  -999.250000 2.0780000687 25.939990997 131.74879456 0.7899928093 57.149200439 0.7219951749 0.7219951749
 1294.4093018  -999.250000 17.391000748 -0.026000001  -999.250000 2.0739998817 25.688800812 131.50100708 0.7949839830 56.651203156 0.7249904275 0.7249904275
 1294.5617676  -999.250000 17.358999252 -0.028000001  -999.250000 2.0780000687 23.613996506 131.12620544 0.8019831777 56.650001526 0.7349759936 0.7349759936
 1294.7141113  -999.250000 17.266000748 -0.026000001  -999.250000 2.0799999237 23.982797623 130.12899780 0.8119679689 57.648399353 0.7449679971 0.7449679971
 1294.8664551  -999.250000 17.125000000 -0.027000001  -999.250000 2.0899999142 25.184141159 129.12901306 0.8239615560 56.403003693 0.7469935417 0.7469935417
 1295.0189209  -999.250000 17.156000137 -0.024000000  -999.250000 2.1050000191 24.128404617 128.12899780 0.8399487138 56.150402069 0.7569680214 0.7569680214
 1295.1712646  -999.250000 17.172000885 -0.028000001  -999.250000 2.1210000515 23.191003799 126.19576263 0.8549519181 56.399402618 0.7639775872 0.7639775872
 1295.3237305  -999.250000 17.172000885 -0.024000000  -999.250000 2.1189999580 24.230649948 125.19200134 0.8649680018 56.649600983 0.7769584060 0.7769584060
 1295.4760742  -999.250000 17.125000000 -0.024000000  -999.250000 2.1089999676 27.614131927 124.56550598 0.8729743958 56.650001526 0.7720160484 0.7720160484
 1295.6285400  -999.250000 17.218999863 -0.011000000  -999.250000 2.1150000095 31.662273407 122.19750977 0.8809807301 58.147598267 0.7819759846 0.7819759846
 1295.7808838  -999.250000 17.327999115 -0.003000000  -999.250000 2.1189999580 33.089447021 121.00476074 0.8879776001 58.399402618 0.7889775634 0.7889775634
 1295.9333496  -999.250000 17.781000137 0.0000000000  -999.250000 2.1050000191 34.933567047 117.20326233 0.8899951577 58.899200439 0.8069567084 0.8069567084
 1296.0856934  -999.250000 18.156000137 -0.007000000  -999.250000 2.0820000172 37.117996216 116.19200897 0.8909967542 58.900001526 0.8129808307 0.8129808307
 1296.2381592  -999.250000 18.375000000 -0.012000000  -999.250000 2.0610001087 36.470577240 119.98474121 0.8870096207 58.900001526 0.7900553346 0.7900553346
 1296.3905029  -999.250000 18.437999725 -0.009000000  -999.250000 2.0610001087 36.967399597 126.16321564 0.8760352135 58.401203156 0.7491313219 0.7491313219
 1296.5429688  -999.250000 18.343999863 -0.003000000  -999.250000 2.0629999638 33.477416992 126.56180573 0.8620336652 58.400001526 0.7260553241 0.7260553241
 1296.6953125  -999.250000 17.891000748 -0.001000000  -999.250000 2.0629999638 32.316703796 129.48823547 0.8400704265 58.649600983 0.7319808006 0.7319808006
 1296.8476563  -999.250000 17.531000137 -0.005000000  -999.250000 2.0469999313 27.578224182 130.99398804 0.8150801063 58.650001526 0.7459551096 0.7459551096
 1297.0001221  -999.250000 17.500000000 -0.016000001  -999.250000 2.0409998894 25.412908554 125.58477020 0.7970576286 57.152404785 0.7459999919 0.7459999919
 1297.1524658  -999.250000 17.531000137 -0.015000000  -999.250000 2.0510001183 24.829851151 125.56300354 0.7860352993 56.651203156 0.7350353003 0.7350353003
 1297.3049316  -999.250000 17.562999725 -0.014000000  -999.250000 2.0680000782 27.242242813 128.48823547 0.7780256271 57.149200439 0.7240352035 0.7240352035
 1297.4572754  -999.250000 17.531000137 -0.009000000  -999.250000 2.0820000172 28.714290619 126.01001740 0.7700256109 57.898200989 0.7220064402 0.7220064402
 1297.6097412  -999.250000 17.531000137 -0.011000000  -999.250000 2.0739998817 29.700634003 129.73498535 0.7630168200 58.399200439 0.7229976058 0.7229976058
 1297.7620850  -999.250000 17.516000748 -0.011000000  -999.250000 2.0639998913 27.320653915 130.74598694 0.7550256252 58.649402618 0.7239967585 0.7239967585
 1297.9145508  -999.250000 17.577999115 -0.013000000  -999.250000 2.0610001087 26.330366135 132.99099731 0.7480168343 58.400402069 0.7220048308 0.7220048308
 1298.0668945  -999.250000 12.484000206 -0.006000000  -999.250000 2.0659999847 23.960605621 133.37350464 0.7390288711 58.150600433 0.7190095782 0.7190095782
 1298.2193604  -999.250000 9.4379997253 0.0030000000  -999.250000 2.0759999752 24.856821060 135.49148560 0.7310192585 57.650802612 0.7040360570 0.7040360570
 1298.3717041  -999.250000 9.2889995575 0.0140000004  -999.250000 2.0739998817 22.476654053 136.74499512 0.7240223885 56.901802063 0.6920384169 0.6920384169
 1298.5241699  -999.250000 10.203000069 0.0070000002  -999.250000 2.0590000153 21.393592834 136.99919128 0.7160192728 55.901603699 0.6780336499 0.6780336499
 1298.6765137  -999.250000 10.852000237 0.0060000001  -999.250000 2.0590000153 20.425104141 137.99600220 0.7090224028 56.399200439 0.6720191836 0.6720191836
 1298.8289795  -999.250000 11.313000679 -0.009000000  -999.250000 2.0390000343 21.278934479 138.49839783 0.7020168304 56.649600983 0.6670120358 0.6670120358
 1298.9813232  -999.250000 12.875000000 -0.006000000  -999.250000 2.0429999828 22.246896744 138.74899292 0.6950224042 56.400402069 0.6650063992 0.6650063992
 1299.1336670  -999.250000 14.234000206 -0.008000000  -999.250000 2.0429999828 22.686595917 139.37249756 0.6900160313 56.150600433 0.6630064249 0.6630064249
 1299.2861328  -999.250000 15.703000069 0.0030000000  -999.250000 2.0659999847 22.329151154 139.12600708 0.6880064011 56.150001526 0.6620032191 0.6620032191
 1299.4384766  -999.250000 16.875000000 0.0000000000  -999.250000 2.0699999332 21.440853119 139.37399292 0.6860064268 55.651203156 0.6590095758 0.6590095758
 1299.5909424  -999.250000 17.156000137 -0.007000000  -999.250000 2.0610001087 22.061496735 139.12600708 0.6840048432 56.398799896 0.6570048332 0.6570048332
 1299.7432861  -999.250000 17.391000748 -0.007000000  -999.250000 2.0569999218 22.888349533 139.00050354 0.6840000153 57.646999359 0.6520160437 0.6520160437
 1299.8957520  -999.250000 17.625000000 -0.005000000  -999.250000 2.0569999218 24.714605331 139.99600220 0.6840000153 57.650001526 0.6500048041 0.6500048041
 1300.0480957  -999.250000 17.733999252 0.0040000002  -999.250000 2.0590000153 24.157802582 140.74699402 0.6840000153 57.650001526 0.6519936323 0.6519936323
 1300.2005615  -999.250000 17.733999252 0.0000000000  -999.250000 2.0450000763 25.106708527 141.37249756 0.6830024123 58.149200439 0.6609783769 0.6609783769
