# LAS format log file from PETREL
# Project units are specified as depth units
#==================================================================
~Version information
VERS.   2.0:
WRAP.   NO:
#==================================================================
~Well
STRT .m      3166.7685547 :
STOP .m      4692.7500000 :
STEP .m     0.00000000 :
NULL .        -999.250000 :
COMP.           : COMPANY
WELL.  34/12-1   : WELL
FLD.            : FIELD
LOC.            : LOCATION
SRVC.           : SERVICE COMPANY
DATE.  2018-09-11 14:48:48   : Log Export Date {yyyy-MM-dd HH:mm:ss}
PROV.           : PROVINCE
UWI.   34/12-1   : UNIQUE WELL ID
API.            : API NUMBER
#==================================================================
~Curve
DEPT .m                   : DEPTH
Lithology_geolink ._      : Lithology_geolink
CALI .in                  : CALI
BS .in                    : BS
ROP .m/h                  : ROP
DRHO .g/cm3               : DRHO
THOR .ppm                 : THOR
SGR .gAPI                 : SGR
NPHI .m3/m3               : NPHI
RHOB .g/cm3               : RHOB
PEF .b/e                  : PEF
GR .gAPI                  : GR
URAN .ppm                 : URAN
DTC .us/ft                : DTC
DTS .us/ft                : DTS
RDEP .ohm.m               : RDEP
RSHA .ohm.m               : RSHA
RMED .ohm.m               : RMED
~Parameter
#==================================================================
~Ascii
# ...
 4686.9589844 2.0000000000 6.3123998642 6.4999995232 11179.920898 -0.013383974 5.4653000832 0.0113942306 0.2053852677 2.3507902622 4.9971675873  -999.250000 1.3482999802  -999.250000 140.42610168 2.7412803173 3.5823788643 3.0347163677
 4687.1113281 2.0000000000 6.3052000999 6.4999995232 11240.291016 -0.008397756 5.1065001488 0.0104916664 0.2007564157 2.3789892197 4.7990603447  -999.250000 1.1748000383  -999.250000 142.72982788 2.5472819805 3.1695096493 2.7583220005
 4687.2636719 2.0000000000 6.4239001274 6.4999995232 18296.601563 -0.007685256 4.5612001419 0.0092089744 0.1871826947 2.4068412781 4.3190774918  -999.250000 1.0295000076  -999.250000 143.86112976 2.1363985538 2.5491147041 2.2663152218
 4687.4160156 2.0000000000 6.4184999466 6.4999995232 18061.546875 -0.003089423 5.2241001129 0.0106057692 0.1817672998 2.4508442879 3.9690749645  -999.250000 0.9581000209  -999.250000 144.30619812 1.8243465424 2.1174159050 1.8971589804
 4687.5683594 2.0000000000 6.4400000572 6.4999995232 18394.560547 0.0001923077 5.3866000175 0.0115057696 0.1715711504 2.4645583630 3.6822772026  -999.250000 0.9801000357  -999.250000 143.90229797 1.6210006475 1.8415999413 1.6665730476
 4687.7207031 2.0000000000 6.4130997658 6.4999995232 18237.240234 -0.002214744 5.6469998360 0.0123968059 0.1626124978 2.4515395164 3.9555256367  -999.250000 1.0340000391  -999.250000 142.28050232 1.5906049013 1.8141000271 1.6275413036
 4687.8730469 2.0000000000 6.4274997711 6.4999995232 23049.720703 -0.006791026 5.5539999008 0.0118983975 0.1665288508 2.4327056408 4.0874371529  -999.250000 1.0345000029  -999.250000 140.61610413 1.7489377260 1.9242000580 1.7661604881
 4688.0258789 2.0000000000 6.3914999962 6.4999995232 23393.005859 -0.004000000 5.5177998543 0.0113955131 0.1755410284 2.4345185757 3.9428896904  -999.250000 1.0432000160  -999.250000 139.43612671 2.1672525406 2.0945725441 2.1917469501
 4688.1782227 2.0000000000 6.3860998154 6.4999995232 20657.878906 -0.004014696 5.1792001724 0.0106948726 0.1819504797 2.4373464584 3.8640384674  -999.250000 1.1402000189  -999.250000 137.88562012 2.5203087330 2.6168038845 2.5751917362
 4688.3305664 2.0000000000 6.3860998154 6.4999995232 20696.857422 -0.006307052 5.7206997871 0.0098999999 0.1897714734 2.4289383888 3.9018697739  -999.250000 1.0880999565  -999.250000 136.86123657 3.1308429241 3.2729823589 3.2299237251
 4688.4829102 2.0000000000 6.4022998810 6.4999995232 32786.105469 -0.008503205 5.5458002090 0.0098999999 0.1808746755 2.4097709656 4.1412839890  -999.250000 1.0719000101  -999.250000 134.87855530 3.9844346046 3.8585462570 4.1398010254
 4688.6352539 2.0000000000 6.3914999962 6.4999995232 22419.259766 -0.009494872 5.2835998535 0.0098980768  -999.250000 2.4007389545 4.1365461349  -999.250000 1.2065999508  -999.250000 133.77713013 4.1503305435 3.9035687447 4.3263201714
 4688.7875977 2.0000000000 6.4130997658 6.4999995232 18569.519531 -0.007891025 5.4920001030 0.0096096154  -999.250000 2.4128568172 4.2126336098  -999.250000 1.2747000456  -999.250000 133.94389343 4.0337748528 3.7690000534 4.2064723969
 4688.9399414 2.0000000000 6.3646001816 6.4999995232 19244.878906 -0.005107372 6.0405998230 0.0111019164  -999.250000 2.4304826260 4.0978899002  -999.250000 1.4184999466  -999.250000 134.61509705 3.5253918171 3.6898000240 3.6659634113
 4689.0922852 2.0000000000 6.4274997711 6.4999995232 16882.919922 -0.007404487 6.1861000061 0.0114000002  -999.250000 2.4250504971 3.8452894688  -999.250000 1.4660999775  -999.250000 135.49609375 2.5883805752 2.9453999996 2.6577997208
 4689.2446289 2.0000000000 6.4400000572 6.4999995232 17303.759766 -0.008798718 6.3880000114 0.0113971159  -999.250000 2.4096226692 3.6244390011  -999.250000 1.3876999617  -999.250000 135.94389343 2.1154618263 2.3322000504 2.1597509384
 4689.3974609 2.0000000000 6.3860998154 6.4999995232 17380.890625 -0.008405769 5.9162998199 0.0104980767  -999.250000 2.4168286324 3.6695027351  -999.250000 1.2503999472  -999.250000 136.30570984 2.0120248795 2.2486846447 2.0529108047
 4689.5498047 2.0000000000 6.3914999962 6.4999995232 17304.261719 -0.009292332 6.0816001892 0.0102012828  -999.250000 2.4369661808 3.9488334656  -999.250000 1.1179000139  -999.250000 135.74822998 2.2795400620 2.3694224358 2.3183529377
 4689.7021484 2.0000000000 6.3484005928 6.4999995232 19481.455078 -0.008098077 6.1494998932 0.0104019232  -999.250000 2.4627821445 3.9382634163  -999.250000 1.3186999559  -999.250000 135.63491821 2.3019294739 2.7201583385 2.3583850861
 4689.8544922 2.0000000000 6.3646001816 6.4999995232 21289.814453 -0.007505128 6.4333000183 0.0107057700  -999.250000 2.4571256638 3.8646006584  -999.250000 1.4285000563  -999.250000 135.17926025 2.4971451759 3.2355825901 2.5708656311
 4690.0068359 2.0000000000 6.3322005272 6.4999995232 21221.962891 -0.009104808 6.0359001160 0.0115980767  -999.250000 2.4339165688 3.8347275257  -999.250000 1.4809999466  -999.250000 136.47560120 2.3250014782 3.1361989975 2.4051256180
 4690.1591797 2.0000000000 6.3592000008 6.4999995232 21772.080078 -0.010608013 5.8252000809 0.0112961540  -999.250000 2.4080371857 4.1552395821  -999.250000 1.3631999493  -999.250000 136.72729492 2.4497194290 2.9175000191 2.5373349190
 4690.3115234 2.0000000000 6.3429999352 6.4999995232 21693.599609 -0.013080449 5.8182001114 0.0107031949  -999.250000 2.4198346138 4.4476642609  -999.250000 1.1462999582  -999.250000 133.95950317 2.3935444355 2.7920999527 2.4859387875
 4690.4638672 2.0000000000 6.3484005928 6.4999995232 20507.041016 -0.006988141 5.2786998749 0.0111980764  -999.250000 2.4931063652 4.5296478271  -999.250000 1.0479999781  -999.250000 130.99429321 2.3773586750 2.7711999416 2.4681658745
 4690.6166992 2.0000000000 6.3159995079 6.4999995232 19918.882813 -0.003288462 5.6708998680 0.0106012821  -999.250000 2.5888748169 4.4835977554  -999.250000 1.0484000444  -999.250000 129.62037659 2.7073242664 2.9181764126 2.8626904488
 4690.7690430 2.0000000000 6.3214001656 6.4999995232 20283.267578 -0.001521725 5.6612000465 0.0108012827  -999.250000 2.6625676155 4.6877799034  -999.250000 1.2081999779  -999.250000 128.84111023 2.8210632801 3.2847616673 3.0025165081
 4690.9213867 2.0000000000 6.2692999840 6.4999995232 21111.269531 -0.004904808 5.7375998497 0.0109993592  -999.250000 2.6731154919 5.1512289047  -999.250000 1.5556999445  -999.250000 129.34759521 3.0482223034 3.5215117931 3.2846903801
 4691.0737305 2.0000000000 6.2729001045 6.4999995232 20576.412109 -0.006397436 5.7374000549 0.0109044872  -999.250000 2.6779029369 5.1940455437  -999.250000 1.7189999819  -999.250000 130.99703979 2.9309933186 3.4627139568 3.1885945797
 4691.2260742 2.0000000000 6.2404999733 6.4999995232 13922.834961 -0.005590064 5.4934000969 0.0115987174  -999.250000 2.6787724495 6.0514826775  -999.250000 1.8633999825  -999.250000 132.50549316 2.9919750690 3.3734419346 3.2504122257
 4691.3784180 2.0000000000 6.2534999847 6.4999995232 9708.7197266 -0.002507692 5.4098000526 0.0114044873  -999.250000 2.6701514721 7.1669569016  -999.250000 1.7095999718  -999.250000 133.34265137 3.2622358799 3.2943191528 3.6562108994
 4691.5307617 2.0000000000 6.2351994514 6.4999995232 73244.164063 -0.004888461 5.4373002052 0.0120993610  -999.250000 2.6550111771 7.5572857857  -999.250000 1.7996000051  -999.250000 133.45449829 2.6838765144 3.6435000896 2.9459056854
 4691.6831055 2.0000000000 6.2491998672 6.4999995232 530372.87500 -0.001301923 5.7090997696 0.0120012825  -999.250000 2.6585206985 7.3674035072  -999.250000 1.8329999447  -999.250000 132.83949280 3.1147537231 5.3196997643 3.4486963749
 4691.8354492 2.0000000000 6.2459001541 6.4999995232 366010.93750 -0.001925000 5.4643001556 0.0123958336  -999.250000 2.6649425030 7.7154059410  -999.250000 1.8400000334  -999.250000 132.11219788 3.9724526405 8.6760997772 4.5065803528
 4691.9882813 2.0000000000 6.2244000435 6.4999995232 267521.21875 -0.009712822 5.0130000114 0.0110910255  -999.250000 2.6470551491 9.2487888336  -999.250000 1.8942999840  -999.250000  -999.250000 4.3652267456 16.701631546 5.0332489014
 4692.1406250 2.0000000000 6.1866002083 6.4999995232 44882.597656 -0.011689776 4.5082998276 0.0096967956  -999.250000 2.6401414871 10.426362038  -999.250000 1.9407000542  -999.250000  -999.250000 4.8724751472 15.219170570 5.6698832512
