# LAS format log file from PETREL
# Project units are specified as depth units
#==================================================================
~Version information
VERS.   2.0:
WRAP.   NO:
#==================================================================
~Well
STRT .m      586.57812500 :
STOP .m      4014.2067871 :
STEP .m     0.00000000 :
NULL .        -999.250000 :
COMP.           : COMPANY
WELL.  34/10-21   : WELL
FLD.            : FIELD
LOC.            : LOCATION
SRVC.           : SERVICE COMPANY
DATE.  2018-09-11 14:48:44   : Log Export Date {yyyy-MM-dd HH:mm:ss}
PROV.           : PROVINCE
UWI.   34/10-21   : UNIQUE WELL ID
API.            : API NUMBER
#==================================================================
~Curve
DEPT .m                   : DEPTH
Lithology_geolink ._      : Lithology_geolink
CALI .in                  : CALI
DRHO .g/cm3               : DRHO
NPHI .m3/m3               : NPHI
RHOB .g/cm3               : RHOB
PEF .b/e                  : PEF
GR .gAPI                  : GR
DTC .us/ft                : DTC
RDEP .ohm.m               : RDEP
SP .mV                    : SP
RSHA .ohm.m               : RSHA
RMED .ohm.m               : RMED
~Parameter
#==================================================================
~Ascii
# ...
 2415.3781738  -999.250000 17.805000305 -0.006003200 0.3944042027 1.8740447760 11.104000092 48.750000000 113.49700165 1.0360000134 19.375000000 0.4050336480 1.0130208731
 2415.5307617  -999.250000 18.319999695 -0.008995192 0.3920075893 1.8849823475 9.3889999390 47.937999725 113.62500000 1.0240000486 19.625000000 0.3070000112 0.9879999757
 2415.6831055  -999.250000 17.742000580 -0.011995193 0.3945717514 1.9209423065 11.928999901 48.405998230 114.62339783 1.0169999599 19.625000000 0.3319599926 0.9720255733
 2415.8354492  -999.250000 16.648000717 -0.012998397 0.4046476185 1.9279887676 20.420000076 49.890998840 114.74980164 1.0069999695 19.750000000 0.3919038475 0.9729983807
 2415.9877930  -999.250000 16.399000168 -0.015990401 0.3995265663 1.8522431850 31.531000137 49.653999329 113.50200653 1.0000000000 20.250000000 0.3979903758 0.9839823842
 2416.1403809  -999.250000 16.851999283 -0.021990385 0.4020958543 1.7701313496 31.382999420 46.484001160 115.37500000 1.0089999437 20.500000000 0.3409999907 1.0130000114
 2416.2927246  -999.250000 16.483999252 -0.024995193 0.4061470032 1.7550240755 20.722000122 45.922000885 118.50000000 1.0390000343 20.750000000 0.2709999979 1.0279999971
 2416.4450684  -999.250000 16.148000717 -0.024001602 0.4221585691 1.8208942413 14.552000046 47.890998840 119.12400055 1.0670000315 21.000000000 0.2670063972 1.0210112333
 2416.5974121  -999.250000 15.783999443 -0.018019199 0.4127105772 1.9127055407 12.821999550 51.082000732 117.25101471 1.0800000429 20.875000000 0.4546987414 1.0229967833
 2416.7500000  -999.250000 15.479999542 -0.012009615 0.3829377592 1.9379599094 14.446000099 52.077999115 111.37500000 1.0659999847 20.625000000 0.5379999876 1.0440000296
 2416.9023438  -999.250000 15.961001396 -0.012000000 0.3595748544 1.9020576477 17.535999298 51.875000000 107.12500000 1.0410000086 20.500000000 0.4480000138 1.0859999657
 2417.0546875  -999.250000 16.430000305 -0.009004807 0.3595498800 1.8690528870 19.437999725 53.609001160 106.75059509 1.0429999828 20.250000000 0.3791103959 1.1149536371
 2417.2070313  -999.250000 17.243999481 -0.007003205 0.3814595342 1.8839758635 18.041999817 53.263999939 106.75199890 1.0629999638 19.750000000 0.3021233976 1.1080112457
 2417.3593750  -999.250000 17.312000275 -0.000022400 0.3916574121 1.9099167585 14.973999977 53.282001495 110.99917603 1.0629999638 19.750000000 0.3459294736 1.0820417404
 2417.5119629  -999.250000 17.663999557 0.0039935899 0.3936636448 1.9129952192 13.699999809 53.969001770 115.37500000 1.0609999895 20.125000000 0.3779999912 1.0410000086
 2417.6643066  -999.250000 18.055000305 0.0010048078 0.3938195109 1.9080079794 12.586000443 55.030998230 115.12539673 1.0570000410 20.125000000 0.3180959821 1.0040591955
 2417.8166504  -999.250000 17.117000580 0.0000016026 0.4108651876 1.9119935036 13.579999924 55.172000885 114.87540436 1.0230000019 20.250000000 0.3189983964 0.9870272279
 2417.9689941  -999.250000 17.118000031 0.0009968000 0.4266793430 1.9419040680 15.274000168 54.437999725 114.12420654 0.9879999757 20.250000000 0.3639278710 0.9959855676
 2418.1215820  -999.250000 17.163999557 0.0039951927 0.4266301394 1.9749470949 14.951999664 53.202999115 112.75000000 0.9769999981 20.000000000 0.3700000048 0.9990000129
 2418.2739258  -999.250000 16.632999420 0.0089919865 0.4191739261 2.0219247341 10.710000038 50.750000000 113.12500763 0.9750000238 20.000000000 0.4329999983 0.9950000048
 2418.4262695  -999.250000 15.895000458 0.0109967953 0.4208545089 2.0529503822 9.0769996643 47.672000885 114.12339783 0.9760000110 20.125000000 0.5138704181 1.0099760294
 2418.5786133  -999.250000 15.057999611 0.0050192000 0.4261031151 2.0260863304 10.609999657 47.348999023 112.74621582 0.9769999981 20.125000000 0.5749022365 1.0179871321
 2418.7312012  -999.250000 15.149000168 -0.002987179 0.4349358380 1.9700897932 12.907999992 49.077999115 110.75000000 0.9769999981 20.125000000 0.4709999859 1.0180000067
 2418.8835449  -999.250000 16.148000717 -0.008990385 0.4372625947 1.9440417290 13.298999786 51.625000000 111.74999237 0.9819999933 20.375000000 0.3950000107 1.0089999437
 2419.0358887  -999.250000 17.218999863 -0.003009615 0.4174836278 1.9749503136 11.034999847 54.484001160 112.37400055 0.9900000095 20.250000000 0.4139696062 1.0189840794
 2419.1882324  -999.250000 16.898000717 0.0009935898 0.3856422007 2.0009582043 10.119000435 56.155998230 112.49980164 0.9990000129 20.250000000 0.4629214704 1.0259888172
 2419.3408203  -999.250000 16.562999725 0.0000016000 0.3808574975 2.0199694633 8.9460000992 57.217998505 112.37400055 1.0049999952 20.500000000 0.4230000079 1.0290000439
 2419.4931641  -999.250000 16.141000748 -0.001996795 0.3972473741 2.0639293194 7.3410000801 55.359001160 111.50000000 1.0119999647 20.500000000 0.3240000010 1.0349999666
 2419.6455078  -999.250000 15.491999626 -0.002998397 0.3955855072 2.1388797760 5.8090000153 52.984001160 111.74959564 1.0240000486 20.625000000 0.4368191957 1.0310064554
 2419.7978516  -999.250000 15.866999626 -0.000004808 0.3794020116 2.2068910599 5.3959999084 51.530998230 112.24919891 1.0420000553 20.625000000 0.5617996454 1.0369902849
 2419.9501953  -999.250000 14.930000305 0.0039872001 0.3823104799 2.2369039059 5.4109997749 52.145000458 111.37340546 1.0579999685 20.500000000 0.5649951696 1.0599631071
 2420.1027832  -999.250000 14.152999878 0.0149823716 0.4200893641 2.2549712658 5.8559999466 52.921001434 110.37500000 1.0690000057 20.250000000 0.6570000052 1.1000000238
 2420.2551270  -999.250000 15.015999794 0.0359663442 0.4248748124 2.2789616585 6.0050001144 52.047000885 109.75099945 1.0880000591 20.250000000 0.7718160152 1.1249599457
 2420.4074707  -999.250000 15.777001381 0.0519743599 0.4005482793 2.2919793129 6.1700000763 50.500000000 109.37561035 1.1080000401 20.250000000 0.8129343390 1.1439696550
 2420.5598145  -999.250000 15.918000221 0.0569919869 0.3824977875 2.2920000553 5.9670000076 49.908000946 110.25059509 1.1180000305 20.000000000 0.8409551382 1.1529855728
 2420.7124023  -999.250000 15.026000023 0.0439999998 0.3929131925 2.2739999294 5.8289999962 51.015998840 110.37400055 1.1280000210 19.750000000 0.7910000086 1.1579999924
 2420.8647461  -999.250000 14.175998688 0.0329999998 0.4021503925 2.2620000839 5.6999998093 53.094001770 110.37500000 1.1289999485 19.750000000 0.7960000038 1.1569999456
 2421.0170898  -999.250000 14.125000000 0.0280080009 0.3815463185 2.2590048313 5.4730000496 55.405998230 110.62461090 1.1169999838 19.875000000 0.7979967594 1.1589968204
 2421.1694336  -999.250000 14.055000305 0.0280000009 0.3626206517 2.2629935741 5.4409999847 56.280998230 109.75140381 1.1069999933 19.500000000 0.7770336866 1.1619951725
 2421.3220215  -999.250000 14.771999359 0.0340000018 0.3614518046 2.2790000439 5.3020000458 54.463001251 109.24999237 1.1000000238 19.625999451 0.8780000210 1.1560000181
 2421.4743652  -999.250000 14.916999817 0.0260000005 0.3777177930 2.2839999199 5.6009998322 53.173000336 110.62699890 1.0959999561 19.624000549 0.9100000262 1.1369999647
 2421.6267090  -999.250000 14.288999557 0.0140192006 0.3900405467 2.2919871807 6.4380002022 52.500000000 115.86660004 1.0870000124 19.500000000 0.7871968150 1.1160336733
 2421.7790527  -999.250000 14.293000221 0.0070112180 0.4000280201 2.3259453773 7.9149999619 50.562999725 117.37259674 1.0789999962 19.875000000 0.7690288424 1.1100096703
 2421.9313965  -999.250000 14.595000267 0.0050032050 0.3950660825 2.3729245663 8.2709999084 48.715000153 116.00519562 1.0670000315 19.497999191 0.9666826725 1.1239775419
 2422.0839844  -999.250000 14.937999725 0.0240000002 0.3868164420 2.4040000439 7.5780000687 48.438999176 116.24900055 1.0579999685 19.000000000 1.0540000200 1.1410000324
 2422.2363281  -999.250000 14.895000458 0.0579455979 0.3811979592 2.4000065327 7.0209999084 51.687999725 112.38119507 1.0529999733 19.125000000 0.9192160368 1.1439952850
 2422.3886719  -999.250000 14.741999626 0.0779679492 0.3888852298 2.3780353069 6.6810002327 55.155998230 109.37981415 1.0429999828 19.500000000 0.8620913625 1.1280256510
 2422.5410156  -999.250000 14.463999748 0.0610272437 0.3999345899 2.3280801773 6.8449997902 59.801998138 109.87519836 1.0269999504 20.000000000 0.8729823828 1.1140223742
