# LAS format log file from PETREL
# Project units are specified as depth units
#==================================================================
~Version information
VERS.   2.0:
WRAP.   NO:
#==================================================================
~Well
STRT .m      818.46392822 :
STOP .m      2256.5109863 :
STEP .m     0.00000000 :
NULL .        -999.250000 :
COMP.           : COMPANY
WELL.  34/10-7   : WELL
FLD.            : FIELD
LOC.            : LOCATION
SRVC.           : SERVICE COMPANY
DATE.  2018-09-11 14:48:47   : Log Export Date {yyyy-MM-dd HH:mm:ss}
PROV.           : PROVINCE
UWI.   34/10-7   : UNIQUE WELL ID
API.            : API NUMBER
#==================================================================
~Curve
DEPT .m                   : DEPTH
Lithology_geolink ._      : Lithology_geolink
CALI .in                  : CALI
DRHO .g/cm3               : DRHO
NPHI .m3/m3               : NPHI
RHOB .g/cm3               : RHOB
GR .gAPI                  : GR
DTC .us/ft                : DTC
RDEP .ohm.m               : RDEP
SP .mV                    : SP
RSHA .ohm.m               : RSHA
RMED .ohm.m               : RMED
~Parameter
#==================================================================
~Ascii
# ...
 1012.7739868  -999.250000 18.547000885 -0.009000000  -999.250000 1.8899999857 45.254592896 163.74836731 1.0978999138 52.524650574 0.9030039907 0.9030039907
 1012.9263916  -999.250000 17.781000137 -0.005000000  -999.250000 1.8719999790 42.386638641 163.37664795 1.1368438005 52.400352478 0.9368638396 0.9368638396
 1013.0787964  -999.250000 17.562999725 -0.008000000  -999.250000 1.8370000124 42.654872894 153.04570007 1.1957637072 54.394393921 1.0336115360 1.0336115360
 1013.2312012  -999.250000 17.733999252 -0.014000000  -999.250000 1.8020000458 42.314373016 149.76431274 1.2448037863 53.652103424 1.1475434303 1.1475434303
 1013.3836060  -999.250000 17.827999115 -0.016000001  -999.250000 1.7910000086 48.195350647 149.75000000 1.3037637472 54.148601532 1.1758878231 1.1758878231
 1013.5360107  -999.250000 17.672000885 -0.005000000  -999.250000 1.7979999781 47.627140045 157.34140015 1.3717547655 53.651401520 1.1630468369 1.1630468369
 1013.6884155  -999.250000 18.625000000 -0.011000000  -999.250000 1.7840000391 46.971366882 155.50825500 1.4028882980 52.902103424 1.1610071659 1.1610071659
 1013.8408203  -999.250000 17.891000748 -0.011000000  -999.250000 1.7920000553 40.647865295 155.99778748 1.3820756674 53.647899628 1.1610000134 1.1610000134
 1013.9932251  -999.250000 17.843999863 -0.024000000  -999.250000 1.7829999924 40.749549866 156.99598694 1.3212198019 52.652805328 1.1580108404 1.1580108404
 1014.1455688  -999.250000 17.906000137 -0.020000000  -999.250000 1.8029999733 36.143520355 157.37333679 1.2472963333 52.650001526 1.1191561222 1.1191561222
 1014.2979736  -999.250000 17.937999725 -0.023000000  -999.250000 1.8099999428 37.743492126 154.13931274 1.1842522621 52.650001526 1.0194004774 1.0194004774
 1014.4503784  -999.250000 17.891000748 -0.021000000  -999.250000 1.8539999723 33.735145569 153.12940979 1.1242402792 52.899200439 0.9373283982 0.9373283982
 1014.6027832  -999.250000 18.156000137 -0.026000001  -999.250000 1.9110000134 33.314624786 152.37829590 1.0761922598 54.395195007 0.8921802640 0.8921802640
 1014.7551880  -999.250000 18.593999863 -0.026000001  -999.250000 1.9750000238 30.417642593 150.38380432 1.0222162008 52.654911041 0.8750680685 0.8750680685
 1014.9075928  -999.250000 18.281000137 -0.029999999  -999.250000 1.9960000515 27.542514801 152.11729431 0.9751882553 52.151401520 0.8590641022 0.8590641022
 1015.0599976  -999.250000 17.983999252 -0.028000001  -999.250000 2.0020000935 28.714242935 153.49392700 0.9401401877 51.651401520 0.8400760889 0.8400760889
 1015.2124023  -999.250000 17.952999115 -0.028999999  -999.250000 2.0079998970 32.235858917 151.50880432 0.9131081104 51.151401520 0.8330280185 0.8330280185
 1015.3648071  -999.250000 17.891000748 -0.020000000  -999.250000 2.0369999409 34.023864746 149.38435364 0.8950720429 50.152805328 0.8330000043 0.8330000043
 1015.5172119  -999.250000 17.906000137 -0.015000000  -999.250000 2.0569999218 31.183450699 147.38380432 0.8890240192 50.897899628 0.8369839787 0.8369839787
 1015.6696167  -999.250000 18.266000748 -0.011000000  -999.250000 2.0720000267 29.459197998 147.12609863 0.8880035877 50.152103424 0.8130865693 0.8130865693
 1015.8220215  -999.250000 18.702999115 -0.014000000  -999.250000 2.0629999638 28.113843918 146.37831116 0.8870036006 49.152805328 0.7920756936 0.7920756936
 1015.9744263  -999.250000 18.983999252 -0.022000000  -999.250000 2.0529999733 31.114130020 145.13050842 0.8850072026 48.651401520 0.7780504823 0.7780504823
 1016.1267700  -999.250000 19.406000137 -0.018999999  -999.250000 2.0450000763 30.518196106 145.74723816 0.8840035796 48.650001526 0.7710252404 0.7710252404
 1016.2791748  -999.250000 20.031000137 -0.025000000  -999.250000 2.0160000324 30.951423645 148.36343384 0.8820072412 48.650001526 0.7640252113 0.7640252113
 1016.4315796  -999.250000 20.437997818 -0.017999999  -999.250000 1.9709999561 28.010643005 149.74394226 0.8780144453 49.397598267 0.7400864959 0.7400864959
 1016.5839844  -999.250000 20.437997818 -0.015000000  -999.250000 1.9340000153 27.034492493 151.11894226 0.8760071993 49.400001526 0.7200720906 0.7200720906
 1016.7363892  -999.250000 20.437997818 -0.013000000  -999.250000 1.9119999409 28.386098862 154.11178589 0.8720144033 49.150802612 0.7040576935 0.7040576935
 1016.8887939  -999.250000 20.437997818 -0.021000000  -999.250000 1.8890000582 28.950973511 155.12059021 0.8680143952 50.147197723 0.7059927583 0.7059927583
 1017.0411987  -999.250000 20.437997818 -0.035000000  -999.250000 1.8420000076 30.214437485 153.13380432 0.8699927926 49.900703430 0.6990252137 0.6990252137
 1017.1936035  -999.250000 20.437997818 -0.045000002  -999.250000 1.8040000200 27.244758606 151.13380432 0.8729892373 48.902805328 0.7009927630 0.7009927630
 1017.3460083  -999.250000 20.437997818 -0.056000002  -999.250000 1.7719999552 26.596050262 149.50715637 0.8749935627 48.900001526 0.7049871683 0.7049871683
 1017.4984131  -999.250000 20.437997818 -0.071999997  -999.250000 1.7519999743 25.409807205 149.50000000 0.8759967685 49.648197174 0.7049999833 0.7049999833
 1017.6508179  -999.250000 20.437997818 -0.070000000  -999.250000 1.7469999790 28.085388184 150.99337769 0.8799871802 49.650001526 0.7159647942 0.7159647942
 1017.8032227  -999.250000 20.437997818 -0.068000004  -999.250000 1.7539999485 29.137645721 152.49339294 0.8790032268 50.148799896 0.7090224028 0.7090224028
 1017.9556274  -999.250000 20.437997818 -0.063000001  -999.250000 1.7599999905 29.997247696 153.37113953 0.8750128150 50.399402618 0.7099967599 0.7099967599
 1018.1080322  -999.250000 20.437997818 -0.081000000  -999.250000 1.7300000191 29.859451294 153.12609863 0.8660288453 50.150600433 0.7010288239 0.7010288239
 1018.2603760  -999.250000 20.437997818 -0.090000004  -999.250000 1.7039999962 28.925378799 152.75164795 0.8600216508 50.897899628 0.7069783807 0.7069783807
 1018.4127197  -999.250000 20.437997818 -0.092000000  -999.250000 1.6890000105 28.673002243 151.50601196 0.8540239930 50.900001526 0.7010239959 0.7010239959
 1018.5651245  -999.250000 20.437997818 -0.075000003  -999.250000 1.7039999962 28.360252380 151.37559509 0.8500160575 49.653507233 0.7029920220 0.7029920220
 1018.7175293  -999.250000 20.437997818 -0.082999997  -999.250000 1.6879999638 31.160736084 150.75300598 0.8470120430 49.650001526 0.6900520325 0.6900520325
 1018.8699341  -999.250000 20.437997818 -0.086000003  -999.250000 1.6809999943 31.903060913 151.74519348 0.8479959965 50.148601532 0.6730680466 0.6730680466
 1019.0223389  -999.250000 20.437997818 -0.098999999  -999.250000 1.6720000505 31.408002853 154.36238098 0.8509879708 49.900703430 0.6729999781 0.6729999781
 1019.1747437  -999.250000 20.437997818 -0.082999997  -999.250000 1.7070000172 30.908002853 155.99217224 0.8529919982 50.398601532 0.6710079908 0.6710079908
 1019.3271484  -999.250000 20.437997818 -0.063000001  -999.250000 1.7599999905 29.209138870 157.49279785 0.8549928069 48.904205322 0.6829567552 0.6829567552
 1019.4795532  -999.250000 20.437997818 -0.037999999  -999.250000 1.8320000172 29.872577667 157.74879456 0.8569927812 49.149299622 0.7009351254 0.7009351254
 1019.6319580  -999.250000 20.437997818 -0.027000001  -999.250000 1.8730000257 28.318630219 155.13761902 0.8599892259 49.150001526 0.7109639645 0.7109639645
 1019.7843628  -999.250000 20.437997818 -0.033000000  -999.250000 1.8760000467 30.694385529 153.50779724 0.8679711223 48.651401520 0.7189711332 0.7189711332
 1019.9367065  -999.250000 20.437997818 -0.045000002  -999.250000 1.8420000076 30.065563202 150.01821899 0.8809479475 49.895996094 0.7299559712 0.7299559712
 1020.0891113  -999.250000 20.437997818 -0.043000001  -999.250000 1.8370000124 29.953439713 148.01040649 0.8859799504 50.896797180 0.7389639616 0.7389639616
 1020.2415161  -999.250000 20.437997818 -0.046999998  -999.250000 1.8140000105 25.595520020 147.75120544 0.8889879584 49.903205872 0.7429839373 0.7429839373
 1020.3939209  -999.250000 20.437997818 -0.050999999  -999.250000 1.8170000315 26.947492599 147.00360107 0.8899959922 49.900001526 0.7340360880 0.7340360880
