# LAS format log file from PETREL
# Project units are specified as depth units
#==================================================================
~Version information
VERS.   2.0:
WRAP.   NO:
#==================================================================
~Well
STRT .m      818.46392822 :
STOP .m      2256.5109863 :
STEP .m     0.00000000 :
NULL .        -999.250000 :
COMP.           : COMPANY
WELL.  34/10-7   : WELL
FLD.            : FIELD
LOC.            : LOCATION
SRVC.           : SERVICE COMPANY
DATE.  2018-09-11 14:48:47   : Log Export Date {yyyy-MM-dd HH:mm:ss}
PROV.           : PROVINCE
UWI.   34/10-7   : UNIQUE WELL ID
API.            : API NUMBER
#==================================================================
~Curve
DEPT .m                   : DEPTH
Lithology_geolink ._      : Lithology_geolink
CALI .in                  : CALI
DRHO .g/cm3               : DRHO
NPHI .m3/m3               : NPHI
RHOB .g/cm3               : RHOB
GR .gAPI                  : GR
DTC .us/ft                : DTC
RDEP .ohm.m               : RDEP
SP .mV                    : SP
RSHA .ohm.m               : RSHA
RMED .ohm.m               : RMED
~Parameter
#==================================================================
~Ascii
 818.46392822  -999.250000 18.547000885 -1.164000034  -999.250000 1.5700000525 66.558723450 142.72717285 1.7680541277 48.125801086 1.5063712597 1.5063712597
 818.61627197  -999.250000 18.547000885 -1.203999996  -999.250000 1.5420000553 68.181495667 146.10742188 1.7550520897 48.125000000 1.4791080952 1.4791080952
 818.76867676  -999.250000 18.593999863 -1.194000006  -999.250000 1.5770000219 68.686004639 150.10417175 1.7599799633 47.875900269 1.4869679213 1.4869679213
 818.92108154  -999.250000 18.593999863 -1.289000034  -999.250000 1.5420000553 68.812500000 150.49804688 1.7341040373 48.622295380 1.5148878098 1.5148878098
 819.07348633  -999.250000 18.593999863 -1.315000057  -999.250000 1.6369999647 68.625755310 149.13160706 1.7041201591 49.061420441 1.5100200176 1.5100200176
 819.22589111  -999.250000 18.577999115 -1.449000001  -999.250000 1.5950000286 67.691757202 146.01501465 1.6880640984 48.626579285 1.4970520735 1.4970520735
 819.37829590  -999.250000 18.593999863 -1.230999947  -999.250000 1.8099999428 66.941009521 144.00961304 1.6660881042 48.375900269 1.5049679279 1.5049679279
 819.53070068  -999.250000 18.593999863 -1.302000046  -999.250000 1.6000000238 66.003753662 143.50239563 1.6500641108 48.313224792 1.4920520782 1.4920520782
 819.68310547  -999.250000 18.547000885 -1.097000003  -999.250000 1.6599999666 65.750999451 146.48558044 1.6659358740 48.374774933 1.4680961370 1.4680961370
 819.83551025  -999.250000 18.562999725 -1.118999958  -999.250000 1.5740000010 63.945255280 146.37559509 1.6819359064 48.437797546 1.4859278202 1.4859278202
 819.98785400  -999.250000 18.562999725 -1.052999973  -999.250000 1.6180000305 63.408340454 145.00715637 1.6899647713 48.687099457 1.4830132723 1.4830132723
 820.14025879  -999.250000 18.562999725 -1.113999963  -999.250000 1.5670000315 63.624034882 144.37825012 1.7298238277 50.368919373 1.4929559231 1.4929559231
 820.29260254  -999.250000 18.547000885 -1.169000030  -999.250000 1.5160000324 64.745040894 145.36940002 1.7678325176 49.130004883 1.5109207630 1.5109207630
 820.44500732  -999.250000 18.547000885 -1.174000025  -999.250000 1.5039999485 65.061622620 145.74789429 1.7689956427 48.875999451 1.5219515562 1.5219515562
 820.59741211  -999.250000 18.547000885 -1.213000059  -999.250000 1.4609999657 71.347190857 139.53504944 1.7759691477 48.813247681 1.6165814400 1.6165814400
 820.74981689  -999.250000 18.547000885 -1.231999993  -999.250000 1.4589999914 74.548957825 140.12149048 1.7889428139 48.563999176 1.6687709093 1.6687709093
 820.90222168  -999.250000 18.547000885 -1.195999980  -999.250000 1.5299999714 76.740364075 137.14181519 1.7750616074 48.812000275 1.6500836611 1.6500836611
 821.05462646  -999.250000 18.593999863 -1.129999995  -999.250000 1.6330000162 74.136566162 138.74089050 1.7789824009 48.874752045 1.5992246866 1.5992246866
 821.20703125  -999.250000 18.593999863 -1.080000043  -999.250000 1.6779999733 74.747245789 144.96745300 1.8078721762 48.625999451 1.5412554741 1.5412554741
 821.35943604  -999.250000 18.577999115 -1.148000002  -999.250000 1.6180000305 76.555015564 143.38345337 1.7900792360 48.874000549 1.5081453323 1.5081453323
 821.51184082  -999.250000 18.593999863 -1.136000037  -999.250000 1.6330000162 75.567405701 143.99674988 1.7790484428 49.124000549 1.4900792837 1.4900792837
 821.66424561  -999.250000 18.625000000 -1.088999987  -999.250000 1.6849999428 73.633537292 147.35742188 1.7790000439 49.125000000 1.4929867983 1.4929867983
 821.81665039  -999.250000 18.608999252 -1.167000055  -999.250000 1.6019999981 73.314376831 148.12109375 1.7760132551 49.063224792 1.5208766460 1.5208766460
 821.96905518  -999.250000 18.625000000 -1.118000031  -999.250000 1.6629999876 75.553092957 147.00585938 1.7680352926 49.312099457 1.5429030657 1.5429030657
 822.12145996  -999.250000 18.625000000 -1.133000016  -999.250000 1.6779999733 79.358207703 148.11914063 1.7650132179 49.811199188 1.5629118681 1.5629118681
 822.27386475  -999.250000 18.656000137 -0.950999975  -999.250000 1.8689999580 77.321266174 146.38410950 1.7679879665 50.062099457 1.5779398680 1.5779398680
 822.42620850  -999.250000 18.641000748 -0.982999980  -999.250000 1.8430000544 75.507987976 145.75350952 1.7580441236 49.565002441 1.5660527945 1.5660527945
 822.57861328  -999.250000 18.625000000 -0.940999985  -999.250000 1.8830000162 74.318229675 145.00421143 1.7470483780 48.877754211 1.5679911375 1.5679911375
 822.73101807  -999.250000 18.625000000 -0.986000001  -999.250000 1.8509999514 76.677543640 145.49719238 1.7350528240 48.813247681 1.5281761885 1.5281761885
 822.88342285  -999.250000 18.641000748 -0.975000024  -999.250000 1.8389999866 77.808044434 147.48878479 1.7359955311 49.062000275 1.4961410761 1.4961410761
 823.03582764  -999.250000 18.656000137 -1.057000041  -999.250000 1.7359999418 73.457275391 148.49440002 1.7429691553 48.565002441 1.4810659885 1.4810659885
 823.18823242  -999.250000 18.625000000 -1.083999991  -999.250000 1.6660000086 72.317962646 150.98696899 1.7420043945 48.749252319 1.4730353355 1.4730353355
 823.34063721  -999.250000 18.625000000 -1.161000013  -999.250000 1.6050000191 70.072914124 148.38867188 1.7320441008 49.061744690 1.4779779911 1.4779779911
 823.49304199  -999.250000 18.625000000 -1.118999958  -999.250000 1.6269999743 72.303092957 146.75845337 1.7280176878 49.809997559 1.4690396786 1.4690396786
 823.64544678  -999.250000 18.625000000 -1.156999946  -999.250000 1.6210000515 72.935249329 146.12825012 1.7220264673 49.563999176 1.4630265236 1.4630265236
 823.79785156  -999.250000 18.641000748 -1.088999987  -999.250000 1.6849999428 72.191307068 144.38410950 1.7120441198 49.562999725 1.4610087872 1.4610087872
 823.95025635  -999.250000 18.625000000 -1.000000000  -999.250000 1.8049999475 68.578971863 144.49934387 1.7249428034 49.562999725 1.4799163342 1.4799163342
 824.10266113  -999.250000 18.641000748 -1.060999990  -999.250000 1.7130000591 69.620323181 146.73828125 1.7518810034 49.500228882 1.4620792866 1.4620792866
 824.25506592  -999.250000 18.625000000 -1.050999999  -999.250000 1.7050000429 68.941032410 146.99870300 1.7818677425 49.001800537 1.4560264349 1.4560264349
 824.40740967  -999.250000 18.625000000 -1.190999985  -999.250000 1.5240000486 71.675880432 151.10186768 1.8248105049 49.311744690 1.4739207029 1.4739207029
 824.55981445  -999.250000 18.625000000 -1.085999966  -999.250000 1.5870000124 66.336685181 148.01751709 1.8747797012 48.566001892 1.4869427681 1.4869427681
 824.71221924  -999.250000 18.641000748 -1.093999982  -999.250000 1.5609999895 64.632438660 142.03364563 1.8909295797 50.243244171 1.5616695881 1.5616695881
 824.86462402  -999.250000 18.608999252 -1.008000016  -999.250000 1.6590000391 63.816577911 140.01121521 1.9228589535 51.245994568 1.6376651525 1.6376651525
 825.01702881  -999.250000 18.608999252 -1.046000004  -999.250000 1.6749999523 60.857082367 134.15794373 1.9558546543 51.312747955 1.7574713230 1.7574713230
 825.16943359  -999.250000 18.608999252 -0.982999980  -999.250000 1.7829999924 58.416736603 130.52032471 1.9798942804 50.627754211 1.8067841530 1.8067841530
 825.32183838  -999.250000 18.608999252 -1.011000037  -999.250000 1.7999999523 54.143859863 128.13737488 2.0058856010 50.314250946 1.7392995358 1.7392995358
 825.47424316  -999.250000 18.547000885 -0.981000006  -999.250000 1.8329999447 55.338630676 133.96940613 2.0119736195 50.125751495 1.7310352325 1.7310352325
 825.62664795  -999.250000 18.547000885 -1.095999956  -999.250000 1.7029999495 56.246009827 139.34701538 2.0000529289 49.129005432 1.6792291403 1.6792291403
 825.77905273  -999.250000 18.547000885 -1.128999949  -999.250000 1.6540000439 56.592487335 140.12109375 1.9850660563 49.374000549 1.6620748043 1.6620748043
 825.93145752  -999.250000 18.547000885 -1.116000056  -999.250000 1.6319999695 55.940891266 145.96940613 1.9710615873 48.877002716 1.6391013861 1.6391013861
 826.08386230  -999.250000 18.516000748 -1.034000039  -999.250000 1.7339999676 55.626377106 142.14517212 1.9441189766 48.813224792 1.5991761684 1.5991761684
