# LAS format log file from PETREL
# Project units are specified as depth units
#==================================================================
~Version information
VERS.   2.0:
WRAP.   NO:
#==================================================================
~Well
STRT .m      127.75000000 :
STOP .m      3459.2514648 :
STEP .m     0.00000000 :
NULL .        -999.250000 :
COMP.           : COMPANY
WELL.  34/10-17   : WELL
FLD.            : FIELD
LOC.            : LOCATION
SRVC.           : SERVICE COMPANY
DATE.  2018-09-11 14:48:44   : Log Export Date {yyyy-MM-dd HH:mm:ss}
PROV.           : PROVINCE
UWI.   34/10-17   : UNIQUE WELL ID
API.            : API NUMBER
#==================================================================
~Curve
DEPT .m                   : DEPTH
Lithology_geolink ._      : Lithology_geolink
CALI .in                  : CALI
DRHO .g/cm3               : DRHO
NPHI .m3/m3               : NPHI
RHOB .g/cm3               : RHOB
GR .gAPI                  : GR
DTC .us/ft                : DTC
RDEP .ohm.m               : RDEP
SP .mV                    : SP
RSHA .ohm.m               : RSHA
RMED .ohm.m               : RMED
~Parameter
#==================================================================
~Ascii
# ...
 350.87509155  -999.250000 15.609000206 0.0489999987 0.3970899880 1.9229999781 36.819000244 177.64599609 2.0490000248 7.9299993515 1.6280000210 1.7189999819
 351.00009155  -999.250000 15.582999229 0.0500000007 0.3997200131 1.9329999685 39.958000183 175.04499817 2.1340000629 7.4910001755 1.8090000153 1.8359999657
 351.12503052  -999.250000 15.562998772 0.0350000001 0.4049299955 1.9329999685 42.979000092 174.54600525 2.2850000858 7.1020002365 1.9600000381 1.9630000591
 351.25000000  -999.250000 15.562998772 0.0280000009 0.4054900110 1.9550000429 45.527000427 174.91499329 2.4949998856 6.7490000725 2.0350000858 2.0920000076
 351.37496948  -999.250000 15.576001167 0.0399999991 0.3975600004 2.0079998970 47.340000153 175.08999634 2.7109999657 6.5120000839 2.0520000458 2.2039999962
 351.49996948  -999.250000 15.588999748 0.0680000037 0.3841400146 2.0750000477 48.590999603 174.81100464 2.8680000305 6.5370001793 2.0439999104 2.2690000534
 351.62490845  -999.250000 15.589999199 0.0930000022 0.3736299872 2.1270000935 49.650001526 173.99200439 2.9059998989 6.9310002327 2.0339999199 2.2660000324
 351.74987793  -999.250000 15.576001167 0.1059999987 0.3671000004 2.1530001163 50.630001068 172.39500427 2.7920000553 7.5960001945 2.0239999294 2.1819999218
 351.87515259  -999.250000 15.559000969 0.1110000014 0.3600699902 2.1610000134 51.394001007 169.75999451 2.5899999142 8.3199996948 1.9980000257 2.0490000248
 352.00012207  -999.250000 15.543999672 0.1180000007 0.3522000015 2.1649999619 51.894001007 166.52998352 2.3719999790 8.9010000229 1.9409999847 1.8990000486
 352.12512207  -999.250000 15.517999649 0.1280000061 0.3509100080 2.1670000553 52.192001343 163.48500061 2.1879999638 9.2959995270 1.8489999771 1.7649999857
 352.25000000  -999.250000 15.465999603 0.1340000033 0.3607199788 2.1670000553 52.304000854 161.27799988 2.0639998913 9.5559997559 1.7369999886 1.6770000458
 352.37500000  -999.250000 15.395998955 0.1299999952 0.3790999949 2.1630001068 52.390998840 160.24000549 1.9880000353 9.6949996948 1.6390000582 1.6360000372
 352.49996948  -999.250000 15.328000069 0.1230000034 0.4003700018 2.1619999409 52.611000061 160.04600525 1.9459999800 9.7189998627 1.5800000429 1.6390000582
 352.62493896  -999.250000 15.277999878 0.1239999980 0.4158599973 2.1679999828 52.706001282 160.22500610 1.9279999733 9.6490001678 1.5750000477 1.6770000458
 352.74987793  -999.250000 15.253999710 0.1330000013 0.4166299701 2.1740000248 52.041999817 160.22900391 1.9299999475 9.5679998398 1.6360000372 1.7469999790
 352.87487793  -999.250000 15.250000000 0.1400000006 0.4071799815 2.1719999313 50.594001770 159.41900635 1.9589999914 9.5950002670 1.7480000257 1.8439999819
 352.99984741  -999.250000 15.260000229 0.1360000074 0.3965499997 2.1610000134 48.986000061 157.38200378 2.0260000229 9.8339996338 1.8890000582 1.9650000334
 353.12512207  -999.250000 15.277999878 0.1199999973 0.3912200034 2.1470000744 48.276000977 154.05200195 2.1380000114 10.333000183 2.0230000019 2.0999999046
 353.25009155  -999.250000 15.290000916 0.1019999981 0.3882800043 2.1419999599 49.262001038 150.19000244 2.3029999733 10.965000153 2.1129999161 2.2379999161
 353.37503052  -999.250000 15.281000137 0.0900000036 0.3819299936 2.1489999294 50.838001251 146.93600464 2.4969999790 11.536999702 2.1540000439 2.3629999161
 353.50003052  -999.250000 15.251000404 0.0829999968 0.3665000200 2.1600000858 51.416999817 145.07000732 2.6900000572 11.904000282 2.1610000134 2.4619998932
 353.62500000  -999.250000 15.210000038 0.0750000030 0.3440400064 2.1619999409 50.276000977 144.73100281 2.8540000916 11.996999741 2.1540000439 2.5339999199
 353.74996948  -999.250000 15.175000191 0.0599999987 0.3270000219 2.1530001163 48.185001373 145.28399658 2.9700000286 11.878999710 2.1500000954 2.5799999237
 353.87490845  -999.250000 15.152999878 0.0419999994 0.3251699805 2.1389999390 46.676998138 146.05200195 3.0480000973 11.680999756 2.1540000439 2.6080000401
 353.99990845  -999.250000 15.139999390 0.0289999992 0.3390499949 2.1280000210 46.270000458 146.57600403 3.0980000496 11.592000008 2.1630001068 2.6240000725
 354.12487793  -999.250000 15.132999420 0.0289999992 0.3585100174 2.1310000420 46.555000305 146.63800049 3.1280000210 11.663000107 2.1710000038 2.6310000420
 354.25015259  -999.250000 15.135000229 0.0379999988 0.3676800132 2.1389999390 46.604999542 146.27799988 3.1449999809 11.793000221 2.1710000038 2.6340000629
 354.37512207  -999.250000 15.151000023 0.0480000004 0.3620500267 2.1489999294 46.104999542 145.63900757 3.1540000439 11.812000275 2.1700000763 2.6359999180
 354.50006104  -999.250000 15.175000191 0.0579999983 0.3487600088 2.1589999199 45.411998749 144.97799683 3.1589999199 11.631999969 2.1730000973 2.6370000839
 354.62506104  -999.250000 15.198000908 0.0689999983 0.3402099907 2.1679999828 44.945999146 144.48800659 3.1600000858 11.345999718 2.1800000668 2.6349999905
 354.75000000  -999.250000 15.213999748 0.0829999968 0.3414599895 2.1779999733 45.035999298 144.22599792 3.1600000858 11.161000252 2.1879999638 2.6300001144
 354.87496948  -999.250000 15.222999573 0.0979999974 0.3509700000 2.1860001087 45.729000092 144.18299866 3.1579999924 11.185999870 2.1889998913 2.6250000000
 354.99993896  -999.250000 15.225999832 0.1070000008 0.3633399904 2.1870000362 47.098999023 144.26800537 3.1500000954 11.267000198 2.1830000877 2.6199998856
 355.12490845  -999.250000 15.227999687 0.0979999974 0.3726599813 2.1740000248 49.020999908 144.40499878 3.1340000629 11.246999741 2.1749999523 2.6170001030
 355.24987793  -999.250000 15.229999542 0.0769999996 0.3766099811 2.1559998989 50.895000458 144.54800415 3.1089999676 11.175000191 2.1710000038 2.6159999371
 355.37484741  -999.250000 15.231999397 0.0549999997 0.3773599863 2.1419999599 52.152999878 144.67500305 3.0799999237 11.190999985 2.1740000248 2.6119999886
 355.50012207  -999.250000 15.231999397 0.0379999988 0.3776599765 2.1349999905 52.812999725 144.77400208 3.0499999523 11.352000237 2.1800000668 2.6070001125
 355.62509155  -999.250000 15.223999977 0.0309999995 0.3790100217 2.1370000839 53.110000610 144.85000610 3.0230000019 11.562000275 2.1819999218 2.5980000496
 355.75006104  -999.250000 15.199000359 0.0329999998 0.3807799816 2.1419999599 53.111000061 144.93099976 3.0009999275 11.628999710 2.1779999733 2.5869998932
 355.87503052  -999.250000 15.156999588 0.0390000008 0.3827100098 2.1459999084 52.840999603 145.07699585 2.9869999886 11.442999840 2.1710000038 2.5759999752
 356.00000000  -999.250000 15.104000092 0.0430000015 0.3860100210 2.1480000019 52.210998535 145.32400513 2.9820001125 11.175999641 2.1640000343 2.5680000782
 356.12496948  -999.250000 15.060000420 0.0450000018 0.3907500207 2.1510000229 51.029998779 145.66299438 2.9839999676 11.081000328 2.1600000858 2.5639998913
 356.24993896  -999.250000 15.043999672 0.0430000015 0.3931499720 2.1559998989 49.106998444 146.03599548 2.9890000820 11.269000053 2.1589999199 2.5659999847
 356.37490845  -999.250000 15.045000076 0.0390000008 0.3899599910 2.1600000858 46.791000366 146.38600159 2.9939999580 11.746000290 2.1619999409 2.5690000057
 356.49987793  -999.250000 15.041999817 0.0370000005 0.3813799918 2.1600000858 44.734001160 146.71800232 2.9949998856 12.345999718 2.1679999828 2.5680000782
 356.62515259  -999.250000 15.020998955 0.0430000015 0.3747000098 2.1549999714 43.768001556 147.05400085 2.9920001030 12.817000389 2.1740000248 2.5569999218
 356.75015259  -999.250000 14.994000435 0.0560000017 0.3757300079 2.1470000744 44.695999146 147.35800171 2.9860000610 12.989999771 2.1740000248 2.5339999199
 356.87509155  -999.250000 14.998999596 0.0750000030 0.3823499978 2.1410000324 46.832000732 147.56199646 2.9790000916 12.901000023 2.1649999619 2.5079998970
 357.00006104  -999.250000 15.060000420 0.0979999974 0.3854600191 2.1419999599 48.775001526 147.65299988 2.9709999561 12.760999680 2.1480000019 2.4839999676
 357.12503052  -999.250000 15.168000221 0.1150000021 0.3739300072 2.1489999294 49.563999176 147.66600037 2.9590001106 12.684000015 2.1280000210 2.4649999142
