# LAS format log file from PETREL
# Project units are specified as depth units
#==================================================================
~Version information
VERS.   2.0:
WRAP.   NO:
#==================================================================
~Well
STRT .m      3166.7685547 :
STOP .m      4692.7500000 :
STEP .m     0.00000000 :
NULL .        -999.250000 :
COMP.           : COMPANY
WELL.  34/12-1   : WELL
FLD.            : FIELD
LOC.            : LOCATION
SRVC.           : SERVICE COMPANY
DATE.  2018-09-11 14:48:48   : Log Export Date {yyyy-MM-dd HH:mm:ss}
PROV.           : PROVINCE
UWI.   34/12-1   : UNIQUE WELL ID
API.            : API NUMBER
#==================================================================
~Curve
DEPT .m                   : DEPTH
Lithology_geolink ._      : Lithology_geolink
CALI .in                  : CALI
BS .in                    : BS
ROP .m/h                  : ROP
DRHO .g/cm3               : DRHO
THOR .ppm                 : THOR
SGR .gAPI                 : SGR
NPHI .m3/m3               : NPHI
RHOB .g/cm3               : RHOB
PEF .b/e                  : PEF
GR .gAPI                  : GR
URAN .ppm                 : URAN
DTC .us/ft                : DTC
DTS .us/ft                : DTS
RDEP .ohm.m               : RDEP
RSHA .ohm.m               : RSHA
RMED .ohm.m               : RMED
~Parameter
#==================================================================
~Ascii
# ...
 3182.7705078  -999.250000 12.378000259 17.500000000 195715.43750  -999.250000  -999.250000  -999.250000  -999.250000  -999.250000  -999.250000 33.105499268  -999.250000 102.47040558 180.79420471 1.7396934032  -999.250000 1.7627784014
 3182.9228516  -999.250000 12.385000229 17.500000000 202511.17188  -999.250000  -999.250000  -999.250000  -999.250000  -999.250000  -999.250000 32.661899567  -999.250000 101.47884369 183.84051514 1.7355118990  -999.250000 1.7492030859
 3183.0754395  -999.250000 12.391899109 17.500000000 204096.60938  -999.250000  -999.250000  -999.250000  -999.250000  -999.250000  -999.250000 30.993600845  -999.250000 101.42295837 184.98989868 1.6806000471  -999.250000 1.6887999773
 3183.2277832  -999.250000 12.378000259 17.500000000 204096.60938  -999.250000  -999.250000  -999.250000  -999.250000  -999.250000  -999.250000 29.910100937  -999.250000 94.993041992 185.63639832 1.6808198690  -999.250000 1.6890163422
 3183.3801270  -999.250000 12.329199791 17.500000000 204096.60938  -999.250000  -999.250000  -999.250000  -999.250000  -999.250000  -999.250000 29.253200531  -999.250000 95.337928772 185.63639832 1.8178000450  -999.250000 1.8237999678
 3183.5324707  -999.250000 12.405900002 17.500000000 89535.234375  -999.250000  -999.250000  -999.250000  -999.250000  -999.250000  -999.250000 33.853698730  -999.250000 99.084510803 183.27270508 1.8178470135  -999.250000 1.8238496780
 3183.6848145  -999.250000 12.343199730 17.500000000 89535.234375  -999.250000  -999.250000  -999.250000  -999.250000  -999.250000  -999.250000 39.500701904  -999.250000 95.034904480 180.54550171 1.8471469879  -999.250000 1.8548498154
 3183.8374023  -999.250000 13.241800308 17.500000000 89535.234375 0.0762375966  -999.250000  -999.250000 0.3565407991  -999.250000  -999.250000 42.025100708  -999.250000 90.995773315 179.00000000 1.8763762712  -999.250000 1.8859127760
 3183.9897461  -999.250000 13.311401367 17.500000000 89535.234375 0.1191706732  -999.250000  -999.250000 0.3380887806  -999.250000  -999.250000 41.032798767  -999.250000 92.206878662 176.90911865 1.8689999580  -999.250000 1.8898999691
 3184.1420898  -999.250000 13.325399399 17.500000000 89535.234375 0.1632149071  -999.250000  -999.250000 0.3311212957  -999.250000  -999.250000 39.317298889  -999.250000 93.201538086 169.90910339 1.8690658808  -999.250000 1.8899195194
 3184.2944336  -999.250000 13.314901352 17.500000000 89535.234375 0.1725312471  -999.250000  -999.250000 0.3443935812  -999.250000  -999.250000 40.882400513  -999.250000 99.391334534 162.72729492 1.9100530148  -999.250000 1.9020729065
 3184.4470215  -999.250000 13.304499626 17.500000000 89535.234375 0.1920822412  -999.250000  -999.250000 0.3403721750  -999.250000  -999.250000 42.086700439  -999.250000 97.538307190 161.81820679 1.8808000088  -999.250000 1.8852000237
 3184.5993652  -999.250000 13.241800308 17.500000000 100106.28125 0.2176296711  -999.250000  -999.250000 0.3316815794  -999.250000  -999.250000 39.895900726  -999.250000 94.107620239 165.00000000 1.8808498383  -999.250000 1.8852796555
 3184.7517090  -999.250000 13.179100037 17.500000000 100106.28125 0.1736772507  -999.250000  -999.250000 0.3202123344  -999.250000  -999.250000 34.387500763  -999.250000 90.816825867 170.27270508 1.9118130207  -999.250000 1.9349269867
 3184.9040527  -999.250000 13.126800537 17.500000000 100106.28125 0.0970653817  -999.250000  -999.250000 0.3279277086  -999.250000  -999.250000 31.448699951  -999.250000 89.783638000 174.09089661 1.8577408791  -999.250000 1.9517259598
 3185.0566406  -999.250000 13.938400269 17.500000000 251201.51563 0.0131657599  -999.250000  -999.250000 0.3452454507  -999.250000  -999.250000 33.413700104  -999.250000 95.549682617 176.09089661 1.9459534883  -999.250000 1.9682366848
 3185.2089844  -999.250000 15.965399742 17.500000000 251201.51563 0.0024969550  -999.250000  -999.250000 0.3593982458  -999.250000  -999.250000 41.300399780  -999.250000 98.914199829 178.45449829 2.0869562626  -999.250000 2.0729546547
 3185.3613281  -999.250000 17.086900711 17.500000000 251201.51563 0.0005985577  -999.250000  -999.250000 0.3582939208  -999.250000  -999.250000 42.712799072  -999.250000 102.27146912 179.27268982 1.9347919226  -999.250000 1.9820318222
 3185.5136719  -999.250000 18.079599380 17.500000000 251201.51563 -0.000299038  -999.250000  -999.250000 0.3544786870 2.4988000393 3.8733000755 44.962001801  -999.250000 97.821601868 176.09089661 1.7429000139  -999.250000 1.7526999712
 3185.6660156  -999.250000 18.083099365 17.500000000 251201.51563 0.0002980800  -999.250000  -999.250000 0.3412134349 2.5007998943 3.6261000633 42.435600281  -999.250000 94.957359314 173.09091187 1.7429000139  -999.250000 1.7526999712
 3185.8186035  -999.250000 18.076099396 17.500000000 251201.51563 -0.000902724  -999.250000  -999.250000 0.3496115208 2.4955999851 3.5834000111 42.973999023  -999.250000 92.812629700 171.36360168 1.7427681684  -999.250000 1.7526156902
 3185.9709473  -999.250000 18.110900879 17.500000000 251201.51563 -0.002601122  -999.250000  -999.250000 0.3568168283 2.4867999554 3.6781001091 39.855098724  -999.250000 93.954017639 168.90910339 1.6605988741  -999.250000 1.7001007795
 3186.1232910  -999.250000 18.142299652 17.500000000 251201.51563 -0.003297276  -999.250000  -999.250000 0.3672786951 2.4806001186 3.8382999897 38.760299683  -999.250000 92.978881836 167.18180847 1.6601173878  -999.250000 1.7006932497
 3186.2756348  -999.250000 18.194499969 17.500000000 251201.51563 -0.001598718  -999.250000  -999.250000 0.3539892733 2.4865000248 3.9010000229 39.992298126  -999.250000 99.210479736 167.00000000 1.7956889868  -999.250000 1.7588597536
 3186.4282227  -999.250000 18.194499969 17.500000000 251201.51563 -0.000802240  -999.250000  -999.250000 0.3473143876 2.4913001060 3.8004000187 41.854499817  -999.250000 107.17304993 167.09089661 1.8516577482  -999.250000 1.7966279984
 3186.5805664  -999.250000 18.194499969 17.500000000 251201.51563 -0.001502083  -999.250000  -999.250000 0.3518249989 2.4935998917 3.6131999493 42.956298828  -999.250000 107.24719238 166.90911865 2.0254504681  -999.250000 1.9612530470
 3186.7329102  -999.250000 18.222400665 17.500000000 163121.76563 -0.002799359  -999.250000  -999.250000 0.3673532009 2.4958000183 3.4776000977 44.085700989  -999.250000 104.06632996 165.45451355 2.0569367409  -999.250000 2.0566346645
 3186.8852539  -999.250000 18.250200272 17.500000000 163121.76563 -0.002398398  -999.250000  -999.250000 0.3381754756 2.5025999546 3.4788000584 43.750099182  -999.250000 103.58322906 163.81820679 2.0797834396  -999.250000 2.0782310963
 3187.0378418  -999.250000 18.298999786 17.500000000 163121.76563 -0.001392000  -999.250000  -999.250000 0.3228699267 2.5067000389 3.5885999203 42.654800415  -999.250000 103.09337616 164.00000000 2.0695829391  -999.250000 2.0975797176
 3187.1901855  -999.250000 18.340799332 17.500000000 216091.43750 0.0011006410  -999.250000  -999.250000 0.3135065436 2.5120000839 3.7904999256 41.062400818  -999.250000 99.904281616 165.27270508 2.0641999245  -999.250000 2.0913000107
 3187.3425293  -999.250000 18.347799301 17.500000000 216091.43750 0.0015003205  -999.250000  -999.250000 0.3176085055 2.5099000931 3.9398999214 43.150600433  -999.250000 97.098793030 162.72729492 2.0641999245  -999.250000 2.0913000107
 3187.4948730  -999.250000 18.298999786 17.500000000 205140.60938 0.0016982371  -999.250000  -999.250000 0.3228910267 2.5102999210 3.9762001038 45.721801758  -999.250000 103.62692261 162.44659424 2.0641999245  -999.250000 2.0913000107
 3187.6474609  -999.250000 18.257200241 17.500000000 201182.03125 0.0005964800  -999.250000  -999.250000 0.3173387051 2.5072000027 3.9059998989 47.919498444  -999.250000 99.648155212 168.14579773 2.0642952919  -999.250000 2.0919356346
 3187.7998047  -999.250000 18.264200211 17.500000000 197223.84375 -0.000504006  -999.250000  -999.250000 0.3294028938 2.5058000088 3.8320999146 48.896800995  -999.250000 97.827705383 172.83299255 2.0939381123 2.9469745159 2.2898700237
 3187.9521484  -999.250000 18.246700287 17.500000000 193925.51563 -0.003000641  -999.250000  -999.250000 0.3312186003 2.5000998974 3.7938001156 49.718200684  -999.250000 98.514945984 176.88381958 2.0552711487 2.8688883781 2.2712216377
