# LAS format log file from PETREL
# Project units are specified as depth units
#==================================================================
~Version information
VERS.   2.0:
WRAP.   NO:
#==================================================================
~Well
STRT .m      127.75000000 :
STOP .m      3459.2514648 :
STEP .m     0.00000000 :
NULL .        -999.250000 :
COMP.           : COMPANY
WELL.  34/10-17   : WELL
FLD.            : FIELD
LOC.            : LOCATION
SRVC.           : SERVICE COMPANY
DATE.  2018-09-11 14:48:44   : Log Export Date {yyyy-MM-dd HH:mm:ss}
PROV.           : PROVINCE
UWI.   34/10-17   : UNIQUE WELL ID
API.            : API NUMBER
#==================================================================
~Curve
DEPT .m                   : DEPTH
Lithology_geolink ._      : Lithology_geolink
CALI .in                  : CALI
DRHO .g/cm3               : DRHO
NPHI .m3/m3               : NPHI
RHOB .g/cm3               : RHOB
GR .gAPI                  : GR
DTC .us/ft                : DTC
RDEP .ohm.m               : RDEP
SP .mV                    : SP
RSHA .ohm.m               : RSHA
RMED .ohm.m               : RMED
~Parameter
#==================================================================
~Ascii
# ...
 574.00000000  -999.250000 14.652000427 0.0270000007 0.3449800014 2.0959999561 65.706001282 139.27799988 2.4749999046 14.677000046 1.8960000277 2.1119999886
 574.12493896  -999.250000 14.625000000 0.0260000005 0.3295300007 2.0929999352 61.943000793 139.98800659 2.4630000591 14.597999573 1.8999999762 2.1029999256
 574.24987793  -999.250000 14.578000069 0.0309999995 0.3229800165 2.0980000496 59.349998474 140.75700378 2.4530000687 14.576000214 1.8960000277 2.0859999657
 574.37487793  -999.250000 14.543998718 0.0379999988 0.3281999826 2.1070001125 58.174999237 141.42300415 2.4460000992 14.631999969 1.8819999695 2.0690000057
 574.50012207  -999.250000 14.545999527 0.0450000018 0.3430500031 2.1150000095 58.168998718 141.94099426 2.4430000782 14.682999611 1.8619999886 2.0550000668
 574.62512207  -999.250000 14.590000153 0.0469999984 0.3606600165 2.1159999371 58.775001526 142.35499573 2.4430000782 14.652000427 1.8450000286 2.0490000248
 574.75006104  -999.250000 14.659001350 0.0489999987 0.3709599972 2.1129999161 59.721000671 142.71899414 2.4449999332 14.550999641 1.8380000591 2.0539999008
 574.87506104  -999.250000 14.724000931 0.0489999987 0.3679099977 2.1089999676 60.886001587 142.97700500 2.4500000477 14.512000084 1.8409999609 2.0690000057
 575.00000000  -999.250000 14.771999359 0.0450000018 0.3537300229 2.1089999676 61.976001740 142.99000549 2.4579999447 14.654999733 1.8500000238 2.0940001011
 575.12500000  -999.250000 14.798999786 0.0299999993 0.3379800022 2.1099998951 62.585998535 142.57099915 2.4719998837 14.968000412 1.8589999676 2.1250000000
 575.24993896  -999.250000 14.806000710 0.0109999999 0.3284400105 2.1119999886 62.472000122 141.67399597 2.4930000305 15.281999588 1.8710000515 2.1589999199
 575.37493896  -999.250000 14.796999931 -0.005000000 0.3263000250 2.1180000305 61.827999115 140.34500122 2.5199999809 15.420999527 1.8910000324 2.1909999847
 575.49987793  -999.250000 14.770000458 -0.013000000 0.3287799954 2.1259999275 61.069000244 138.85299683 2.5510001183 15.350999832 1.9210000038 2.2179999352
 575.62487793  -999.250000 14.725999832 -0.011000000 0.3301100135 2.1389999390 60.816001892 137.45300293 2.5840001106 15.128000259 1.9589999914 2.2400000095
 575.75012207  -999.250000 14.675000191 -0.005000000 0.3285800219 2.1500000954 61.581001282 136.27799988 2.6180000305 14.847000122 1.9960000515 2.2579998970
 575.87512207  -999.250000 14.630999565 -0.003000000 0.3259500265 2.1570000648 62.953998566 135.32600403 2.6519999504 14.597000122 2.0230000019 2.2720000744
 576.00006104  -999.250000 14.602000237 -0.006000000 0.3247199953 2.1570000648 63.987998962 134.46499634 2.6849999428 14.432000160 2.0350000858 2.2850000858
 576.12506104  -999.250000 14.590000153 -0.013000000 0.3277800083 2.1540000439 64.166000366 133.64700317 2.7130000591 14.392000198 2.0339999199 2.2960000038
 576.25000000  -999.250000 14.590000153 -0.017000001 0.3329299986 2.1519999504 63.936000824 132.96000671 2.7309999466 14.454999924 2.0260000229 2.3039999008
 576.37500000  -999.250000 14.590000153 -0.015000000 0.3368000090 2.1540000439 64.068000793 132.62399292 2.7379999161 14.595999718 2.0160000324 2.3080000877
 576.49993896  -999.250000 14.581999779 -0.010000000 0.3366099894 2.1589999199 64.880996704 132.75900269 2.7339999676 14.760000229 2.0069999695 2.3069999218
 576.62487793  -999.250000 14.567999840 -0.002000000 0.3314699829 2.1670000553 66.091003418 133.36399841 2.7239999771 14.881999969 2.0000000000 2.3020000458
 576.74987793  -999.250000 14.555999756 0.0070000002 0.3263700008 2.1789999008 66.940002441 134.21699524 2.7130000591 14.942000389 1.9930000305 2.2950000763
 576.87512207  -999.250000 14.555000305 0.0160000008 0.3251399994 2.1900000572 66.615997314 135.05799866 2.7049999237 14.984000206 1.9869999886 2.2899999619
 577.00012207  -999.250000 14.567001343 0.0199999996 0.3291000128 2.1960000992 64.942001343 135.69799805 2.7000000477 15.062000275 1.9809999466 2.2890000343
 577.12506104  -999.250000 14.588999748 0.0140000004 0.3359299898 2.1909999847 62.285999298 136.07099915 2.6979999542 15.178999901 1.9769999981 2.2929999828
 577.25006104  -999.250000 14.614999771 0.0020000001 0.3395700157 2.1819999218 59.195999146 136.23100281 2.6970000267 15.274999619 1.9780000448 2.2990000248
 577.37500000  -999.250000 14.637999535 -0.007000000 0.3379299939 2.1770000458 56.819000244 136.23800659 2.6970000267 15.258000374 1.9819999933 2.3059999943
 577.50000000  -999.250000 14.651000023 -0.008000000 0.3323000073 2.1830000877 56.214000702 136.17700195 2.7000000477 15.093999863 1.9880000353 2.3120000362
 577.62493896  -999.250000 14.647000313 0.0010000000 0.3250999749 2.1989998817 57.722000122 136.11500549 2.7060000896 14.814999580 1.9960000515 2.3180000782
 577.74993896  -999.250000 14.626999855 0.0109999999 0.3199700117 2.2139999866 60.574001312 136.08799744 2.7139999866 14.532999992 2.0030000210 2.3250000477
 577.87487793  -999.250000 14.602999687 0.0179999992 0.3184799850 2.2219998837 63.006999969 136.08500671 2.7230000496 14.355999947 2.0099999905 2.3329999447
 577.99987793  -999.250000 14.583999634 0.0189999994 0.3197999895 2.2209999561 64.102996826 136.05799866 2.7320001125 14.328000069 2.0150001049 2.3410000801
 578.12512207  -999.250000 14.571999550 0.0160000008 0.3217599988 2.2130000591 63.832000732 135.99699402 2.7400000095 14.449000359 2.0199999809 2.3489999771
 578.25012207  -999.250000 14.564001083 0.0130000003 0.3221400082 2.2019999027 62.898998260 135.96400452 2.7479999065 14.663999557 2.0239999294 2.3529999256
 578.37506104  -999.250000 14.552000046 0.0109999999 0.3208900094 2.1930000782 62.062000275 136.02699280 2.7539999485 14.897999763 2.0290000439 2.3540000916
 578.50006104  -999.250000 14.538000107 0.0099999998 0.3186700046 2.1879999638 61.381999969 136.16200256 2.7609999180 15.088999748 2.0339999199 2.3540000916
 578.62500000  -999.250000 14.524999619 0.0080000004 0.3160899878 2.1870000362 60.904998779 136.24299622 2.7660000324 15.223999977 2.0369999409 2.3529999256
 578.75000000  -999.250000 14.517999649 0.0040000002 0.3138400018 2.1879999638 60.854000092 136.11999512 2.7690000534 15.298000336 2.0380001068 2.3529999256
 578.87493896  -999.250000 14.519000053 0.0010000000 0.3119800091 2.1889998913 61.345001221 135.69700623 2.7699999809 15.274000168 2.0350000858 2.3550000191
 578.99993896  -999.250000 14.531000137 -0.002000000 0.3119499981 2.1879999638 62.145000458 135.07899475 2.7690000534 15.149000168 2.0309998989 2.3580000401
 579.12487793  -999.250000 14.548000336 -0.004000000 0.3158099949 2.1830000877 62.779998779 134.44900513 2.7660000324 14.963999748 2.0260000229 2.3610000610
 579.25012207  -999.250000 14.565999985 -0.007000000 0.3205300272 2.1770000458 62.817001343 133.97200012 2.7609999180 14.798000336 2.0269999504 2.3599998951
 579.37512207  -999.250000 14.576000214 -0.010000000 0.3226200044 2.1719999313 62.410999298 133.75999451 2.7539999485 14.755000114 2.0320000648 2.3540000916
 579.50006104  -999.250000 14.574001312 -0.010000000 0.3209400177 2.1740000248 61.908000946 133.78100586 2.7500000000 14.857000351 2.0360000134 2.3450000286
 579.62506104  -999.250000 14.565999985 -0.008000000 0.3169800043 2.1830000877 61.569000244 133.96000671 2.7500000000 15.017000198 2.0339999199 2.3350000381
 579.75000000  -999.250000 14.559000015 -0.005000000 0.3127399981 2.1930000782 61.243999481 134.17599487 2.7560000420 15.112000465 2.0250000954 2.3320000172
 579.87500000  -999.250000 14.562000275 -0.004000000 0.3103300035 2.1989998817 60.745998383 134.31799316 2.7679998875 15.085000038 2.0169999599 2.3359999657
 579.99993896  -999.250000 14.574999809 -0.007000000 0.3120400012 2.1979999542 60.240001678 134.27600098 2.7820000648 15.008999825 2.0160000324 2.3459999561
 580.12493896  -999.250000 14.588999748 -0.013000000 0.3184300065 2.1909999847 60.276000977 133.97200012 2.7960000038 14.961000443 2.0239999294 2.3580000401
 580.24987793  -999.250000 14.590000153 -0.017000001 0.3263100088 2.1830000877 61.456001282 133.51800537 2.8039999008 14.967000008 2.0380001068 2.3650000095
