# LAS format log file from PETREL
# Project units are specified as depth units
#==================================================================
~Version information
VERS.   2.0:
WRAP.   NO:
#==================================================================
~Well
STRT .m      127.75000000 :
STOP .m      3459.2514648 :
STEP .m     0.00000000 :
NULL .        -999.250000 :
COMP.           : COMPANY
WELL.  34/10-17   : WELL
FLD.            : FIELD
LOC.            : LOCATION
SRVC.           : SERVICE COMPANY
DATE.  2018-09-11 14:48:44   : Log Export Date {yyyy-MM-dd HH:mm:ss}
PROV.           : PROVINCE
UWI.   34/10-17   : UNIQUE WELL ID
API.            : API NUMBER
#==================================================================
~Curve
DEPT .m                   : DEPTH
Lithology_geolink ._      : Lithology_geolink
CALI .in                  : CALI
DRHO .g/cm3               : DRHO
NPHI .m3/m3               : NPHI
RHOB .g/cm3               : RHOB
GR .gAPI                  : GR
DTC .us/ft                : DTC
RDEP .ohm.m               : RDEP
SP .mV                    : SP
RSHA .ohm.m               : RSHA
RMED .ohm.m               : RMED
~Parameter
#==================================================================
~Ascii
# ...
 3455.4992676  -999.250000 6.0890007019  -999.250000  -999.250000  -999.250000 35.352001190 36.542999268 3.4570000172 89.611000061 4.6069998741 6.9159998894
 3455.6242676  -999.250000 6.0890007019  -999.250000  -999.250000  -999.250000 35.352001190 36.542999268 3.4560000896 89.648002625 4.6069998741 6.9169998169
 3455.7492676  -999.250000 6.0890007019  -999.250000  -999.250000  -999.250000 35.352001190 36.542999268 3.4549999237 89.745002747 4.6069998741 6.9120001793
 3455.8742676  -999.250000 6.0890007019  -999.250000  -999.250000  -999.250000 35.352001190 36.542999268 3.4570000172 89.938003540 4.6069998741 6.9050002098
 3455.9992676  -999.250000 6.0890007019  -999.250000  -999.250000  -999.250000 35.352001190 36.542999268 3.4609999657 90.192001343 4.6069998741 6.8969998360
 3456.1242676  -999.250000 6.0890007019  -999.250000  -999.250000  -999.250000 35.352001190 36.542999268 3.4660000801 90.444000244 4.6079998016 6.8920001984
 3456.2490234  -999.250000 6.0890007019  -999.250000  -999.250000  -999.250000 35.352001190 36.542999268 3.4700000286 90.637001038 4.6079998016 6.8889999390
 3456.3740234  -999.250000 6.0890007019  -999.250000  -999.250000  -999.250000 35.352001190 36.542999268 3.4719998837 90.731002808 4.6090002060 6.8850002289
 3456.4990234  -999.250000 6.0890007019  -999.250000  -999.250000  -999.250000 35.352001190 36.542999268 3.4719998837 90.758003235 4.6119999886 6.8790001869
 3456.6240234  -999.250000 6.0890007019  -999.250000  -999.250000  -999.250000 35.352001190 36.542999268 3.4719998837 90.760002136 4.6139998436 6.8730001450
 3456.7490234  -999.250000 6.0890007019  -999.250000  -999.250000  -999.250000 35.352001190 36.542999268 3.4719998837 90.760002136 4.6160001755 6.8689999580
 3456.8740234  -999.250000 6.0890007019  -999.250000  -999.250000  -999.250000 35.352001190 36.542999268 3.4719998837 90.760002136 4.6149997711 6.8660001755
 3456.9990234  -999.250000 6.0890007019  -999.250000  -999.250000  -999.250000 35.352001190 36.542999268 3.4719998837 90.760002136 4.6129999161 6.8639998436
 3457.1237793  -999.250000 6.0890007019  -999.250000  -999.250000  -999.250000 35.352001190 36.542999268 3.4719998837 90.760002136 4.6090002060 6.8629999161
 3457.2487793  -999.250000 6.0890007019  -999.250000  -999.250000  -999.250000 35.352001190 36.542999268 3.4719998837 90.760002136 4.6069998741 6.8619999886
 3457.3737793  -999.250000 6.0890007019  -999.250000  -999.250000  -999.250000 35.352001190 36.542999268 3.4719998837 90.760002136 4.6059999466 6.8610000610
 3457.4987793  -999.250000 6.0890007019  -999.250000  -999.250000  -999.250000 35.352001190 36.542999268 3.4719998837 90.760002136 4.6059999466 6.8610000610
 3457.6237793  -999.250000 6.0890007019  -999.250000  -999.250000  -999.250000 35.352001190 36.542999268 3.4719998837 90.760002136 4.6090002060 6.8600001335
 3457.7487793  -999.250000 6.0890007019  -999.250000  -999.250000  -999.250000 35.352001190 36.542999268 3.4719998837 90.760002136 4.6119999886 6.8600001335
 3457.8740234  -999.250000 6.0890007019  -999.250000  -999.250000  -999.250000 35.352001190 36.542999268 3.4719998837 90.760002136 4.6160001755 6.8600001335
 3457.9985352  -999.250000 6.0890007019  -999.250000  -999.250000  -999.250000 35.352001190 36.542999268 3.4719998837 90.760002136 4.6180000305 6.8600001335
 3458.1235352  -999.250000 6.0890007019  -999.250000  -999.250000  -999.250000 35.352001190 36.542999268 3.4709999561 90.760002136 4.6180000305 6.8600001335
 3458.2487793  -999.250000 6.0890007019  -999.250000  -999.250000  -999.250000 35.352001190 36.542999268 3.4709999561 90.760002136 4.6170001030 6.8600001335
 3458.3767090  -999.250000 6.0890007019  -999.250000  -999.250000  -999.250000 35.352001190 36.542999268 3.4709999561 90.760002136 4.6160001755 6.8600001335
 3458.5017090  -999.250000 6.0890007019  -999.250000  -999.250000  -999.250000 35.352001190 36.542999268 3.4709999561 90.760002136 4.6149997711 6.8600001335
 3458.6264648  -999.250000 6.0890007019  -999.250000  -999.250000  -999.250000 35.352001190 36.542999268 3.4709999561 90.760002136 4.6149997711 6.8600001335
 3458.7514648  -999.250000 6.0890007019  -999.250000  -999.250000  -999.250000 35.352001190 36.542999268 3.4709999561 90.760002136 4.6139998436 6.8600001335
 3458.8735352  -999.250000 6.0890007019  -999.250000  -999.250000  -999.250000 35.352001190 36.542999268 3.4709999561 90.760002136 4.6139998436 6.8600001335
 3458.9985352  -999.250000 6.0890007019  -999.250000  -999.250000  -999.250000 35.352001190 36.542999268 3.4709999561 90.760002136 4.6129999161 6.8600001335
 3459.1232910  -999.250000 6.0890007019  -999.250000  -999.250000  -999.250000 35.352001190 36.542999268 3.4709999561 90.760002136 4.6119999886 6.8600001335
 3459.2514648  -999.250000 6.0890007019  -999.250000  -999.250000  -999.250000  -999.250000 36.542999268 3.4709999561 90.760002136 4.6119999886 6.8600001335
