# LAS format log file from PETREL
# Project units are specified as depth units
#==================================================================
~Version information
VERS.   2.0:
WRAP.   NO:
#==================================================================
~Well
STRT .m      211.00001526 :
STOP .m      2222.9851074 :
STEP .m     0.00000000 :
NULL .        -999.250000 :
COMP.           : COMPANY
WELL.  34/10-19   : WELL
FLD.            : FIELD
LOC.            : LOCATION
SRVC.           : SERVICE COMPANY
DATE.  2018-09-11 14:48:44   : Log Export Date {yyyy-MM-dd HH:mm:ss}
PROV.           : PROVINCE
UWI.   34/10-19   : UNIQUE WELL ID
API.            : API NUMBER
#==================================================================
~Curve
DEPT .m                   : DEPTH
Lithology_geolink ._      : Lithology_geolink
CALI .in                  : CALI
DRHO .g/cm3               : DRHO
NPHI .m3/m3               : NPHI
RHOB .g/cm3               : RHOB
GR .gAPI                  : GR
DTC .us/ft                : DTC
RDEP .ohm.m               : RDEP
SP .mV                    : SP
RSHA .ohm.m               : RSHA
RMED .ohm.m               : RMED
~Parameter
#==================================================================
~Ascii
# ...
 1555.6253662  -999.250000 12.203000069 0.0030000000 0.3851014674 2.1850006580 40.789070129 146.37500000 0.7089999914 77.406173706 0.7749999762 0.7749999762
 1555.7777100  -999.250000 12.237000465 0.0030016012 0.3994291723 2.1859848499 41.435203552 145.37500000 0.6970000267 78.081367493 0.8460000157 0.8460000157
 1555.9301758  -999.250000 12.206000328 0.0050024036 0.4233501554 2.1669807434 41.937244415 146.37500000 0.6850000024 77.401451111 0.8420000076 0.8420000076
 1556.0825195  -999.250000 12.174999237 0.0080000004 0.4360359907 2.1429934502 42.632354736 148.12500000 0.6800000072 76.917808533 0.7720000148 0.7720000148
 1556.2349854  -999.250000 12.145999908 0.0079983976 0.4435112774 2.1350080967 41.538497925 148.75000000 0.6779999733 76.008598328 0.7179999948 0.7179999948
 1556.3873291  -999.250000 12.031000137 0.0059935949 0.4326103032 2.1450095177 42.315265656 147.00000000 0.6660000086 75.881446838 0.7129999995 0.7129999995
 1556.5397949  -999.250000 12.032999992 -0.002002404 0.4080297351 2.1570048332 42.007507324 146.00000000 0.6529999971 75.650016785 0.7360000014 0.7360000014
 1556.6921387  -999.250000 12.121000290 -0.005001602 0.3951869905 2.1629953384 41.225769043 145.37500000 0.6460000277 75.656242371 0.7649999857 0.7649999857
 1556.8446045  -999.250000 12.119999886 -0.006990393 0.3914647698 2.1570479870 38.629451752 145.37500000 0.6480000019 76.172256470 0.7429999709 0.7429999709
 1556.9969482  -999.250000 12.086999893 -0.000998397 0.4069166780 2.1870353222 35.037441254 145.00000000 0.6560000181 75.943969727 0.7289999723 0.7289999723
 1557.1494141  -999.250000 12.088999748 0.0009983988 0.4277683198 2.2310240269 36.056663513 140.37500000 0.6589999795 77.175117493 0.7699999809 0.7699999809
 1557.3017578  -999.250000 12.104999542 -0.000004006 0.4516537488 2.2459592819 38.136196136 141.12500000 0.6629999876 76.897911072 0.8370000124 0.8370000124
 1557.4542236  -999.250000 12.130000114 -0.005000000 0.4438179433 2.1949520111 40.374927521 140.37500000 0.6710000038 75.935417175 0.8330000043 0.8330000043
 1557.6065674  -999.250000 12.206999779 -0.005001602 0.4238247275 2.1650168896 40.038917542 142.75000000 0.6740000248 75.756690979 0.7779999971 0.7779999971
 1557.7589111  -999.250000 12.218000412 -0.006999200 0.4047965109 2.1860353947 39.078704834 145.00000000 0.6629999876 76.596229553 0.7590000033 0.7590000033
 1557.9113770  -999.250000 12.223000526 -0.005999199 0.4129299223 2.2299919128 38.552242279 142.75000000 0.6489999890 76.692504883 0.8209999800 0.8209999800
 1558.0637207  -999.250000 12.263998985 -0.004995196 0.4252974093 2.2199592590 42.058765411 143.00000000 0.6420000196 76.849121094 0.8640000224 0.8640000224
 1558.2161865  -999.250000 12.302000046 0.0010032052 0.4345714748 2.1689653397 45.285099030 143.75000000 0.6449999809 76.900131226 0.8059999943 0.8059999943
 1558.3685303  -999.250000 12.376999855 0.0049983985 0.4363657832 2.1260070801 46.238719940 147.37500000 0.6729999781 76.943374634 0.7369999886 0.7369999886
 1558.5209961  -999.250000 12.355998993 0.0029959937 0.4186224639 2.1350681782 41.962551117 151.12500000 0.7200000286 77.931358337 0.7009999752 0.7009999752
 1558.6733398  -999.250000 12.444001198 -0.001999199 0.4217156172 2.2200992107 38.703842163 152.37498474 0.7469999790 78.662872314 0.7379999757 0.7379999757
 1558.8258057  -999.250000 12.482999802 -0.000992788 0.4287088215 2.3440546989 36.140918732 136.12500000 0.7500000000 78.193572998 0.9060000181 0.9060000181
 1558.9781494  -999.250000 12.501000404 0.0080040069 0.4272482693 2.4119453430 33.931514740 134.75000000 0.7450000048 78.060050964 1.2289999723 1.2289999723
 1559.1306152  -999.250000 12.437001228 0.0130064050 0.4125871956 2.3438622952 31.668369293 131.50000000 0.7350000143 77.666564941 1.4789999723 1.4789999723
 1559.2829590  -999.250000 12.546999931 0.0169935916 0.4046247303 2.2579469681 35.836204529 129.12500000 0.7310000062 77.529304504 1.2239999771 1.2239999771
 1559.4354248  -999.250000 12.553999901 0.0089919930 0.4104786813 2.1919519901 39.020767212 143.12500000 0.7500000000 77.001007080 0.9309999943 0.9309999943
 1559.5877686  -999.250000 12.510000229 0.0039927885 0.4096787274 2.1619815826 41.755481720 145.50000000 0.7839999795 76.692863464 0.7910000086 0.7910000086
 1559.7402344  -999.250000 12.439000130 -0.005001601 0.4205962420 2.1390304565 44.391983032 150.00000000 0.8199999928 76.650474548 0.7490000129 0.7490000129
 1559.8925781  -999.250000 12.394000053 -0.005994391 0.4432041049 2.1580760479 43.440029144 151.37500000 0.8939999938 76.801567078 0.7210000157 0.7210000157
 1560.0449219  -999.250000 12.378000259 0.0010144116 0.4607586265 2.2531592846 39.075954437 147.37500000 0.9800000191 77.915168762 0.7710000277 0.7710000277
 1560.1973877  -999.250000 12.305000305 0.0190160256 0.4340452552 2.4521882534 32.402061462 129.00000000 1.0260000229 78.400909424 1.1339999437 1.1339999437
 1560.3497314  -999.250000 12.112999916 0.0389959961 0.3657372892 2.6870353222 27.440452576 109.37500763 1.0230000019 78.684066772 2.9820001125 2.9820001125
 1560.5021973  -999.250000 12.022999763 0.0339791700 0.2999672294 2.7308139801 27.218254089 93.375000000 1.0089999437 79.123069763 5.3010001183 5.3010001183
 1560.6545410  -999.250000 11.961999893 0.0079959976 0.2965561152 2.4988310337 28.862985611 100.75000000 1.0049999952 77.897727966 3.1129999161 3.1129999161
 1560.8070068  -999.250000 11.974000931 0.0030008012 0.3416607082 2.2879080772 32.607028961 120.37500000 0.9950000048 76.955261230 1.4119999409 1.4119999409
 1560.9593506  -999.250000 12.119999886 0.0039967950 0.3924154937 2.1729671955 37.294532776 140.50000000 0.9459999800 77.036849976 0.8439999819 0.8439999819
 1561.1118164  -999.250000 12.387000084 -0.000003203 0.3992408812 2.1319918633 41.248207092 155.00000000 0.8420000076 77.801910400 0.7080000043 0.7080000043
 1561.2641602  -999.250000 12.111000061 -0.002003205 0.3935476542 2.1269960403 40.378952026 156.12500000 0.7200000286 77.776031494 0.7059999704 0.7059999704
 1561.4166260  -999.250000 12.239000320 -0.005998399 0.3906464279 2.1219968796 40.058567047 157.00000000 0.6340000033 78.720870972 0.7139999866 0.7139999866
 1561.5689697  -999.250000 12.248000145 -0.005000000 0.4008940756 2.1200015545 42.112190247 158.75001526 0.5929999948 79.303787231 0.7319999933 0.7319999933
 1561.7214355  -999.250000 12.118000031 -0.005001601 0.4184632897 2.1220047474 45.292675018 157.37498474 0.5870000124 79.856727600 0.7689999938 0.7689999938
 1561.8737793  -999.250000 12.131000519 -0.006004007 0.4267652035 2.1249904633 48.287265778 161.12500000 0.6010000110 79.147552490 0.8389999866 0.8389999866
 1562.0261230  -999.250000 11.972000122 -0.011001601 0.4332904816 2.1129887104 44.015380859 165.99998474 0.6330000162 78.386390686 0.8769999743 0.8769999743
 1562.1785889  -999.250000 11.987000465 -0.013000000 0.4588481188 2.0990118980 45.006023407 167.00000000 0.6850000024 78.548126221 0.8249999881 0.8249999881
 1562.3309326  -999.250000 11.972000122 -0.012995197 0.4814507365 2.1140801907 45.633163452 168.37500000 0.7570000291 78.276046753 0.7450000048 0.7450000048
 1562.4833984  -999.250000 11.909999847 -0.006991988 0.4823446274 2.2141394615 44.855194092 156.12500000 0.8169999719 78.706565857 0.7400000095 0.7400000095
 1562.6357422  -999.250000 12.378000259 0.0030096078 0.4257313609 2.3881127834 39.927864075 128.75000000 0.8209999800 77.947387695 1.0789999962 1.0789999962
 1562.7882080  -999.250000 13.626000404 0.0149991987 0.3650246561 2.5289416313 36.562862396 106.18800354 0.8019999862 77.691719055 1.6310000420 1.6310000420
 1562.9405518  -999.250000 13.804000854 0.0139887827 0.3459018469 2.4558374882 40.265213013 104.37500763 0.7889999747 77.289405823 1.7419999838 1.7419999838
 1563.0930176  -999.250000 12.750000000 -0.000009608 0.3856241107 2.2527871132 44.095775604 127.37500000 0.7889999747 76.212768555 1.0210000277 1.0210000277
 1563.2453613  -999.250000 12.470999718 -0.006000801 0.4069023132 2.1199598312 46.507099152 152.37498474 0.7919999957 76.141944885 0.7080000043 0.7080000043
