# LAS format log file from PETREL
# Project units are specified as depth units
#==================================================================
~Version information
VERS.   2.0:
WRAP.   NO:
#==================================================================
~Well
STRT .m      3455.1030273 :
STOP .m      4235.3911133 :
STEP .m     0.00000000 :
NULL .        -999.250000 :
COMP.           : COMPANY
WELL.  34/11-3 T2   : WELL
FLD.            : FIELD
LOC.            : LOCATION
SRVC.           : SERVICE COMPANY
DATE.  2018-09-11 14:48:48   : Log Export Date {yyyy-MM-dd HH:mm:ss}
PROV.           : PROVINCE
UWI.   34/11-3 T2   : UNIQUE WELL ID
API.            : API NUMBER
#==================================================================
~Curve
DEPT .m                   : DEPTH
Lithology_geolink ._      : Lithology_geolink
CALI .in                  : CALI
NPHI .m3/m3               : NPHI
RHOB .g/cm3               : RHOB
GR .gAPI                  : GR
DTC .us/ft                : DTC
RDEP .ohm.m               : RDEP
RMED .ohm.m               : RMED
~Parameter
#==================================================================
~Ascii
# ...
 3765.9990234  -999.250000 12.626999855 0.0000000000 2.6439599991 59.116420746 81.330581665 5.8050127029 5.9196028709
 3766.1513672  -999.250000 12.597998619 0.0000000000 2.6389520168 62.665576935 81.139419556 6.3358607292 6.2927308083
 3766.3039551  -999.250000 12.595999718 0.0000000000 2.6329517365 66.675636292 81.108467102 4.8014326096 4.8758292198
 3766.4562988  -999.250000 12.602999687 0.0000000000 2.6269600391 70.699645996 81.192222595 3.7040016651 3.8876459599
 3766.6086426  -999.250000 12.581999779 0.0000000000 2.6219840050 75.686347961 81.318344116 3.3043572903 3.6659119129
 3766.7609863  -999.250000 12.588000298 0.0000000000 2.6199998856 81.468299866 81.451675415 2.7592911720 2.9872915745
 3766.9135742  -999.250000 12.626999855 0.0000000000 2.6200158596 85.842842102 81.604537964 2.3251395226 2.5457887650
 3767.0659180  -999.250000 12.626000404 0.0000000000 2.6220319271 85.980758667 81.806488037 2.1062450409 2.4796907902
 3767.2182617  -999.250000 12.581000328 0.0000000000 2.6260318756 81.631362915 82.060745239 1.8981281519 2.2873637676
 3767.3706055  -999.250000 12.626999855 0.0000000000 2.6300320625 75.953773499 82.329017639 1.9680336714 2.5143926144
 3767.5229492  -999.250000 12.607000351 0.0000000000 2.6340000629 72.072807312 82.555587769 2.3693277836 2.7600529194
 3767.6755371  -999.250000 12.612999916 0.0000000000 2.6339600086 70.765609741 82.701103210 2.8953413963 3.4164288044
 3767.8278809  -999.250000 12.626999855 0.0000000000 2.6289358139 70.048553467 82.763053894 3.1931939125 3.5501811504
 3767.9802246  -999.250000 12.581999779 0.0000000000 2.6209518909 68.551887512 82.765556335 3.2035241127 3.6627774239
 3768.1325684  -999.250000 12.578000069 0.0000000000 2.6149840355 67.254707336 82.740417480 3.1762783527 3.5237755775
 3768.2851563  -999.250000 12.607000351 0.0000000000 2.6130480766 66.741958618 82.707435608 3.1351184845 3.3837633133
 3768.4375000  -999.250000 12.602000237 0.0000000000 2.6190800667 67.075195313 82.675613403 3.0860352516 3.3100929260
 3768.5898438  -999.250000 12.584000587 0.0000000000 2.6290800571 67.114868164 82.653961182 3.0907852650 3.3682212830
 3768.7421875  -999.250000 12.564000130 0.0000000000 2.6390318871 65.559173584 82.652755737 3.2552225590 3.5069823265
 3768.8947754  -999.250000 12.601000786 0.0000000000 2.6429917812 63.108646393 82.697044373 3.7934632301 4.1250863075
 3769.0471191  -999.250000 12.579000473 0.0000000000 2.6419680119 62.941768646 82.814643860 5.1345462799 6.0221219063
 3769.1994629  -999.250000 12.546999931 0.0000000000 2.6379680634 67.264976501 83.022933960 6.9738559723 6.7187581062
 3769.3518066  -999.250000 12.572999954 0.0000000000 2.6339759827 72.927307129 83.303108215 5.2582855225 5.3191456795
 3769.5041504  -999.250000 12.564999580 0.0000000000 2.6309936047 74.821975708 83.591781616 3.2584078312 3.5401730537
 3769.6567383  -999.250000 12.585000038 0.0000000000 2.6299920082 70.628036499 83.804306030 2.7240753174 3.0259249210
 3769.8090820  -999.250000 12.526000977 0.0000000000 2.6289918423 63.996620178 83.875648499 2.8036377430 3.3166055679
 3769.9614258  -999.250000 12.586999893 0.0000000000 2.6279840469 60.847160339 83.798210144 3.9200000763 4.9406156540
 3770.1137695  -999.250000 12.581000328 0.0000000000 2.6259934902 63.641403198 83.640747070 5.1249680519 5.3217372894
 3770.2663574  -999.250000 12.585000038 0.0000000000 2.6250000000 69.915855408 83.515106201 3.9315912724 3.9090943336
 3770.4187012  -999.250000 12.604000092 0.0000000000 2.6249918938 76.226692200 83.524375916 2.8388235569 3.0029118061
 3770.5710449  -999.250000 12.584000587 0.0000000000 2.6239840984 80.582832336 83.718360901 2.2086844444 2.3243446350
 3770.7233887  -999.250000 12.567999840 0.0000000000 2.6219758987 82.066688538 84.081466675 1.7996095419 1.9162002802
 3770.8759766  -999.250000 12.546999931 0.0000000000 2.6189599037 81.411407471 84.563674927 1.7249968052 2.0412814617
 3771.0283203  -999.250000 12.574000359 0.0000000000 2.6139519215 80.096244812 85.113311768 1.8928284645 2.1289951801
 3771.1806641  -999.250000 12.566999435 0.0000000000 2.6079440117 80.086242676 85.698577881 1.9394054413 2.1261873245
 3771.3330078  -999.250000 12.597000122 0.0000000000 2.6009440422 81.942695618 86.298332214 1.9633926153 2.2430512905
 3771.4853516  -999.250000 12.538000107 0.0000000000 2.5939807892 85.339889526 86.883064270 2.0382015705 2.2747628689
 3771.6379395  -999.250000 12.567999840 0.0000000000 2.5910320282 89.351470947 87.395698547 1.8804839849 2.1263344288
 3771.7902832  -999.250000 12.605999947 0.0000000000 2.5950720310 92.411941528 87.772438049 1.7949070930 1.9189391136
 3771.9426270  -999.250000 12.602000237 0.0000000000 2.6040961742 93.785026550 87.964134216 1.7320785522 1.8809888363
 3772.0949707  -999.250000 12.605999947 0.0000000000 2.6160769463 92.781517029 87.969955444 1.6252464056 1.8739374876
 3772.2475586  -999.250000 12.562000275 0.0000000000 2.6280241013 89.508163452 87.853797913 1.6425080299 1.8356848955
 3772.3999023  -999.250000 12.590000153 0.0000000000 2.6309359074 85.861030579 87.731163025 1.8425304890 2.0494391918
 3772.5522461  -999.250000 12.601000786 0.0000000000 2.6228637695 83.990493774 87.744369507 2.0953350067 2.3229150772
 3772.7045898  -999.250000 12.601000786 0.0000000000 2.6058399677 85.303894043 87.996925354 2.1114656925 2.2697579861
 3772.8571777  -999.250000 12.609000206 0.0000000000 2.5858798027 88.721710205 88.507011414 1.9647997618 2.1176750660
 3773.0095215  -999.250000 12.584000587 0.0000000000 2.5709519386 92.948989868 89.188186646 1.6727082729 1.7047132254
 3773.1618652  -999.250000 12.581000328 0.0000000000 2.5650482178 96.552299500 89.876182556 1.5448942184 1.5261474848
 3773.3142090  -999.250000 12.605999947 0.0000000000 2.5711200237 98.630699158 90.391906738 1.5391408205 1.6182579994
 3773.4665527  -999.250000 12.607000351 0.0000000000 2.5861282349 98.559608459 90.608428955 1.5471602678 1.7789888382
 3773.6191406  -999.250000 12.553001404 0.0000000000 2.6061360836 95.113807678 90.506431580 1.5575641394 1.7719423771
 3773.7714844  -999.250000 12.526000977 0.0000000000 2.6230719090 89.093505859 90.189720154 1.5916618109 1.7540961504
 3773.9238281  -999.250000 12.571999550 0.0000000000 2.6319839954 83.348648071 89.835998535 1.7413221598 1.8140144348
 3774.0761719  -999.250000 12.526000977 0.0000000000 2.6299359798 81.526550293 89.612808228 1.8143841028 1.8228268623
 3774.2287598  -999.250000 12.581999779 0.0000000000 2.6198956966 83.642486572 89.605117798 1.7795945406 1.7153488398
 3774.3811035  -999.250000 12.545000076 0.0000000000 2.6069200039 87.928573608 89.783546448 1.7549903393 1.8238942623
 3774.5334473  -999.250000 12.583000183 0.0000000000 2.5969679356 92.427673340 90.040672302 1.6407964230 1.7578381300
 3774.6857910  -999.250000 12.553999901 0.0000000000 2.5930080414 96.083534241 90.246215820 1.5184400082 1.6569646597
 3774.8383789  -999.250000 12.578000069 0.0000000000 2.5940082073 98.989631653 90.312683105 1.5435287952 1.6349680424
 3774.9907227  -999.250000 12.597998619 0.0000000000 2.5949680805 100.64609528 90.236335754 1.5732643604 1.6251778603
 3775.1430664  -999.250000 12.545000076 0.0000000000 2.5909280777 100.90798187 90.085655212 1.5885112286 1.7360464334
 3775.2954102  -999.250000 12.584000587 0.0000000000 2.5819039345 99.640342712 89.954223633 1.6173871756 1.7650111914
 3775.4477539  -999.250000 12.584000587 0.0000000000 2.5699357986 97.329498291 89.912002563 1.6392244101 1.7719327211
 3775.6003418  -999.250000 12.588999748 0.0000000000 2.5599758625 94.751380920 89.975311279 1.6524888277 1.7297980785
 3775.7526855  -999.250000 12.601000786 0.0000000000 2.5570158958 93.115135193 90.106460571 1.6237355471 1.6040897369
 3775.9050293  -999.250000 12.585000038 0.0000000000 2.5590479374 93.939521790 90.245628357 1.6092467308 1.6599310637
 3776.0573730  -999.250000 12.581000328 0.0000000000 2.5650448799 95.989761353 90.336471558 1.6231936216 1.6169726849
 3776.2099609  -999.250000 12.538999557 0.0000000000 2.5720560551 96.791389465 90.362976074 1.6345111132 1.5998464823
