# LAS format log file from PETREL
# Project units are specified as depth units
#==================================================================
~Version information
VERS.   2.0:
WRAP.   NO:
#==================================================================
~Well
STRT .m      3166.7685547 :
STOP .m      4692.7500000 :
STEP .m     0.00000000 :
NULL .        -999.250000 :
COMP.           : COMPANY
WELL.  34/12-1   : WELL
FLD.            : FIELD
LOC.            : LOCATION
SRVC.           : SERVICE COMPANY
DATE.  2018-09-11 14:48:48   : Log Export Date {yyyy-MM-dd HH:mm:ss}
PROV.           : PROVINCE
UWI.   34/12-1   : UNIQUE WELL ID
API.            : API NUMBER
#==================================================================
~Curve
DEPT .m                   : DEPTH
Lithology_geolink ._      : Lithology_geolink
CALI .in                  : CALI
BS .in                    : BS
ROP .m/h                  : ROP
DRHO .g/cm3               : DRHO
THOR .ppm                 : THOR
SGR .gAPI                 : SGR
NPHI .m3/m3               : NPHI
RHOB .g/cm3               : RHOB
PEF .b/e                  : PEF
GR .gAPI                  : GR
URAN .ppm                 : URAN
DTC .us/ft                : DTC
DTS .us/ft                : DTS
RDEP .ohm.m               : RDEP
RSHA .ohm.m               : RSHA
RMED .ohm.m               : RMED
~Parameter
#==================================================================
~Ascii
# ...
 3582.8208008  -999.250000 12.259599686 12.250000954 14391.719727 0.0128945513  -999.250000  -999.250000 0.1892923117 2.6618723869 3.8516471386 32.921623230  -999.250000  -999.250000 137.45144653 4.2881922722 7.2247152328 4.3616833687
 3582.9731445  -999.250000 12.224699974 12.250000954 14391.719727 0.0094852559  -999.250000  -999.250000 0.1845528781 2.6446278095 3.8183121681 34.561069489  -999.250000  -999.250000 135.54666138 4.0335993767 7.0449023247 3.9769136906
 3583.1254883  -999.250000 12.228199959 12.250000954 14391.719727 0.0002942308  -999.250000  -999.250000 0.2175447196 2.5995509624 3.6388700008 37.410976410  -999.250000  -999.250000 136.27737427 3.5967421532 5.4250588417 3.4865310192
 3583.2778320  -999.250000 12.245699883 12.250000954 14391.719727 -0.003301763  -999.250000  -999.250000 0.2453886122 2.5688788891 3.4954254627 38.640441895  -999.250000  -999.250000 139.18878174 3.2488968372 4.5272331238 3.1942360401
 3583.4304199  -999.250000 12.252599716 12.250000954 14391.719727 -0.004400640  -999.250000  -999.250000 0.2382910401 2.5555682182 3.4488918781 38.245822906  -999.250000  -999.250000 143.56674194 3.0592732430 4.4225406647 3.0914902687
 3583.5827637  -999.250000 12.266599655 12.250000954 14391.719727 -0.004598398  -999.250000  -999.250000 0.2355075181 2.5456852913 3.4463787079 43.054275513  -999.250000  -999.250000 150.19374084 2.8323690891 4.2165999413 2.9321844578
 3583.7351074  -999.250000 12.290900230 12.250000954 14391.719727 -0.003596795  -999.250000  -999.250000 0.2402182668 2.5362904072 3.4330730438 45.726459503  -999.250000  -999.250000 157.64498901 2.5010817051 3.9042823315 2.6105701923
 3583.8874512  -999.250000 12.273501396 12.250000954 14391.719727 -0.001597115  -999.250000  -999.250000 0.2516237199 2.5302968025 3.4162685871 50.065769196  -999.250000  -999.250000 163.00524902 2.1778752804 3.3942296505 2.2801747322
 3584.0400391  -999.250000 12.280499458 12.250000954 14391.719727 0.0002051200  -999.250000  -999.250000 0.2664323151 2.5283002853 3.3966293335 52.296066284  -999.250000  -999.250000 166.29801941 1.9752646685 3.0382969379 2.0773024559
 3584.1923828  -999.250000 12.259599686 12.250000954 14391.719727 0.0018000000  -999.250000  -999.250000 0.2765368521 2.5284016132 3.4057736397 54.032230377  -999.250000  -999.250000 174.19198608 1.8707507849 2.8503129482 1.9845023155
 3584.3447266  -999.250000 12.270001411 12.250000954 14391.719727 0.0017993590  -999.250000  -999.250000 0.2994865179 2.5294086933 3.3892486095 55.232730865  -999.250000  -999.250000 180.54185486 1.8400195837 2.7335560322 1.9236450195
 3584.4970703  -999.250000 12.273501396 12.250000954 14391.719727 0.0014001603  -999.250000  -999.250000 0.2911158502 2.5347239971 3.3569600582 53.693885803  -999.250000  -999.250000 178.26914978 1.7899152040 2.6439220905 1.8894488811
 3584.6496582  -999.250000 12.290900230 12.250000954 14391.719727 0.0014993600  -999.250000  -999.250000 0.3009830415 2.5497269630 3.2696888447 52.935745239  -999.250000  -999.250000 175.98863220 1.7996000051 2.7204310894 1.9201537371
 3584.8020020  -999.250000 12.287400246 12.250000954 14391.719727 0.0012990384  -999.250000  -999.250000 0.2957130075 2.5580987930 3.2351622581 52.420200348  -999.250000  -999.250000 172.45610046 1.8620150089 2.8861405849 1.9993436337
 3584.9543457  -999.250000 12.290900230 12.250000954 14391.719727 0.0006979167  -999.250000  -999.250000 0.3037850857 2.5572891235 3.2740383148 52.172645569  -999.250000  -999.250000 173.45828247 1.9337633848 3.0361342430 2.0888662338
 3585.1066895  -999.250000 12.287400246 12.250000954 14391.719727 -0.000600641  -999.250000  -999.250000 0.2944991887 2.5505077839 3.3602349758 53.448989868  -999.250000  -999.250000 175.81849670 1.9732738733 3.1196520329 2.1300456524
 3585.2590332  -999.250000 12.266599655 12.250000954 14391.719727 -0.000999519  -999.250000  -999.250000 0.2939820588 2.5554194450 3.3819055557 54.504875183  -999.250000  -999.250000 175.99444580 1.9569362402 3.0897493362 2.0961179733
 3585.4116211  -999.250000 12.280499458 12.250000954 14391.719727 -0.000696160  -999.250000  -999.250000 0.2827839851 2.5676319599 3.3229227066 55.972454071  -999.250000  -999.250000 172.53793335 1.9174547195 3.0584461689 2.0451738834
 3585.5639648  -999.250000 12.259599686 12.250000954 14391.719727 0.0005044872  -999.250000  -999.250000 0.2777738571 2.5776143074 3.2677104473 52.181213379  -999.250000  -999.250000 170.17932129 1.9970029593 3.1353943348 2.0995006561
 3585.7163086  -999.250000 12.290900230 12.250000954 14391.719727 0.0033004808  -999.250000  -999.250000 0.2614977658 2.5865914822 3.2743072510 47.639247894  -999.250000  -999.250000 168.63420105 2.1237502098 3.2567613125 2.2247383595
 3585.8686523  -999.250000 12.252599716 12.250000954 14391.719727 0.0035998398  -999.250000  -999.250000 0.2600939274 2.5812931061 3.3413300514 45.612861633  -999.250000  -999.250000 167.27110291 2.2797207832 3.4199047089 2.3734197617
 3586.0212402  -999.250000 12.259599686 12.250000954 14391.719727 0.0034996802  -999.250000  -999.250000 0.2563505769 2.5769889355 3.4225161076 45.708000183  -999.250000  -999.250000 166.27241516 2.3549230099 3.6101469994 2.4478747845
 3586.1735840  -999.250000 12.266599655 12.250000954 14391.719727 0.0033995192  -999.250000  -999.250000 0.2720958292 2.5736012459 3.4898025990 44.273971558  -999.250000  -999.250000 166.18208313 2.3307807446 3.7491972446 2.4087762833
 3586.3259277  -999.250000 12.294400215 12.250000954 14391.719727 0.0031008013  -999.250000  -999.250000 0.2694905400 2.5743081570 3.4914331436 43.506031036  -999.250000  -999.250000 166.36273193 2.2563796043 3.6227781773 2.3315603733
 3586.4782715  -999.250000 12.259599686 12.250000954 14391.719727 0.0035988782  -999.250000  -999.250000 0.2635969520 2.5793001652 3.4496834278 41.972198486  -999.250000  -999.250000 165.81675720 2.1812381744 3.5467197895 2.2444543839
 3586.6308594  -999.250000 12.280499458 12.250000954 14391.719727 0.0028993599  -999.250000  -999.250000 0.2617748976 2.5795853138 3.3768503666 44.334606171  -999.250000  -999.250000 164.90589905 2.1426961422 3.4341440201 2.2161326408
 3586.7832031  -999.250000 12.301400185 12.250000954 14391.719727 0.0026966347  -999.250000  -999.250000 0.2851093113 2.5749762058 3.3301630020 43.032459259  -999.250000  -999.250000 163.90997314 2.1413958073 3.3231921196 2.2262043953
 3586.9355469  -999.250000 12.273501396 12.250000954 14391.719727 0.0005939103  -999.250000  -999.250000 0.2909230590 2.5600662231 3.3070931435 45.505439758  -999.250000  -999.250000 164.45988464 2.0763082504 3.2558732033 2.1664345264
 3587.0878906  -999.250000 12.280499458 12.250000954 14391.719727 -0.003200321  -999.250000  -999.250000 0.3052822053 2.5389938354 3.3028225899 48.894989014  -999.250000  -999.250000 167.82347107 1.9567334652 3.1766963005 2.0632572174
 3587.2402344  -999.250000 12.308300018 12.250000954 14391.719727 -0.003398718  -999.250000  -999.250000 0.2941851020 2.5352020264 3.3169219494 49.508346558  -999.250000  -999.250000 171.09672546 1.8529189825 3.0497767925 1.9742395878
 3587.3928223  -999.250000 12.290900230 12.250000954 14391.719727 -0.002591360  -999.250000  -999.250000 0.2848564982 2.5364427567 3.3304886818 48.468795776  -999.250000  -999.250000 174.73718262 1.8025001287 2.9729702473 1.9367901087
 3587.5451660  -999.250000 12.280499458 12.250000954 14391.719727 0.0001003205  -999.250000  -999.250000 0.2712988555 2.5497052670 3.2957811356 45.383937836  -999.250000  -999.250000 177.81849670 1.8337818384 2.9637153149 1.9960684776
 3587.6975098  -999.250000 12.249099731 12.250000954 14563.857422 0.0002975962  -999.250000  -999.250000 0.2706080079 2.5529906750 3.2840831280 45.528484344  -999.250000  -999.250000 177.99913025 1.8849167824 2.9733753204 2.0388095379
 3587.8498535  -999.250000 12.259599686 12.250000954 121977.78125 -0.001204487  -999.250000  -999.250000 0.2756195366 2.5471796989 3.3361604214 44.397735596  -999.250000  -999.250000 177.45376587 1.9580503702 3.0831720829 2.1073279381
 3588.0024414  -999.250000 12.266599655 12.250000954 229247.82813 -0.003999040  -999.250000  -999.250000 0.2877740860 2.5345399380 3.4989416599 44.102287292  -999.250000  -999.250000 176.99534607 2.1771118641 3.4409508705 2.3120265007
