# LAS format log file from PETREL
# Project units are specified as depth units
#==================================================================
~Version information
VERS.   2.0:
WRAP.   NO:
#==================================================================
~Well
STRT .m      3455.1030273 :
STOP .m      4235.3911133 :
STEP .m     0.00000000 :
NULL .        -999.250000 :
COMP.           : COMPANY
WELL.  34/11-3 T2   : WELL
FLD.            : FIELD
LOC.            : LOCATION
SRVC.           : SERVICE COMPANY
DATE.  2018-09-11 14:48:48   : Log Export Date {yyyy-MM-dd HH:mm:ss}
PROV.           : PROVINCE
UWI.   34/11-3 T2   : UNIQUE WELL ID
API.            : API NUMBER
#==================================================================
~Curve
DEPT .m                   : DEPTH
Lithology_geolink ._      : Lithology_geolink
CALI .in                  : CALI
NPHI .m3/m3               : NPHI
RHOB .g/cm3               : RHOB
GR .gAPI                  : GR
DTC .us/ft                : DTC
RDEP .ohm.m               : RDEP
RMED .ohm.m               : RMED
~Parameter
#==================================================================
~Ascii
# ...
 4014.7158203 6.0000000000 8.6160001755 0.3247768879 2.4670882225 91.557289124 99.801147461 1.3598108292 1.2369999886
 4014.8681641 6.0000000000 8.6169996262 0.3211847246 2.4781200886 90.620285034 99.295028687 1.4048413038 1.3580000401
 4015.0205078 6.0000000000 8.6190004349 0.3169080317 2.4931359291 90.313987732 98.557136536 1.3957884312 1.4129999876
 4015.1728516 6.0000000000 8.6210002899 0.3122599125 2.5101025105 90.969017029 97.717018127 1.3843168020 1.3700000048
 4015.3254395 6.0000000000 8.6219997406 0.3077182770 2.5261123180 90.189163208 97.044044495 1.4034454823 1.3470000029
 4015.4777832 6.0000000000 8.6210002899 0.3036586642 2.5400719643 87.083557129 96.831207275 1.4847580194 1.4140000343
 4015.6301270 6.0000000000 8.6199998856 0.3001938164 2.5490241051 84.304382324 97.250526428 1.5261361599 1.5089999437
 4015.7824707 6.0000000000 8.6180000305 0.2975932360 2.5519759655 82.980216980 98.250297546 1.4766448736 1.5019999743
 4015.9350586 6.0000000000 8.6160001755 0.2960927486 2.5489439964 82.543296814 99.573921204 1.4002596140 1.4270000458
 4016.0874023 6.0000000000 8.6149997711 0.2956938744 2.5419199467 82.405021667 100.86811829 1.3587002754 1.3259999752
 4016.2397461 6.0000000000 8.6149997711 0.2959103584 2.5319118500 83.103942871 101.83056641 1.3417179585 1.2519999743
 4016.3920898 6.0000000000 8.6160001755 0.2959247231 2.5209119320 84.766021729 102.30821228 1.3256304264 1.2180000544
 4016.5446777 6.0000000000 8.6169996262 0.2956263125 2.5099198818 87.574218750 102.31414795 1.3040832281 1.2280000448
 4016.6970215 6.0000000000 8.6180000305 0.2954381406 2.4999358654 91.662109375 101.97890472 1.2518718243 1.2439999580
 4016.8493652 6.0000000000 8.6169996262 0.2964970469 2.4919600487 95.207206726 101.46212769 1.1872019768 1.1840000153
 4017.0017090 6.0000000000 8.6180000305 0.2991804779 2.4870080948 96.754074097 100.90292358 1.0861362219 1.1130000353
 4017.1540527 6.0000000000 8.6180000305 0.3026069999 2.4880318642 95.309082031 100.38954163 1.0386687517 1.0340000391
 4017.3066406 6.0000000000 8.6169996262 0.3058326542 2.4930641651 92.144989014 99.967514038 1.0764759779 1.0269999504
 4017.4589844 6.0000000000 8.6160001755 0.3082221448 2.5010640621 89.731605530 99.658744812 1.1032116413 1.0709999800
 4017.6113281 6.0000000000 8.6160001755 0.3088749647 2.5090320110 88.799156189 99.475936890 1.1148942709 1.1000000238
 4017.7636719 6.0000000000 8.6180000305 0.3074307144 2.5130000114 87.710136414 99.418052673 1.1090176105 1.1239999533
 4017.9162598 6.0000000000 8.6180000305 0.3046311736 2.5129680634 85.505233765 99.480079651 1.1108990908 1.1529999971
 4018.0686035 7.0000000000 8.6169996262 0.3018846214 2.5089681149 83.495429993 99.657157898 1.1618108749 1.1829999685
 4018.2209473 7.0000000000 8.6169996262 0.3004899025 2.5049681664 82.583282471 99.952224731 1.2078108788 1.2189999819
 4018.3732910 7.0000000000 8.6160001755 0.3016691804 2.5009999275 83.266326904 100.36408234 1.2544959784 1.2480000257
 4018.5258789 7.0000000000 8.6160001755 0.3056410551 2.5010318756 86.399131775 100.88133240 1.3389695883 1.3040000200
 4018.6782227 7.0000000000 8.6169996262 0.3119682074 2.5050482750 92.075317383 101.46750641 1.3936170340 1.3420000076
 4018.8305664 7.0000000000 8.6180000305 0.3198108375 2.5110640526 97.473442078 102.06255341 1.4283349514 1.3830000162
 4018.9829102 6.0000000000 8.6180000305 0.3277779222 2.5190479755 99.127815247 102.60286713 1.4471763372 1.3890000582
 4019.1352539 6.0000000000 8.6180000305 0.3344376385 2.5250320435 96.716545105 103.04726410 1.4567008018 1.3940000534
 4019.2878418 6.0000000000 8.6180000305 0.3393945098 2.5299999714 93.312210083 103.40264130 1.4393125772 1.3760000467
 4019.4401855 6.0000000000 8.6160001755 0.3430418372 2.5299758911 91.661094666 103.72329712 1.4002772570 1.3409999609
 4019.5925293 6.0000000000 8.6160001755 0.3459784985 2.5269598961 92.217620850 104.08171844 1.3587131500 1.2979999781
 4019.7448730 6.0000000000 8.6160001755 0.3487259150 2.5219743252 95.061393738 104.52107239 1.2860847712 1.2380000353
 4019.8974609 6.0000000000 8.6149997711 0.3513329923 2.5179839134 99.504508972 105.03652191 1.2342243195 1.1569999456
 4020.0498047 6.0000000000 8.6129999161 0.3537783027 2.5160000324 103.27657318 105.57558441 1.1906121969 1.1050000191
 4020.2021484 6.0000000000 8.6090002060 0.3565117717 2.5160081387 103.74491119 106.06025696 1.1682243347 1.1130000353
 4020.3544922 6.0000000000 8.6040000916 0.3588588238 2.5169839859 100.03282928 106.41181946 1.1252287626 1.1169999838
 4020.5070801 6.0000000000 8.6000003815 0.3598929048 2.5149760246 95.255432129 106.56771851 1.1379470825 1.1369999647
 4020.6594238 6.0000000000 8.5970001221 0.3588783145 2.5119519234 94.002502441 106.49031067 1.1363925934 1.1610000134
 4020.8117676 6.0000000000 8.5930004120 0.3553328216 2.5059680939 97.464630127 106.16297150 1.2160800695 1.2289999723
 4020.9641113 6.0000000000 8.5880002975 0.3492245972 2.5020081997 102.56855011 105.59010315 1.3330401182 1.3430000544
 4021.1164551 6.0000000000 8.5830001831 0.3415488601 2.5030384064 105.54290009 104.79940796 1.3919856548 1.4270000458
 4021.2690430 6.0000000000 8.5780000687 0.3341422081 2.5090801716 104.91713715 103.85516357 1.4491506815 1.4670000076
 4021.4213867 6.0000000000 8.5740003586 0.3292170465 2.5190882683 101.40634918 102.84359741 1.5706393719 1.5310000181
 4021.5737305 6.0000000000 8.5719995499 0.3273754120 2.5300719738 97.825119019 101.85855865 1.6628284454 1.6599999666
 4021.7260742 6.0000000000 8.5710000992 0.3270936012 2.5390577316 95.930732727 100.98575592 1.7093343735 1.7569999695
 4021.8786621 6.0000000000 8.5699996948 0.3255399764 2.5480720997 95.582023621 100.29405212 1.7278766632 1.7120000124
 4022.0310059 6.0000000000 8.5719995499 0.3209477961 2.5570719242 95.612625122 99.848297119 1.7209470272 1.6239999533
 4022.1833496 6.0000000000 8.5729999542 0.3134271801 2.5660719872 94.091239929 99.701026917 1.7183878422 1.6410000324
 4022.3356934 6.0000000000 8.5729999542 0.3047896326 2.5750639439 91.186515808 99.878326416 1.7400704622 1.6250000000
 4022.4882813 6.0000000000 8.5729999542 0.2980287671 2.5830318928 90.076423645 100.35514832 1.7439823151 1.6330000162
 4022.6406250 6.0000000000 8.5729999542 0.2957800627 2.5869917870 91.997390747 101.04551697 1.7431234121 1.5980000496
 4022.7929688 6.0000000000 8.5729999542 0.2986826599 2.5859680176 95.288070679 101.81137085 1.7496473789 1.6649999619
 4022.9453125 7.0000000000 8.5729999542 0.3050906062 2.5819520950 97.350425720 102.50930786 1.7294015884 1.7419999838
 4023.0976563 7.0000000000 8.5729999542 0.3124775887 2.5759742260 97.127601624 103.03430939 1.6958236694 1.7220000029
 4023.2502441 7.0000000000 8.5710000992 0.3185316920 2.5719840527 95.648818970 103.36301422 1.6852819920 1.6560000181
 4023.4025879 7.0000000000 8.5699996948 0.3219817877 2.5700159073 93.235572815 103.53239441 1.7012643814 1.6779999733
 4023.5549316 7.0000000000 8.5710000992 0.3226211369 2.5720400810 89.692764282 103.61056519 1.7165817022 1.6560000181
 4023.7072754 7.0000000000 8.5719995499 0.3215408027 2.5770382881 86.112907410 103.64178467 1.7492991686 1.6560000181
 4023.8598633 6.0000000000 8.5729999542 0.3198752701 2.5830399990 86.184417725 103.62851715 1.7662467957 1.6369999647
 4024.0122070 6.0000000000 8.5729999542 0.3179017305 2.5880241394 90.538177490 103.54275513 1.7801586390 1.6710000038
 4024.1645508 6.0000000000 8.5740003586 0.3157306910 2.5910081863 95.895790100 103.35707855 1.7888413668 1.8049999475
 4024.3168945 6.0000000000 8.5729999542 0.3134974241 2.5919919014 98.878387451 103.07708740 1.7795951366 1.8300000429
 4024.4694824 6.0000000000 8.5710000992 0.3110865057 2.5910081863 98.004035950 102.74118805 1.7575640678 1.7810000181
 4024.6218262 6.0000000000 8.5699996948 0.3091977835 2.5920240879 94.639465332 102.41233826 1.7903926373 1.7369999886
 4024.7741699 6.0000000000 8.5699996948 0.3079436123 2.5950400829 90.197578430 102.14904785 1.8682644367 1.7419999838
 4024.9265137 6.0000000000 8.5710000992 0.3070122302 2.6000478268 86.523475647 101.98378754 1.8823840618 1.8140000105
