# LAS format log file from PETREL
# Project units are specified as depth units
#==================================================================
~Version information
VERS.   2.0:
WRAP.   NO:
#==================================================================
~Well
STRT .m      3166.7685547 :
STOP .m      4692.7500000 :
STEP .m     0.00000000 :
NULL .        -999.250000 :
COMP.           : COMPANY
WELL.  34/12-1   : WELL
FLD.            : FIELD
LOC.            : LOCATION
SRVC.           : SERVICE COMPANY
DATE.  2018-09-11 14:48:48   : Log Export Date {yyyy-MM-dd HH:mm:ss}
PROV.           : PROVINCE
UWI.   34/12-1   : UNIQUE WELL ID
API.            : API NUMBER
#==================================================================
~Curve
DEPT .m                   : DEPTH
Lithology_geolink ._      : Lithology_geolink
CALI .in                  : CALI
BS .in                    : BS
ROP .m/h                  : ROP
DRHO .g/cm3               : DRHO
THOR .ppm                 : THOR
SGR .gAPI                 : SGR
NPHI .m3/m3               : NPHI
RHOB .g/cm3               : RHOB
PEF .b/e                  : PEF
GR .gAPI                  : GR
URAN .ppm                 : URAN
DTC .us/ft                : DTC
DTS .us/ft                : DTS
RDEP .ohm.m               : RDEP
RSHA .ohm.m               : RSHA
RMED .ohm.m               : RMED
~Parameter
#==================================================================
~Ascii
# ...
 4185.5629883 7.0000000000 8.3781003952 8.3750000000 54748.816406 -0.009214744 10.479800224 0.0164987184 0.3310583234 2.3854424953 5.9305958748  -999.250000 19.809999466  -999.250000 225.36155701 2.2358520031 2.1774771214 2.2286982536
 4185.7153320 7.0000000000 8.4504003525 8.3750000000 65616.328125 -0.013788141 10.549500465 0.0162936114 0.3180637956 2.3676056862 5.4603071213  -999.250000 19.343500137  -999.250000 224.72380066 2.3082094193 2.2020013332 2.2926576138
 4185.8676758 7.0000000000 8.4358997345 8.3750000000 66465.359375 -0.010095512 10.891300201 0.0153016029 0.3067983985 2.3693950176 4.6850953102  -999.250000 19.840900421  -999.250000 223.63404846 2.6679060459 2.3893768787 2.6443018913
 4186.0200195 7.0000000000 8.4263000488 8.3750000000 66441.828125 -0.008689743 11.400600433 0.0158016011 0.3063532114 2.3678524494 4.7174534798  -999.250000 20.637699127  -999.250000 222.90705872 2.8571763039 2.5069258213 2.8322589397
 4186.1723633 7.0000000000 8.3781003952 8.3750000000 59127.109375 -0.005501282 11.783300400 0.0162977558 0.3229612112 2.3530068398 5.5781016350  -999.250000 21.338600159  -999.250000 222.27037048 3.1004250050 2.6091275215 3.0700480938
 4186.3247070 7.0000000000 8.3661003113 8.3750000000 59913.656250 -0.005896486 12.888500214 0.0155993588 0.3420134187 2.3239622116 6.9504122734  -999.250000 22.703699112  -999.250000 221.54550171 3.6683397293 2.8669502735 3.6140344143
 4186.4770508 7.0000000000 8.3781003952 8.3750000000 62140.675781 -0.004800000 12.821299553 0.0153967952 0.3461999893 2.3122000694 8.0150003433  -999.250000 23.692100525  -999.250000 221.54550171 3.7744436264 3.0074999332 3.7184898853
 4186.6293945 7.0000000000 8.4182996750 8.3750000000 63592.562500 -0.001800000 13.161600113 0.0143993590 0.3384000063 2.3243999481 6.5022997856  -999.250000 24.823099136  -999.250000 221.81820679 3.9128208160 3.0209999084 3.8400862217
 4186.7817383 7.0000000000 8.3589000702 8.3750000000 73150.203125 -0.004200000 13.001399994 0.0142003205 0.3535999954 2.3294000626 6.8642001152  -999.250000 25.100700378  -999.250000 222.00000000 4.0444803238 3.1103999615 3.9609520435
 4186.9345703 7.0000000000 8.3781003952 8.3750000000 73150.203125 -0.009209615 12.657899857 0.0142967952 0.3583099246 2.3305344582 6.4194016457  -999.250000 25.874099731  -999.250000 221.35893250 4.2871294022 3.1304266453 4.1947493553
 4187.0869141 7.0000000000 8.4302997589 8.3750000000 73150.203125 -0.012193269 12.782899857 0.0137961656 0.3613753319 2.3413691521 8.2853555679  -999.250000 26.432899475  -999.250000 219.90589905 4.2936377525 3.0454592705 4.1888303757
 4187.2392578 7.0000000000 8.4263000488 8.3750000000 73150.203125 -0.010107371 12.907899857 0.0132019231 0.3536689281 2.3629174232 8.1154384613  -999.250000 26.991600037  -999.250000 218.90939331 4.5972070694 3.0647656918 4.4911041260
 4187.3916016 7.0000000000 8.3982000351 8.3750000000 73219.210938 -0.012404167 13.581800461 0.0137971155 0.3440291882 2.3682544231 7.9675230980  -999.250000 25.785999298  -999.250000 219.00057983 5.2870898247 3.3352346420 5.1486663818
 4187.5439453 7.0000000000 8.4069995880 8.3750000000 94691.148438 -0.013703834 12.947799683 0.0129006412 0.3530469537 2.3541035652 6.5725789070  -999.250000 24.868799210  -999.250000 219.18295288 6.3399868011 3.7190749645 6.1319432259
 4187.6962891 7.0000000000 8.4583997726 8.3750000000 98282.515625 -0.014900000 11.632399559 0.0130964741 0.3364999890 2.3552000523 5.7547001839  -999.250000 23.830799103  -999.250000 219.54551697 5.8993763924 3.6800999641 5.7090802193
 4187.8486328 7.0000000000 8.4263000488 8.3750000000 98282.515625 -0.012400000 12.159500122 0.0120016029 0.3253999949 2.3631000519 5.8927001953  -999.250000 23.146400452  -999.250000 219.81820679 5.5782451630 3.5362999439 5.3892998695
 4188.0009766 7.0000000000 8.4462995529 8.3750000000 98282.515625 -0.010200000 11.909700394 0.0125022437 0.3113000095 2.3808000088 5.7726001740  -999.250000 23.117700577  -999.250000 220.81820679 4.7177906036 3.2667999268 4.5770082474
 4188.1533203 7.0000000000 8.4021997452 8.3750000000 98282.515625 -0.012600000 10.840999603 0.0132028842 0.3314000070 2.3768000603 5.3125000000  -999.250000 23.583999634  -999.250000 222.45449829 3.5315465927 2.8248000145 3.4274346828
 4188.3061523 7.0000000000 8.3973999023 8.3750000000 98213.203125 -0.013788462 11.267000198 0.0141044874 0.3292961419 2.3656637669 4.8701386452  -999.250000 23.621599197  -999.250000 223.63958740 3.0478000641 2.6015052795 2.9710512161
 4188.4584961 7.0000000000 8.4182996750 8.3750000000 76653.054688 -0.010198077 12.312500000 0.0147948880 0.3281326890 2.3543977737 4.7894625664  -999.250000 22.912599564  -999.250000 224.63902283 2.9377114773 2.5716612339 2.8690130711
 4188.6108398 7.0000000000 8.3781003952 8.3750000000 75215.875000 -0.009594551 11.753800392 0.0140016032 0.3383060694 2.3537235260 4.9952635765  -999.250000 22.002199173  -999.250000 225.45741272 2.6902580261 2.4347307682 2.6373822689
 4188.7631836 7.0000000000 8.4021997452 8.3750000000 75274.585938 -0.007893910 12.525400162 0.0144980764 0.3401888013 2.3611428738 4.8902535439  -999.250000 21.044099808  -999.250000 226.36418152 2.5527617931 2.2888634205 2.5074748993
 4188.9155273 7.0000000000 8.3821001053 8.3750000000 93558.445313 -0.005998083 11.692399979 0.0139022432 0.3366344869 2.3745386600 4.7816638947  -999.250000 21.105699539  -999.250000 226.54550171 2.5408463478 2.3086349964 2.4996592999
 4189.0678711 7.0000000000 8.3781003952 8.3750000000 101485.07813 -0.005400000 10.832200050 0.0146000003 0.3161999881 2.3866000175 4.5208001137  -999.250000 22.296400070  -999.250000 226.54550171 2.5240602493 2.3196001053 2.4868769646
 4189.2202148 7.0000000000 8.3901996613 8.3750000000 104050.44531 -0.006000000 10.998700142 0.0145987179 0.3046999872 2.3970999718 4.4654002190  -999.250000 22.604499817  -999.250000 225.72729492 2.4803364277 2.3069000244 2.4483470917
 4189.3725586 7.0000000000 8.3781003952 8.3750000000 106615.43750 -0.002800000 11.790300369 0.0142032048 0.3063000143 2.4072999954 4.7246999741  -999.250000 22.629600525  -999.250000 223.63638306 2.3980102539 2.2286000252 2.3694496155
 4189.5253906 7.0000000000 8.4102001190 8.3750000000 110976.47656 -0.004298398 10.690099716 0.0152019234 0.3197189271 2.4084532261 5.1881074905  -999.250000 22.420000076  -999.250000 221.26629639 2.3072755337 2.1363387108 2.2910070419
 4189.6777344 7.0000000000 8.4102001190 8.3750000000 110885.58594 -0.003793269 11.299599648 0.0155025553 0.3255711496 2.4250788689 5.7212171555  -999.250000 22.236999512  -999.250000 219.26864624 2.2101638317 2.1171810627 2.1988067627
 4189.8300781 7.0000000000 8.4624004364 8.3750000000 82625.820313 -0.001695833 11.851300240 0.0158996806 0.3165512681 2.4496521950 6.3795952797  -999.250000 22.285999298  -999.250000 217.99592590 2.1577355862 2.0800392628 2.1530444622
 4189.9824219 7.0000000000 8.4263000488 8.3750000000 84882.242188 -0.000417628 11.559100151 0.0158016011 0.3013990521 2.4659271240 6.3470926285  -999.250000 22.442600250  -999.250000 216.72380066 2.1063363552 2.0299508572 2.1044466496
 4190.1347656 7.0000000000 8.4102001190 8.3750000000 84878.296875 -0.005901603 10.512499809 0.0162987188 0.3011105657 2.4744408131 6.3776130676  -999.250000 22.294799805  -999.250000 215.63435364 2.0237994194 1.9831295013 2.0251085758
 4190.2871094 7.0000000000 8.4141998291 8.3750000000 83645.757813 -0.006399042 10.768099785 0.0158964749 0.3043948710 2.4871404171 6.9437198639  -999.250000 22.110500336  -999.250000 214.99913025 1.8676689863 1.8674063683 1.8718686104
 4190.4394531 7.0000000000 8.4021997452 8.3750000000 81885.960938 -0.006100000 10.329899788 0.0147990389 0.3027999997 2.4997999668 7.6675000191  -999.250000 22.303899765  -999.250000 214.72729492 1.7336387634 1.7134000063 1.7377468348
 4190.5917969 7.0000000000 8.3821001053 8.3750000000 80120.515625 -0.006100000 10.861599922 0.0144987172 0.3000999987 2.4914000034 8.0706996918  -999.250000 22.628999710  -999.250000 214.18179321 1.7458560467 1.7489999533 1.7524503469
 4190.7441406 7.0000000000 8.3299999237 8.3750000000 82507.679688 -0.007700000 11.132599831 0.0141019234 0.2953000069 2.4879999161 7.2167000771  -999.250000 22.574100494  -999.250000 213.45449829 1.7944117785 1.7910000086 1.7992078066
