# LAS format log file from PETREL
# Project units are specified as depth units
#==================================================================
~Version information
VERS.   2.0:
WRAP.   NO:
#==================================================================
~Well
STRT .m      127.75000000 :
STOP .m      3459.2514648 :
STEP .m     0.00000000 :
NULL .        -999.250000 :
COMP.           : COMPANY
WELL.  34/10-17   : WELL
FLD.            : FIELD
LOC.            : LOCATION
SRVC.           : SERVICE COMPANY
DATE.  2018-09-11 14:48:44   : Log Export Date {yyyy-MM-dd HH:mm:ss}
PROV.           : PROVINCE
UWI.   34/10-17   : UNIQUE WELL ID
API.            : API NUMBER
#==================================================================
~Curve
DEPT .m                   : DEPTH
Lithology_geolink ._      : Lithology_geolink
CALI .in                  : CALI
DRHO .g/cm3               : DRHO
NPHI .m3/m3               : NPHI
RHOB .g/cm3               : RHOB
GR .gAPI                  : GR
DTC .us/ft                : DTC
RDEP .ohm.m               : RDEP
SP .mV                    : SP
RSHA .ohm.m               : RSHA
RMED .ohm.m               : RMED
~Parameter
#==================================================================
~Ascii
# ...
 1013.8751221  -999.250000 18.377000809 -0.112999998 0.3230899870 1.7760000229 34.831001282 163.03199768 0.9520000219 33.980998993 0.7500000000 0.8479999900
 1014.0001221  -999.250000 18.372999191 -0.109999999 0.3151000142 1.7860000134 36.562000275 163.53399658 0.9599999785 34.048000336 0.7540000081 0.8560000062
 1014.1250610  -999.250000 18.370000839 -0.107000001 0.3084099889 1.7949999571 38.698001862 163.06599426 0.9710000157 34.099998474 0.7580000162 0.8640000224
 1014.2500610  -999.250000 18.367000580 -0.105999999 0.3055500090 1.8020000458 40.457000732 161.72999573 0.9850000143 34.118000031 0.7630000114 0.8730000257
 1014.3750000  -999.250000 18.364999771 -0.104999997 0.3086799979 1.8070000410 41.744998932 159.89799500 0.9980000257 34.101001740 0.7680000067 0.8820000291
 1014.5000610  -999.250000 18.364999771 -0.103000000 0.3190400004 1.8120000362 42.515998840 158.20799255 1.0099999905 34.074001312 0.7749999762 0.8889999986
 1014.6250000  -999.250000 18.364999771 -0.094999999 0.3400299847 1.8209999800 42.702999115 157.08000183 1.0190000534 34.067001343 0.7829999924 0.8949999809
 1014.7499390  -999.250000 18.365999222 -0.085000001 0.3659500182 1.8320000172 42.244998932 156.47702026 1.0269999504 34.096000671 0.7889999747 0.8980000019
 1014.8748779  -999.250000 18.368000031 -0.075000003 0.3891099989 1.8430000544 41.262001038 156.10200500 1.0340000391 34.169998169 0.7929999828 0.9010000229
 1014.9998779  -999.250000 18.368999481 -0.070000000 0.4015299976 1.8500000238 40.015998840 155.57099915 1.0399999619 34.292999268 0.7929999828 0.9020000100
 1015.1251221  -999.250000 18.371000290 -0.070000000 0.3949899971 1.8470000029 38.759998322 154.79901123 1.0449999571 34.477001190 0.7919999957 0.9029999971
 1015.2500610  -999.250000 18.371999741 -0.071999997 0.3738999963 1.8380000591 37.686000824 154.02998352 1.0460000038 34.698001862 0.7910000086 0.9010000229
 1015.3750610  -999.250000 18.372999191 -0.075000003 0.3450599909 1.8250000477 36.749000549 153.62600708 1.0440000296 34.901000977 0.7910000086 0.8989999890
 1015.5000000  -999.250000 18.371999741 -0.075999998 0.3185299933 1.8099999428 35.932998657 153.72200012 1.0420000553 35.021999359 0.7919999957 0.8949999809
 1015.6250000  -999.250000 18.370000839 -0.072999999 0.3055700064 1.7999999523 35.623001099 154.21200562 1.0390000343 35.028999329 0.7910000086 0.8909999728
 1015.7499390  -999.250000 18.361999512 -0.064000003 0.3023699820 1.7990000248 36.152000427 154.81100464 1.0390000343 34.974998474 0.7900000215 0.8870000243
 1015.8748779  -999.250000 18.340999603 -0.052999999 0.3025000095 1.8059999943 37.147998810 155.32600403 1.0390000343 34.967998505 0.7879999876 0.8849999905
 1015.9998779  -999.250000 18.299999237 -0.046000000 0.2974199951 1.8190000057 38.247001648 155.75100708 1.0420000553 35.101001740 0.7860000134 0.8840000033
 1016.1248779  -999.250000 18.235000610 -0.048000000 0.2817000151 1.8309999704 38.902000427 156.17500305 1.0449999571 35.384998322 0.7829999924 0.8859999776
 1016.2501221  -999.250000 18.145000458 -0.057999998 0.2624900043 1.8420000076 38.485000610 156.68800354 1.0479999781 35.720001221 0.7820000052 0.8899999857
 1016.3751221  -999.250000 18.041999817 -0.070000000 0.2490299940 1.8489999771 37.349998474 157.35600281 1.0499999523 35.957000732 0.7829999924 0.8949999809
 1016.5000610  -999.250000 17.937999725 -0.078000002 0.2495400012 1.8530000448 36.368999481 158.12899780 1.0509999990 36.006000519 0.7879999876 0.8989999890
 1016.6250610  -999.250000 17.843999863 -0.082999997 0.2695800066 1.8470000029 36.340000153 158.84199524 1.0520000458 35.860000610 0.7950000167 0.9020000100
 1016.7500000  -999.250000 17.774999619 -0.089000002 0.3008099794 1.8329999447 37.498001099 159.28399658 1.0520000458 35.608001709 0.8009999990 0.9029999971
 1016.8750610  -999.250000 17.732999802 -0.096000001 0.3347600102 1.8159999847 39.372001648 159.20799255 1.0529999733 35.331001282 0.8050000072 0.9029999971
 1016.9998779  -999.250000 17.714000702 -0.100000001 0.3582600057 1.8079999685 41.576000214 158.60401917 1.0540000200 35.075000763 0.8059999943 0.9029999971
 1017.1249390  -999.250000 17.711000443 -0.093000002 0.3605899811 1.8190000057 43.738998413 157.60899353 1.0549999475 34.847000122 0.8059999943 0.9020000100
 1017.2498779  -999.250000 17.718000412 -0.081000000 0.3549100161 1.8400000334 45.784000397 156.52398682 1.0540000200 34.650001526 0.8059999943 0.9010000229
 1017.3748779  -999.250000 17.739999771 -0.071999997 0.3518799841 1.8550000191 47.695999146 155.65800476 1.0499999523 34.501998901 0.8059999943 0.8980000019
 1017.5001221  -999.250000 17.790000916 -0.074000001 0.3563399911 1.8500000238 48.993999481 155.17999268 1.0429999828 34.416999817 0.8059999943 0.8949999809
 1017.6251221  -999.250000 17.875000000 -0.090000004 0.3639300168 1.8229999542 49.009998322 155.15299988 1.0329999924 34.410999298 0.8059999943 0.8899999857
 1017.7500610  -999.250000 17.979999542 -0.107000001 0.3659400046 1.7910000086 47.418998718 155.44999695 1.0219999552 34.467998505 0.8050000072 0.8830000162
 1017.8750000  -999.250000 18.052999496 -0.118000001 0.3587699831 1.7649999857 45.161998749 155.89300537 1.0119999647 34.566001892 0.8029999733 0.8759999871
 1018.0000000  -999.250000 18.044000626 -0.119999997 0.3451400101 1.7530000210 43.372001648 156.25001526 1.0030000210 34.666999817 0.7990000248 0.8669999838
 1018.1250000  -999.250000 17.922000885 -0.115000002 0.3359500170 1.7530000210 42.713001251 156.41600037 0.9940000176 34.729000092 0.7950000167 0.8579999804
 1018.2499390  -999.250000 17.694000244 -0.111000001 0.3365899920 1.7549999952 43.124000549 156.49699402 0.9860000014 34.727001190 0.7889999747 0.8510000110
 1018.3748779  -999.250000 17.440000534 -0.109999999 0.3441500068 1.7549999952 43.671001434 156.76499939 0.9800000191 34.661998749 0.7839999795 0.8460000157
 1018.4998779  -999.250000 17.225000381 -0.108000003 0.3523300290 1.7539999485 43.658000946 157.44000244 0.9769999981 34.591999054 0.7799999714 0.8439999819
 1018.6251221  -999.250000 17.086000443 -0.100000001 0.3514699936 1.7530000210 43.041999817 158.52099609 0.9769999981 34.573001862 0.7779999971 0.8460000157
 1018.7501221  -999.250000 17.027999878 -0.090000004 0.3413800001 1.7549999952 42.351001740 159.65199280 0.9800000191 34.616001129 0.7789999843 0.8500000238
 1018.8750610  -999.250000 17.010999680 -0.077000000 0.3299899995 1.7599999905 41.761001587 160.27600098 0.9860000014 34.700000763 0.7839999795 0.8539999723
 1019.0000610  -999.250000 17.007999420 -0.066000000 0.3286600113 1.7730000019 41.109001160 160.07200623 0.9940000176 34.766998291 0.7900000215 0.8590000272
 1019.1250000  -999.250000 17.006999969 -0.055000000 0.3438200057 1.7949999571 40.291000366 159.08999634 1.0030000210 34.779998779 0.7969999909 0.8629999757
 1019.2499390  -999.250000 17.006000519 -0.043000001 0.3639300168 1.8250000477 39.437999725 157.84599304 1.0110000372 34.743999481 0.8029999733 0.8669999838
 1019.3748779  -999.250000 17.004999161 -0.029999999 0.3753900230 1.8589999676 38.800998688 156.93798828 1.0190000534 34.675998688 0.8109999895 0.8719999790
 1019.4999390  -999.250000 17.003000259 -0.022000000 0.3706399798 1.8890000582 38.306999207 156.67399597 1.0260000229 34.583999634 0.8180000186 0.8759999871
 1019.6248779  -999.250000 17.000000000 -0.023000000 0.3523600101 1.9040000439 37.673000336 157.00700378 1.0319999456 34.456001282 0.8249999881 0.8790000081
 1019.7498779  -999.250000 16.996000290 -0.034000002 0.3360899985 1.9019999504 36.582000732 157.54299927 1.0360000134 34.298999786 0.8270000219 0.8820000291
 1019.8751221  -999.250000 16.993000031 -0.050000001 0.3323599994 1.8839999437 35.273998260 157.88499451 1.0369999409 34.153999329 0.8259999752 0.8840000033
 1020.0001221  -999.250000 16.995000839 -0.068999998 0.3422299922 1.8559999466 34.151000977 157.88999939 1.0360000134 34.070999146 0.8220000267 0.8840000033
 1020.1250610  -999.250000 17.002000809 -0.086999997 0.3587699831 1.8240000010 33.242000580 157.70500183 1.0319999456 34.070999146 0.8169999719 0.8820000291
