# LAS format log file from PETREL
# Project units are specified as depth units
#==================================================================
~Version information
VERS.   2.0:
WRAP.   NO:
#==================================================================
~Well
STRT .m      127.75000000 :
STOP .m      3459.2514648 :
STEP .m     0.00000000 :
NULL .        -999.250000 :
COMP.           : COMPANY
WELL.  34/10-17   : WELL
FLD.            : FIELD
LOC.            : LOCATION
SRVC.           : SERVICE COMPANY
DATE.  2018-09-11 14:48:44   : Log Export Date {yyyy-MM-dd HH:mm:ss}
PROV.           : PROVINCE
UWI.   34/10-17   : UNIQUE WELL ID
API.            : API NUMBER
#==================================================================
~Curve
DEPT .m                   : DEPTH
Lithology_geolink ._      : Lithology_geolink
CALI .in                  : CALI
DRHO .g/cm3               : DRHO
NPHI .m3/m3               : NPHI
RHOB .g/cm3               : RHOB
GR .gAPI                  : GR
DTC .us/ft                : DTC
RDEP .ohm.m               : RDEP
SP .mV                    : SP
RSHA .ohm.m               : RSHA
RMED .ohm.m               : RMED
~Parameter
#==================================================================
~Ascii
# ...
 2123.1250000  -999.250000 13.861999512 0.0230000000 0.4049299955 2.2999999523 40.696998596 100.37200165 1.8300000429 50.805999756 1.5559999943 1.6130000353
 2123.2500000  -999.250000 13.840000153 0.0140000004 0.4157499969 2.2829999924 42.265998840 102.35099792 1.8009999990 51.020000458 1.4980000257 1.5720000267
 2123.3752441  -999.250000 13.819999695 0.0070000002 0.4246099889 2.2669999599 44.375000000 105.21299744 1.7649999857 51.207000732 1.4390000105 1.5369999409
 2123.4997559  -999.250000 13.793000221 -0.001000000 0.4216899872 2.2550001144 45.877998352 108.47699738 1.7269999981 51.342998505 1.3910000324 1.5080000162
 2123.6247559  -999.250000 13.756999969 -0.008000000 0.4046099782 2.2530000210 46.766998291 111.53099823 1.6900000572 51.436000824 1.3600000143 1.4850000143
 2123.7500000  -999.250000 13.717000008 -0.012000000 0.3864300251 2.2550001144 47.575000763 113.80000305 1.6579999924 51.500000000 1.3459999561 1.4709999561
 2123.8750000  -999.250000 13.689000130 -0.013000000 0.3699700236 2.2599999905 48.688999176 114.88099670 1.6360000372 51.516998291 1.3430000544 1.4630000591
 2124.0000000  -999.250000 13.680999756 -0.011000000 0.3563600183 2.2650001049 50.006999969 114.99900055 1.6250000000 51.465000153 1.3500000238 1.4630000591
 2124.1250000  -999.250000 13.694000244 -0.011000000 0.3458299935 2.2679998875 50.950000763 114.38400269 1.6250000000 51.334999084 1.3630000353 1.4700000286
 2124.2500000  -999.250000 13.725000381 -0.013000000 0.3386700153 2.2699999809 51.252998352 113.23200226 1.6349999905 51.168998718 1.3839999437 1.4850000143
 2124.3750000  -999.250000 13.767999649 -0.018999999 0.3371900320 2.2709999084 51.131999969 111.65299988 1.6490000486 51.026000977 1.4090000391 1.5039999485
 2124.5002441  -999.250000 13.817000389 -0.026000001 0.3438299894 2.2720000744 50.789001465 110.03600311 1.6649999619 50.951000214 1.4340000153 1.5240000486
 2124.6252441  -999.250000 13.862999916 -0.028000001 0.3584899902 2.2760000229 50.326999664 108.83300781 1.6770000458 50.960998535 1.4550000429 1.5390000343
 2124.7497559  -999.250000 13.883000374 -0.026000001 0.3757400215 2.2829999924 49.750999451 108.30200195 1.6820000410 51.032001495 1.4650000334 1.5460000038
 2124.8750000  -999.250000 13.869999886 -0.021000000 0.3925299942 2.2890000343 49.272998810 108.51300049 1.6809999943 51.131000519 1.4670000076 1.5429999828
 2125.0000000  -999.250000 13.833999634 -0.017999999 0.4081299901 2.2850000858 49.143001556 109.04600525 1.6740000248 51.202999115 1.4639999866 1.5310000181
 2125.1250000  -999.250000 13.798000336 -0.021000000 0.4231800139 2.2660000324 49.631000519 109.50901031 1.6610000134 51.201000214 1.4559999704 1.5110000372
 2125.2500000  -999.250000 13.779000282 -0.024000000 0.4275600016 2.2420001030 50.512001038 109.83399963 1.6469999552 51.118000031 1.4400000572 1.4859999418
 2125.3750000  -999.250000 13.777999878 -0.023000000 0.4157600105 2.2230000496 51.223999023 110.23200226 1.6349999905 50.979999542 1.4140000343 1.4630000591
 2125.5000000  -999.250000 13.788999557 -0.017000001 0.3958200216 2.2170000076 51.446998596 110.92700195 1.6269999743 50.855998993 1.3799999952 1.4490000010
 2125.6250000  -999.250000 13.798000336 -0.008000000 0.3751200140 2.2219998837 51.563999176 112.01100159 1.6250000000 50.806999207 1.3480000496 1.4459999800
 2125.7502441  -999.250000 13.793000221 -0.001000000 0.3598699868 2.2309999466 51.888000488 113.25000000 1.6269999743 50.832000732 1.3300000429 1.4550000429
 2125.8747559  -999.250000 13.765000343 0.0000000000 0.3519300222 2.2379999161 52.304000854 114.11499786 1.6299999952 50.889999390 1.3300000429 1.4709999561
 2125.9997559  -999.250000 13.708998680 -0.006000000 0.3508499861 2.2409999371 52.667999268 114.09300232 1.6289999485 50.919998169 1.3500000238 1.4880000353
 2126.1250000  -999.250000 13.633998871 -0.017999999 0.3560900092 2.2409999371 52.622001648 112.86598969 1.6250000000 50.900001526 1.3849999905 1.5019999743
 2126.2500000  -999.250000 13.571000099 -0.028999999 0.3638300002 2.2449998856 51.915000916 110.72599792 1.6189999580 50.856998444 1.4290000200 1.5060000420
 2126.3750000  -999.250000 13.543000221 -0.034000002 0.3716899753 2.2560000420 50.605998993 108.25299835 1.6139999628 50.834999084 1.4659999609 1.5019999743
 2126.5000000  -999.250000 13.548001289 -0.030999999 0.3771699965 2.2760000229 49.205001831 106.33100128 1.6139999628 50.847000122 1.4800000191 1.4910000563
 2126.6250000  -999.250000 13.571999550 -0.021000000 0.3763600290 2.2960000038 48.101001740 105.77899933 1.6210000515 50.879001617 1.4659999609 1.4789999723
 2126.7500000  -999.250000 13.614999771 -0.013000000 0.3719699979 2.3099999428 47.714000702 106.76899719 1.6369999647 50.919998169 1.4279999733 1.4739999771
 2126.8752441  -999.250000 13.673999786 -0.011000000 0.3683700264 2.3139998913 47.925998688 109.08300018 1.6610000134 50.979999542 1.3860000372 1.4830000401
 2127.0002441  -999.250000 13.741000175 -0.021000000 0.3679200113 2.3039999008 48.387001038 111.73699951 1.6859999895 51.062999725 1.3580000401 1.5060000420
 2127.1247559  -999.250000 13.800998688 -0.037000000 0.3679200113 2.2850000858 48.686000824 113.69999695 1.7070000172 51.153999329 1.3559999466 1.5420000553
 2127.2500000  -999.250000 13.833000183 -0.050999999 0.3636399806 2.2669999599 48.909000397 114.31400299 1.7189999819 51.236000061 1.3930000067 1.5820000172
 2127.3750000  -999.250000 13.829000473 -0.055000000 0.3544400036 2.2590000629 49.189998627 113.18800354 1.7230000496 51.284000397 1.4609999657 1.6150000095
 2127.5000000  -999.250000 13.788999557 -0.046999998 0.3420700133 2.2679998875 49.138999939 110.70999908 1.7230000496 51.287998199 1.5499999523 1.6339999437
 2127.6250000  -999.250000 13.718000412 -0.033000000 0.3315100074 2.2939999104 48.021999359 107.38099670 1.7250000238 51.244998932 1.6349999905 1.6369999647
 2127.7500000  -999.250000 13.628000259 -0.023000000 0.3281000257 2.3220000267 45.719001770 104.10600281 1.7369999886 51.180999756 1.6749999523 1.6289999485
 2127.8750000  -999.250000 13.553000450 -0.023000000 0.3335800171 2.3369998932 42.988998413 102.10700226 1.7619999647 51.132999420 1.6540000439 1.6250000000
 2128.0000000  -999.250000 13.529000282 -0.034000002 0.3449700177 2.3310000896 41.234001160 102.25100708 1.7979999781 51.130001068 1.5900000334 1.6339999437
 2128.1252441  -999.250000 13.571999550 -0.048999999 0.3548600078 2.3059999943 41.261001587 104.81300354 1.8400000334 51.166999817 1.5210000277 1.6579999924
 2128.2497559  -999.250000 13.649999619 -0.059000000 0.3579399884 2.2809998989 43.226001740 108.67300415 1.8769999743 51.198001862 1.4850000143 1.6929999590
 2128.3747559  -999.250000 13.689000130 -0.059000000 0.3531700075 2.2679998875 45.839000702 111.96600342 1.8990000486 51.167999268 1.4950000048 1.7250000238
 2128.5000000  -999.250000 13.643999100 -0.052000001 0.3428699970 2.2690000534 47.951999664 112.93299103 1.9060000181 51.058998108 1.5440000296 1.7460000515
 2128.6250000  -999.250000 13.515999794 -0.041999999 0.3339500129 2.2839999199 48.930000305 110.87699890 1.8999999762 50.916000366 1.6150000095 1.7519999743
 2128.7500000  -999.250000 13.347998619 -0.034000002 0.3310300112 2.3029999733 49.027000427 106.87200928 1.8899999857 50.804000854 1.6770000458 1.7439999580
 2128.8750000  -999.250000 13.210000038 -0.029999999 0.3329199851 2.3220000267 48.546001434 102.51699829 1.8799999952 50.762001038 1.7050000429 1.7239999771
 2129.0000000  -999.250000 13.135000229 -0.028000001 0.3353799880 2.3369998932 47.713001251 99.333999634 1.8710000515 50.783000946 1.6950000525 1.6950000525
 2129.1250000  -999.250000 13.119999886 -0.029999999 0.3356700242 2.3450000286 46.528999329 98.056999207 1.8609999418 50.847000122 1.6540000439 1.6579999924
 2129.2502441  -999.250000 13.147000313 -0.037000000 0.3366099894 2.3450000286 44.964000702 98.515998840 1.8459999561 50.930000305 1.5889999866 1.6160000563
 2129.3752441  -999.250000 13.192999840 -0.048000000 0.3424200118 2.3340001106 43.863998413 100.53200531 1.8240000010 51.008998871 1.5180000067 1.5770000219
