# LAS format log file from PETREL
# Project units are specified as depth units
#==================================================================
~Version information
VERS.   2.0:
WRAP.   NO:
#==================================================================
~Well
STRT .m      3455.1030273 :
STOP .m      4235.3911133 :
STEP .m     0.00000000 :
NULL .        -999.250000 :
COMP.           : COMPANY
WELL.  34/11-3 T2   : WELL
FLD.            : FIELD
LOC.            : LOCATION
SRVC.           : SERVICE COMPANY
DATE.  2018-09-11 14:48:48   : Log Export Date {yyyy-MM-dd HH:mm:ss}
PROV.           : PROVINCE
UWI.   34/11-3 T2   : UNIQUE WELL ID
API.            : API NUMBER
#==================================================================
~Curve
DEPT .m                   : DEPTH
Lithology_geolink ._      : Lithology_geolink
CALI .in                  : CALI
NPHI .m3/m3               : NPHI
RHOB .g/cm3               : RHOB
GR .gAPI                  : GR
DTC .us/ft                : DTC
RDEP .ohm.m               : RDEP
RMED .ohm.m               : RMED
~Parameter
#==================================================================
~Ascii
# ...
 4170.1635742 4.0000000000 8.1820001602 0.1720035672 2.3561153412 49.178897858 83.777114868 22.230779648 22.972999573
 4170.3164063 2.0000000000 8.2629995346 0.1640530825 2.3922626972 70.905502319 80.515235901 25.175943375 28.313999176
 4170.4687500 2.0000000000 8.3129997253 0.1542953849 2.4332692623 96.113265991 76.570869446 28.994653702 34.659000397
 4170.6210938 2.0000000000 8.3420000076 0.1425722986 2.4752690792 111.04098511 72.409561157 34.236618042 44.525001526
 4170.7734375 2.0000000000 8.3579998016 0.1286152005 2.5172436237 106.55628967 68.551902771 45.244655609 58.826999664
 4170.9257813 2.0000000000 8.3649997711 0.1127542853 2.5552179813 85.481727600 65.391654968 59.088275909 71.663002014
 4171.0781250 2.0000000000 8.3669996262 0.0963570550 2.5891795158 60.364707947 63.098514557 71.665618896 88.971000671
 4171.2304688 2.0000000000 8.3669996262 0.0812473744 2.6171469688 42.605831146 61.579280853 76.526695251 101.56500244
 4171.3828125 2.0000000000 8.3640003204 0.0692924410 2.6400578022 35.279369354 60.602699280 78.545890808 100.86299896
 4171.5351563 2.0000000000 8.3649997711 0.0613920502 2.6580417156 34.712020874 59.899139404 75.322097778 88.108001709
 4171.6879883 2.0000000000 8.3680000305 0.0571880788 2.6710512638 36.225826263 59.282615662 66.068252563 76.620002747
 4171.8403320 2.0000000000 8.3710002899 0.0555584617 2.6790192127 38.248943329 58.692001343 53.948078156 60.222999573
 4171.9926758 2.0000000000 8.3710002899 0.0555044226 2.6819679737 40.480770111 58.175788879 43.641559601 45.904998779
 4172.1450195 2.0000000000 8.3719997406 0.0568082742 2.6768846512 42.628234863 57.859729767 35.315528870 34.333999634
 4172.2973633 2.0000000000 8.3719997406 0.0598755777 2.6587820053 43.484676361 57.906055450 30.536628723 25.510999680
 4172.4497070 2.0000000000 8.3629999161 0.0652551651 2.6246986389 41.882213593 58.481361389 27.576156616 21.450000763
 4172.6020508 2.0000000000 8.3369998932 0.0730980113 2.5776550770 38.910758972 59.700031281 24.349328995 20.315000534
 4172.7543945 2.0000000000 8.3050003052 0.0829759613 2.5238268375 36.625892639 61.583343506 21.645402908 19.149999619
 4172.9067383 2.0000000000 8.2889995575 0.0939542055 2.4698653221 36.781745911 64.044692993 20.242887497 17.732000351
 4173.0595703 2.0000000000 8.2969999313 0.1048340350 2.4278204441 39.284095764 66.907424927 19.315885544 17.580999374
 4173.2119141 2.0000000000 8.3129997253 0.1143630743 2.3999230862 42.490787506 69.889747620 19.385307312 18.302999496
 4173.3642578 2.0000000000 8.3249998093 0.1217486560 2.3880193233 44.533790588 72.673767090 20.679481506 19.375000000
 4173.5166016 2.0000000000 8.3290004730 0.1262914687 2.3910961151 45.247562408 74.880058289 23.505002975 22.993000031
 4173.6689453 2.0000000000 8.3299999237 0.1273441613 2.4061665535 45.794586182 76.164787292 25.964406967 29.975999832
 4173.8212891 2.0000000000 8.3319997787 0.1244192645 2.4322242737 46.194980621 76.320587158 29.383110046 38.268001556
 4173.9736328 2.0000000000 8.3400001526 0.1174571812 2.4672555923 45.931159973 75.343757629 34.281757355 43.485000610
 4174.1259766 2.0000000000 8.3549995422 0.1072710603 2.5071346760 44.877864838 73.447799683 40.758964539 49.951999664
 4174.2788086 2.0000000000 8.3660001755 0.0954525098 2.5492436886 43.686267853 70.990997314 51.305267334 58.359001160
 4174.4311523 2.0000000000 8.3710002899 0.0841886550 2.5871984959 42.813575745 68.394386292 63.330421448 63.619998932
 4174.5834961 2.0000000000 8.3719997406 0.0753444284 2.6181538105 41.788059235 65.977302551 69.929267883 75.100997925
 4174.7358398 2.0000000000 8.3710002899 0.0699170604 2.6421089172 39.960166931 63.921176910 72.414535522 92.276000977
 4174.8881836 2.0000000000 8.3699998856 0.0677185580 2.6590833664 37.595676422 62.272327423 71.055938721 79.996002197
 4175.0405273 2.0000000000 8.3690004349 0.0676415414 2.6720511913 36.422702789 60.987453461 74.007682800 74.123001099
 4175.1928711 2.0000000000 8.3699998856 0.0683593005 2.6800255775 37.295520782 60.021751404 78.401115417 72.962997437
 4175.3452148 2.0000000000 8.3699998856 0.0689293593 2.6839969158 39.260646820 59.323181152 85.613571167 82.578002930
 4175.4975586 2.0000000000 8.3690004349 0.0688787773 2.6829841137 41.106563568 58.838111877 94.494117737 117.65000153
 4175.6503906 2.0000000000 8.3660001755 0.0681692287 2.6779680252 42.709690094 58.535861969 94.523002625 114.51499939
 4175.8027344 2.0000000000 8.3610000610 0.0670921206 2.6729872227 44.450942993 58.430095673 82.709747314 77.488998413
 4175.9550781 4.0000000000 8.3529996872 0.0661815405 2.6709935665 45.598323822 58.599540710 62.471961975 52.208999634
 4176.1074219 4.0000000000 8.3430004120 0.0663069710 2.6699552536 44.364921570 59.212459564 42.609329224 31.938999176
 4176.2597656 4.0000000000 8.3299999237 0.0688136816 2.6628589630 40.349800110 60.498844147 33.576103210 21.816999435
 4176.4121094 4.0000000000 8.2959995270 0.0753623769 2.6407179832 35.954235077 62.688434601 27.639730453 16.135999680
 4176.5644531 4.0000000000 8.2110004425 0.0868146494 2.5965781212 34.533699036 65.848320007 24.630023956 14.428000450
 4176.7167969 4.0000000000 8.0880002975 0.1027477533 2.5307562351 36.981971741 69.805885315 21.766134262 13.479999542
 4176.8691406 4.0000000000 7.9770007133 0.1213295236 2.4547724724 41.483451843 74.165351868 19.220701218 12.711999893
 4177.0219727 4.0000000000 7.9120001793 0.1400361508 2.3836474419 46.644214630 78.433654785 16.966558456 12.062000275
 4177.1743164 4.0000000000 7.8860001564 0.1564030796 2.3287885189 51.742229462 82.144584656 15.657095909 11.458999634
 4177.3266602 4.0000000000 7.8800005913 0.1689649969 2.2959039211 56.358768463 85.072341919 15.045404434 11.184000015
 4177.4790039 5.0000000000 7.8800005913 0.1774779558 2.2809679508 59.754405975 87.210220337 14.813089371 10.798000336
 4177.6313477 5.0000000000 7.8800005913 0.1825292706 2.2760000229 61.899555206 88.723068237 14.920032501 10.678999901
 4177.7836914 5.0000000000 7.8800005913 0.1849460900 2.2760128975 63.546039581 89.848114014 14.922384262 10.461999893
 4177.9360352 5.0000000000 7.8839998245 0.1852975637 2.2780320644 64.516098022 90.790550232 14.945118904 10.432999611
 4178.0883789 5.0000000000 7.8860001564 0.1838788092 2.2830512524 63.540889740 91.699203491 14.885759354 10.553999901
 4178.2412109 5.0000000000 7.8850007057 0.1812992245 2.2910671234 59.763786316 92.651481628 14.562673569 10.453000069
 4178.3935547 5.0000000000 7.8800005913 0.1786761582 2.2980194092 55.341289520 93.609680176 14.491692543 10.484999657
 4178.5458984 5.0000000000 7.8730001450 0.1769428849 2.2999615669 54.097728729 94.417304993 14.315345764 10.453000069
 4178.6982422 5.0000000000 7.8670001030 0.1765928417 2.2959136963 57.650318146 94.838081360 13.922163010 10.357000351
 4178.8505859 5.0000000000 7.8680000305 0.1772674620 2.2869358063 62.721511841 94.675537109 13.774821281 10.079999924
 4179.0029297 6.0000000000 7.8750004768 0.1783513874 2.2769486904 65.200294495 93.889808655 13.633852005 9.8090000153
 4179.1552734 6.0000000000 7.8839998245 0.1790474355 2.2689743042 64.650276184 92.626304626 13.185480118 9.5319995880
 4179.3076172 6.0000000000 7.8930001259 0.1788778305 2.2649872303 63.687519073 91.147987366 12.594605446 9.1639995575
 4179.4599609 5.0000000000 7.9029998779 0.1781224757 2.2630064487 63.846389771 89.715415955 12.194580078 8.9639997482
 4179.6127930 5.0000000000 7.9079999924 0.1776774973 2.2640383244 64.135055542 88.494964600 11.735038757 8.9479999542
 4179.7651367 5.0000000000 7.9089999199 0.1786230803 2.2680575848 65.196060181 87.562553406 11.525846481 9.2229995728
 4179.9174805 4.0000000000 7.9120001793 0.1814063489 2.2740671635 69.913307190 86.921211243 11.157403946 9.0900001526
 4180.0698242 4.0000000000 7.9210004807 0.1853741854 2.2810862064 79.037200928 86.573913574 10.972753525 8.9460000992
 4180.2221680 4.0000000000 7.9390001297 0.1892108619 2.2900512218 88.470199585 86.521606445 10.909384727 8.9940004349
 4180.3745117 4.0000000000 7.9609999657 0.1917270422 2.2980513573 92.029968262 86.749870300 10.932919502 9.0349998474
