# LAS format log file from PETREL
# Project units are specified as depth units
#==================================================================
~Version information
VERS.   2.0:
WRAP.   NO:
#==================================================================
~Well
STRT .m      3900.0166016 :
STOP .m      4564.4804688 :
STEP .m     0.00000000 :
NULL .        -999.250000 :
COMP.           : COMPANY
WELL.  34/11-1   : WELL
FLD.            : FIELD
LOC.            : LOCATION
SRVC.           : SERVICE COMPANY
DATE.  2018-09-11 14:48:47   : Log Export Date {yyyy-MM-dd HH:mm:ss}
PROV.           : PROVINCE
UWI.   34/11-1   : UNIQUE WELL ID
API.            : API NUMBER
#==================================================================
~Curve
DEPT .m                   : DEPTH
Lithology_geolink ._      : Lithology_geolink
CALI .in                  : CALI
BS .in                    : BS
NPHI .m3/m3               : NPHI
RHOB .g/cm3               : RHOB
GR .gAPI                  : GR
DTC .us/ft                : DTC
DTS .us/ft                : DTS
RDEP .ohm.m               : RDEP
SP .mV                    : SP
RSHA .ohm.m               : RSHA
RMED .ohm.m               : RMED
~Parameter
#==================================================================
~Ascii
 3900.0166016 13.000000000 8.7939996719 12.250000954  -999.250000  -999.250000 112.81267548 102.38733673 205.61833191 1.5399935246  -999.250000 1.4041314125  -999.250000
 3900.1691895 13.000000000 8.7919998169 12.250000954  -999.250000  -999.250000 117.18383789 102.99600983 206.42279053 1.5358592272  -999.250000 1.4555375576  -999.250000
 3900.3215332 13.000000000 8.7889995575 12.250000954  -999.250000  -999.250000 119.26401520 102.85429382 206.88491821 1.4919582605  -999.250000 1.5176473856  -999.250000
 3900.4738770 13.000000000 8.7880001068 12.250000954  -999.250000  -999.250000 119.53073883 102.18522644 207.77108765 1.4659086466  -999.250000 1.5335769653  -999.250000
 3900.6262207 13.000000000 8.7869997025 12.250000954  -999.250000  -999.250000 119.17831421 101.21857452 208.58956909 1.4087868929  -999.250000 1.4414919615  -999.250000
 3900.7785645 13.000000000 8.7869997025 12.250000954  -999.250000  -999.250000 119.03271484 100.26808929 209.18061829 1.2760032415  -999.250000 1.3177083731  -999.250000
 3900.9311523 13.000000000 8.7860002518 12.250000954  -999.250000  -999.250000 119.68010712 99.577384949 210.08076477 1.2782815695  -999.250000 1.3230495453  -999.250000
 3901.0834961 13.000000000 8.7849998474 12.250000954  -999.250000  -999.250000 121.18035889 99.407859802 211.82290649 1.3662452698  -999.250000 1.4198750257  -999.250000
 3901.2358398 13.000000000 8.7829999924 12.250000954  -999.250000  -999.250000 123.28687286 99.821548462 213.63659668 1.5191587210  -999.250000 1.4889214039  -999.250000
 3901.3881836 13.000000000 8.7819995880 12.250000954  -999.250000  -999.250000 127.65920258 100.90535736 215.87530518 1.6178221703  -999.250000 1.5243557692  -999.250000
 3901.5407715 13.000000000 8.7819995880 12.250000954  -999.250000  -999.250000 137.60696411 102.08084869 217.18293762 1.5071471930  -999.250000 1.5401887894  -999.250000
 3901.6931152 13.000000000 8.7819995880 12.250000954  -999.250000  -999.250000 153.81671143 103.24283600 218.79113770 1.5530496836  -999.250000 1.5373204947  -999.250000
 3901.8454590 13.000000000 8.7790002823 12.250000954  -999.250000  -999.250000 168.81768799 104.33985901 220.12141418 1.5838445425  -999.250000 1.4982883930  -999.250000
 3901.9978027 13.000000000 8.7790002823 12.250000954  -999.250000  -999.250000 174.23963928 105.35399628 221.63121033 1.4868236780  -999.250000 1.4659183025  -999.250000
 3902.1503906 13.000000000 8.7799997330 12.250000954  -999.250000  -999.250000 168.86178589 105.96994019 223.59426880 1.3767983913  -999.250000 1.4215456247  -999.250000
 3902.3027344 13.000000000 8.7810001373 12.250000954  -999.250000  -999.250000 157.52046204 105.99819183 225.57853699 1.3140833378  -999.250000 1.3138829470  -999.250000
 3902.4550781 13.000000000 8.7799997330 12.250000954  -999.250000  -999.250000 146.33903503 105.59622955 228.21157837 1.3660241365  -999.250000 1.2663413286  -999.250000
 3902.6074219 13.000000000 8.7790002823 12.250000954  -999.250000  -999.250000 136.87234497 105.31895447 231.92877197 1.3812308311  -999.250000 1.3250849247  -999.250000
 3902.7597656 13.000000000 8.7779998779 12.250000954  -999.250000  -999.250000 129.76403809 105.13504791 237.21391296 1.5252916813  -999.250000 1.4284118414  -999.250000
 3902.9123535 13.000000000 8.7760000229 12.250000954  -999.250000  -999.250000 127.19895172 104.80614471 241.92378235 1.7074192762  -999.250000 1.5802928209  -999.250000
 3903.0646973 13.000000000 8.7760000229 12.250000954  -999.250000  -999.250000 128.98635864 104.24764252 246.19964600 1.8380881548  -999.250000 1.6212500334  -999.250000
 3903.2170410 13.000000000 8.7779998779 12.250000954  -999.250000  -999.250000 131.53375244 103.67430878 249.83625793 1.8930609226  -999.250000 1.5163092613  -999.250000
 3903.3693848 13.000000000 8.7810001373 12.250000954  -999.250000  -999.250000 132.54512024 103.16795349 250.73832703 1.9308845997  -999.250000 1.5652595758  -999.250000
 3903.5219727 13.000000000 8.7819995880 12.250000954  -999.250000  -999.250000 131.63804626 102.57006836 249.54917908 1.8579183817  -999.250000 1.5651392937  -999.250000
 3903.6743164 13.000000000 8.7819995880 12.250000954  -999.250000  -999.250000 128.54911804 101.71913910 246.25781250 1.5211218596  -999.250000 1.4695593119  -999.250000
 3903.8266602 13.000000000 8.7829999924 12.250000954  -999.250000  -999.250000 124.82943726 100.47246552 241.15275574 1.5969808102  -999.250000 1.3704952002  -999.250000
 3903.9790039 13.000000000 8.7829999924 12.250000954  -999.250000  -999.250000 122.55607605 99.450225830 235.02270508 1.5848157406  -999.250000 1.3116153479  -999.250000
 3904.1315918 13.000000000 8.7799997330 12.250000954  -999.250000  -999.250000 121.63882446 98.814956665 229.41038513 1.4696255922  -999.250000 1.3494591713  -999.250000
 3904.2839355 13.000000000 8.7779998779 12.250000954  -999.250000  -999.250000 120.28989410 98.689079285 226.26025391 1.3528525829  -999.250000 1.3728749752  -999.250000
 3904.4362793 13.000000000 8.7779998779 12.250000954  -999.250000  -999.250000 117.16921997 98.903106689 225.61360168 1.2612724304  -999.250000 1.4803974628  -999.250000
 3904.5886230 13.000000000 8.7790002823 12.250000954  -999.250000  -999.250000 113.82510376 99.407814026 225.25848389 1.4312772751  -999.250000 1.6637003422  -999.250000
 3904.7409668 13.000000000 8.7779998779 12.250000954  -999.250000  -999.250000 112.83663940 100.29717255 221.94795227 1.6041634083  -999.250000 1.7905423641  -999.250000
 3904.8935547 13.000000000 8.7770004272 12.250000954  -999.250000  -999.250000 113.58116913 100.93766785 217.23268127 1.7057471275  -999.250000 1.8808717728  -999.250000
 3905.0458984 13.000000000 8.7799997330 12.250000954  -999.250000  -999.250000 113.31124115 101.23705292 212.57601929 1.6269390583  -999.250000 1.9099391699  -999.250000
 3905.1982422 13.000000000 8.7819995880 12.250000954  -999.250000  -999.250000 111.91545868 100.76993561 209.33753967 1.5894294977  -999.250000 1.9199262857  -999.250000
 3905.3505859 13.000000000 8.7819995880 12.250000954  -999.250000  -999.250000 111.57147980 100.16703033 207.04040527 1.8572452068  -999.250000 1.7150657177  -999.250000
 3905.5031738 13.000000000 8.7829999924 12.250000954  -999.250000  -999.250000 113.16270447 99.432502747 205.69282532 2.0098495483  -999.250000 1.5227520466  -999.250000
 3905.6555176 13.000000000 8.7829999924 12.250000954  -999.250000  -999.250000 115.52140045 98.553329468 204.64093018 1.9628510475  -999.250000 1.6018861532  -999.250000
 3905.8078613 13.000000000 8.7810001373 12.250000954  -999.250000  -999.250000 117.88085938 97.431427002 205.21847534 1.8700240850  -999.250000 1.5664951801  -999.250000
 3905.9602051 13.000000000 8.7799997330 12.250000954  -999.250000  -999.250000 119.78891754 96.337905884 205.74719238 1.8852083683  -999.250000 1.4684134722  -999.250000
 3906.1127930 13.000000000 8.7810001373 12.250000954  -999.250000  -999.250000 120.09750366 95.906890869 206.38250732 2.0151023865  -999.250000 1.3535455465  -999.250000
 3906.2651367 13.000000000 8.7840003967 12.250000954  -999.250000  -999.250000 117.97300720 96.000984192 206.37197876 2.0466330051  -999.250000 1.3085577488  -999.250000
 3906.4174805 13.000000000 8.7849998474 12.250000954  -999.250000  -999.250000 114.16443634 96.321548462 206.70787048 1.8174422979  -999.250000 1.4929134846  -999.250000
 3906.5698242 13.000000000 8.7829999924 12.250000954  -999.250000  -999.250000 110.57807922 96.623916626 205.93550110 1.4700000286  -999.250000 1.6505016088  -999.250000
 3906.7221680 13.000000000 8.7810001373 12.250000954  -999.250000  -999.250000 107.17365265 96.727340698 204.61509705 1.4704471827  -999.250000 1.6404175758  -999.250000
 3906.8747559 13.000000000 8.7779998779 12.250000954  -999.250000  -999.250000 102.23630524 96.694511414 202.86433411 1.7499471903  -999.250000 1.5889631510  -999.250000
 3907.0270996 13.000000000 8.7760000229 12.250000954  -999.250000  -999.250000 96.027748108 96.591835022 201.64155579 2.0453703403  -999.250000 1.8155930042  -999.250000
 3907.1794434 13.000000000 8.7760000229 12.250000954  -999.250000  -999.250000 89.377975464 96.327865601 199.12103271 2.2756185532  -999.250000 1.9865624905  -999.250000
