# LAS format log file from PETREL
# Project units are specified as depth units
#==================================================================
~Version information
VERS.   2.0:
WRAP.   NO:
#==================================================================
~Well
STRT .m      492.56594849 :
STOP .m      2784.8139648 :
STEP .m     0.00000000 :
NULL .        -999.250000 :
COMP.           : COMPANY
WELL.  34/10-5   : WELL
FLD.            : FIELD
LOC.            : LOCATION
SRVC.           : SERVICE COMPANY
DATE.  2018-09-11 14:48:46   : Log Export Date {yyyy-MM-dd HH:mm:ss}
PROV.           : PROVINCE
UWI.   34/10-5   : UNIQUE WELL ID
API.            : API NUMBER
#==================================================================
~Curve
DEPT .m                   : DEPTH
Lithology_geolink ._      : Lithology_geolink
CALI .in                  : CALI
DRHO .g/cm3               : DRHO
NPHI .m3/m3               : NPHI
RHOB .g/cm3               : RHOB
GR .gAPI                  : GR
DTC .us/ft                : DTC
RDEP .ohm.m               : RDEP
SP .mV                    : SP
RSHA .ohm.m               : RSHA
RMED .ohm.m               : RMED
~Parameter
#==================================================================
~Ascii
# ...
 648.01391602  -999.250000 18.968999863 0.0179999992  -999.250000 2.1310000420 69.570014954 150.75000000 1.8579608202 23.788351059  -999.250000 1.5299583673
 648.16632080  -999.250000 18.952999115 0.0329999998  -999.250000 2.1540000439 63.766296387 150.12649536 1.8719607592 23.663351059  -999.250000 1.5639728308
 648.31872559  -999.250000 18.906000137 0.0230000000  -999.250000 2.1370000839 59.231704712 148.75331116 1.8959327936 23.538351059  -999.250000 1.5919775963
 648.47113037  -999.250000 18.906000137 0.0329999998  -999.250000 2.1540000439 59.000614166 148.12649536 1.9159439802 23.538000107  -999.250000 1.6059887409
 648.62353516  -999.250000 18.875000000 0.0379999988  -999.250000 2.1659998894 64.235282898 147.00270081 1.9309579134 23.413351059  -999.250000 1.6040015221
 648.77593994  -999.250000 18.827999115 0.0309999995  -999.250000 2.1679999828 67.989486694 146.50120544 1.9419691563 23.039051056  -999.250000 1.5920096636
 648.92828369  -999.250000 18.687999725 0.0350000001  -999.250000 2.1779999733 65.321609497 147.12324524 1.9589455128 22.913400650  -999.250000 1.6099784374
 649.08068848  -999.250000 18.672000885 0.0230000000  -999.250000 2.1559998989 63.879608154 148.74609375 1.9540159702 22.539201736  -999.250000 1.6149940491
 649.23309326  -999.250000 18.641000748 0.0469999984  -999.250000 2.1719999313 64.187004089 148.99940491 1.9380512238 22.413400650  -999.250000 1.5920276642
 649.38549805  -999.250000 18.531000137 0.0630000010  -999.250000 2.1640000343 61.882411957 149.37409973 1.9170672894 22.537599564  -999.250000 1.5510492325
 649.53790283  -999.250000 18.468999863 0.0489999987  -999.250000 2.1459999084 57.138320923 149.12559509 1.8761150837 22.538000107  -999.250000 1.5450071096
 649.69030762  -999.250000 18.437999725 0.0630000010  -999.250000 2.1740000248 51.235557556 145.38401794 1.8181625605 22.538000107  -999.250000 1.5589832067
 649.84271240  -999.250000 18.437999725 0.0399999991  -999.250000 2.1719999313 48.009025574 142.00810242 1.7791093588 22.538000107  -999.250000 1.5699912310
 649.99511719  -999.250000 18.437999725 0.0359999985  -999.250000 2.1879999638 44.135864258 141.37649536 1.7809944153 22.288700104  -999.250000 1.5150440931
 650.14752197  -999.250000 18.468999863 0.0240000002  -999.250000 2.1740000248 46.462429047 141.49969482 1.7849887609 22.288000107  -999.250000 1.4180777073
 650.29992676  -999.250000 18.547000885 0.0230000000  -999.250000 2.1659998894 53.947975159 141.50000000 1.7989608049 22.163351059  -999.250000 1.3690391779
 650.45233154  -999.250000 18.547000885 0.0250000004  -999.250000 2.1740000248 56.680377960 141.50000000 1.8059803247 22.412300110  -999.250000 1.4139640331
 650.60473633  -999.250000 18.531000137 0.0020000001  -999.250000 2.1600000858 59.710506439 139.38011169 1.7960280180 22.537649155  -999.250000 1.5049271584
 650.75714111  -999.250000 18.500000000 0.0000000000  -999.250000 2.1840000153 57.911079407 138.12800598 1.8069691658 22.538000107  -999.250000 1.5779415369
 650.90948486  -999.250000 18.500000000 0.0070000002  -999.250000 2.2090001106 57.033802032 137.37710571 1.8528527021 22.413400650  -999.250000 1.6149555445
 651.06188965  -999.250000 18.500000000 0.0130000003  -999.250000 2.2230000496 56.377101898 137.99824524 1.9058302641 22.413000107  -999.250000 1.6469614506
 651.21429443  -999.250000 18.500000000 0.0179999992  -999.250000 2.2070000172 59.240787506 139.12229919 1.9548430443 22.537599564  -999.250000 1.6350144148
 651.36669922  -999.250000 18.608999252 0.0270000007  -999.250000 2.1989998817 61.617389679 139.49909973 2.0018494129 22.662599564  -999.250000 1.6010408401
 651.51910400  -999.250000 18.641000748 0.0280000009  -999.250000 2.1840000153 59.943405151 141.12109375 2.0229327679 23.036798477  -999.250000 1.5630456209
 651.67150879  -999.250000 18.733999252 0.0390000008  -999.250000 2.1970000267 57.849872589 141.74850464 2.0309774876 22.664051056  -999.250000 1.5600035191
 651.82391357  -999.250000 18.827999115 0.0350000001  -999.250000 2.1909999847 58.778369904 142.12409973 2.0409717560 23.036949158  -999.250000 1.5709911585
 651.97631836  -999.250000 18.843999863 0.0500000007  -999.250000 2.2149999142 57.815711975 141.12739563 2.0569550991 23.287300110  -999.250000 1.5749968290
 652.12872314  -999.250000 18.875000000 0.0359999985  -999.250000 2.2130000591 62.268474579 140.50149536 2.0819299221 23.412649155  -999.250000 1.5819944143
 652.28112793  -999.250000 18.891000748 0.0419999994  -999.250000 2.2230000496 65.429153442 139.75180054 2.1248793602 23.662300110  -999.250000 1.6049815416
 652.43353271  -999.250000 18.922000885 0.0529999994  -999.250000 2.2379999161 64.128677368 140.12409973 2.1618962288 23.538351059  -999.250000 1.6459672451
 652.58593750  -999.250000 18.983999252 0.0240000002  -999.250000 2.1970000267 58.204643250 139.75090027 2.2068738937 23.538000107  -999.250000 1.6949608326
 652.73834229  -999.250000 18.875000000 0.0189999994  -999.250000 2.2049999237 56.878681183 140.74760437 2.2399075031 23.662649155  -999.250000 1.7349679470
 652.89074707  -999.250000 18.875000000 0.0130000003  -999.250000 2.1949999332 58.651004791 140.75000000 2.2579493523 23.538351059  -999.250000 1.7529855967
 653.04309082  -999.250000 18.875000000 0.0309999995  -999.250000 2.2209999561 62.736885071 140.37605286 2.2659742832 23.288801193  -999.250000 1.7450096607
 653.19549561  -999.250000 18.875000000 0.0219999999  -999.250000 2.1989998817 60.413509369 139.50210571 2.2709839344 23.412599564  -999.250000 1.7390071154
 653.34790039  -999.250000 18.875000000 0.0219999999  -999.250000 2.2149999142 60.095001221 140.49760437 2.2749872208 23.288400650  -999.250000 1.7290120125
 653.50030518  -999.250000 18.875000000 0.0329999998  -999.250000 2.2320001125 54.922618866 140.00120544 2.2680222988 23.288000107  -999.250000 1.7349928617
 653.65270996  -999.250000 18.875000000 0.0280000009  -999.250000 2.2290000916 62.260314941 140.12469482 2.2709915638 23.038702011  -999.250000 1.7280085087
 653.80511475  -999.250000 18.875000000 0.0260000005  -999.250000 2.2149999142 64.743080139 140.99789429 2.2660140991 23.162649155  -999.250000 1.7200096846
 653.95751953  -999.250000 18.875000000 0.0219999999  -999.250000 2.2049999237 67.430465698 140.75059509 2.2540335655 22.913700104  -999.250000 1.7170023918
 654.10992432  -999.250000 18.858999252 0.0379999988  -999.250000 2.2339999676 60.706920624 140.12649536 2.2400393486 22.788351059  -999.250000 1.7279912233
 654.26232910  -999.250000 18.858999252 0.0460000001  -999.250000 2.2479999065 54.112487793 140.00030518 2.2340168953 22.663351059  -999.250000 1.7349944115
 654.41473389  -999.250000 18.875000000 0.0520000011  -999.250000 2.2479999065 52.816589355 140.49879456 2.2300112247 23.036949158  -999.250000 1.7290047407
 654.56713867  -999.250000 18.858999252 0.0469999984  -999.250000 2.2300000191 53.685546875 141.12350464 2.2230195999 23.162649155  -999.250000 1.7010223866
 654.71954346  -999.250000 18.875000000 0.0390000008  -999.250000 2.2109999657 63.752704620 141.00030518 2.2130281925 23.287649155  -999.250000 1.6840136051
 654.87194824  -999.250000 18.875000000 0.0430000015  -999.250000 2.2149999142 66.555206299 141.49879456 2.2130000591 23.412649155  -999.250000 1.6909943819
 655.02435303  -999.250000 18.875000000 0.0250000004  -999.250000 2.1930000782 66.189056396 141.00120544 2.2249662876 23.662300110  -999.250000 1.7149808407
 655.17669678  -999.250000 18.875000000 0.0089999996  -999.250000 2.1700000763 60.611923218 140.12745667 2.2299840450 23.538400650  -999.250000 1.7379723787
 655.32910156  -999.250000 18.858999252 0.0130000003  -999.250000 2.1860001087 56.388515472 140.00030518 2.2359807491 23.288801193  -999.250000 1.7509844303
 655.48150635  -999.250000 18.858999252 0.0289999992  -999.250000 2.2030000687 55.284503937 139.75059509 2.2559359074 23.412599564  -999.250000 1.7529976368
 655.63391113  -999.250000 18.858999252 0.0460000001  -999.250000 2.2190001011 54.876300812 139.37590027 2.2599871159 23.413000107  -999.250000 1.7500035763
