# LAS format log file from PETREL
# Project units are specified as depth units
#==================================================================
~Version information
VERS.   2.0:
WRAP.   NO:
#==================================================================
~Well
STRT .m      586.57812500 :
STOP .m      4014.2067871 :
STEP .m     0.00000000 :
NULL .        -999.250000 :
COMP.           : COMPANY
WELL.  34/10-21   : WELL
FLD.            : FIELD
LOC.            : LOCATION
SRVC.           : SERVICE COMPANY
DATE.  2018-09-11 14:48:44   : Log Export Date {yyyy-MM-dd HH:mm:ss}
PROV.           : PROVINCE
UWI.   34/10-21   : UNIQUE WELL ID
API.            : API NUMBER
#==================================================================
~Curve
DEPT .m                   : DEPTH
Lithology_geolink ._      : Lithology_geolink
CALI .in                  : CALI
DRHO .g/cm3               : DRHO
NPHI .m3/m3               : NPHI
RHOB .g/cm3               : RHOB
PEF .b/e                  : PEF
GR .gAPI                  : GR
DTC .us/ft                : DTC
RDEP .ohm.m               : RDEP
SP .mV                    : SP
RSHA .ohm.m               : RSHA
RMED .ohm.m               : RMED
~Parameter
#==================================================================
~Ascii
# ...
 2181.2919922  -999.250000 14.944999695 -0.001006400 0.3524067402 2.3069999218 4.0910000801 59.875000000 115.49999237 1.1670000553 14.875000000 0.9800000191 1.1130000353
 2181.4443359  -999.250000 14.937999725 -0.000001603 0.3503964841 2.3089969158 3.9800000191 58.515998840 117.12400055 1.1599999666 14.625000000 0.9610000253 1.0850000381
 2181.5966797  -999.250000 14.843999863 -0.002995192 0.3626705110 2.3050065041 3.9630000591 58.466999054 116.87739563 1.1590000391 14.625000000 1.0079247952 1.0919888020
 2181.7490234  -999.250000 14.871000290 -0.004996795 0.3758577108 2.3040015697 4.0850000381 59.280998230 115.25260925 1.1640000343 14.750000000 1.0419455767 1.1359294653
 2181.9013672  -999.250000 15.050999641 -0.001012800 0.3695404530 2.3099806309 4.1830000877 60.000000000 112.87880707 1.1710000038 14.750000000 1.0759454966 1.1969022751
 2182.0539551  -999.250000 15.140999794 0.0049903844 0.3458380103 2.3209824562 4.1890001297 60.062999725 110.12699127 1.1749999523 15.123999596 1.0859999657 1.2410000563
 2182.2062988  -999.250000 15.203000069 0.0079951929 0.3309178054 2.3349776268 4.1979999542 58.487998962 109.00080872 1.1759999990 15.500000000 1.1598815918 1.2749456167
 2182.3586426  -999.250000 15.305000305 0.0099967951 0.3412466049 2.3399918079 4.4070000648 57.919998169 110.36880493 1.1710000038 15.375000000 1.1899520159 1.2799919844
 2182.5109863  -999.250000 15.069999695 0.0090031996 0.3570492864 2.3330223560 4.7470002174 57.547000885 112.62139130 1.1610000134 15.250000000 1.0462307930 1.2360705137
 2182.6635742  -999.250000 14.765999794 0.0089999996 0.3758399487 2.3250129223 4.8979997635 56.437999725 115.75000000 1.1640000343 15.250000000 0.9049999714 1.1640000343
 2182.8159180  -999.250000 14.975999832 0.0060048075 0.3791694045 2.3160142899 4.7030000687 55.048999786 117.87500000 1.1959999800 15.375000000 0.9300000072 1.1089999676
 2182.9682617  -999.250000 15.031999588 0.0050016022 0.3765185773 2.3179969788 4.5419998169 56.397998810 116.88059235 1.2450000048 15.251000404 0.9899039865 1.0880336761
 2183.1206055  -999.250000 14.758001328 0.0069936002 0.3695822656 2.3229839802 4.8299999237 58.905998230 114.12940979 1.3020000458 15.250000000 1.0688734055 1.1019775867
 2183.2731934  -999.250000 14.633000374 0.0149871791 0.3585377038 2.3489582539 6.1430001259 56.265998840 108.12500763 1.3750000000 15.375000000 1.1339999437 1.1480000019
 2183.4255371  -999.250000 14.438000679 0.0249839742 0.3497880697 2.4118990898 7.4990000725 48.243000031 101.25399780 1.4220000505 15.250000000 1.4859999418 1.2749999762
 2183.5778809  -999.250000 14.402000427 0.0210064091 0.3169255853 2.4739005566 6.7960000038 39.962001801 96.017395020 1.4229999781 15.498999596 3.1822814941 1.5835056305
 2183.7302246  -999.250000 14.605000496 0.0219983980 0.2796594799 2.4919712543 5.3559999466 38.280998230 93.753623962 1.4210000038 15.875000954 2.8585240841 1.9853557348
 2183.8825684  -999.250000 14.934000015 0.0319680013 0.2689241171 2.4421598911 4.5079998970 42.344001770 96.620391846 1.4179999828 16.125000000 1.1956682205 1.9740191698
 2184.0351563  -999.250000 15.241999626 0.0419839732 0.2880891860 2.3671202660 4.2750000954 49.390998840 103.50000000 1.4060000181 16.000000000 1.1670000553 1.5700000525
 2184.1875000  -999.250000 15.074999809 0.0370080136 0.3203565478 2.3060977459 4.2890000343 54.576000214 112.60340881 1.4060000181 15.875000954 1.0082544088 1.2774688005
 2184.3398438  -999.250000 14.774000168 0.0170320515 0.3411335051 2.2620706558 4.1760001183 56.311000824 116.49577332 1.3810000420 15.875000954 0.8662275672 1.1402195692
 2184.4921875  -999.250000 14.479999542 0.0120160002 0.3552946746 2.2550225258 3.9649999142 54.797000885 117.87280273 1.2970000505 15.750000000 0.9129246473 1.0940736532
 2184.6447754  -999.250000 14.250000000 0.0080064107 0.3693275750 2.2559983730 3.8310000896 53.359001160 118.75000000 1.2039999962 15.500000000 0.9279999733 1.0889999866
 2184.7971191  -999.250000 14.311999321 0.0070016026 0.3683432043 2.2569983006 3.7669999599 54.250000000 116.25199890 1.1480000019 15.250000000 0.9229999781 1.1000000238
 2184.9494629  -999.250000 14.312999725 0.0040048077 0.3620402515 2.2569999695 3.6789999008 53.674999237 113.75799561 1.1160000563 15.375000000 0.9888944030 1.1379392147
 2185.1018066  -999.250000 14.265999794 0.0030032001 0.3608836830 2.2589936256 3.6900000572 53.015998840 111.50360870 1.1160000563 15.375000000 0.9600464702 1.1919134855
 2185.2543945  -999.250000 14.512000084 0.0020016027 0.3601112366 2.2599983215 3.7750000954 51.702999115 112.00000000 1.1480000019 15.250000000 0.8840000033 1.2250000238
 2185.4067383  -999.250000 14.656001091 0.0039967950 0.3630306125 2.2609982491 3.9479999542 49.500000000 114.62500000 1.1879999638 15.500000000 0.9029999971 1.2120000124
 2185.5590820  -999.250000 14.781000137 0.0020032052 0.3755497336 2.2590031624 3.8670001030 47.284000397 117.11900330 1.2269999981 15.875000954 0.9099888206 1.1730623245
 2185.7114258  -999.250000 15.027001381 -0.004988782 0.3924059272 2.2580015659 3.8080000877 47.640998840 117.87379456 1.2500000000 16.000000000 0.9199839830 1.1510353088
 2185.8637695  -999.250000 15.093999863 -0.009984000 0.3830004334 2.2649776936 3.7669999599 53.140998840 114.87980652 1.2560000420 16.000000000 1.0927227736 1.1619822979
 2186.0163574  -999.250000 14.925999641 -0.010000000 0.3528367281 2.2739856243 3.7669999599 55.937999725 110.12500000 1.2510000467 16.000000000 1.2029999495 1.1909999847
 2186.1687012  -999.250000 14.758001328 -0.006006410 0.3271124065 2.2829856873 3.7290000916 54.205001831 108.12720490 1.2519999743 16.250000000 1.2389423847 1.2159599066
 2186.3210449  -999.250000 14.629000664 -0.002006410 0.3249467015 2.2879920006 3.6619999409 50.944999695 109.99200439 1.2580000162 16.250999451 1.1471474171 1.2299776077
 2186.4733887  -999.250000 14.625000000 -0.002000000 0.3498698175 2.2939805984 3.5160000324 48.922000885 110.12479401 1.2699999809 16.250000000 1.1559855938 1.2319967747
 2186.6259766  -999.250000 15.034999847 -0.002000000 0.3690693080 2.2999904156 3.4170000553 50.530998230 110.12500000 1.2840000391 16.250000000 1.2790000439 1.2350000143
 2186.7783203  -999.250000 15.348000526 -0.002998397 0.3666578531 2.2990016937 3.4470000267 51.890998840 110.75000000 1.2920000553 16.125000000 1.1920000315 1.2259999514
 2186.9306641  -999.250000 15.246000290 -0.006993590 0.3558647037 2.2890160084 3.5230000019 53.356998444 110.99761200 1.2890000343 16.375000000 1.1101312637 1.2090271711
 2187.0830078  -999.250000 14.913999557 -0.009990400 0.3456626832 2.2780354023 3.6180000305 52.812999725 112.87199402 1.2769999504 16.375000000 1.0730592012 1.1980175972
 2187.2355957  -999.250000 15.359000206 -0.010998397 0.3459295034 2.2720096111 3.6879999638 51.437999725 113.50000000 1.2699999809 16.000000000 1.0770000219 1.1829999685
 2187.3879395  -999.250000 15.500000000 -0.009003204 0.3400189877 2.2749953270 3.8220000267 53.000000000 112.50000000 1.2599999905 15.500000000 1.1050000191 1.1840000153
 2187.5402832  -999.250000 15.214999199 -0.009998397 0.3417244554 2.2809903622 3.9049999714 55.278999329 110.62999725 1.2480000257 15.500000000 1.1479312181 1.1979775429
 2187.6926270  -999.250000 15.171999931 -0.010000000 0.3538310826 2.2879889011 3.8789999485 55.547000885 109.00260925 1.2410000563 15.625000000 1.2198846340 1.2179679871
 2187.8449707  -999.250000 14.906000137 -0.009003200 0.3682537675 2.2860064507 3.8399999142 54.969001770 108.87519836 1.2289999723 15.500000000 1.1940417290 1.2249888182
 2187.9975586  -999.250000 14.852000237 -0.006004808 0.3701042235 2.2770142555 3.8199999332 55.562999725 109.62500000 1.2150000334 15.500000000 1.0909999609 1.2089999914
 2188.1499023  -999.250000 14.629000664 -0.005001602 0.3658935726 2.2700111866 3.8369998932 57.265998840 113.61859894 1.1990000010 15.375000000 1.0390832424 1.1920272112
 2188.3022461  -999.250000 14.437000275 -0.005998398 0.3684218228 2.2650082111 3.8220000267 57.206001282 115.62479401 1.1820000410 15.500000000 1.0569711924 1.1540609598
 2188.4545898  -999.250000 14.574001312 -0.010984000 0.3798333406 2.2630064487 3.8210000992 53.515998840 115.87460327 1.1670000553 15.750000000 1.0430223942 1.1180577278
