# LAS format log file from PETREL
# Project units are specified as depth units
#==================================================================
~Version information
VERS.   2.0:
WRAP.   NO:
#==================================================================
~Well
STRT .m      586.57812500 :
STOP .m      4014.2067871 :
STEP .m     0.00000000 :
NULL .        -999.250000 :
COMP.           : COMPANY
WELL.  34/10-21   : WELL
FLD.            : FIELD
LOC.            : LOCATION
SRVC.           : SERVICE COMPANY
DATE.  2018-09-11 14:48:44   : Log Export Date {yyyy-MM-dd HH:mm:ss}
PROV.           : PROVINCE
UWI.   34/10-21   : UNIQUE WELL ID
API.            : API NUMBER
#==================================================================
~Curve
DEPT .m                   : DEPTH
Lithology_geolink ._      : Lithology_geolink
CALI .in                  : CALI
DRHO .g/cm3               : DRHO
NPHI .m3/m3               : NPHI
RHOB .g/cm3               : RHOB
PEF .b/e                  : PEF
GR .gAPI                  : GR
DTC .us/ft                : DTC
RDEP .ohm.m               : RDEP
SP .mV                    : SP
RSHA .ohm.m               : RSHA
RMED .ohm.m               : RMED
~Parameter
#==================================================================
~Ascii
# ...
 3783.3208008 6.0000000000 9.1560001373 0.1030000001 0.3003500104 2.5620000362 7.0910000801 87.873001099 77.500000000 8.7390003204 64.106002808 12.965000153 13.024000168
 3783.4733887 6.0000000000 9.1560001373 0.1190000027 0.3172999918 2.6180000305 4.9299998283 86.125000000 76.938003540 9.1210002899 64.504997253 16.742000580 14.116999626
 3783.6257324 6.0000000000 9.1560001373 0.0850000009 0.3241499960 2.6489999294 4.0920000076 83.280998230 76.313003540 9.2229995728 64.449996948 18.108999252 14.734000206
 3783.7780762 6.0000000000 9.1289997101 0.0399999991 0.3202600181 2.6659998894 3.6779999733 81.030998230 76.186996460 9.1949996948 64.504997253 15.965000153 14.475999832
 3783.9304199 6.0000000000 9.1330003738 0.0000000000 0.2983799875 2.6459999084 3.6989998817 79.500000000 76.000000000 9.0349998474 64.997001648 15.234000206 13.895000458
 3784.0830078 6.0000000000 9.2419996262 -0.003000000 0.2841399908 2.6519999504 3.5840001106 80.063003540 75.875000000 8.8159999847 64.552001953 14.628999710 13.109000206
 3784.2353516 6.0000000000 9.4569997787 -0.005000000 0.2795599997 2.6519999504 3.6059999466 84.496002197 76.560997009 8.6330003738 63.723995209 9.3579998016 12.059000015
 3784.3876953 6.0000000000 9.6210002899 -0.007000000 0.2861900032 2.6510000229 4.1830000877 88.338996887 77.748001099 8.3090000153 63.916996002 4.9439997673 11.324999809
 3784.5400391 6.0000000000 9.4490003586 -0.011000000 0.2957800031 2.6240000725 4.8870000839 91.905998230 79.188003540 7.9590001106 64.552001953 6.0310001373 10.788999557
 3784.6923828 6.0000000000 9.3870000839 -0.006000000 0.2999099791 2.5810000896 5.9079999924 92.219001770 80.625007629 7.7600002289 65.183998108 8.7969999313 10.628999710
 3784.8449707 6.0000000000 9.3319997787 0.0120000001 0.2953599989 2.5720000267 6.2960000038 90.063003540 80.625999451 7.6350002289 64.880996704 9.1909999847 10.831999779
 3784.9973145 6.0000000000 9.2609996796 0.0370000005 0.2973999977 2.5620000362 6.7839999199 87.600997925 79.938003540 7.6750001907 64.237998962 8.7709999084 11.034999847
 3785.1496582 6.0000000000 9.2379999161 0.0769999996 0.2958799899 2.5880000591 7.0180001259 85.375000000 79.625000000 7.9239997864 63.312999725 9.7659997940 11.343999863
 3785.3020020 6.0000000000 9.0979995728 0.0979999974 0.2963999808 2.5889999866 6.8660001755 85.905998230 78.625000000 8.2270002365 63.140995026 9.5699996948 11.711000443
 3785.4545898 6.0000000000 9.1450004578 0.1319999993 0.2943100035 2.6219999790 6.7989997864 83.875000000 76.625000000 8.3199996948 63.833000183 10.116999626 12.159999847
 3785.6069336 6.0000000000 9.1289997101 0.1420000046 0.2934100032 2.6329998970 6.7719998360 80.875000000 75.063003540 8.1479997635 64.418998718 12.586000443 12.703000069
 3785.7592773 6.0000000000 9.0659999847 0.1400000006 0.2943499982 2.6300001144 6.8860001564 79.153999329 74.124000549 7.9200000763 64.373001099 14.538000107 12.894000053
 3785.9116211 6.0000000000 9.0509996414 0.1289999932 0.2919200063 2.6210000515 6.8990001678 78.563003540 73.688003540 7.6389999390 63.808998108 13.590000153 12.508000374
 3786.0642090 6.0000000000 9.1129999161 0.1220000014 0.2968400121 2.6140000820 7.2509999275 79.280998230 75.000000000 7.3260002136 64.356002808 11.645000458 11.684000015
 3786.2165527 6.0000000000 9.2930002213 0.1209999993 0.2931800187 2.6089999676 7.6420001984 80.344001770 77.250000000 7.2290000916 64.333000183 9.0039997101 10.425999641
 3786.3688965 6.0000000000 9.6560001373 0.1220000014 0.2760800123 2.6070001125 7.9840002060 82.093002319 78.749000549 7.2459998131 64.013000488 4.4250001907 9.1339998245
 3786.5212402 6.0000000000 9.5819997787 0.1250000000 0.2565299869 2.6110000610 7.9619998932 84.375000000 78.688003540 7.1599998474 64.629997253 2.5799999237 8.5900001526
 3786.6735840 6.0000000000 9.1450004578 0.1250000000 0.2517200112 2.6099998951 8.0430002213 86.500000000 77.313003540 6.9819998741 64.497001648 5.4580001831 9.0659999847
 3786.8261719 6.0000000000 9.0349998474 0.1299999952 0.2835699916 2.6140000820 8.1190004349 86.875000000 77.313003540 6.7600002289 64.129997253 10.770000458 9.9300003052
 3786.9785156 6.0000000000 9.1639995575 0.1239999980 0.2975800037 2.6019999981 7.4660000801 85.155998230 78.125007629 6.6149997711 64.591003418 11.277000427 10.387000084
 3787.1308594 6.0000000000 9.2770004272 0.1199999973 0.3045000136 2.5980000496 7.1739997864 84.533996582 78.438003540 6.7270002365 64.481002808 7.7639999390 10.315999985
 3787.2832031 6.0000000000 9.3599996567 0.1199999973 0.2883799970 2.5999999046 7.2179999352 85.405998230 78.750000000 6.9809999466 63.918003082 5.3829998970 9.9960002899
 3787.4357910 6.0000000000 9.4960002899 0.1260000020 0.2925499976 2.6099998951 7.6690001488 85.375000000 78.750000000 7.2090001106 64.043998718 6.2170000076 9.8909997940
 3787.5881348 6.0000000000 9.3909997940 0.1340000033 0.2992600203 2.6199998856 7.4330000877 84.655998230 79.188003540 7.4279999733 64.972999573 7.3280000687 10.104999542
 3787.7404785 6.0000000000 9.2299995422 0.1250000000 0.3063200116 2.6129999161 7.3390002251 85.128997803 79.688003540 7.6269998550 64.652999878 6.9559998512 10.359999657
 3787.8928223 6.0000000000 9.1680002213 0.0879999995 0.3133800030 2.5899999142 7.3600001335 89.787002563 78.935997009 7.8649997711 64.341003418 10.225000381 10.562999725
 3788.0454102 6.0000000000 9.1909999847 0.0430000015 0.3092800081 2.5569999218 6.5040001869 91.688003540 78.313003540 8.0760002136 64.856002808 10.902000427 10.940999985
 3788.1977539 6.0000000000 9.1909999847 0.0379999988 0.3065200150 2.5590000153 5.2220001221 88.875000000 77.687995911 8.2379999161 64.997001648 7.7890000343 11.574000359
 3788.3500977 6.0000000000 9.1250000000 0.0750000030 0.3016900122 2.6019999981 4.5329999924 84.162002563 76.189002991 8.4409999847 64.927001953 12.230999947 12.468000412
 3788.5024414 6.0000000000 9.1289997101 0.1010000035 0.2946699858 2.6440000534 4.4619998932 82.750000000 73.938003540 8.6330003738 63.735000610 16.891000748 13.413999557
 3788.6550293 6.0000000000 9.1450004578 0.0810000002 0.2917999923 2.6449999809 4.5560002327 86.280998230 71.563003540 8.6289997101 60.738998413 15.421999931 13.987999916
 3788.8073730 6.0000000000 9.1639995575 0.0410000011 0.2965999842 2.6259999275 4.4660000801 87.936996460 70.625000000 8.6370000839 61.230998993 13.979999542 13.930000305
 3788.9597168 6.0000000000 9.1599998474 0.0109999999 0.3008700013 2.6370000839 5.2550001144 86.598999023 71.683998108 8.8430004120 63.918003082 12.642000198 13.286999702
 3789.1120605 6.0000000000 9.1560001373 0.0010000000 0.2930800021 2.6930000782 6.4190001488 83.500000000 73.563003540 8.9729995728 64.286003113 6.9660000801 12.003999710
 3789.2644043 5.0000000000 9.1639995575 -0.004000000 0.2830400169 2.7200000286 6.6830000877 80.313003540 73.625000000 8.8909997940 64.341003418 5.3579998016 10.819999695
 3789.4169922 5.0000000000 9.1759996414 0.0040000002 0.2813200057 2.6989998817 5.3249998093 77.282997131 74.498001099 8.7500000000 64.402999878 9.5109996796 10.581999779
 3789.5693359 5.0000000000 9.1949996948 0.0140000004 0.2977800071 2.6589999199 4.3189997673 75.844001770 74.941001892 8.5279998779 64.394996643 13.854000092 11.274999619
 3789.7216797 5.0000000000 9.2030000687 0.0149999997 0.3008199930 2.6359999180 4.1929998398 75.969001770 73.500000000 8.2030000687 64.698997498 16.007999420 12.546999931
 3789.8740234 5.0000000000 9.2030000687 -0.001000000 0.2933499813 2.6319999695 4.5450000763 74.688003540 72.250000000 7.9879999161 65.091003418 14.645000458 13.281000137
 3790.0266113 5.0000000000 9.2030000687 -0.014000000 0.2786099911 2.6240000725 4.6350002289 73.750000000 71.750000000 7.9180002213 63.730998993 9.1409997940 12.805000305
 3790.1789551 5.0000000000 9.2030000687 -0.016000001 0.2682000101 2.6229999065 4.7210001945 75.030998230 72.375000000 7.8629999161 63.535995483 5.1209998131 11.590000153
 3790.3312988 5.0000000000 9.2539997101 -0.015000000 0.2616600096 2.6259999275 5.7550001144 79.744003296 72.875000000 7.6599998474 64.668998718 9.9820003510 10.484999657
 3790.4836426 5.0000000000 9.3549995422 -0.010000000 0.2641800046 2.5980000496 7.2329998016 83.938003540 74.188003540 7.4039998055 64.622001648 10.597999573 9.5659999847
