# LAS format log file from PETREL
# Project units are specified as depth units
#==================================================================
~Version information
VERS.   2.0:
WRAP.   NO:
#==================================================================
~Well
STRT .m      127.75000000 :
STOP .m      3459.2514648 :
STEP .m     0.00000000 :
NULL .        -999.250000 :
COMP.           : COMPANY
WELL.  34/10-17   : WELL
FLD.            : FIELD
LOC.            : LOCATION
SRVC.           : SERVICE COMPANY
DATE.  2018-09-11 14:48:44   : Log Export Date {yyyy-MM-dd HH:mm:ss}
PROV.           : PROVINCE
UWI.   34/10-17   : UNIQUE WELL ID
API.            : API NUMBER
#==================================================================
~Curve
DEPT .m                   : DEPTH
Lithology_geolink ._      : Lithology_geolink
CALI .in                  : CALI
DRHO .g/cm3               : DRHO
NPHI .m3/m3               : NPHI
RHOB .g/cm3               : RHOB
GR .gAPI                  : GR
DTC .us/ft                : DTC
RDEP .ohm.m               : RDEP
SP .mV                    : SP
RSHA .ohm.m               : RSHA
RMED .ohm.m               : RMED
~Parameter
#==================================================================
~Ascii
# ...
 2569.3750000 13.000000000 14.654000282 -0.046000000 0.3869300187 2.1689999104 43.426998138 111.10300446 1.1030000448 53.907001495 1.0889999866 1.0579999685
 2569.5000000 13.000000000 14.711999893 -0.050999999 0.3802500069 2.1659998894 41.722999573 111.64500427 1.1009999514 53.921001434 1.0909999609 1.0679999590
 2569.6250000 13.000000000 14.751001358 -0.056000002 0.3710100055 2.1630001068 39.894001007 111.93800354 1.0989999771 53.952999115 1.1009999514 1.0789999962
 2569.7502441 13.000000000 14.754999161 -0.054000001 0.3688899875 2.1700000763 38.668998718 111.88899994 1.0959999561 53.988998413 1.1160000563 1.0850000381
 2569.8752441 13.000000000 14.729000092 -0.039999999 0.3772700131 2.1970000267 38.599998474 111.34600067 1.0959999561 54.026000977 1.1299999952 1.0870000124
 2570.0002441 13.000000000 14.689000130 -0.014000000 0.3924300075 2.2439999580 39.176998138 110.46299744 1.1000000238 54.080001831 1.1369999647 1.0889999866
 2570.1247559 13.000000000 14.645000458 0.0140000004 0.4007200003 2.2950000763 39.775001526 109.53900146 1.1119999886 54.175998688 1.1360000372 1.0939999819
 2570.2500000 13.000000000 14.597000122 0.0309999995 0.3929800093 2.3280000687 40.265998840 108.92199707 1.1339999437 54.310001373 1.1310000420 1.1050000191
 2570.3750000 13.000000000 14.534000397 0.0340000018 0.3744300008 2.3399999142 40.811000824 108.83900452 1.1610000134 54.446998596 1.1299999952 1.1239999533
 2570.5000000 13.000000000 14.453000069 0.0309999995 0.3574700058 2.3380000591 41.548000336 109.08799744 1.1920000315 54.542999268 1.1380000114 1.1449999809
 2570.6250000 13.000000000 14.369000435 0.0289999992 0.3474700153 2.3380000591 42.284000397 109.24099731 1.2220000029 54.583000183 1.1540000439 1.1690000296
 2570.7500000 13.000000000 14.300999641 0.0299999993 0.3364000022 2.3410000801 42.318000793 108.95500183 1.2489999533 54.597999573 1.1759999990 1.1920000315
 2570.8750000 13.000000000 14.255999565 0.0320000015 0.3192200065 2.3429999352 41.422000885 108.11901093 1.2730000019 54.631999969 1.1959999800 1.2150000334
 2571.0000000 13.000000000 14.232999802 0.0289999992 0.2992500067 2.3359999657 39.944000244 107.01100159 1.2960000038 54.708999634 1.2120000124 1.2330000401
 2571.1247559 13.000000000 14.223999977 0.0130000003 0.2853899896 2.3120000362 38.844001770 105.99400330 1.3170000315 54.826999664 1.2200000286 1.2469999790
 2571.2497559 13.000000000 14.215000153 -0.015000000 0.2831299901 2.2730000019 38.518001556 105.36399841 1.3359999657 54.958999634 1.2189999819 1.2530000210
 2571.3750000 13.000000000 14.192998886 -0.050000001 0.2920599878 2.2249999046 38.712001801 105.30200195 1.3500000238 55.069999695 1.2089999914 1.2539999485
 2571.5000000 13.000000000 14.157999992 -0.085000001 0.3076100051 2.1779999733 38.679000854 105.69000244 1.3609999418 55.131000519 1.1950000525 1.2530000210
 2571.6250000 13.000000000 14.114999771 -0.107000001 0.3264099956 2.1530001163 38.027000427 106.33699799 1.3700000048 55.113998413 1.1829999685 1.2539999485
 2571.7500000 13.000000000 14.074000359 -0.111000001 0.3485499918 2.1589999199 36.911998749 106.95200348 1.3780000210 55.013000488 1.1790000200 1.2599999905
 2571.8750000 13.000000000 14.050999641 -0.100000001 0.3680799901 2.1909999847 36.186000824 107.25599670 1.3890000582 54.840999603 1.1840000153 1.2680000067
 2572.0000000 13.000000000 14.048000336 -0.079999998 0.3785599768 2.2339999676 36.243999481 107.16799927 1.4019999504 54.651000977 1.1950000525 1.2760000229
 2572.1252441 13.000000000 14.053000450 -0.059999999 0.3728699982 2.2679998875 36.839000702 106.79799652 1.4119999409 54.486999512 1.2039999962 1.2799999714
 2572.2502441 13.000000000 14.053000450 -0.041999999 0.3578599989 2.2860000134 37.341999054 106.38700104 1.4179999828 54.375000000 1.2020000219 1.2790000439
 2572.3752441 13.000000000 14.057999611 -0.028000001 0.3425400257 2.2920000553 37.355998993 106.05899811 1.4199999571 54.323001862 1.1870000362 1.2740000486
 2572.5000000 13.000000000 14.090999603 -0.018999999 0.3312599957 2.2880001068 37.210998535 105.81600189 1.4190000296 54.314998627 1.1629999876 1.2660000324
 2572.6250000 13.000000000 14.175998688 -0.022000000 0.3251399994 2.2690000534 37.484001160 105.71600342 1.4170000553 54.335998535 1.1360000372 1.2560000420
 2572.7500000 13.000000000 14.322999954 -0.034000002 0.3216499984 2.2369999886 38.571998596 105.86599731 1.4140000343 54.375999451 1.1139999628 1.2400000095
 2572.8750000 13.000000000 14.495999336 -0.050999999 0.3210100234 2.1989998817 39.985000610 106.46299744 1.4119999409 54.426998138 1.1009999514 1.2220000029
 2573.0000000 13.000000000 14.656999588 -0.067000002 0.3258000314 2.1659998894 40.979999542 107.54599762 1.4090000391 54.477001190 1.1019999981 1.2050000429
 2573.1250000 13.000000000 14.781000137 -0.077000000 0.3382599950 2.1480000019 41.069000244 108.97699738 1.4010000229 54.521999359 1.1180000305 1.1920000315
 2573.2500000 13.000000000 14.840999603 -0.085000001 0.3545999825 2.1400001049 40.465000153 110.37799835 1.3849999905 54.569000244 1.1449999809 1.1859999895
 2573.3750000 13.000000000 14.833001137 -0.089000002 0.3705700040 2.1400001049 40.145000458 111.26899719 1.3650000095 54.633998871 1.1670000553 1.1829999685
 2573.4997559 13.000000000 14.776000023 -0.086999997 0.3820600212 2.1489999294 40.770999908 111.44399261 1.3430000544 54.724998474 1.1699999571 1.1829999685
 2573.6247559 13.000000000 14.708999634 -0.079000004 0.3886600137 2.1630001068 42.410999298 110.81600189 1.3250000477 54.833000183 1.1549999714 1.1829999685
 2573.7500000 13.000000000 14.692000389 -0.071999997 0.3942900002 2.1770000458 44.330001831 109.49299622 1.3120000362 54.936000824 1.1360000372 1.1829999685
 2573.8750000 13.000000000 14.751999855 -0.071000002 0.4002999961 2.1860001087 45.851001740 107.14299774 1.3040000200 55.000000000 1.1289999485 1.1820000410
 2574.0000000 13.000000000 14.861000061 -0.075999998 0.4041400254 2.1909999847 46.415000916 105.77999878 1.2979999781 55.013000488 1.1360000372 1.1790000200
 2574.1250000 13.000000000 14.968000412 -0.082000002 0.3997399807 2.1960000992 46.005001068 105.56800079 1.2929999828 54.974998474 1.1499999762 1.1740000248
 2574.2500000 13.000000000 15.029999733 -0.082999997 0.3898600042 2.2070000172 44.693000793 105.95300293 1.2899999619 54.915000916 1.1610000134 1.1690000296
 2574.3750000 13.000000000 15.060000420 -0.075999998 0.3803299963 2.2219998837 43.006999969 106.77999878 1.2899999619 54.854000092 1.1629999876 1.1690000296
 2574.5002441 13.000000000 15.079000473 -0.064000003 0.3744499981 2.2349998951 41.557998657 107.43599701 1.2940000296 54.804000854 1.1640000343 1.1740000248
 2574.6252441 13.000000000 15.095998764 -0.052999999 0.3728099763 2.2400000095 40.756000519 107.98400116 1.3020000458 54.766998291 1.1710000038 1.1849999428
 2574.7502441 13.000000000 15.109999657 -0.046000000 0.3709400296 2.2390000820 40.345001221 108.53199768 1.3120000362 54.729999542 1.1870000362 1.1990000010
 2574.8750000 13.000000000 15.116999626 -0.041000001 0.3658399880 2.2379999161 40.037998199 109.07900238 1.3190000057 54.680000305 1.2089999914 1.2109999657
 2575.0000000 13.000000000 15.119001389 -0.033000000 0.3572499752 2.2469999790 39.800998688 109.47799683 1.3209999800 54.619998932 1.2269999981 1.2200000286
 2575.1250000 13.000000000 15.112998962 -0.017000001 0.3470700085 2.2739999294 39.710998535 109.45100403 1.3190000057 54.574001312 1.2350000143 1.2230000496
 2575.2500000 13.000000000 15.076000214 0.0040000002 0.3373399973 2.3059999943 39.700000763 108.83100128 1.3129999638 54.564998627 1.2309999466 1.2159999609
 2575.3750000 13.000000000 14.991999626 0.0219999999 0.3282400072 2.3299999237 39.437999725 108.12999725 1.3079999685 54.611000061 1.2209999561 1.1979999542
 2575.5000000 13.000000000 14.871000290 0.0260000005 0.3215700090 2.3310000896 38.993999481 107.67299652 1.3070000410 54.695999146 1.2100000381 1.1749999523
 2575.6250000 13.000000000 14.751999855 0.0109999999 0.3232899904 2.3050000668 39.078998566 107.54000092 1.3129999638 54.784000397 1.1959999800 1.1529999971
