# LAS format log file from PETREL
# Project units are specified as depth units
#==================================================================
~Version information
VERS.   2.0:
WRAP.   NO:
#==================================================================
~Well
STRT .m      127.75000000 :
STOP .m      3459.2514648 :
STEP .m     0.00000000 :
NULL .        -999.250000 :
COMP.           : COMPANY
WELL.  34/10-17   : WELL
FLD.            : FIELD
LOC.            : LOCATION
SRVC.           : SERVICE COMPANY
DATE.  2018-09-11 14:48:44   : Log Export Date {yyyy-MM-dd HH:mm:ss}
PROV.           : PROVINCE
UWI.   34/10-17   : UNIQUE WELL ID
API.            : API NUMBER
#==================================================================
~Curve
DEPT .m                   : DEPTH
Lithology_geolink ._      : Lithology_geolink
CALI .in                  : CALI
DRHO .g/cm3               : DRHO
NPHI .m3/m3               : NPHI
RHOB .g/cm3               : RHOB
GR .gAPI                  : GR
DTC .us/ft                : DTC
RDEP .ohm.m               : RDEP
SP .mV                    : SP
RSHA .ohm.m               : RSHA
RMED .ohm.m               : RMED
~Parameter
#==================================================================
~Ascii
# ...
 2792.4997559 4.0000000000 8.1730003357 -0.064000003 0.2857300043 2.3680000305 76.388999939 112.62200165 5.1180000305 67.038002014 5.2940001488 3.8719999790
 2792.6247559 4.0000000000 8.1479997635 -0.064000003 0.2856900096 2.3519999981 77.134002686 114.69100189 5.0879998207 67.194999695 5.1250000000 3.8840000629
 2792.7497559 4.0000000000 8.1409997940 -0.056000002 0.2893899977 2.3559999466 79.221000671 116.07398987 5.0679998398 67.302001953 5.1579999924 3.9189999104
 2792.8750000 5.0000000000 8.1610002518 -0.045000002 0.2978399992 2.3699998856 82.333999634 116.74900055 5.0279998779 67.397003174 5.3470001221 3.9590001106
 2793.0000000 5.0000000000 8.2069997787 -0.035000000 0.3107999861 2.3849999905 85.331001282 116.68699646 4.9539999962 67.532997131 5.6199998856 3.9920001030
 2793.1250000 5.0000000000 8.2709999084 -0.030999999 0.3293199837 2.3959999084 87.287002563 116.00199890 4.8350000381 67.735000610 5.9019999504 3.9969999790
 2793.2500000 5.0000000000 8.3400001526 -0.028999999 0.3515000045 2.4030001163 87.301002502 114.99400330 4.6539998055 67.970001221 6.1350002289 3.9210000038
 2793.3750000 5.0000000000 8.3970003128 -0.034000002 0.3747099936 2.3929998875 85.245002747 113.77600098 4.4159998894 68.160003662 6.3210000992 3.7260000706
 2793.5000000 5.0000000000 8.4390001297 -0.059000000 0.3985599875 2.3429999352 81.620002747 112.49800110 4.1510000229 68.263999939 6.4200000763 3.4240000248
 2793.6252441 18.000000000 8.4709997177 -0.114000000 0.4212200046 2.2300000191 77.524002075 111.54399872 3.8880000114 68.424003601 6.2779998779 3.0899999142
 2793.7502441 18.000000000 8.5109996796 -0.175999999 0.4432199895 2.0869998932 74.266998291 111.27700043 3.6640000343 68.815002441 5.7109999657 2.8359999657
 2793.8752441 18.000000000 8.5640001297 -0.218999997 0.4648899734 1.9579999447 72.238998413 111.87300110 3.5030000210 69.472000122 4.9609999657 2.7049999237
 2794.0000000 3.0000000000 8.6169996262 -0.223000005 0.4815499783 1.8799999952 70.818000793 113.07499695 3.4059998989 70.150001526 4.3579998016 2.6889998913
 2794.1250000 3.0000000000 8.6450004578 -0.191000000 0.4754600227 1.8769999743 69.032997131 114.57499695 3.3640000820 70.535003662 4.0590000153 2.7579998970
 2794.2500000 3.0000000000 8.6280002594 -0.151999995 0.4380099773 1.9199999571 66.502998352 115.90798950 3.3670001030 70.514999390 4.0980000496 2.8829998970
 2794.3750000 3.0000000000 8.5780000687 -0.120999999 0.3839899898 1.9930000305 64.528999329 116.56800079 3.4019999504 70.165000916 4.3369998932 3.0490000248
 2794.5000000 3.0000000000 8.5159997940 -0.097000003 0.3486199975 2.0850000381 64.214996338 116.18900299 3.4690001011 69.763000488 4.6370000839 3.2699999809
 2794.6250000 3.0000000000 8.4580001831 -0.074000001 0.3559800088 2.1670000553 65.223999023 114.35600281 3.5750000477 69.516998291 4.9149999619 3.5420000553
 2794.7502441 3.0000000000 8.4049997330 -0.056000002 0.4003200233 2.1970000267 65.762001038 111.33000946 3.7200000286 69.431999207 5.2140002251 3.7780001163
 2794.8747559 3.0000000000 8.3529996872 -0.050000001 0.4747600257 2.1640000343 64.807998657 108.05400085 3.8619999886 69.446998596 5.6560001373 3.8299999237
 2794.9997559 3.0000000000 8.3100004196 -0.050000001 0.5670399666 2.1010000706 62.963001251 106.07099152 3.9360001087 69.488998413 6.2849998474 3.6510000229
 2795.1247559 3.0000000000 8.2989997864 -0.054000001 0.6233800054 2.0499999523 61.633998871 106.66600037 3.8870000839 69.504997253 6.9679999352 3.3250000477
 2795.2500000 3.0000000000 8.3509998322 -0.059999999 0.5944200158 2.0329999924 62.152999878 109.93900299 3.7039999962 69.486999512 7.2659997940 2.9760000706
 2795.3750000 3.0000000000 8.4610004425 -0.064000003 0.5343599916 2.0529999733 64.345001221 115.38099670 3.4600000381 69.477996826 6.8189997673 2.6779999733
 2795.5000000 3.0000000000 8.6009998322 -0.059000000 0.4933499992 2.1070001125 67.626998901 121.21499634 3.2070000172 69.544998169 5.7600002289 2.4489998817
 2795.6250000 4.0000000000 8.7329998016 -0.043000001 0.4721099734 2.1779999733 71.574996948 125.46600342 2.9670000076 69.719001770 4.5799999237 2.2899999619
 2795.7500000 4.0000000000 8.8219995499 -0.028000001 0.4536399841 2.2379999161 75.736000061 126.84100342 2.7530000210 69.933998108 3.7109999657 2.1989998817
 2795.8750000 4.0000000000 8.8710002899 -0.017999999 0.4343200028 2.2850000858 79.144996643 124.44500732 2.5659999847 70.097999573 3.1930000782 2.1540000439
 2796.0002441 4.0000000000 8.9040002823 -0.011000000 0.4170399904 2.3310000896 80.929000854 118.92299652 2.4040000439 70.150001526 2.9400000572 2.1359999180
 2796.1252441 4.0000000000 8.9519996643 0.0010000000 0.4084099829 2.3919999599 81.072998047 111.25700378 2.2699999809 70.074996948 2.8729999065 2.1300001144
 2796.2502441 4.0000000000 9.0469999313 0.0209999997 0.4099200070 2.4619998932 80.367996216 103.15399933 2.1700000763 69.947998047 2.9440000057 2.1270000935
 2796.3750000 4.0000000000 9.1879997253 0.0450000018 0.4204300046 2.5220000744 79.636001587 96.077003479 2.1080000401 69.833000183 3.1019999981 2.1240000725
 2796.5000000 4.0000000000 9.3570003510 0.0630000010 0.4362300038 2.5510001183 78.836997986 90.629997253 2.0799999237 69.736000061 3.3199999332 2.1280000210
 2796.6250000 4.0000000000 9.5159997940 0.0689999983 0.4494900107 2.5460000038 77.636001587 87.013999939 2.0829999447 69.658996582 3.5720000267 2.1419999599
 2796.7500000 4.0000000000 9.6040000916 0.0680000037 0.4514199793 2.5309998989 75.917999268 85.156997681 2.1110000610 69.646003723 3.7969999313 2.1630001068
 2796.8750000 4.0000000000 9.5850000381 0.0659999996 0.4384599924 2.5220000744 74.251998901 85.212997437 2.1489999294 69.763000488 3.9210000038 2.1849999428
 2797.0000000 4.0000000000 9.4610004425 0.0659999996 0.4182699919 2.5239999294 72.922996521 86.845001221 2.1860001087 69.986000061 3.9070000648 2.1940000057
 2797.1252441 4.0000000000 9.2709999084 0.0729999989 0.4088200033 2.5320000648 71.750999451 89.583000183 2.2090001106 70.194000244 3.7820000648 2.1830000877
 2797.2502441 4.0000000000 9.0889997482 0.0860000029 0.4175400138 2.5239999294 70.557998657 92.280006409 2.2039999962 70.244003296 3.6189999580 2.1410000324
 2797.3747559 4.0000000000 8.9779996872 0.0979999974 0.4419100285 2.4830000401 70.117996216 93.722000122 2.1700000763 70.066001892 3.5000000000 2.0750000477
 2797.5000000 4.0000000000 8.9460000992 0.1059999987 0.4725199938 2.4149999619 71.499000549 93.852996826 2.1150000095 69.783996582 3.4430000782 1.9939999580
 2797.6250000 4.0000000000 8.9630002975 0.0979999974 0.5009700060 2.3389999866 74.504997253 93.684997559 2.0499999523 69.555000305 3.4140000343 1.9119999409
 2797.7500000 4.0000000000 8.9770002365 0.0719999969 0.5084599853 2.2690000534 77.134002686 94.615997314 1.9869999886 69.445999146 3.3450000286 1.8430000544
 2797.8750000 4.0000000000 8.9549999237 0.0340000018 0.4967299998 2.2190001011 77.584999084 97.913002014 1.9309999943 69.445999146 3.2030000687 1.7899999619
 2798.0000000 4.0000000000 8.9090003967 0.0010000000 0.4785400033 2.2030000687 76.030998230 103.47499084 1.8930000067 69.485000610 3.0150001049 1.7560000420
 2798.1250000 4.0000000000 8.8750000000 -0.009000000 0.4704600275 2.2300000191 74.078002930 110.23899841 1.8739999533 69.491996765 2.8320000172 1.7450000048
 2798.2500000 4.0000000000 8.8879995346 -0.003000000 0.4777299762 2.2730000019 73.472999573 116.28099060 1.8769999743 69.430999756 2.7160000801 1.7719999552
 2798.3752441 4.0000000000 8.9340000153 0.0060000001 0.4979399741 2.3090000153 73.968002319 119.72798920 1.9049999714 69.319999695 2.6919999123 1.8409999609
 2798.5002441 4.0000000000 8.9759998322 0.0070000002 0.5242499709 2.3210000992 74.332000732 120.05500031 1.9550000429 69.248001099 2.7679998875 1.9500000477
 2798.6252441 4.0000000000 8.9799995422 -0.001000000 0.5507799983 2.2960000038 73.842002869 117.58100128 2.0239999294 69.301002502 2.9379999638 2.0850000381
 2798.7500000 4.0000000000 8.9350004196 -0.013000000 0.5742200017 2.2439999580 72.888999939 113.82900238 2.1110000610 69.461997986 3.1819999218 2.2320001125
