# LAS format log file from PETREL
# Project units are specified as depth units
#==================================================================
~Version information
VERS.   2.0:
WRAP.   NO:
#==================================================================
~Well
STRT .m      3455.1030273 :
STOP .m      4235.3911133 :
STEP .m     0.00000000 :
NULL .        -999.250000 :
COMP.           : COMPANY
WELL.  34/11-3 T2   : WELL
FLD.            : FIELD
LOC.            : LOCATION
SRVC.           : SERVICE COMPANY
DATE.  2018-09-11 14:48:48   : Log Export Date {yyyy-MM-dd HH:mm:ss}
PROV.           : PROVINCE
UWI.   34/11-3 T2   : UNIQUE WELL ID
API.            : API NUMBER
#==================================================================
~Curve
DEPT .m                   : DEPTH
Lithology_geolink ._      : Lithology_geolink
CALI .in                  : CALI
NPHI .m3/m3               : NPHI
RHOB .g/cm3               : RHOB
GR .gAPI                  : GR
DTC .us/ft                : DTC
RDEP .ohm.m               : RDEP
RMED .ohm.m               : RMED
~Parameter
#==================================================================
~Ascii
# ...
 3714.1828613  -999.250000 12.281000137 0.0000000000 2.6009759903 75.265380859 80.959159851 3.1957640648 3.0360000134
 3714.3354492  -999.250000 12.283999443 0.0000000000 2.5980000496 74.887420654 82.273414612 2.3589198589 2.4639999866
 3714.4877930  -999.250000 12.288000107 0.0000000000 2.5980081558 70.967208862 82.593887329 2.2481474876 2.4709999561
 3714.6401367  -999.250000 12.291999817 0.0000000000 2.5989999771 66.138359070 81.825645447 2.5410819054 2.7009999752
 3714.7924805  -999.250000 12.295999527 0.0000000000 2.5989918709 62.883983612 80.302635193 2.8944144249 3.1549999714
 3714.9450684  -999.250000 12.300000191 0.0000000000 2.5979919434 61.724014282 78.544212341 3.7096824646 4.0409998894
 3715.0974121  -999.250000 12.303999901 0.0000000000 2.5969917774 61.925216675 77.003829956 4.3069038391 4.3200001717
 3715.2497559  -999.250000 12.307000160 0.0000000000 2.5960080624 62.939846039 75.876075745 4.4133348465 4.3949999809
 3715.4020996  -999.250000 12.310999870 0.0000000000 2.5970239639 64.097465515 75.136848450 4.4328813553 4.3210000992
 3715.5544434  -999.250000 12.315000534 0.0000000000 2.6000318527 64.102851868 74.694473267 4.4847984314 4.5619997978
 3715.7070313  -999.250000 12.319000244 0.0000000000 2.6050240993 62.488517761 74.524826050 4.6521053314 4.6700000763
 3715.8593750  -999.250000 12.322999954 0.0000000000 2.6080081463 60.492733002 74.708129883 5.2883634567 5.1319999695
 3716.0117188  -999.250000 12.326999664 0.0000000000 2.6089839935 60.469657898 75.347763062 6.2676525116 6.0830001831
 3716.1640625  -999.250000 12.329999924 0.0000000000 2.6069743633 63.918201447 76.461364746 6.8825917244 6.0770001411
 3716.3166504  -999.250000 12.333999634 0.0000000000 2.6029598713 69.982398987 77.947441101 4.9278187752 4.6199998856
 3716.4689941  -999.250000 12.338000298 0.0000000000 2.5979840755 76.527481079 79.596382141 3.0076811314 3.0109999180
 3716.6213379  -999.250000 12.342000961 0.0000000000 2.5960080624 81.049751282 81.175781250 2.1511266232 2.3080000877
 3716.7736816  -999.250000 12.345999718 0.0000000000 2.5970559120 81.668952942 82.466163635 1.9920912981 2.1319999695
 3716.9262695  -999.250000 12.350000381 0.0000000000 2.6040802002 78.729743958 83.301361084 2.0552563667 2.1340000629
 3717.0786133  -999.250000 12.354000092 0.0000000000 2.6140801907 74.620819092 83.563728333 2.1853718758 2.4189999104
 3717.2309570  -999.250000 12.357000351 0.0000000000 2.6240561008 72.080673218 83.226409912 2.4312739372 2.6080000401
 3717.3833008  -999.250000 12.361000061 0.0000000000 2.6310081482 71.371528625 82.373344421 2.5566074848 2.7699999809
 3717.5356445  -999.250000 12.364999771 0.0000000000 2.6319806576 70.509117126 81.208602905 2.4829952717 2.8299999237
 3717.6882324  -999.250000 12.369001389 0.0000000000 2.6289517879 68.151000977 80.004150391 2.7114472389 2.9079999924
 3717.8405762  -999.250000 12.373000145 0.0000000000 2.6229517460 65.499572754 79.020935059 3.0240786076 3.3029999733
 3717.9929199  -999.250000 12.376999855 0.0000000000 2.6169841290 64.826332092 78.398490906 3.5437676907 3.9730000496
 3718.1452637  -999.250000 12.380000114 0.0000000000 2.6150128841 66.598899841 78.120010376 4.3074622154 4.4190001488
 3718.2978516  -999.250000 12.383999825 0.0000000000 2.6170642376 68.634399414 78.052009583 4.1036715508 4.1810002327
 3718.4501953  -999.250000 12.387999535 0.0000000000 2.6250960827 68.124603271 78.052268982 3.7442307472 3.9030001163
 3718.6025391  -999.250000 12.392000198 0.0000000000 2.6370882988 65.425102234 78.069023132 3.3641619682 3.5789999962
 3718.7548828  -999.250000 12.395999908 0.0000000000 2.6480638981 63.281192780 78.133560181 3.2124416828 3.6649999619
 3718.9074707  -999.250000 12.400000572 0.0000000000 2.6559998989 63.463596344 78.239707947 3.5783286095 3.9460000992
 3719.0598145  -999.250000 12.404000282 0.0000000000 2.6559197903 65.498443604 78.213920593 3.9257466793 4.2080001831
 3719.2121582  -999.250000 12.407000542 0.0000000000 2.6458556652 67.554870605 77.696289063 3.6313605309 3.9590001106
 3719.3645020  -999.250000 12.411000252 0.0000000000 2.6278159618 67.688583374 76.326362610 3.5398240089 3.8010001183
 3719.5168457  -999.250000 12.414999962 0.0000000000 2.6048526764 65.002998352 74.032005310 3.5245833397 3.8329999447
 3719.6694336  -999.250000 12.418999672 0.0000000000 2.5818397999 59.630855560 71.189254761 3.1951730251 3.3269999027
 3719.8217773  -999.250000 12.423000336 0.0000000000 2.5619039536 52.772937775 68.602188110 3.3969790936 3.7109999657
 3719.9741211  -999.250000 12.427000999 0.0000000000 2.5499598980 46.884719849 67.143119812 4.8506636620 5.3289999962
 3720.1264648  -999.250000 12.430998802 0.0000000000 2.5450129509 43.734764099 67.361694336 8.5192670822 8.7519998550
 3720.2790527  -999.250000 12.434000969 0.0000000000 2.5470559597 44.057353973 69.232727051 21.576988220 17.492000580
 3720.4313965  -999.250000 12.437999725 0.0000000000 2.5540800095 48.180976868 72.151771545 26.466213226 18.783000946
 3720.5837402  -999.250000 12.442000389 0.0000000000 2.5640959740 55.114135742 75.248046875 10.046345711 8.0819997787
 3720.7360840  -999.250000 12.446000099 0.0000000000 2.5760800838 62.525550842 77.731857300 4.2502880096 4.2069997787
 3720.8886719  -999.250000 12.449999809 0.0000000000 2.5860641003 68.345375061 79.162506104 3.1439888477 3.2030000687
 3721.0410156  -999.250000 12.454001427 0.0000000000 2.5940320492 70.923484802 79.491821289 2.8147468567 2.9419999123
 3721.1933594  -999.250000 12.456999779 0.0000000000 2.5980241299 69.784278870 79.022392273 3.1460528374 3.3989999294
 3721.3457031  -999.250000 12.461001396 0.0000000000 2.6010241508 66.859970093 78.254829407 3.7720849514 4.0700001717
 3721.4980469  -999.250000 12.465000153 0.0000000000 2.6040194035 64.510589600 77.745979309 4.3457531929 4.6880002022
 3721.6506348  -999.250000 12.468999863 0.0000000000 2.6070160866 64.346343994 77.948394775 5.0099134445 5.4730000496
 3721.8029785  -999.250000 12.472999573 0.0000000000 2.6090080738 66.938011169 79.062454224 5.2110948563 5.1950001717
 3721.9553223  -999.250000 12.477000237 0.0000000000 2.6099917889 70.611221313 80.967811584 4.2528347969 4.2210001945
 3722.1076660  -999.250000 12.480999947 0.0000000000 2.6089870930 73.451240540 83.281570435 3.3426895142 3.4270000458
 3722.2602539  -999.250000 12.484000206 0.0000000000 2.6069760323 75.801315308 85.522323608 2.8142211437 2.9820001125
 3722.4125977  -999.250000 12.487999916 0.0000000000 2.6039760113 78.541633606 87.287544250 2.3199584484 2.4279999733
 3722.5649414  -999.250000 12.492000580 0.0000000000 2.6009919643 81.235183716 88.385124207 2.0388062000 2.2820000648
 3722.7172852  -999.250000 12.496000290 0.0000000000 2.5999999046 83.444023132 88.837203979 2.0280001163 2.2249999046
 3722.8698730  -999.250000 12.500000000 0.0000000000 2.6000158787 84.836593628 88.785667419 2.0280883312 2.1510000229
 3723.0222168  -999.250000 12.503999710 0.0000000000 2.6020240784 84.553153992 88.364074707 2.0342867374 2.1819999218
 3723.1745605  -999.250000 12.506999969 0.0000000000 2.6050240993 82.390693665 87.625343323 2.1055064201 2.3550000191
 3723.3269043  -999.250000 12.510999680 0.0000000000 2.6080241203 79.369682312 86.562187195 2.0796017647 2.2349998951
 3723.4794922  -999.250000 12.515000343 0.0000000000 2.6110081673 76.522094727 85.206436157 2.1715207100 2.2599999905
 3723.6318359  -999.250000 12.519001007 0.0000000000 2.6119999886 74.316093445 83.701004028 2.3223655224 2.4059998989
 3723.7841797  -999.250000 12.522998810 0.0000000000 2.6120159626 72.157409668 82.288658142 2.9067869186 3.0580000877
 3723.9365234  -999.250000 12.527000427 0.0000000000 2.6140160561 69.524047852 81.198829651 3.2867982388 3.3680000305
 3724.0888672  -999.250000 12.531000137 0.0000000000 2.6160128117 67.455825806 80.513786316 3.3856801987 3.3919999599
 3724.2414551  -999.250000 12.534000397 0.0000000000 2.6180000305 66.939819336 80.103698730 3.3061649799 3.2890000343
 3724.3937988  -999.250000 12.538000107 0.0000000000 2.6179759502 66.677825928 79.684608459 2.9816699028 2.8849999905
