# LAS format log file from PETREL
# Project units are specified as depth units
#==================================================================
~Version information
VERS.   2.0:
WRAP.   NO:
#==================================================================
~Well
STRT .m      1977.9804688 :
STOP .m      4079.7290039 :
STEP .m     0.00000000 :
NULL .        -999.250000 :
COMP.           : COMPANY
WELL.  34/2-2R   : WELL
FLD.            : FIELD
LOC.            : LOCATION
SRVC.           : SERVICE COMPANY
DATE.  2018-09-11 14:48:48   : Log Export Date {yyyy-MM-dd HH:mm:ss}
PROV.           : PROVINCE
UWI.   34/2-2 R   : UNIQUE WELL ID
API.            : API NUMBER
#==================================================================
~Curve
DEPT .m                   : DEPTH
Lithology_geolink ._      : Lithology_geolink
CALI .in                  : CALI
DRHO .g/cm3               : DRHO
NPHI .m3/m3               : NPHI
RHOB .g/cm3               : RHOB
GR .gAPI                  : GR
DTC .us/ft                : DTC
RDEP .ohm.m               : RDEP
SP .mV                    : SP
RSHA .ohm.m               : RSHA
RMED .ohm.m               : RMED
~Parameter
#==================================================================
~Ascii
# ...
 3369.2399902 13.000000000 16.114999771 -0.129999995 0.4594599903 1.8949999809 44.219001770 96.375000000 2.2420001030 85.109001160 3.8689999580 3.8689999580
 3369.3923340 13.000000000 16.424999237 -0.140000001 0.5113300085 1.8400000334 41.530998230 110.24999237 2.4979999065 84.484001160 1.6959999800 1.6959999800
 3369.5449219 13.000000000 17.136999130 -0.142000005 0.5864700079 1.8240000010 44.437999725 102.25000000 2.2890000343 83.484001160 1.8350000381 1.8350000381
 3369.6972656 13.000000000 17.266000748 -0.125000000 0.6057400107 1.8750000000 46.187999725 98.375000000 2.1170001030 83.109001160 2.1970000267 2.1970000267
 3369.8496094 13.000000000 17.266000748 -0.105999999 0.5963100195 1.9270000458 51.655998230 101.00000000 2.0060000420 83.609001160 2.3239998817 2.3239998817
 3370.0019531 13.000000000 17.187000275 -0.092000000 0.5550900102 1.9789999723 51.937999725 99.000000000 2.1089999676 83.984001160 2.6949999332 2.6949999332
 3370.1545410 13.000000000 16.062999725 -0.070000000 0.5200499892 2.0399999619 52.405998230 87.000000000 1.8890000582 84.734001160 6.4800000191 6.4800000191
 3370.3068848 13.000000000 15.647998810 -0.055000000 0.5612099767 2.0920000076 53.719001770 85.750000000 1.6840000153 85.609001160 3.7869999409 3.7869999409
 3370.4592285 13.000000000 15.838000298 -0.054000001 0.5788900256 2.0829999447 51.405998230 92.999992371 1.5770000219 87.234001160 2.1779999733 2.1779999733
 3370.6115723 13.000000000 16.045999527 -0.090000004 0.6034399867 1.9700000286 49.562999725 111.74999237 1.5390000343 86.234001160 2.3440001011 2.3440001011
 3370.7641602 13.000000000 16.509000778 -0.115000002 0.5536699891 1.8899999857 42.094001770 103.62499237 1.6879999638 84.734001160 1.8600000143 1.8600000143
 3370.9165039 13.000000000 17.142000198 -0.130999997 0.5446000099 1.8380000591 38.750000000 107.99999237 2.0099999905 83.234001160 1.5080000162 1.5080000162
 3371.0688477 13.000000000 17.250000000 -0.122000001 0.5146999955 1.8409999609 35.844001770 110.87500000 1.6510000229 81.859001160 1.3789999485 1.3789999485
 3371.2211914 13.000000000 17.250000000 -0.118000001 0.5390200019 1.8509999514 37.719001770 89.875000000 1.3309999704 83.734001160 1.4680000544 1.4680000544
 3371.3735352 13.000000000 17.250000000 -0.123000003 0.5734699965 1.8530000448 40.125000000 92.750000000 1.2189999819 84.484001160 1.7560000420 1.7560000420
 3371.5261230 13.000000000 17.250000000 -0.128000006 0.6292499900 1.8480000496 44.875000000 74.500000000 1.2799999714 85.109001160 2.0329999924 2.0329999924
 3371.6784668 13.000000000 17.250000000 -0.131999999 0.5970900059 1.8389999866 43.437999725 87.624992371 1.4639999866 85.484001160 2.5469999313 2.5469999313
 3371.8308105 13.000000000 17.250000000 -0.123999998 0.5308700204 1.8600000143 47.687999725 77.250000000 1.7860000134 85.109001160 2.4900000095 2.4900000095
 3371.9831543 13.000000000 17.250000000 -0.127000004 0.4778699875 1.8680000305 50.562999725 106.25000000 2.1129999161 81.984001160 2.1949999332 2.1949999332
 3372.1357422 13.000000000 17.250000000 -0.093000002 0.4876700044 1.9529999495 57.875000000 92.250000000 2.3729999065 80.109001160 1.7560000420 1.7560000420
 3372.2880859 13.000000000 17.250000000 -0.055000000 0.4715999961 2.0510001183 57.719001770 110.24999237 2.4649999142 78.859001160 1.6900000572 1.6900000572
 3372.4404297 13.000000000 17.250000000 -0.037000000 0.4289700091 2.1150000095 58.937999725 115.75001526 2.3199999332 77.359001160 1.7309999466 1.7309999466
 3372.5927734 13.000000000 17.250000000 -0.059000000 0.3793100119 2.0499999523 63.187999725 108.75000763 2.2379999161 76.984001160 1.6610000134 1.6610000134
 3372.7453613 13.000000000 17.250000000 -0.093000002 0.4025000036 1.9529999495 64.250000000 104.24999237 2.2460000515 78.359001160 1.5000000000 1.5000000000
 3372.8977051 13.000000000 17.250000000 -0.101999998 0.4641399980 1.9129999876 63.125000000 104.12500000 1.9989999533 82.109001160 1.4220000505 1.4220000505
 3373.0500488 13.000000000 17.159000397 -0.081000000 0.4612100124 1.9520000219 59.187999725 100.12499237 1.8639999628 84.609001160 1.5429999828 1.5429999828
 3373.2023926 13.000000000 16.996999741 -0.052999999 0.3943699896 2.0280001163 60.155998230 86.875007629 1.8860000372 84.734001160 1.8769999743 1.8769999743
 3373.3547363 13.000000000 16.524999619 -0.021000000 0.3361600041 2.1370000839 56.312999725 92.750000000 2.1329998970 83.234001160 2.2400000095 2.2400000095
 3373.5073242 13.000000000 15.425999641 -0.011000000 0.3104299903 2.2379999161 52.469001770 92.375000000 2.3280000687 80.359001160 2.4690001011 2.4690001011
 3373.6596680 13.000000000 14.311999321 -0.006000000 0.2899700105 2.3410000801 45.812999725 86.250000000 2.4860000610 77.484001160 2.5209999084 2.5209999084
 3373.8120117 13.000000000 13.499000549 -0.008000000 0.2408699989 2.4389998913 48.625000000 86.625000000 2.6719999313 75.734001160 2.6619999409 2.6619999409
 3373.9643555 13.000000000 13.145999908 0.0010000000 0.2462300062 2.5269999504 50.562999725 85.375000000 2.7579998970 74.984001160 2.9379999638 2.9379999638
 3374.1169434 13.000000000 13.101999283 0.0140000004 0.2592200041 2.5820000172 52.937999725 83.875000000 2.9140000343 75.734001160 3.4470000267 3.4470000267
 3374.2692871 13.000000000 13.101999283 0.0140000004 0.2763099968 2.5880000591 45.344001770 86.000000000 3.1270000935 75.859001160 3.4800000191 3.4800000191
 3374.4216309 13.000000000 13.081998825 0.0120000001 0.2698999941 2.5720000267 45.780998230 85.250000000 3.2479999065 77.109001160 3.4040000439 3.4040000439
 3374.5739746 13.000000000 13.078001022 0.0010000000 0.2599000037 2.5409998894 41.062999725 84.125007629 3.2209999561 78.359001160 3.4860000610 3.4860000610
 3374.7265625 13.000000000 13.064998627 -0.001000000 0.2599300146 2.5299999714 43.344001770 82.750000000 3.4219999313 81.984001160 3.5450000763 3.5450000763
 3374.8789063 13.000000000 13.022998810 0.0010000000 0.2472099960 2.4979999065 36.780998230 81.250000000 3.3050000668 84.734001160 4.0630002022 4.0630002022
 3375.0312500 13.000000000 13.029000282 -0.001000000 0.2503499985 2.4600000381 40.687999725 85.125000000 3.3789999485 86.234001160 4.0199999809 4.0199999809
 3375.1835938 13.000000000 13.149002075 0.0020000001 0.2469699979 2.4240000248 46.375000000 77.750000000 3.5369999409 87.234001160 4.1409997940 4.1409997940
 3375.3359375 13.000000000 12.858999252 -0.002000000 0.2775000036 2.4240000248 46.530998230 80.875000000 3.8069999218 87.359001160 4.1760001183 4.1760001183
 3375.4885254 13.000000000 12.450999260 -0.012000000 0.2898100019 2.3670001030 44.500000000 77.625000000 3.5529999733 88.234001160 3.9119999409 3.9119999409
 3375.6408691 13.000000000 12.303999901 -0.017999999 0.3126600087 2.3080000877 39.905998230 79.750000000 3.6129999161 89.234001160 4.8949999809 4.8949999809
 3375.7932129 13.000000000 12.269000053 -0.012000000 0.2981100082 2.2780001163 42.969001770 82.500000000 3.3570001125 89.734001160 4.6129999161 4.6129999161
 3375.9455566 13.000000000 12.226000786 0.0030000000 0.2993400097 2.3139998913 42.469001770 81.250000000 2.8570001125 88.734001160 4.6680002213 4.6680002213
 3376.0981445 13.000000000 12.081998825 0.0109999999 0.2953999937 2.3499999046 40.030998230 79.249992371 2.9939999580 88.234001160 4.2030000687 4.2030000687
 3376.2504883 13.000000000 12.595999718 -0.014000000 0.3339799941 2.2920000553 41.405998230 85.499992371 3.6879999638 88.234001160 3.0569999218 3.0569999218
 3376.4028320 13.000000000 13.873000145 -0.043000001 0.3364900053 2.2009999752 40.905998230 82.375000000 3.6840000153 87.984001160 3.0699999332 3.0699999332
 3376.5551758 13.000000000 14.388999939 -0.039999999 0.3440299928 2.1919999123 43.312999725 84.125007629 4.4569997787 86.859001160 3.2829999924 3.2829999924
 3376.7077637 13.000000000 13.107999802 -0.028999999 0.3285700083 2.2000000477 39.562999725 81.749992371 6.1519999504 87.484001160 3.6310000420 3.6310000420
 3376.8601074 13.000000000 12.407000542 -0.030999999 0.3300899863 2.2160000801 40.000000000 81.749992371 4.7109999657 87.984001160 4.1799998283 4.1799998283
