# LAS format log file from PETREL
# Project units are specified as depth units
#==================================================================
~Version information
VERS.   2.0:
WRAP.   NO:
#==================================================================
~Well
STRT .m      1977.9804688 :
STOP .m      4079.7290039 :
STEP .m     0.00000000 :
NULL .        -999.250000 :
COMP.           : COMPANY
WELL.  34/2-2R   : WELL
FLD.            : FIELD
LOC.            : LOCATION
SRVC.           : SERVICE COMPANY
DATE.  2018-09-11 14:48:48   : Log Export Date {yyyy-MM-dd HH:mm:ss}
PROV.           : PROVINCE
UWI.   34/2-2 R   : UNIQUE WELL ID
API.            : API NUMBER
#==================================================================
~Curve
DEPT .m                   : DEPTH
Lithology_geolink ._      : Lithology_geolink
CALI .in                  : CALI
DRHO .g/cm3               : DRHO
NPHI .m3/m3               : NPHI
RHOB .g/cm3               : RHOB
GR .gAPI                  : GR
DTC .us/ft                : DTC
RDEP .ohm.m               : RDEP
SP .mV                    : SP
RSHA .ohm.m               : RSHA
RMED .ohm.m               : RMED
~Parameter
#==================================================================
~Ascii
# ...
 3649.0466309 5.0000000000 10.718999863 0.0570000000 0.2564400136 2.5230000019 64.749298096 83.124809265 3.7340352535 95.234001160 4.2929940224 4.2929940224
 3649.1992188 5.0000000000 10.672000885 0.0590000004 0.2522400022 2.5109999180 64.352005005 82.999191284 3.7561185360 95.233200073 4.2890129089 4.2890129089
 3649.3515625 6.0000000000 10.657999992 0.0549999997 0.2545700073 2.5209999084 76.502807617 82.750000000 3.7930257320 94.984405518 4.2930626869 4.2930626869
 3649.5039063 6.0000000000 10.637000084 0.0329999998 0.2288099974 2.5120000839 78.240180969 82.750404358 3.8090336323 95.233596802 4.3321247101 4.3321247101
 3649.6562500 6.0000000000 10.619999886 0.0199999996 0.2215899974 2.5020000935 72.109024048 82.999389648 3.8300623894 94.983596802 4.4101009369 4.4101009369
 3649.8085938 6.0000000000 10.597999573 0.0209999997 0.2211900055 2.4949998856 62.150539398 82.625000000 3.8690063953 94.734001160 4.4730496407 4.4730496407
 3649.9611816 5.0000000000 10.600000381 0.0230000000 0.2256799936 2.4909999371 58.766201019 82.624603271 3.8730382919 94.736404419 4.5040388107 4.5040388107
 3650.1135254 5.0000000000 10.595000267 0.0199999996 0.2273799926 2.4739999771 63.816005707 82.500000000 3.8850159645 95.483200073 4.5160989761 4.5160989761
 3650.2658691 5.0000000000 10.593998909 0.0359999985 0.2234500051 2.5030000210 65.693710327 82.500602722 3.8950688839 94.985206604 4.5780258179 4.5780258179
 3650.4182129 5.0000000000 10.593998909 0.0430000015 0.2193900049 2.5150001049 69.246597290 82.874000549 3.9380834103 95.734001160 4.5940623283 4.5940623283
 3650.5708008 5.0000000000 10.593998909 0.0579999983 0.2269199938 2.5529999733 67.131202698 82.250000000 3.9902207851 95.734802246 4.6329998970 4.6329998970
 3650.7231445 5.0000000000 10.593998909 0.0289999992 0.2317799926 2.5250000954 69.057395935 82.248199463 4.0591492653 95.983596802 4.6329679489 4.6329679489
 3650.8754883 5.0000000000 10.593998909 0.0040000002 0.2385500073 2.4979999065 65.562301636 81.120391846 4.1520943642 95.734001160 4.6131634712 4.6131634712
 3651.0278320 5.0000000000 10.593998909 -0.001000000 0.2328000069 2.4969999790 65.116188049 78.246383667 4.2109503746 95.733596802 4.7155947685 4.7155947685
 3651.1804199 5.0000000000 10.600000381 0.0020000001 0.2212300003 2.5050001144 59.640003204 75.998397827 4.1798748970 95.485603333 5.0882749557 5.0882749557
 3651.3327637 5.0000000000 10.595000267 0.0149999997 0.2020799965 2.5339999199 64.314407349 75.501396179 4.1409482956 95.983200073 5.7978634834 5.7978634834
 3651.4851074 5.0000000000 10.593998909 0.0060000001 0.1958699971 2.5160000324 65.193908691 76.378204346 4.1089200974 95.484405518 6.3356056213 6.3356056213
 3651.6374512 5.0000000000 10.593998909 0.0089999996 0.2038899958 2.5130000114 68.870697021 78.378608704 4.0589871407 95.733596802 6.0891041756 6.0891041756
 3651.7897949 5.0000000000 10.600000381 0.0049999999 0.2341600060 2.4960000515 66.200325012 80.626411438 4.0510239601 95.483200073 5.5302548409 5.5302548409
 3651.9423828 5.0000000000 10.614999771 0.0109999999 0.2658900023 2.5039999485 73.867202759 81.500000000 4.0659999847 94.983200073 5.0650272369 5.0650272369
 3652.0947266 5.0000000000 10.616999626 0.0130000003 0.2775300145 2.4930000305 71.439102173 81.500602722 4.0660128593 94.734802246 4.7616057396 4.7616057396
 3652.2470703 5.0000000000 10.616999626 0.0209999997 0.2661499977 2.5020000935 72.116989136 81.875205994 4.0741186142 95.234405518 4.5162868500 4.5162868500
 3652.3994141 5.0000000000 10.616999626 0.0289999992 0.2448800057 2.5120000839 67.125801086 81.998397827 4.1481070518 95.484802246 4.6953144073 4.6953144073
 3652.5520020 5.0000000000 10.630000114 0.0250000004 0.2297700047 2.5369999409 67.620803833 80.996391296 4.2149362564 95.984802246 4.8929743767 4.8929743767
 3652.7043457 6.0000000000 10.633000374 0.0170000009 0.2128600031 2.5610001087 66.318214417 79.875000000 4.1950192451 96.234802246 5.5097708702 5.5097708702
 3652.8566895 6.0000000000 10.633000374 0.0089999996 0.1973000020 2.5610001087 69.568008423 79.874801636 4.2070188522 96.733596802 6.6133074760 6.6133074760
 3653.0090332 6.0000000000 10.645999908 0.0260000005 0.1989099979 2.5690000057 72.697021484 79.751800537 4.2190060616 96.484001160 6.8034725189 6.8034725189
 3653.1616211 6.0000000000 10.655000687 0.0410000011 0.2046100050 2.5610001087 78.309402466 80.879798889 4.2230224609 96.484001160 5.8496866226 5.8496866226
 3653.3139648 6.0000000000 10.663000107 0.0419999994 0.2292599976 2.5569999218 77.189102173 82.375801086 4.2298316956 96.483596802 5.1285996437 5.1285996437
 3653.4663086 5.0000000000 10.684000015 0.0280000009 0.2522700131 2.5420000553 77.863685608 82.875404358 4.1248188019 96.233596802 4.8788752556 4.8788752556
 3653.6186523 5.0000000000 10.687999725 0.0130000003 0.2685199976 2.5239999294 70.806190491 83.126213074 4.0118622780 95.984001160 4.8009552956 4.8009552956
 3653.7709961 5.0000000000 10.693999290 0.0230000000 0.2587400079 2.5350000858 66.562805176 83.875000000 3.9259054661 95.983596802 4.7729501724 4.7729501724
 3653.9235840 5.0000000000 10.694999695 0.0240000002 0.2371499985 2.5339999199 66.451805115 83.875000000 3.8669457436 95.734001160 4.7419519424 4.7419519424
 3654.0759277 5.0000000000 10.720999718 0.0270000007 0.2309499979 2.5230000019 70.753402710 83.874801636 3.8500175476 95.734802246 4.7269310951 4.7269310951
 3654.2282715 5.0000000000 10.727001190 0.0299999993 0.2419099957 2.5120000839 72.868087769 83.749809265 3.8609969616 96.234802246 4.6839938164 4.6839938164
 3654.3806152 5.0000000000 10.739999771 0.0240000002 0.2523100078 2.4969999790 68.565704346 83.625000000 3.8590128422 96.734405518 4.6800560951 4.6800560951
 3654.5332031 5.0000000000 10.748999596 0.0480000004 0.2428800017 2.5399999619 70.239799500 83.625000000 3.8670256138 96.980804443 4.7151856422 4.7151856422
 3654.6855469 5.0000000000 10.756999969 0.0419999994 0.2305099964 2.5499999523 67.069610596 83.625404358 3.8749904633 95.982795715 4.7730188370 4.7730188370
 3654.8378906 5.0000000000 10.758000374 0.0419999994 0.2358700037 2.5559999943 71.187301636 83.875404358 3.8689904213 95.233596802 4.7849998474 4.7849998474
 3654.9902344 5.0000000000 10.758000374 0.0209999997 0.2515999973 2.5190000534 70.757011414 84.124603271 3.8630158901 94.984405518 4.7849116325 4.7849116325
 3655.1428223 5.0000000000 10.771000862 0.0160000008 0.2523500025 2.5050001144 75.125000000 83.875396729 3.8729870319 95.234001160 4.7299518585 4.7299518585
 3655.2951660 5.0000000000 10.772999763 0.0120000001 0.2458299994 2.5060000420 75.123695374 83.999801636 3.8689904213 95.234405518 4.7149810791 4.7149810791
 3655.4475098 5.0000000000 10.772999763 -0.001000000 0.2311500013 2.4900000095 74.313003540 83.875801086 3.8629968166 95.483596802 4.7030129433 4.7030129433
 3655.5998535 5.0000000000 10.779999733 0.0000000000 0.2395399958 2.5030000210 74.304588318 84.374206543 3.8610258102 95.233596802 4.7110753059 4.7110753059
 3655.7521973 5.0000000000 10.774999619 0.0040000002 0.2310799956 2.4979999065 69.058799744 83.875602722 3.8769745827 94.983604431 4.7579312325 4.7579312325
 3655.9047852 5.0000000000 10.772999763 0.0350000001 0.2526899874 2.5290000439 66.440505981 84.249191284 3.8610095978 94.734001160 4.7151379585 4.7151379585
 3656.0571289 5.0000000000 10.767000198 0.0350000001 0.2479300052 2.5220000744 68.008010864 83.750610352 3.8669841290 94.734001160 4.8010001183 4.8010001183
 3656.2094727 5.0000000000 10.765999794 0.0170000009 0.2624300122 2.5179998875 73.004203796 84.126007080 3.8569760323 94.734802246 4.8008990288 4.8008990288
 3656.3618164 5.0000000000 10.765999794 -0.002000000 0.2419299930 2.5000000000 75.611778259 84.750000000 3.8420095444 95.234405518 4.7378683090 4.7378683090
 3656.5144043 5.0000000000 10.765999794 -0.005000000 0.2515999973 2.4990000725 67.378196716 84.752799988 3.8480193615 95.484001160 4.6560511589 4.6560511589
 3656.6667480 5.0000000000 10.765999794 0.0060000001 0.2474499941 2.5109999180 68.371696472 85.623207092 3.8540048599 95.484001160 4.6721119881 4.6721119881
