# LAS format log file from PETREL
# Project units are specified as depth units
#==================================================================
~Version information
VERS.   2.0:
WRAP.   NO:
#==================================================================
~Well
STRT .m      1977.9804688 :
STOP .m      4079.7290039 :
STEP .m     0.00000000 :
NULL .        -999.250000 :
COMP.           : COMPANY
WELL.  34/2-2R   : WELL
FLD.            : FIELD
LOC.            : LOCATION
SRVC.           : SERVICE COMPANY
DATE.  2018-09-11 14:48:48   : Log Export Date {yyyy-MM-dd HH:mm:ss}
PROV.           : PROVINCE
UWI.   34/2-2 R   : UNIQUE WELL ID
API.            : API NUMBER
#==================================================================
~Curve
DEPT .m                   : DEPTH
Lithology_geolink ._      : Lithology_geolink
CALI .in                  : CALI
DRHO .g/cm3               : DRHO
NPHI .m3/m3               : NPHI
RHOB .g/cm3               : RHOB
GR .gAPI                  : GR
DTC .us/ft                : DTC
RDEP .ohm.m               : RDEP
SP .mV                    : SP
RSHA .ohm.m               : RSHA
RMED .ohm.m               : RMED
~Parameter
#==================================================================
~Ascii
# ...
 4068.7563477  -999.250000 9.2849998474 0.0230000000 0.1210800037 2.5060000420 67.500000000 63.875000000 10.022999763 117.73400116 13.211000443 13.211000443
 4068.9086914  -999.250000 8.9790000916 0.0160000008 0.1213399991 2.4730000496 64.188003540 63.999996185 10.008000374 117.73400116 13.211000443 13.211000443
 4069.0610352  -999.250000 8.7259998322 -0.014000000 0.1326099932 2.3829998970 66.625000000 63.999996185 9.9449996948 118.23400116 13.046999931 13.046999931
 4069.2133789  -999.250000 8.1450004578 -0.048999999 0.1437499970 2.2660000324 62.344001770 63.999996185 9.8590002060 118.23400116 13.046999931 13.046999931
 4069.3659668  -999.250000 7.6469998360 -0.081000000 0.1491799951 2.1689999104 61.905998230 63.999996185 9.8439998627 118.98400116 12.961000443 12.961000443
 4069.5183105  -999.250000 7.2789998055 -0.101000004 0.1519500017 2.1119999886 61.780998230 63.999996185 9.7189998627 118.98400116 12.921999931 12.921999931
 4069.6706543  -999.250000 6.9679999352 -0.115999997 0.1494800001 2.0869998932 61.780998230 63.999996185 9.7500000000 118.98400116 12.883000374 12.883000374
 4069.8229980  -999.250000 6.8100004196 -0.119000003 0.1554600000 2.0769999027 66.688003540 63.999996185 9.7419996262 118.48400116 12.883000374 12.883000374
 4069.9753418  -999.250000 6.7890000343 -0.112999998 0.1608200073 2.0729999542 65.875000000 63.999996185 9.6949996948 118.23400116 12.805000305 12.805000305
 4070.1279297  -999.250000 6.7859997749 -0.108999997 0.1665199995 2.0720000267 69.313003540 63.999996185 9.6949996948 118.23400116 12.805000305 12.805000305
 4070.2802734  -999.250000 6.7880001068 -0.107000001 0.1670700014 2.0850000381 73.500000000 63.999996185 9.6879997253 118.73400116 12.805000305 12.805000305
 4070.4326172  -999.250000 6.7890000343 -0.116999999 0.1608700007 2.0850000381 70.250000000 63.999996185 9.6879997253 118.73400116 12.727000237 12.727000237
 4070.5849609  -999.250000 6.7890000343 -0.115999997 0.1588499993 2.0869998932 68.750000000 63.999996185 9.7729997635 119.23400116 12.805000305 12.805000305
 4070.7375488  -999.250000 6.7890000343 -0.118000001 0.1586900055 2.0750000477 63.530998230 63.999996185 9.7659997940 118.98400116 12.727000237 12.727000237
 4070.8898926  -999.250000 6.7859997749 -0.108000003 0.1562400013 2.0869998932 67.813003540 63.999996185 9.6719999313 119.48400116 12.687999725 12.687999725
 4071.0422363  -999.250000 6.7849988937 -0.122000001 0.1533100009 2.0739998817 67.750000000 63.999996185 9.7580003738 119.23400116 12.765999794 12.765999794
 4071.1945801  -999.250000 6.7849988937 -0.130999997 0.1463000029 2.0620000362 70.375000000 63.999996185 9.7270002365 119.23400116 12.765999794 12.765999794
 4071.3471680  -999.250000 6.7849988937 -0.118000001 0.1437900066 2.0750000477 67.750000000 63.999996185 9.7419996262 119.23400116 12.727000237 12.727000237
 4071.4995117  -999.250000 6.7849988937 -0.112000003 0.1488700062 2.0799999237 68.063003540 63.999996185 9.7500000000 119.23400116 12.805000305 12.805000305
 4071.6518555  -999.250000 6.7849988937 -0.109999999 0.1507200003 2.0799999237 -31.50000000 63.999996185 9.7419996262 119.23400116 12.765999794 12.765999794
 4071.8041992  -999.250000 6.7880001068 -0.131999999 0.1447499990 2.0590000153 -129.6250000 63.999996185 9.8129997253 119.73400116 12.727000237 12.727000237
 4071.9565430  -999.250000 6.7859997749 -0.123999998 0.1415099949 2.0710000992 -227.0000000 63.999996185 9.7969999313 119.98400116 12.687999725 12.687999725
 4072.1091309  -999.250000 6.7849988937 -0.115999997 0.1505099982 2.0820000172 -227.0000000 63.999996185 9.7110004425 119.48400116 12.805000305 12.805000305
 4072.2614746  -999.250000 6.7849988937 -0.101999998 0.1592900008 2.0950000286 -227.0000000 63.999996185 9.7270002365 118.73400116 12.727000237 12.727000237
 4072.4138184  -999.250000 6.7849988937 -0.104999997 0.1598300040 2.0980000496 -227.0000000 63.999996185 9.7659997940 119.23400116 12.687999725 12.687999725
 4072.5661621  -999.250000 6.7849988937 -0.098999999 0.1572200060 2.1159999371 -227.0000000 63.999996185 9.7110004425 119.98400116 12.687999725 12.687999725
 4072.7187500  -999.250000 6.7849988937 -0.112000003 0.1551000029 2.1110000610 -227.0000000 63.999996185 9.7419996262 120.23400116 12.727000237 12.727000237
 4072.8710938  -999.250000 6.7880001068 -0.112999998 0.1584600061 2.1029999256 -227.0000000 63.999996185 9.7340002060 119.98400116 12.805000305 12.805000305
 4073.0234375  -999.250000 6.7859997749 -0.119000003 0.1489699930 2.0929999352 -227.0000000 63.999996185 9.7339506149 119.98400116 12.688062668 12.688062668
 4073.1757813  -999.250000 6.7849988937 -0.104000002 0.1506499946 2.0999999046 -227.0000000 63.999996185 9.7030630112 119.98400116 12.727063179 12.727063179
 4073.3283691  -999.250000 6.7849988937 -0.092000000 0.1489199996 2.1099998951 -227.0000000 63.999996185 9.7419519424 119.98480225 12.765749931 12.765749931
 4073.4807129  -999.250000 6.7849988937 -0.101000004 0.1512999982 2.0869998932 -227.0000000 63.999996185 9.7270374298 120.23480225 12.688187599 12.688187599
 4073.6330566  -999.250000 6.7849988937 -0.111000001 0.1461399943 2.0850000381 -227.0000000 63.999996185 9.7499876022 120.73359680 12.804875374 12.804875374
 4073.7854004  -999.250000 6.7849988937 -0.122000001 0.1462399960 2.0729999542 -227.0000000 63.999996185 9.7419757843 120.48440552 12.726886749 12.726886749
 4073.9377441  -999.250000 6.7849988937 -0.122000001 0.1497499943 2.0780000687 -227.0000000 63.999996185 9.7270116806 120.73400116 12.656238556 12.656238556
 4074.0903320  -999.250000 6.7849988937 -0.118000001 0.1148400009 2.0650000572 -227.0000000 63.999996185 9.7340517044 120.73400116 12.805000305 12.805000305
 4074.2426758  -999.250000 6.7849988937 -0.115999997 0.0670600012 2.0720000267 -227.0000000 63.999996185 9.7498874664 120.73400116 12.804875374 12.804875374
 4074.3950195  -999.250000 6.7620000839 -0.112999998 0.0223200005 2.0680000782 -227.0000000 63.999996185 9.6801128387 120.73400116 12.727000237 12.727000237
 4074.5473633  -999.250000 6.7610001564 -0.116999999 0.0151399998 2.0629999638 -227.0000000 63.999996185 9.7499628067 120.73400116 12.727125168 12.727125168
 4074.6999512  -999.250000 6.7620000839 -0.111000001 0.0151399998 2.0710000992 -227.0000000 63.999996185 9.7269487381 120.73239899 12.804750443 12.804750443
 4074.8522949  -999.250000 6.7620000839 -0.112999998 0.0151399998 2.0710000992 -227.0000000 63.999996185 9.7109508514 120.23520660 12.726937294 12.726937294
 4075.0046387  -999.250000 6.7620000839 -0.108999997 0.0151399998 2.0739998817 -227.0000000 63.999996185 9.6800003052 120.98440552 12.688124657 12.688124657
 4075.1569824  -999.250000 6.7620000839 -0.118000001 0.0151399998 2.0499999523 -227.0000000 63.999996185 9.6801624298 121.23440552 12.765999794 12.765999794
 4075.3095703  -999.250000 6.7620000839 -0.104000002 0.0151399998 2.0650000572 -227.0000000 63.999996185 9.7807760239 121.48480225 12.765749931 12.765749931
 4075.4619141  -999.250000 6.7620000839 -0.108999997 0.0151399998 2.0720000267 -227.0000000 63.999996185 9.7110261917 121.73400116 12.688062668 12.688062668
 4075.6142578  -999.250000 6.7620000839 -0.120999999 0.0151399998 2.0639998913 -227.0000000 63.999996185 9.7269744873 121.73359680 12.727063179 12.727063179
 4075.7666016  -999.250000 6.7620000839 -0.116999999 0.0151399998 2.0739998817 -227.0000000 63.999996185 9.7110261917 121.48320007 12.765936852 12.765936852
 4075.9189453  -999.250000 6.7620000839 -0.109999999 0.0151399998 2.0789999962 -227.0000000 63.999996185 9.7269744873 120.98400116 12.727000237 12.727000237
 4076.0715332  -999.250000 6.7620000839 -0.094999999 0.0151399998 2.0920000076 -227.0000000 63.999996185 9.7110261917 120.98480225 12.727063179 12.727063179
 4076.2238770  -999.250000 6.7620000839 -0.105999999 0.0151399998 2.0789999962 -227.0000000 63.999996185 9.7269620895 121.48440552 12.765936852 12.765936852
 4076.3762207  -999.250000 6.7579998970 -0.098999999 0.0151399998 2.0959999561 -227.0000000 63.999996185 9.7030382156 121.73400116 12.727000237 12.727000237
