# LAS format log file from PETREL
# Project units are specified as depth units
#==================================================================
~Version information
VERS.   2.0:
WRAP.   NO:
#==================================================================
~Well
STRT .m      1977.9804688 :
STOP .m      4079.7290039 :
STEP .m     0.00000000 :
NULL .        -999.250000 :
COMP.           : COMPANY
WELL.  34/2-2R   : WELL
FLD.            : FIELD
LOC.            : LOCATION
SRVC.           : SERVICE COMPANY
DATE.  2018-09-11 14:48:48   : Log Export Date {yyyy-MM-dd HH:mm:ss}
PROV.           : PROVINCE
UWI.   34/2-2 R   : UNIQUE WELL ID
API.            : API NUMBER
#==================================================================
~Curve
DEPT .m                   : DEPTH
Lithology_geolink ._      : Lithology_geolink
CALI .in                  : CALI
DRHO .g/cm3               : DRHO
NPHI .m3/m3               : NPHI
RHOB .g/cm3               : RHOB
GR .gAPI                  : GR
DTC .us/ft                : DTC
RDEP .ohm.m               : RDEP
SP .mV                    : SP
RSHA .ohm.m               : RSHA
RMED .ohm.m               : RMED
~Parameter
#==================================================================
~Ascii
# ...
 2957.3029785  -999.250000 13.391001701 0.0270000007 0.3466799855 2.3750000000 61.937999725 105.00000000 1.2419999838 80.234001160 1.4420000315 1.4420000315
 2957.4553223  -999.250000 13.578000069 0.0430000015 0.3461900055 2.3459999561 53.812999725 105.75000000 1.2180000544 80.671997070 1.3780000210 1.3780000210
 2957.6076660  -999.250000 13.437999725 0.0579999983 0.3603500128 2.3399999142 52.280998230 107.62500000 1.1979999542 82.796997070 1.3380000591 1.3380000591
 2957.7600098  -999.250000 13.796999931 0.0640000030 0.3520500064 2.3359999657 46.875000000 109.24999237 1.2000000477 81.671997070 1.3179999590 1.3179999590
 2957.9125977  -999.250000 13.656000137 0.0670000017 0.3564499915 2.3650000095 47.187999725 107.62500000 1.2200000286 80.609001160 1.3070000410 1.3070000410
 2958.0649414  -999.250000 13.656000137 0.0469999984 0.3647499979 2.3729999065 47.312999725 106.87500763 1.2380000353 80.984001160 1.3329999447 1.3329999447
 2958.2172852  -999.250000 13.461001396 0.0390000008 0.3710899949 2.3980000019 53.125000000 104.62500000 1.2630000114 81.109001160 1.4359999895 1.4359999895
 2958.3696289  -999.250000 13.515999794 0.0329999998 0.3310500085 2.4340000153 56.187999725 102.00000000 1.2970000505 80.234001160 1.6000000238 1.6000000238
 2958.5222168  -999.250000 13.461001396 0.0189999994 0.3125000000 2.4240000248 63.000000000 101.12500000 1.3240000010 80.171997070 1.7410000563 1.7410000563
 2958.6745605  -999.250000 13.430000305 -0.008000000 0.2778300047 2.3980000019 61.844001770 101.87500763 1.3700000048 80.796997070 1.7589999437 1.7589999437
 2958.8269043  -999.250000 13.405998230 -0.011000000 0.2900399864 2.3689999580 64.313003540 99.375007629 1.3919999599 81.359001160 1.7400000095 1.7400000095
 2958.9792480  -999.250000 13.397999763 -0.005000000 0.3300800025 2.3770000935 60.125000000 100.87500000 1.3890000582 81.609001160 1.6640000343 1.6640000343
 2959.1318359  -999.250000 13.391001701 0.0020000001 0.3559600115 2.3849999905 53.937999725 103.62499237 1.3710000515 80.921997070 1.6009999514 1.6009999514
 2959.2841797  -999.250000 13.281000137 0.0099999998 0.3671900034 2.3959999084 53.469001770 102.25000000 1.3500000238 80.234001160 1.5959999561 1.5959999561
 2959.4365234  -999.250000 13.374999046 0.0120000001 0.3261699975 2.3789999485 59.062999725 103.12500763 1.3320000172 79.734001160 1.5360000134 1.5360000134
 2959.5888672  -999.250000 13.391001701 0.0209999997 0.3149400055 2.3829998970 65.688003540 104.62500000 1.3320000172 78.609001160 1.4170000553 1.4170000553
 2959.7412109  -999.250000 13.500000000 0.0060000001 0.3300800025 2.3789999485 66.313003540 102.99999237 1.3450000286 82.171997070 1.3600000143 1.3600000143
 2959.8937988  -999.250000 13.366999626 -0.001000000 0.3383800089 2.3889999390 61.594001770 102.87500763 1.3489999771 83.546997070 1.4210000038 1.4210000038
 2960.0461426  -999.250000 13.508000374 0.0230000000 0.3442400098 2.4079999924 63.187999725 102.00000000 1.3639999628 83.859001160 1.5290000439 1.5290000439
 2960.1984863  -999.250000 13.515999794 0.0270000007 0.3232400119 2.3929998875 61.875000000 99.875000000 1.3710000515 83.421997070 1.6610000134 1.6610000134
 2960.3508301  -999.250000 13.522999763 0.0329999998 0.3110400140 2.3849999905 60.437999725 97.250000000 1.3930000067 82.859001160 1.7410000563 1.7410000563
 2960.5034180  -999.250000 13.500000000 0.0260000005 0.3100599945 2.3710000515 59.562999725 97.374992371 1.4079999924 82.296997070 1.7500000000 1.7500000000
 2960.6557617  -999.250000 13.647999763 0.0410000011 0.3046900034 2.4040000439 56.469001770 99.500000000 1.4060000181 81.171997070 1.6879999638 1.6879999638
 2960.8081055  -999.250000 13.680000305 0.0630000010 0.2944299877 2.4279999733 54.437999725 101.87500763 1.4240000248 81.171997070 1.6180000305 1.6180000305
 2960.9604492  -999.250000 13.687999725 0.0570000000 0.2871100008 2.4119999409 53.969001770 101.25000000 1.3910000324 80.109001160 1.6080000401 1.6080000401
 2961.1130371  -999.250000 13.359000206 0.0549999997 0.2993200123 2.3870000839 59.812999725 104.62500000 1.3430000544 80.234001160 1.5609999895 1.5609999895
 2961.2653809  -999.250000 13.585999489 0.0549999997 0.3090800047 2.3650000095 67.063003540 102.50000763 1.3229999542 80.234001160 1.4889999628 1.4889999628
 2961.4177246  -999.250000 13.687999725 0.0590000004 0.3432599902 2.3650000095 67.000000000 104.87500000 1.3150000572 81.046997070 1.4220000505 1.4220000505
 2961.5700684  -999.250000 13.765999794 0.0410000011 0.3310500085 2.3689999580 65.188003540 106.00000763 1.3250000477 80.484001160 1.3569999933 1.3569999933
 2961.7224121  -999.250000 13.242000580 0.0140000004 0.3535200059 2.3629999161 61.219001770 102.62500000 1.3450000286 81.109001160 1.4179999828 1.4179999828
 2961.8750000  -999.250000 13.227001190 0.0020000001 0.3066399992 2.3810000420 63.344001770 101.87500763 1.3609999418 81.546997070 1.5549999475 1.5549999475
 2962.0273438  -999.250000 13.288999557 0.0060000001 0.3129900098 2.3929998875 66.125000000 101.25000000 1.3719999790 81.609001160 1.6820000410 1.6820000410
 2962.1796875  -999.250000 13.272999763 0.0070000002 0.2958999872 2.4079999924 62.655998230 100.37500000 1.3760000467 80.796997070 1.7079999447 1.7079999447
 2962.3320313  -999.250000 13.281000137 0.0060000001 0.3242200017 2.4159998894 65.438003540 102.62500000 1.4359999895 80.796997070 1.6699999571 1.6699999571
 2962.4846191  -999.250000 13.288999557 0.0189999994 0.2949199975 2.4279999733 61.687999725 101.25000000 1.4479999542 81.109001160 1.7150000334 1.7150000334
 2962.6369629  -999.250000 13.288999557 0.0189999994 0.2719700038 2.4140000343 60.280998230 102.99999237 1.4470000267 80.234001160 1.7039999962 1.7039999962
 2962.7893066  -999.250000 13.258000374 0.0270000007 0.2836900055 2.3729999065 54.405998230 103.24999237 1.4409999847 80.171997070 1.6410000324 1.6410000324
 2962.9416504  -999.250000 13.522999763 0.0359999985 0.3212899864 2.3399999142 60.875000000 103.87500000 1.4400000572 76.734001160 1.5650000572 1.5650000572
 2963.0942383  -999.250000 13.647999763 0.0619999990 0.3496100008 2.3570001125 69.063003540 104.12500000 1.4149999619 77.171997070 1.5360000134 1.5360000134
 2963.2465820  -999.250000 13.508000374 0.0399999991 0.3364300132 2.3550000191 66.938003540 102.25000000 1.3910000324 78.734001160 1.5629999638 1.5629999638
 2963.3989258  -999.250000 13.547000885 0.0350000001 0.3232400119 2.3570001125 60.344001770 102.99999237 1.3609999418 79.921997070 1.5950000286 1.5950000286
 2963.5512695  -999.250000 13.703000069 0.0099999998 0.3217799962 2.3220000267 57.905998230 103.24999237 1.3329999447 79.234001160 1.5989999771 1.5989999771
 2963.7036133  -999.250000 13.569997787 0.0130000003 0.3032200038 2.3239998817 59.375000000 105.00000000 1.3200000525 78.546997070 1.5720000267 1.5720000267
 2963.8562012  -999.250000 13.593999863 0.0309999995 0.2797900140 2.3380000591 58.844001770 105.12500000 1.3240000010 77.984001160 1.4839999676 1.4839999676
 2964.0085449  -999.250000 13.593999863 0.0209999997 0.2939499915 2.3159999847 57.500000000 106.12500000 1.3279999495 79.671997070 1.4029999971 1.4029999971
 2964.1608887  -999.250000 13.671999931 0.0329999998 0.3305700123 2.3110001087 61.062999725 106.50000000 1.3350000381 80.421997070 1.3650000095 1.3650000095
 2964.3132324  -999.250000 13.476999283 0.0299999993 0.3715800047 2.3199999332 63.750000000 106.00000763 1.3450000286 81.859001160 1.4199999571 1.4199999571
 2964.4658203  -999.250000 13.453001022 0.0299999993 0.3598600030 2.3540000916 64.938003540 103.12500763 1.3519999981 81.046997070 1.4980000257 1.4980000257
 2964.6181641  -999.250000 13.531000137 0.0379999988 0.3344700038 2.3910000324 67.625000000 102.62500000 1.3639999628 80.109001160 1.5909999609 1.5909999609
 2964.7705078  -999.250000 13.555001259 0.0010000000 0.3212899864 2.3610000610 66.500000000 101.87500763 1.3869999647 77.546997070 1.6390000582 1.6390000582
 2964.9228516  -999.250000 13.547000885 0.0149999997 0.3159199953 2.3750000000 65.375000000 101.74999237 1.4479999542 79.046997070 1.6540000439 1.6540000439
