# LAS format log file from PETREL
# Project units are specified as depth units
#==================================================================
~Version information
VERS.   2.0:
WRAP.   NO:
#==================================================================
~Well
STRT .m      1977.9804688 :
STOP .m      4079.7290039 :
STEP .m     0.00000000 :
NULL .        -999.250000 :
COMP.           : COMPANY
WELL.  34/2-2R   : WELL
FLD.            : FIELD
LOC.            : LOCATION
SRVC.           : SERVICE COMPANY
DATE.  2018-09-11 14:48:48   : Log Export Date {yyyy-MM-dd HH:mm:ss}
PROV.           : PROVINCE
UWI.   34/2-2 R   : UNIQUE WELL ID
API.            : API NUMBER
#==================================================================
~Curve
DEPT .m                   : DEPTH
Lithology_geolink ._      : Lithology_geolink
CALI .in                  : CALI
DRHO .g/cm3               : DRHO
NPHI .m3/m3               : NPHI
RHOB .g/cm3               : RHOB
GR .gAPI                  : GR
DTC .us/ft                : DTC
RDEP .ohm.m               : RDEP
SP .mV                    : SP
RSHA .ohm.m               : RSHA
RMED .ohm.m               : RMED
~Parameter
#==================================================================
~Ascii
# ...
 3928.8530273 3.0000000000 11.555999756 0.0630000010 0.1711799949 2.4579999447 36.214744568 74.125801086 6.0296173096 99.733200073 4.1095833778 4.1095833778
 3929.0053711 3.0000000000 11.555000305 0.0460000001 0.1620000005 2.4409999847 33.569660187 74.634613037 5.1655244827 99.233200073 4.4737257957 4.4737257957
 3929.1579590 3.0000000000 11.567999840 0.0040000002 0.1545200050 2.3299999237 37.738300323 80.657806396 3.6208078861 98.737197876 4.9225730896 4.9225730896
 3929.3103027 3.0000000000 11.852000237 -0.017000001 0.1721500009 2.2909998894 43.765876770 90.892425537 2.9377644062 99.735206604 3.8527595997 3.8527595997
 3929.4626465 3.0000000000 12.624999046 -0.018999999 0.2272599936 2.3169999123 53.677684784 101.76341248 2.7905735970 100.48320007 2.4557805061 2.4557805061
 3929.6149902 3.0000000000 11.529999733 0.0149999997 0.3328900039 2.4300000668 67.199218750 110.12860870 2.5249793530 99.984001160 1.6960496902 1.6960496902
 3929.7675781 6.0000000000 11.250000000 0.0659999996 0.4001699984 2.5069999695 74.188201904 112.35420227 2.5121505260 99.981597900 1.7273712158 1.7273712158
 3929.9199219 6.0000000000 11.236000061 0.0869999975 0.4411799908 2.4800000191 74.244689941 105.85095978 2.5587275028 99.231994629 1.8437837362 1.8437837362
 3930.0722656 6.0000000000 11.241001129 0.0710000023 0.4158000052 2.4419999123 70.944816589 90.861381531 2.3891282082 97.984001160 2.3322532177 2.3322532177
 3930.2246094 6.0000000000 11.241999626 0.0619999990 0.3966000080 2.4189999104 75.193908691 82.364585876 2.4694070816 97.983200073 2.4914710522 2.4914710522
 3930.3769531 6.0000000000 11.241999626 0.0500000007 0.3523800075 2.4000000954 78.874900818 75.869392395 2.7233157158 97.483200073 3.4106395245 3.4106395245
 3930.5295410 6.0000000000 11.241999626 0.0450000018 0.3144200146 2.3900001049 78.802398682 72.380996704 2.9204993248 96.981597900 5.0582480431 5.0582480431
 3930.6818848 6.0000000000 11.241999626 0.0320000015 0.2672599852 2.3710000515 75.500297546 74.247993469 3.0769710541 96.232795715 6.0703830719 6.0703830719
 3930.8342285 6.0000000000 11.241999626 0.0219999999 0.2506999969 2.3610000610 75.690811157 73.007812500 3.6832787991 95.479995728 6.3074903488 6.3074903488
 3930.9865723 6.0000000000 11.236000061 0.0000000000 0.2735300064 2.3369998932 77.439102173 77.877204895 4.4805450439 92.980796814 5.3646249771 5.3646249771
 3931.1391602 6.0000000000 11.234000206 -0.015000000 0.3359099925 2.3289999962 78.138000488 79.255592346 4.8205890656 90.982398987 3.8829936981 3.8829936981
 3931.2915039 7.0000000000 11.043998718 -0.014000000 0.3704999983 2.3759999275 82.185295105 80.994987488 5.0039744377 90.487609863 3.2579309940 3.2579309940
 3931.4438477 7.0000000000 11.119000435 -0.004000000 0.3705100119 2.4630000591 80.509216309 77.885620117 4.9873991013 92.738006592 3.2162115574 3.2162115574
 3931.5961914 7.0000000000 11.133999825 0.0070000002 0.3479799926 2.5569999218 86.249099731 84.492179871 4.6118011475 95.240814209 3.9726121426 3.9726121426
 3931.7487793 7.0000000000 11.074001312 0.0080000004 0.3192400038 2.5920000076 85.707801819 79.613403320 3.8651695251 99.489601135 4.9781875610 4.9781875610
 3931.9011230 7.0000000000 11.048999786 0.0060000001 0.3005400002 2.6059999466 91.873901367 75.995590210 3.9190897942 101.23640442 5.3486442566 5.3486442566
 3932.0534668 7.0000000000 11.039999008 0.0179999992 0.2822999954 2.6210000515 91.193511963 73.252601624 4.5989823341 102.73480225 5.7508764267 5.7508764267
 3932.2058105 7.0000000000 11.038999557 0.0000000000 0.2964600027 2.5789999962 94.618591309 74.873596191 5.2113876343 103.23320007 6.2984275818 6.2984275818
 3932.3581543 7.0000000000 11.019000053 -0.003000000 0.3014400005 2.5669999123 90.621498108 73.999801636 5.4548382759 102.73200226 7.1876931190 7.1876931190
 3932.5107422 7.0000000000 11.015999794 -0.010000000 0.2866399884 2.5699999332 88.433395386 73.873397827 6.6009168625 101.48119354 6.9952740669 6.9952740669
 3932.6630859 7.0000000000 11.008999825 0.0030000000 0.2726399899 2.6289999485 85.557296753 72.875404358 5.9249234200 99.731994629 6.5428562164 6.5428562164
 3932.8154297 7.0000000000 10.995000839 0.0189999994 0.2668299973 2.6719999313 81.996391296 73.127403259 5.2537999153 98.484405518 6.4535255432 6.4535255432
 3932.9677734 6.0000000000 10.991998672 0.0630000010 0.2857199907 2.7230000496 79.736282349 74.627403259 5.1288433075 98.736007690 6.7807822227 6.7807822227
 3933.1203613 6.0000000000 10.991998672 0.1140000001 0.2883299887 2.7239999771 71.175399780 76.128196716 5.0305008888 99.990402222 6.6434226036 6.6434226036
 3933.2727051 5.0000000000 10.986000061 0.1230000034 0.2704899907 2.6689999104 67.238533020 77.126205444 4.8751010895 101.98560333 6.1510047913 6.1510047913
 3933.4250488 5.0000000000 10.970999718 0.0939999968 0.2290900052 2.5699999332 60.089042664 77.874397278 4.9380674362 102.98440552 5.5310564041 5.5310564041
 3933.5773926 5.0000000000 10.969000816 0.0209999997 0.1926800013 2.4509999752 57.000148773 77.498397827 4.9798879623 103.23440552 5.5663957596 5.5663957596
 3933.7299805 5.0000000000 10.943000793 0.0010000000 0.1829299927 2.4219999313 57.082302094 76.496002197 4.9097886086 103.48480225 5.8141107559 5.8141107559
 3933.8823242 5.0000000000 10.930999756 -0.005000000 0.1841800064 2.4230000973 53.440605164 75.249000549 4.8440365791 103.73320007 6.1601438522 6.1601438522
 3934.0346680 5.0000000000 10.917001724 0.0179999992 0.1882500052 2.4530000687 55.067554474 74.626205444 4.8669505119 103.23359680 6.2497806549 6.2497806549
 3934.1870117 5.0000000000 10.907999992 0.0080000004 0.1905999929 2.4489998817 57.917266846 75.374000549 4.8359999657 102.98440552 6.1123557091 6.1123557091
 3934.3395996 5.0000000000 10.905999184 0.0120000001 0.2003100067 2.4470000267 64.958000183 74.752799988 4.8360862732 103.23400116 5.7114000320 5.7114000320
 3934.4919434 6.0000000000 10.892999649 0.0049999999 0.1980600059 2.4419999123 71.196517944 75.625205994 4.8631505966 103.23400116 5.8363060951 5.8363060951
 3934.6442871 6.0000000000 10.883999825 0.0099999998 0.1907200068 2.4430000782 76.509719849 75.749000549 4.9576697350 103.23320007 6.0274758339 6.0274758339
 3934.7966309 6.0000000000 10.863000870 0.0329999998 0.1857800037 2.4760000706 82.554786682 75.125801086 5.3747372627 102.73400116 6.3236489296 6.3236489296
 3934.9489746 6.0000000000 10.840000153 0.0240000002 0.1846500039 2.4709999561 77.435195923 75.622406006 5.2116074562 102.73400116 6.1046314240 6.1046314240
 3935.1015625 6.0000000000 10.822999954 0.0230000000 0.1923300028 2.4800000191 75.683601379 73.996398926 5.5904259682 102.73560333 5.8763246536 5.8763246536
 3935.2539063 6.0000000000 10.793999672 0.0089999996 0.1926199943 2.4809999466 74.316711426 72.874000549 5.7232627869 103.23480225 6.2908844948 6.2908844948
 3935.4062500 6.0000000000 10.783000946 0.0370000005 0.2124000043 2.5250000954 76.618186951 72.251403809 5.8870625496 103.73359680 7.4662084579 7.4662084579
 3935.5585938 6.0000000000 10.781001091 0.0489999987 0.2318300009 2.5320000648 72.369789124 73.122795105 5.9258303642 103.48400116 8.2184419632 8.2184419632
 3935.7111816 6.0000000000 10.781001091 0.0520000011 0.2450699955 2.4990000725 69.126602173 71.751602173 5.8200130463 103.48239899 7.8679118156 7.8679118156
 3935.8635254 6.0000000000 10.762000084 0.0450000018 0.2131599933 2.4860000610 69.625099182 72.251205444 5.8237996101 102.98480225 6.9049921036 6.9049921036
 3936.0158691 6.0000000000 10.744999886 0.0390000008 0.1885699928 2.4830000401 69.676231384 73.002006531 5.6985864639 103.48359680 6.2771697044 6.2771697044
 3936.1682129 6.0000000000 10.722999573 0.0340000018 0.1744599938 2.4790000916 62.331382751 74.251403809 5.4405369759 103.23400116 6.3828492165 6.3828492165
 3936.3208008 3.0000000000 10.711999893 0.0189999994 0.1874500066 2.4340000153 54.438102722 75.129402161 5.1510400772 103.23480225 6.2874255180 6.2874255180
 3936.4731445 3.0000000000 10.690999985 0.0240000002 0.1904300004 2.4049999714 44.805538177 76.502006531 4.8515176773 103.48400116 5.7959980965 5.7959980965
