# LAS format log file from PETREL
# Project units are specified as depth units
#==================================================================
~Version information
VERS.   2.0:
WRAP.   NO:
#==================================================================
~Well
STRT .m      1977.9804688 :
STOP .m      4079.7290039 :
STEP .m     0.00000000 :
NULL .        -999.250000 :
COMP.           : COMPANY
WELL.  34/2-2R   : WELL
FLD.            : FIELD
LOC.            : LOCATION
SRVC.           : SERVICE COMPANY
DATE.  2018-09-11 14:48:48   : Log Export Date {yyyy-MM-dd HH:mm:ss}
PROV.           : PROVINCE
UWI.   34/2-2 R   : UNIQUE WELL ID
API.            : API NUMBER
#==================================================================
~Curve
DEPT .m                   : DEPTH
Lithology_geolink ._      : Lithology_geolink
CALI .in                  : CALI
DRHO .g/cm3               : DRHO
NPHI .m3/m3               : NPHI
RHOB .g/cm3               : RHOB
GR .gAPI                  : GR
DTC .us/ft                : DTC
RDEP .ohm.m               : RDEP
SP .mV                    : SP
RSHA .ohm.m               : RSHA
RMED .ohm.m               : RMED
~Parameter
#==================================================================
~Ascii
# ...
 2537.5932617  -999.250000 15.069999695 0.0179999992 0.3764599860 2.3199999332 51.562999725 114.50000000 1.3150000572 72.171997070 1.4450000525 1.4450000525
 2537.7458496  -999.250000 15.069999695 0.0060000001 0.3642599881 2.3199999332 56.094001770 115.00000000 1.2840000391 72.484001160 1.4329999685 1.4329999685
 2537.8981934  -999.250000 15.069999695 0.0340000018 0.3559600115 2.3259999752 57.344001770 116.12499237 1.2730000019 72.484001160 1.4429999590 1.4429999590
 2538.0505371  -999.250000 15.069999695 0.0230000000 0.3378899992 2.3090000153 56.280998230 115.25000000 1.2740000486 72.046997070 1.4440000057 1.4440000057
 2538.2028809  -999.250000 15.046999931 0.0320000015 0.3251999915 2.3129999638 54.719001770 115.49999237 1.2710000277 72.359001160 1.4400000572 1.4400000572
 2538.3554688  -999.250000 15.102000237 0.0260000005 0.3002899885 2.3299999237 48.750000000 116.25000000 1.2730000019 71.984001160 1.4500000477 1.4500000477
 2538.5078125  -999.250000 14.977000237 0.0280000009 0.2983399928 2.3420000076 50.875000000 115.25000000 1.2760000229 72.171997070 1.4320000410 1.4320000410
 2538.6601563  -999.250000 14.930000305 0.0089999996 0.2998000085 2.3129999638 44.905998230 115.25000000 1.2730000019 72.296997070 1.4409999847 1.4409999847
 2538.8125000  -999.250000 14.906000137 0.0089999996 0.3178699911 2.2990000248 47.125000000 117.00000000 1.2769999504 70.234001160 1.4170000553 1.4170000553
 2538.9650879  -999.250000 14.852000237 0.0040000002 0.3369100094 2.3010001183 50.030998230 116.00000000 1.2840000391 69.734001160 1.4370000362 1.4370000362
 2539.1174316  -999.250000 14.805000305 0.0089999996 0.3501000106 2.3010001183 57.344001770 115.25000000 1.2840000391 70.234001160 1.4320000410 1.4320000410
 2539.2697754  -999.250000 14.797000885 0.0000000000 0.3393599987 2.2990000248 56.594001770 114.50000000 1.2849999666 68.171997070 1.4470000267 1.4470000267
 2539.4221191  -999.250000 14.797000885 -0.002000000 0.3476600051 2.2909998894 52.187999725 113.50000000 1.2890000343 67.296997070 1.4889999628 1.4889999628
 2539.5744629  -999.250000 14.789000511 0.0049999999 0.3212899864 2.3139998913 50.719001770 112.00000000 1.2990000248 67.109001160 1.5099999905 1.5099999905
 2539.7270508  -999.250000 14.758001328 0.0109999999 0.3466799855 2.3180000782 49.312999725 114.24999237 1.3009999990 66.921997070 1.4869999886 1.4869999886
 2539.8793945  -999.250000 14.727000237 0.0230000000 0.3418000042 2.3259999752 52.219001770 114.00000000 1.3059999943 69.046997070 1.4589999914 1.4589999914
 2540.0317383  -999.250000 14.727000237 0.0089999996 0.3852500021 2.3050000668 55.219001770 115.25000000 1.3129999638 69.421997070 1.4420000315 1.4420000315
 2540.1840820  -999.250000 14.719000816 0.0020000001 0.3955099881 2.3010001183 61.000000000 115.00000000 1.3170000315 70.734001160 1.4409999847 1.4409999847
 2540.3366699  -999.250000 14.711001396 0.0000000000 0.3876999915 2.3029999733 60.375000000 114.50000000 1.3179999590 70.984001160 1.4539999962 1.4539999962
 2540.4890137  -999.250000 14.694999695 0.0240000002 0.3671900034 2.3280000687 56.030998230 113.75000000 1.3190000057 71.359001160 1.4789999723 1.4789999723
 2540.6413574  -999.250000 14.679999352 0.0379999988 0.3315399885 2.3380000591 50.500000000 112.75000000 1.3170000315 71.359001160 1.5089999437 1.5089999437
 2540.7937012  -999.250000 14.671999931 0.0270000007 0.3105500042 2.3299999237 50.030998230 114.00000000 1.3140000105 71.921997070 1.5299999714 1.5299999714
 2540.9462891  -999.250000 14.679999352 0.0030000000 0.2968800068 2.3029999733 51.562999725 112.75000000 1.3179999590 72.984001160 1.5360000134 1.5360000134
 2541.0986328  -999.250000 14.719000816 0.0109999999 0.3203099966 2.3129999638 54.280998230 114.50000000 1.3300000429 73.171997070 1.5049999952 1.5049999952
 2541.2509766  -999.250000 14.727000237 0.0070000002 0.3256799877 2.3069999218 50.344001770 115.49999237 1.3300000429 72.609001160 1.4789999723 1.4789999723
 2541.4033203  -999.250000 14.765999794 0.0419999994 0.3032200038 2.3399999142 53.937999725 115.25000000 1.3250000477 71.234001160 1.4720000029 1.4720000029
 2541.5556641  -999.250000 14.781000137 0.0439999998 0.2802700102 2.3440001011 51.155998230 113.75000000 1.3250000477 72.109001160 1.4789999723 1.4789999723
 2541.7082520  -999.250000 14.781000137 0.0590000004 0.2529299855 2.3650000095 56.750000000 113.50000000 1.3240000010 72.296997070 1.4889999628 1.4889999628
 2541.8605957  -999.250000 14.772999763 0.0209999997 0.2812500000 2.3199999332 50.719001770 115.00000000 1.3339999914 73.734001160 1.4969999790 1.4969999790
 2542.0129395  -999.250000 14.772999763 0.0089999996 0.2861300111 2.3029999733 51.280998230 113.50000000 1.3409999609 73.671997070 1.5039999485 1.5039999485
 2542.1652832  -999.250000 14.772999763 0.0130000003 0.3051800132 2.3029999733 48.594001770 115.75001526 1.3530000448 74.046997070 1.5049999952 1.5049999952
 2542.3178711  -999.250000 14.781000137 0.0230000000 0.2856400013 2.3239998817 47.062999725 114.50000000 1.3710000515 73.359001160 1.5039999485 1.5039999485
 2542.4702148  -999.250000 14.781000137 0.0410000011 0.2783200145 2.3440001011 47.750000000 114.24999237 1.3769999743 71.921997070 1.5269999504 1.5269999504
 2542.6225586  -999.250000 14.781000137 0.0209999997 0.3090800047 2.3090000153 48.469001770 115.49999237 1.3830000162 70.796997070 1.5379999876 1.5379999876
 2542.7749023  -999.250000 14.781000137 0.0160000008 0.3242200017 2.3010001183 51.437999725 114.24999237 1.3849999905 69.734001160 1.5650000572 1.5650000572
 2542.9274902  -999.250000 14.789000511 -0.007000000 0.3364300132 2.2660000324 48.562999725 114.00000000 1.3890000582 69.109001160 1.5670000315 1.5670000315
 2543.0798340  -999.250000 14.789000511 -0.003000000 0.3295899928 2.2769999504 44.844001770 115.00000000 1.3869999647 68.984001160 1.5579999685 1.5579999685
 2543.2321777  -999.250000 14.789000511 0.0109999999 0.3564499915 2.2750000954 47.062999725 114.50000000 1.3839999437 68.734001160 1.5160000324 1.5160000324
 2543.3845215  -999.250000 14.781000137 0.0359999985 0.3505899906 2.3159999847 50.780998230 114.00000000 1.3810000420 69.171997070 1.5000000000 1.5000000000
 2543.5368652  -999.250000 14.781000137 0.0460000001 0.3373999894 2.3420000076 55.219001770 114.75000000 1.3689999580 70.546997070 1.4670000076 1.4670000076
 2543.6894531  -999.250000 14.781000137 0.0080000004 0.3320299983 2.3280000687 51.719001770 114.24999237 1.3530000448 71.171997070 1.4850000143 1.4850000143
 2543.8417969  -999.250000 14.781000137 -0.001000000 0.3642599881 2.3159999847 55.719001770 113.50000000 1.3459999561 71.421997070 1.4759999514 1.4759999514
 2543.9941406  -999.250000 14.789000511 -0.010000000 0.3876999915 2.2909998894 53.062999725 115.00000000 1.3339999914 72.421997070 1.5000000000 1.5000000000
 2544.1464844  -999.250000 14.836000443 -0.001000000 0.3691399992 2.2809998989 55.187999725 114.00000000 1.3289999962 71.859001160 1.4809999466 1.4809999466
 2544.2990723  -999.250000 14.866999626 -0.006000000 0.3549799919 2.2750000954 46.812999725 113.25000000 1.3190000057 71.921997070 1.4989999533 1.4989999533
 2544.4514160  -999.250000 14.866999626 0.0149999997 0.3364300132 2.2869999409 47.375000000 114.50000000 1.3140000105 71.234001160 1.4739999771 1.4739999771
 2544.6037598  -999.250000 14.866999626 0.0260000005 0.3754900098 2.3199999332 48.030998230 116.00000000 1.3020000458 70.484001160 1.4539999962 1.4539999962
 2544.7561035  -999.250000 14.913999557 0.0299999993 0.3437500000 2.3199999332 47.280998230 114.75000000 1.2929999828 70.359001160 1.4240000248 1.4240000248
 2544.9086914  -999.250000 14.944999695 0.0219999999 0.3505899906 2.3139998913 47.344001770 114.75000000 1.2849999666 68.421997070 1.4270000458 1.4270000458
 2545.0610352  -999.250000 14.968999863 0.0209999997 0.3325200081 2.2969999313 47.812999725 115.25000000 1.2710000277 67.609001160 1.4179999828 1.4179999828
 2545.2133789  -999.250000 15.000000954 0.0430000015 0.3515599966 2.3220000267 54.280998230 115.49999237 1.2589999437 66.609001160 1.4229999781 1.4229999781
