# LAS format log file from PETREL
# Project units are specified as depth units
#==================================================================
~Version information
VERS.   2.0:
WRAP.   NO:
#==================================================================
~Well
STRT .m      1977.9804688 :
STOP .m      4079.7290039 :
STEP .m     0.00000000 :
NULL .        -999.250000 :
COMP.           : COMPANY
WELL.  34/2-2R   : WELL
FLD.            : FIELD
LOC.            : LOCATION
SRVC.           : SERVICE COMPANY
DATE.  2018-09-11 14:48:48   : Log Export Date {yyyy-MM-dd HH:mm:ss}
PROV.           : PROVINCE
UWI.   34/2-2 R   : UNIQUE WELL ID
API.            : API NUMBER
#==================================================================
~Curve
DEPT .m                   : DEPTH
Lithology_geolink ._      : Lithology_geolink
CALI .in                  : CALI
DRHO .g/cm3               : DRHO
NPHI .m3/m3               : NPHI
RHOB .g/cm3               : RHOB
GR .gAPI                  : GR
DTC .us/ft                : DTC
RDEP .ohm.m               : RDEP
SP .mV                    : SP
RSHA .ohm.m               : RSHA
RMED .ohm.m               : RMED
~Parameter
#==================================================================
~Ascii
# ...
 2677.4965820  -999.250000 14.953000069 -0.004000000 0.3373999894 2.3420000076 44.937999725 112.75000000 1.1970000267 68.234001160 1.4709999561 1.4709999561
 2677.6489258  -999.250000 14.953000069 0.0020000001 0.3662100136 2.3220000267 42.905998230 112.75000000 1.1920000315 68.734001160 1.4199999571 1.4199999571
 2677.8012695  -999.250000 14.944999695 0.0199999996 0.4008800089 2.3499999046 50.030998230 115.75001526 1.1840000153 67.859001160 1.2990000248 1.2990000248
 2677.9538574  -999.250000 14.944999695 0.0560000017 0.3769499958 2.4000000954 50.750000000 113.62500000 1.1649999619 68.484001160 1.2289999723 1.2289999723
 2678.1062012  -999.250000 14.883000374 0.0570000000 0.3735400140 2.4119999409 58.187999725 114.75000000 1.1519999504 69.859001160 1.1940000057 1.1940000057
 2678.2585449  -999.250000 14.602000237 0.0480000004 0.3657200038 2.3849999905 56.219001770 112.50000000 1.1460000277 70.046997070 1.2460000515 1.2460000515
 2678.4108887  -999.250000 14.421999931 0.0240000002 0.3876999915 2.3399999142 58.000000000 111.25000000 1.1360000372 69.984001160 1.2979999781 1.2979999781
 2678.5632324  -999.250000 14.194998741 0.0189999994 0.3808600008 2.3340001106 56.125000000 112.25000763 1.1399999857 71.359001160 1.3489999771 1.3489999771
 2678.7158203  -999.250000 14.163999557 0.0230000000 0.3886699975 2.3480000496 52.469001770 111.00000000 1.1549999714 70.421997070 1.3580000401 1.3580000401
 2678.8681641  -999.250000 14.102000237 0.0089999996 0.3666999936 2.3499999046 56.625000000 112.75000000 1.1640000343 69.234001160 1.3719999790 1.3719999790
 2679.0205078  -999.250000 13.991998672 0.0390000008 0.3994100094 2.3629999161 53.219001770 111.25000000 1.1640000343 68.609001160 1.3819999695 1.3819999695
 2679.1728516  -999.250000 13.874999046 0.0579999983 0.4018599987 2.3610000610 53.844001770 113.12500763 1.1610000134 68.109001160 1.3650000095 1.3650000095
 2679.3254395  -999.250000 13.836000443 0.0549999997 0.4379900098 2.3129999638 42.812999725 113.37499237 1.1579999924 67.796997070 1.3259999752 1.3259999752
 2679.4777832  -999.250000 13.765999794 0.0020000001 0.4047900140 2.2520000935 38.469001770 114.12500000 1.1599999666 67.234001160 1.2539999485 1.2539999485
 2679.6301270  -999.250000 13.602000237 -0.005000000 0.3808600008 2.2599999905 40.655998230 114.00000000 1.1649999619 67.359001160 1.2369999886 1.2369999886
 2679.7824707  -999.250000 13.187999725 0.0000000000 0.3432599902 2.2829999924 46.500000000 114.75000000 1.1710000038 67.734001160 1.2790000439 1.2790000439
 2679.9350586  -999.250000 13.147999763 0.0270000007 0.3486300111 2.3110001087 59.625000000 114.50000000 1.1710000038 68.234001160 1.3380000591 1.3380000591
 2680.0874023  -999.250000 13.625000954 0.0109999999 0.3564499915 2.2950000763 61.812999725 112.87500000 1.1759999990 69.796997070 1.3789999485 1.3789999485
 2680.2397461  -999.250000 13.772999763 -0.001000000 0.3818399906 2.2599999905 61.780998230 112.75000000 1.1890000105 70.921997070 1.3969999552 1.3969999552
 2680.3920898  -999.250000 13.585999489 -0.003000000 0.3593800068 2.2209999561 55.062999725 112.99999237 1.1970000267 70.734001160 1.4099999666 1.4099999666
 2680.5444336  -999.250000 13.984000206 -0.012000000 0.3881799877 2.1559998989 58.187999725 112.50000000 1.1940000057 70.359001160 1.3830000162 1.3830000162
 2680.6970215  -999.250000 13.366999626 -0.016000001 0.3715800047 2.1719999313 57.469001770 113.37499237 1.1920000315 69.859001160 1.3880000114 1.3880000114
 2680.8493652  -999.250000 13.538999557 0.0049999999 0.3725599945 2.2300000191 54.655998230 112.37500000 1.1929999590 70.046997070 1.3450000286 1.3450000286
 2681.0017090  -999.250000 14.055000305 0.0280000009 0.3442400098 2.2909998894 52.875000000 114.50000000 1.1900000572 69.859001160 1.3400000334 1.3400000334
 2681.1540527  -999.250000 14.038998604 0.0450000018 0.3618200123 2.3159999847 51.500000000 113.62500000 1.1920000315 69.984001160 1.3029999733 1.3029999733
 2681.3066406  -999.250000 14.156000137 0.0080000004 0.3925800025 2.2639999390 57.562999725 114.00000000 1.1959999800 70.984001160 1.3079999685 1.3079999685
 2681.4589844  -999.250000 14.508000374 -0.003000000 0.4111300111 2.2500000000 55.780998230 113.75000000 1.2020000219 71.921997070 1.3320000172 1.3320000172
 2681.6113281  -999.250000 14.930000305 -0.005000000 0.3940399885 2.2130000591 61.312999725 111.74999237 1.2009999752 71.921997070 1.3910000324 1.3910000324
 2681.7636719  -999.250000 14.836000443 -0.003000000 0.4047900140 2.2070000172 55.500000000 113.25000000 1.2089999914 71.609001160 1.4220000505 1.4220000505
 2681.9162598  -999.250000 14.625000000 -0.008000000 0.3833000064 2.1740000248 57.437999725 111.62500000 1.2170000076 71.109001160 1.4170000553 1.4170000553
 2682.0686035  -999.250000 14.789000511 -0.008000000 0.3930700123 2.1819999218 49.719001770 113.12500763 1.2269999981 71.109001160 1.4060000181 1.4060000181
 2682.2209473  -999.250000 14.438000679 -0.016000001 0.3706099987 2.1700000763 46.562999725 111.62500000 1.2359999418 71.484001160 1.3630000353 1.3630000353
 2682.3732910  -999.250000 13.827999115 -0.006000000 0.3593800068 2.2009999752 43.530998230 113.75000000 1.2400000095 71.609001160 1.3719999790 1.3719999790
 2682.5258789  -999.250000 14.343999863 -0.005000000 0.3149400055 2.2049999237 41.312999725 115.12500000 1.2380000353 71.171997070 1.3639999628 1.3639999628
 2682.6782227  -999.250000 14.772999763 -0.002000000 0.3168900013 2.2130000591 47.125000000 111.12500000 1.2430000305 71.484001160 1.3830000162 1.3830000162
 2682.8305664  -999.250000 14.765999794 0.0160000008 0.3520500064 2.2339999676 45.000000000 113.50000000 1.2489999533 71.296997070 1.3869999647 1.3869999647
 2682.9829102  -999.250000 14.750000000 0.0230000000 0.3769499958 2.2520000935 53.094001770 111.12500000 1.2380000353 72.296997070 1.4010000229 1.4010000229
 2683.1352539  -999.250000 14.038998604 0.0160000008 0.3496100008 2.2479999065 56.000000000 110.49999237 1.2309999466 73.109001160 1.4249999523 1.4249999523
 2683.2878418  -999.250000 13.772999763 0.0000000000 0.3330099881 2.2290000916 53.812999725 113.37499237 1.2319999933 73.359001160 1.4229999781 1.4229999781
 2683.4401855  -999.250000 14.250000000 -0.006000000 0.3486300111 2.2090001106 50.812999725 113.25000000 1.2189999819 73.921997070 1.4270000458 1.4270000458
 2683.5925293  -999.250000 13.968999863 -0.001000000 0.3906300068 2.2190001011 47.187999725 112.37500000 1.1959999800 74.296997070 1.3960000277 1.3960000277
 2683.7448730  -999.250000 14.836000443 -0.005000000 0.3872100115 2.1840000153 48.812999725 113.62500000 1.1959999800 73.984001160 1.3400000334 1.3400000334
 2683.8974609  -999.250000 15.437999725 0.0040000002 0.3857400119 2.1909999847 45.875000000 113.87500000 1.2000000477 73.796997070 1.2669999599 1.2669999599
 2684.0498047  -999.250000 14.828000069 0.0149999997 0.3984400034 2.2070000172 45.094001770 111.74999237 1.1950000525 73.609001160 1.2580000162 1.2580000162
 2684.2021484  -999.250000 14.805000305 0.0260000005 0.3798800111 2.2599999905 44.280998230 114.75000000 1.1959999800 73.296997070 1.2910000086 1.2910000086
 2684.3544922  -999.250000 14.563000679 0.0489999987 0.3603500128 2.2990000248 54.625000000 111.62500000 1.1929999590 72.359001160 1.3400000334 1.3400000334
 2684.5070801  -999.250000 14.063000679 0.0299999993 0.3393599987 2.2639999390 55.500000000 110.62500763 1.1979999542 71.796997070 1.3830000162 1.3830000162
 2684.6594238  -999.250000 14.102000237 0.0260000005 0.3813500106 2.2439999580 57.969001770 112.12500000 1.2180000544 72.171997070 1.4019999504 1.4019999504
 2684.8117676  -999.250000 13.734000206 -0.008000000 0.4043000042 2.1760001183 53.875000000 109.12500763 1.2430000305 71.609001160 1.4079999924 1.4079999924
 2684.9641113  -999.250000 13.866999626 -0.024000000 0.3920899928 2.1659998894 59.780998230 110.49999237 1.2589999437 72.359001160 1.4149999619 1.4149999619
 2685.1164551  -999.250000 14.499998093 -0.025000000 0.3559600115 2.1519999504 62.344001770 109.87499237 1.2640000582 71.484001160 1.4210000038 1.4210000038
