# LAS format log file from PETREL
# Project units are specified as depth units
#==================================================================
~Version information
VERS.   2.0:
WRAP.   NO:
#==================================================================
~Well
STRT .m      1977.9804688 :
STOP .m      4079.7290039 :
STEP .m     0.00000000 :
NULL .        -999.250000 :
COMP.           : COMPANY
WELL.  34/2-2R   : WELL
FLD.            : FIELD
LOC.            : LOCATION
SRVC.           : SERVICE COMPANY
DATE.  2018-09-11 14:48:48   : Log Export Date {yyyy-MM-dd HH:mm:ss}
PROV.           : PROVINCE
UWI.   34/2-2 R   : UNIQUE WELL ID
API.            : API NUMBER
#==================================================================
~Curve
DEPT .m                   : DEPTH
Lithology_geolink ._      : Lithology_geolink
CALI .in                  : CALI
DRHO .g/cm3               : DRHO
NPHI .m3/m3               : NPHI
RHOB .g/cm3               : RHOB
GR .gAPI                  : GR
DTC .us/ft                : DTC
RDEP .ohm.m               : RDEP
SP .mV                    : SP
RSHA .ohm.m               : RSHA
RMED .ohm.m               : RMED
~Parameter
#==================================================================
~Ascii
# ...
 3509.1433105 5.0000000000 11.189000130 0.0000000000 0.3706899881 2.3889999390 74.750000000 93.375000000 2.0550000668 84.859001160 2.2620000839 2.2620000839
 3509.2956543 5.0000000000 11.201999664 0.0020000001 0.3554300070 2.4040000439 78.875000000 95.625007629 1.9819999933 84.609001160 2.3050000668 2.3050000668
 3509.4479980 5.0000000000 11.143999100 0.0179999992 0.3572700024 2.4779999256 79.875000000 98.125007629 1.8960000277 84.859001160 2.2950000763 2.2950000763
 3509.6003418 5.0000000000 11.133000374 0.0460000001 0.3775199950 2.5610001087 76.125000000 100.12499237 1.8539999723 84.859001160 2.3889999390 2.3889999390
 3509.7529297 5.0000000000 11.133000374 0.0320000015 0.3858399987 2.5420000553 76.375000000 99.875000000 1.8789999485 85.484001160 2.4019999504 2.4019999504
 3509.9052734 5.0000000000 11.133000374 0.0280000009 0.3961299956 2.5520000458 69.250000000 100.25000000 2.0490000248 86.359001160 2.4839999676 2.4839999676
 3510.0576172 5.0000000000 11.133000374 0.0179999992 0.4339100122 2.5320000648 69.063003540 105.87500000 2.1150000095 86.109001160 2.4570000172 2.4570000172
 3510.2099609 5.0000000000 11.133000374 0.0070000002 0.4445900023 2.5339999199 71.688003540 102.12500000 2.0469999313 85.734001160 2.3670001030 2.3670001030
 3510.3625488 6.0000000000 11.133000374 0.0049999999 0.4399999976 2.5109999180 81.500000000 98.125007629 2.0469999313 85.984001160 2.3029999733 2.3029999733
 3510.5148926 6.0000000000 11.133000374 0.0070000002 0.4169099927 2.5120000839 86.625000000 97.250000000 1.9919999838 85.859001160 2.3770000935 2.3770000935
 3510.6672363 6.0000000000 11.133000374 0.0250000004 0.4236499965 2.5120000839 84.250000000 88.750000000 1.9869999886 85.734001160 2.4769999981 2.4769999981
 3510.8195801 6.0000000000 11.133000374 0.0099999998 0.4241499901 2.5000000000 79.000000000 95.625007629 2.0759999752 86.109001160 2.5610001087 2.5610001087
 3510.9719238 6.0000000000 11.133000374 0.0250000004 0.4070799947 2.5260000229 83.063003540 95.625007629 2.1250000000 86.734001160 2.3299999237 2.3299999237
 3511.1245117 6.0000000000 11.139000893 0.0149999997 0.3870599866 2.5329999924 90.063003540 92.999992371 1.9839999676 86.234001160 2.5290000439 2.5290000439
 3511.2768555 6.0000000000 11.140999794 0.0179999992 0.3809199929 2.5230000019 92.313003540 97.250000000 2.0309998989 86.859001160 2.3540000916 2.3540000916
 3511.4291992 6.0000000000 11.140999794 0.0099999998 0.3844600022 2.4709999561 87.125000000 95.499992371 2.0629999638 87.484001160 2.3980000019 2.3980000019
 3511.5815430 6.0000000000 11.154000282 0.0010000000 0.3852500021 2.4279999733 79.375000000 94.000000000 1.9680000544 87.109001160 2.2829999924 2.2829999924
 3511.7341309 6.0000000000 11.155999184 0.0040000002 0.3909699917 2.4479999542 79.250000000 86.375000000 1.9950000048 87.234001160 2.3280000687 2.3280000687
 3511.8864746 6.0000000000 11.142998695 -0.004000000 0.3904500008 2.4939999580 75.250000000 93.750000000 2.0350000858 86.984001160 2.5859999657 2.5859999657
 3512.0388184 6.0000000000 11.069001198 0.0089999996 0.3631699979 2.5580000877 76.875000000 91.124992371 1.9520000219 87.109001160 2.4509999752 2.4509999752
 3512.1911621 6.0000000000 11.034999847 0.0109999999 0.3297300041 2.5880000591 79.000000000 93.125007629 1.9509999752 87.484001160 2.6150000095 2.6150000095
 3512.3437500 6.0000000000 11.038000107 0.0289999992 0.3413699865 2.6099998951 83.063003540 92.250000000 1.9930000305 88.234001160 2.5390000343 2.5390000343
 3512.4960938 6.0000000000 11.045999527 0.0250000004 0.3631100059 2.5899999142 92.125000000 95.625007629 2.0759999752 87.984001160 2.5799999237 2.5799999237
 3512.6484375 6.0000000000 11.047000885 0.0359999985 0.3736599982 2.5859999657 90.500000000 87.125000000 2.1070001125 87.109001160 2.5350000858 2.5350000858
 3512.8007813 6.0000000000 11.034000397 0.0379999988 0.3521200120 2.5910000801 91.375000000 95.875000000 2.1970000267 87.109001160 2.4340000153 2.4340000153
 3512.9531250 6.0000000000 11.038000107 0.0329999998 0.3411200047 2.5840001106 83.750000000 99.500000000 2.2579998970 86.609001160 2.5099999905 2.5099999905
 3513.1057129 6.0000000000 11.045999527 0.0209999997 0.3655799925 2.5490000248 87.000000000 96.500000000 2.2379999161 87.234001160 2.4000000954 2.4000000954
 3513.2580566 6.0000000000 11.034000397 0.0130000003 0.3730599880 2.5179998875 84.438003540 92.875000000 2.1889998913 87.609001160 2.5639998913 2.5639998913
 3513.4104004 6.0000000000 11.031000137 0.0260000005 0.3796600103 2.5280001163 88.313003540 91.375000000 2.1779999733 87.484001160 2.6250000000 2.6250000000
 3513.5627441 6.0000000000 11.043998718 0.0309999995 0.3661499918 2.5439999104 87.438003540 89.375007629 2.3139998913 87.734001160 2.9100000858 2.9100000858
 3513.7153320 6.0000000000 11.073000908 0.0299999993 0.3894200027 2.5420000553 88.625000000 93.125007629 2.3199999332 88.484001160 2.9549999237 2.9549999237
 3513.8676758 7.0000000000 11.064999580 0.0080000004 0.3945299983 2.5069999695 87.375000000 94.125000000 2.3870000839 88.234001160 2.9489998817 2.9489998817
 3514.0200195 7.0000000000 11.062999725 -0.001000000 0.3969799876 2.4869999886 94.188003540 95.375000000 2.4260001183 88.484001160 2.9670000076 2.9670000076
 3514.1723633 7.0000000000 11.076000214 -0.009000000 0.3831599951 2.4860000610 100.12500000 94.375007629 2.3359999657 88.234001160 2.8159999847 2.8159999847
 3514.3249512 7.0000000000 11.064999580 -0.006000000 0.3930299878 2.5030000210 97.500000000 89.875000000 2.3459999561 88.234001160 2.8050000668 2.8050000668
 3514.4772949 7.0000000000 11.076000214 -0.006000000 0.3795799911 2.5190000534 87.688003540 90.499992371 2.4470000267 87.984001160 2.5639998913 2.5639998913
 3514.6296387 7.0000000000 11.078000069 -0.005000000 0.3842400014 2.5130000114 82.063003540 93.125007629 2.3440001011 88.234001160 2.9749999046 2.9749999046
 3514.7819824 6.0000000000 11.064999580 -0.003000000 0.3669500053 2.5250000954 85.750000000 92.000000000 2.2560000420 88.234001160 3.0920000076 3.0920000076
 3514.9343262 6.0000000000 11.035999298 0.0020000001 0.3751299977 2.5529999733 86.813003540 92.750000000 2.2109999657 88.734001160 2.8670001030 2.8670001030
 3515.0869141 6.0000000000 11.043998718 0.0199999996 0.3933700025 2.5750000477 85.750000000 94.500000000 2.1449999809 89.234001160 2.5859999657 2.5859999657
 3515.2392578 6.0000000000 11.039999008 0.0410000011 0.3878900111 2.6010000706 80.563003540 92.875000000 2.1949999332 89.484001160 2.3929998875 2.3929998875
 3515.3916016 6.0000000000 11.045999527 0.0289999992 0.4164699912 2.5789999962 82.250000000 91.875007629 2.3090000153 88.734001160 2.5290000439 2.5290000439
 3515.5439453 6.0000000000 11.105999947 0.0299999993 0.3880499899 2.5859999657 82.125000000 88.250000000 2.3499999046 88.234001160 2.5859999657 2.5859999657
 3515.6965332 6.0000000000 11.149999619 0.0209999997 0.3829799891 2.5880000591 79.000000000 89.249992371 2.3259999752 88.984001160 2.9979999065 2.9979999065
 3515.8488770 6.0000000000 11.155999184 0.0329999998 0.3497399986 2.5859999657 76.875000000 96.375000000 2.4040000439 89.234001160 2.8650000095 2.8650000095
 3516.0012207 6.0000000000 11.155999184 0.0309999995 0.3359000087 2.5920000076 75.875000000 93.750000000 2.4000000954 88.984001160 3.1559998989 3.1559998989
 3516.1535645 6.0000000000 11.155999184 0.0109999999 0.3610300124 2.5499999523 77.688003540 94.375007629 2.2730000019 89.484001160 2.9860000610 2.9860000610
 3516.3061523 6.0000000000 11.155999184 0.0299999993 0.3792800009 2.5690000057 77.625000000 92.625000000 2.1970000267 89.234001160 2.9749999046 2.9749999046
 3516.4584961 6.0000000000 11.194999695 0.0160000008 0.3826499879 2.5460000038 78.375000000 92.999992371 2.2130000591 89.484001160 2.8090000153 2.8090000153
 3516.6108398 6.0000000000 11.353999138 0.0560000017 0.3652099967 2.5610001087 85.625000000 92.000000000 2.2090001106 88.984001160 2.7500000000 2.7500000000
 3516.7631836 6.0000000000 11.258999825 0.0329999998 0.3552800119 2.5169999599 83.313003540 91.124992371 2.2230000496 88.484001160 2.6819999218 2.6819999218
