# LAS format log file from PETREL
# Project units are specified as depth units
#==================================================================
~Version information
VERS.   2.0:
WRAP.   NO:
#==================================================================
~Well
STRT .m      1977.9804688 :
STOP .m      4079.7290039 :
STEP .m     0.00000000 :
NULL .        -999.250000 :
COMP.           : COMPANY
WELL.  34/2-2R   : WELL
FLD.            : FIELD
LOC.            : LOCATION
SRVC.           : SERVICE COMPANY
DATE.  2018-09-11 14:48:48   : Log Export Date {yyyy-MM-dd HH:mm:ss}
PROV.           : PROVINCE
UWI.   34/2-2 R   : UNIQUE WELL ID
API.            : API NUMBER
#==================================================================
~Curve
DEPT .m                   : DEPTH
Lithology_geolink ._      : Lithology_geolink
CALI .in                  : CALI
DRHO .g/cm3               : DRHO
NPHI .m3/m3               : NPHI
RHOB .g/cm3               : RHOB
GR .gAPI                  : GR
DTC .us/ft                : DTC
RDEP .ohm.m               : RDEP
SP .mV                    : SP
RSHA .ohm.m               : RSHA
RMED .ohm.m               : RMED
~Parameter
#==================================================================
~Ascii
 1977.9804688  -999.250000 12.516000748 -1.126000047 0.5781300068 1.4880000353 44.094001770 158.49998474 0.5820000172 49.962001801 0.7609999776 0.7609999776
 1978.1329346  -999.250000 12.538999557 -1.078999996 0.5932599902 1.5509999990 43.312999725 158.00000000 0.5889999866 38.712001801 0.7530000210 0.7530000210
 1978.2852783  -999.250000 12.538999557 -1.023000002 0.5776399970 1.6039999723 42.375000000 157.75000000 0.5950000286 29.497999191 0.7559999824 0.7559999824
 1978.4377441  -999.250000 12.555000305 -0.890999973 0.5698199868 1.7890000343 42.344001770 158.49998474 0.5979999900 26.527000427 0.7549999952 0.7549999952
 1978.5900879  -999.250000 12.538999557 -0.876999974 0.5839800239 1.7840000391 43.812999725 157.50000000 0.6000000238 31.403999329 0.7519999743 0.7519999743
 1978.7424316  -999.250000 12.538999557 -1.027999997 0.6000999808 1.6870000362 45.375000000 150.50000000 0.6000000238 35.025001526 0.7500000000 0.7500000000
 1978.8948975  -999.250000 12.538999557 -1.328999996 0.6220700145 1.4579999447 45.875000000 154.25000000 0.5979999900 36.633998871 0.7659999728 0.7659999728
 1979.0472412  -999.250000 12.522998810 -1.736999989 0.5927699804 1.1599999666 44.280998230 155.50000000 0.5920000076 38.563999176 0.7599999905 0.7599999905
 1979.1997070  -999.250000 12.538999557 -1.549000025 0.6103500128 1.4440000057 42.280998230 158.49998474 0.5860000253 37.033000946 0.7630000114 0.7630000114
 1979.3520508  -999.250000 12.522998810 -1.046000004 0.5917999744 1.8580000401 43.969001770 160.00000000 0.5830000043 33.930999756 0.7350000143 0.7350000143
 1979.5045166  -999.250000 12.522998810 -0.838000000 0.5986300111 1.9570000172 40.000000000 162.50000000 0.5860000253 29.393999100 0.7239999771 0.7239999771
 1979.6568604  -999.250000 12.538999557 -0.782000005 0.5688499808 1.8580000401 40.469001770 162.74998474 0.5920000076 23.608999252 0.7070000172 0.7070000172
 1979.8093262  -999.250000 12.538999557 -0.833000004 0.6377000213 1.7319999933 41.655998230 164.50000000 0.6159999967 22.854999542 0.7179999948 0.7179999948
 1979.9616699  -999.250000 12.546999931 -0.763000011 0.6582000256 1.7560000420 46.719001770 166.25001526 0.6449999809 27.198999405 0.7530000210 0.7530000210
 1980.1141357  -999.250000 12.538999557 -0.746999979 0.6293900013 1.7649999857 50.405998230 170.25000000 0.6639999747 29.667999268 0.8019999862 0.8019999862
 1980.2664795  -999.250000 12.546999931 -0.703999996 0.5502899885 1.8209999800 51.219001770 168.00000000 0.6809999943 30.478000641 0.8450000286 0.8450000286
 1980.4189453  -999.250000 12.538999557 -0.717000008 0.5224599838 1.7940000296 60.000000000 160.99998474 0.6959999800 29.572000504 0.8529999852 0.8529999852
 1980.5712891  -999.250000 12.538999557 -0.727999985 0.5512700081 1.7760000229 68.313003540 157.50000000 0.7049999833 29.628999710 0.8299999833 0.8299999833
 1980.7236328  -999.250000 12.538999557 -0.694999993 0.5585899949 1.8109999895 83.875000000 155.75000000 0.7020000219 28.002000809 0.8029999733 0.8029999733
 1980.8760986  -999.250000 12.538999557 -0.727999985 0.5654299855 1.8109999895 94.313003540 156.49998474 0.6859999895 27.875000000 0.8349999785 0.8349999785
 1981.0284424  -999.250000 12.546999931 -0.750000000 0.5615199804 1.8129999638 113.50000000 165.00000000 0.6600000262 28.188999176 0.8190000057 0.8190000057
 1981.1809082  -999.250000 12.538999557 -0.746999979 0.5898399949 1.8179999590 121.18800354 167.25000000 0.6340000033 28.274999619 0.8050000072 0.8050000072
 1981.3332520  -999.250000 12.546999931 -0.786000013 0.5791000128 1.7899999619 132.37500000 169.50000000 0.6129999757 30.204999924 0.7649999857 0.7649999857
 1981.4857178  -999.250000 12.546999931 -0.757000029 0.5668900013 1.7999999523 136.50000000 172.00000000 0.5929999948 34.688999176 0.7480000257 0.7480000257
 1981.6380615  -999.250000 12.546999931 -0.837000012 0.5610399842 1.6979999542 137.75000000 174.75000000 0.5709999800 37.658000946 0.7509999871 0.7509999871
 1981.7905273  -999.250000 12.546999931 -0.762000024 0.5541999936 1.7580000162 129.50000000 177.25000000 0.5529999733 37.993999481 0.7459999919 0.7459999919
 1981.9428711  -999.250000 12.546999931 -0.772000015 0.5737299919 1.7369999886 115.12500000 469.50000000 0.5370000005 36.305999756 0.7459999919 0.7459999919
 1982.0953369  -999.250000 12.546999931 -0.711000025 0.5835000277 1.8229999542 99.750000000 472.50003052 0.5210000277 30.927000046 0.7179999948 0.7179999948
 1982.2476807  -999.250000 12.546999931 -0.786000013 0.6230499744 1.7489999533 86.750000000 475.25000000 0.5109999776 29.770999908 0.6930000186 0.6930000186
 1982.4001465  -999.250000 12.555000305 -0.731000006 0.5835000277 1.8459999561 68.625000000 467.25000000 0.5080000162 31.712997437 0.6589999795 0.6589999795
 1982.5524902  -999.250000 12.555000305 -0.796000004 0.5292999744 1.7970000505 62.780998230 121.43799591 0.5040000081 33.126998901 0.6660000086 0.6660000086
 1982.7049561  -999.250000 12.546999931 -0.713000000 0.4902299941 1.9110000134 66.563003540 119.06301117 0.5030000210 33.758998871 0.6740000248 0.6740000248
 1982.8572998  -999.250000 12.538999557 -0.667999983 0.5346699953 1.9559999704 74.938003540 90.749992371 0.5099999905 32.888000488 0.6650000215 0.6650000215
 1983.0096436  -999.250000 12.546999931 -0.611999989 0.6132799983 1.9950000048 75.688003540 -188.2500000 0.5239999890 28.211000443 0.6710000038 0.6710000038
 1983.1621094  -999.250000 12.538999557 -0.620000005 0.6484400034 2.0000000000 70.375000000 -151.2500153 0.5460000038 23.252000809 0.6589999795 0.6589999795
 1983.3144531  -999.250000 12.546999931 -0.683000028 0.6210899949 1.9290000200 67.125000000 132.12500000 0.5600000024 22.129999161 0.6729999781 0.6729999781
 1983.4669189  -999.250000 12.538999557 -0.750000000 0.5986300111 1.8849999905 68.563003540 130.12500000 0.5799999833 24.292999268 0.6880000234 0.6880000234
 1983.6192627  -999.250000 12.546999931 -0.819999993 0.5429700017 1.8179999590 70.313003540 130.12500000 0.6129999757 26.603000641 0.7220000029 0.7220000029
 1983.7717285  -999.250000 12.555000305 -0.861999989 0.5063499808 1.7970000505 77.813003540 129.62500000 0.6499999762 27.194999695 0.7749999762 0.7749999762
 1983.9240723  -999.250000 12.546999931 -0.838000000 0.4731400013 1.8209999800 81.250000000 126.12500000 0.6840000153 26.938999176 0.8280000091 0.8280000091
 1984.0765381  -999.250000 12.538999557 -0.896000028 0.4902299941 1.7860000134 87.313003540 -141.1250000 0.7279999852 27.337999344 0.8659999967 0.8659999967
 1984.2288818  -999.250000 12.546999931 -0.939000010 0.5131800175 1.7580000162 84.063003540 -144.8750000 0.8069999814 27.951000214 0.8769999743 0.8769999743
 1984.3813477  -999.250000 12.546999931 -0.893000007 0.5029299855 1.8350000381 84.000000000 -138.3750000 0.8870000243 30.563999176 0.9940000176 0.9940000176
 1984.5336914  -999.250000 12.546999931 -0.771000028 0.5336899757 1.9559999704 81.813003540 -143.5000000 0.9430000186 30.559999466 1.1469999552 1.1469999552
 1984.6861572  -999.250000 12.546999931 -0.703000009 0.5366200209 2.0269999504 81.188003540 195.75000000 0.9869999886 30.989999771 1.1299999952 1.1299999952
 1984.8385010  -999.250000 12.546999931 -0.708000004 0.5278300047 1.9889999628 77.125000000 112.81301117 1.0310000181 33.036998749 1.1469999552 1.1469999552
 1984.9908447  -999.250000 12.555000305 -0.674000025 0.5058599710 1.9910000563 75.313003540 88.063003540 1.0909999609 36.205001831 1.1169999838 1.1169999838
 1985.1433105  -999.250000 12.546999931 -0.654999971 0.5434600115 1.9659999609 74.125000000 96.313003540 1.1640000343 39.571998596 1.1330000162 1.1330000162
 1985.2956543  -999.250000 12.546999931 -0.638999999 0.5288100243 1.9550000429 76.250000000 105.56301117 1.2580000162 44.180999756 1.1540000439 1.1540000439
 1985.4481201  -999.250000 12.546999931 -0.662000000 0.5468800068 1.9160000086 70.938003540 432.75000000 1.3220000267 48.758998871 1.2189999819 1.2189999819
 1985.6004639  -999.250000 12.538999557 -0.657000005 0.4799799919 1.9229999781 66.063003540 421.75000000 1.4349999428 52.618999481 1.2640000582 1.2640000582
