# LAS format log file from PETREL
# Project units are specified as depth units
#==================================================================
~Version information
VERS.   2.0:
WRAP.   NO:
#==================================================================
~Well
STRT .m      1977.9804688 :
STOP .m      4079.7290039 :
STEP .m     0.00000000 :
NULL .        -999.250000 :
COMP.           : COMPANY
WELL.  34/2-2R   : WELL
FLD.            : FIELD
LOC.            : LOCATION
SRVC.           : SERVICE COMPANY
DATE.  2018-09-11 14:48:48   : Log Export Date {yyyy-MM-dd HH:mm:ss}
PROV.           : PROVINCE
UWI.   34/2-2 R   : UNIQUE WELL ID
API.            : API NUMBER
#==================================================================
~Curve
DEPT .m                   : DEPTH
Lithology_geolink ._      : Lithology_geolink
CALI .in                  : CALI
DRHO .g/cm3               : DRHO
NPHI .m3/m3               : NPHI
RHOB .g/cm3               : RHOB
GR .gAPI                  : GR
DTC .us/ft                : DTC
RDEP .ohm.m               : RDEP
SP .mV                    : SP
RSHA .ohm.m               : RSHA
RMED .ohm.m               : RMED
~Parameter
#==================================================================
~Ascii
# ...
 2117.8837891  -999.250000 14.016000748 -0.010000000 0.4296900034 2.0959999561 54.469001770 131.25000000 0.9940000176 54.797000885 1.1039999723 1.1039999723
 2118.0361328  -999.250000 14.016000748 -0.017000001 0.4272499979 2.0920000076 57.280998230 132.25000000 0.9969999790 54.109001160 1.1000000238 1.1000000238
 2118.1884766  -999.250000 14.008000374 -0.006000000 0.4428699911 2.1050000191 52.312999725 132.75000000 0.9990000129 52.922000885 1.0859999657 1.0859999657
 2118.3408203  -999.250000 13.977000237 0.0020000001 0.4028300047 2.1189999580 47.875000000 134.00000000 1.0060000420 52.422000885 1.0779999495 1.0779999495
 2118.4931641  -999.250000 13.921999931 0.0120000001 0.4379900098 2.1310000420 53.219001770 134.00000000 1.0030000210 53.234001160 1.0900000334 1.0900000334
 2118.6457520  -999.250000 13.897999763 0.0109999999 0.4179700017 2.1250000000 55.062999725 133.75000000 1.0010000467 52.609001160 1.0950000286 1.0950000286
 2118.7980957  -999.250000 13.874999046 0.0049999999 0.4482400119 2.1189999580 59.500000000 134.50000000 1.0000000000 53.547000885 1.1019999981 1.1019999981
 2118.9504395  -999.250000 13.836000443 -0.002000000 0.4174799919 2.1019999981 55.562999725 134.75000000 0.9959999919 53.859001160 1.1059999466 1.1059999466
 2119.1027832  -999.250000 13.827999115 0.0170000009 0.4458000064 2.1170001030 55.780998230 132.75000000 0.9929999709 53.609001160 1.1009999514 1.1009999514
 2119.2553711  -999.250000 13.827999115 0.0250000004 0.4365200102 2.1189999580 64.438003540 131.25000000 0.9829999804 55.234001160 1.0850000381 1.0850000381
 2119.4077148  -999.250000 13.827999115 0.0230000000 0.5195299983 2.1310000420 63.780998230 130.25000000 0.9769999981 55.797000885 1.0690000057 1.0690000057
 2119.5600586  -999.250000 13.812999725 0.0060000001 0.5175799727 2.1250000000 62.375000000 132.25000000 0.9660000205 55.672000885 1.0609999895 1.0609999895
 2119.7124023  -999.250000 13.788999557 0.0000000000 0.5419899821 2.1229999065 54.405998230 135.25000000 0.9559999704 56.234001160 1.0460000038 1.0460000038
 2119.8649902  -999.250000 13.765999794 0.0030000000 0.4433600008 2.1210000515 51.562999725 136.50000000 0.9470000267 55.609001160 1.0290000439 1.0290000439
 2120.0173340  -999.250000 13.750000000 0.0099999998 0.4155299962 2.1110000610 55.062999725 139.00000000 0.9359999895 54.797000885 1.0089999437 1.0089999437
 2120.1696777  -999.250000 13.734000206 0.0170000009 0.3842799962 2.1189999580 53.094001770 139.25000000 0.9250000119 55.297000885 1.0030000210 1.0030000210
 2120.3220215  -999.250000 13.734000206 0.0060000001 0.4101600051 2.0980000496 54.125000000 137.75000000 0.9160000086 55.172000885 1.0080000162 1.0080000162
 2120.4743652  -999.250000 13.734000206 0.0020000001 0.4228500128 2.1070001125 44.280998230 136.75000000 0.9129999876 54.547000885 1.0119999647 1.0119999647
 2120.6269531  -999.250000 13.734000206 0.0160000008 0.4853500128 2.1229999065 52.562999725 136.00000000 0.9120000005 55.672000885 1.0039999485 1.0039999485
 2120.7792969  -999.250000 13.727000237 0.0359999985 0.5063499808 2.1389999390 54.530998230 135.75000000 0.9120000005 55.672000885 0.9940000176 0.9940000176
 2120.9316406  -999.250000 13.734000206 0.0439999998 0.4765599966 2.1410000324 59.280998230 135.25000000 0.9160000086 55.484001160 0.9829999804 0.9829999804
 2121.0839844  -999.250000 13.734000206 0.0170000009 0.4208999872 2.1070001125 59.000000000 138.50000000 0.9190000296 55.984001160 0.9739999771 0.9739999771
 2121.2365723  -999.250000 13.734000206 0.0170000009 0.3789100051 2.1089999676 61.125000000 137.50000000 0.9229999781 55.672000885 0.9700000286 0.9700000286
 2121.3889160  -999.250000 13.727000237 0.0060000001 0.4008800089 2.1019999981 60.437999725 137.00000000 0.9250000119 55.609001160 0.9760000110 0.9760000110
 2121.5412598  -999.250000 13.734000206 -0.003000000 0.4165000021 2.0920000076 60.844001770 135.00000000 0.9269999862 54.734001160 0.9990000129 0.9990000129
 2121.6936035  -999.250000 13.734000206 0.0000000000 0.4282200038 2.1170001030 54.280998230 131.00000000 0.9290000200 53.797000885 1.0269999504 1.0269999504
 2121.8461914  -999.250000 13.727000237 0.0140000004 0.4218800068 2.1310000420 53.500000000 128.75000000 0.9300000072 53.297000885 1.0529999733 1.0529999733
 2121.9985352  -999.250000 13.734000206 0.0179999992 0.4043000042 2.1500000954 42.875000000 129.00000000 0.9340000153 53.797000885 1.0679999590 1.0679999590
 2122.1508789  -999.250000 13.727000237 0.0099999998 0.3998999894 2.1500000954 42.030998230 129.75000000 0.9340000153 53.672000885 1.0650000572 1.0650000572
 2122.3032227  -999.250000 13.718998909 0.0209999997 0.4135699868 2.1719999313 49.344001770 130.25000000 0.9319999814 52.609001160 1.0529999733 1.0529999733
 2122.4555664  -999.250000 13.718998909 0.0540000014 0.3969700038 2.2049999237 55.750000000 133.75000000 0.9290000200 53.734001160 1.0369999409 1.0369999409
 2122.6081543  -999.250000 13.671999931 0.0520000011 0.4428699911 2.1889998913 63.875000000 135.00000000 0.9269999862 53.422000885 1.0180000067 1.0180000067
 2122.7604980  -999.250000 13.640999794 0.0250000004 0.4404299855 2.1600000858 61.594001770 132.75000000 0.9250000119 54.922000885 0.9990000129 0.9990000129
 2122.9128418  -999.250000 13.585999489 0.0209999997 0.4604499936 2.1459999084 60.812999725 131.75000000 0.9229999781 55.047000885 0.9869999886 0.9869999886
 2123.0651855  -999.250000 13.538999557 0.0350000001 0.4287100136 2.1579999924 59.280998230 130.50000000 0.9210000038 53.547000885 0.9869999886 0.9869999886
 2123.2177734  -999.250000 13.547000885 0.0250000004 0.4252899885 2.1410000324 60.062999725 129.50000000 0.9200000167 55.609001160 0.9980000257 0.9980000257
 2123.3701172  -999.250000 13.538999557 0.0209999997 0.4301800132 2.1310000420 60.812999725 129.25000000 0.9219999909 55.359001160 1.0049999952 1.0049999952
 2123.5224609  -999.250000 13.547000885 0.0309999995 0.4453099966 2.1349999905 63.500000000 130.25000000 0.9250000119 55.359001160 1.0110000372 1.0110000372
 2123.6748047  -999.250000 13.538999557 0.0540000014 0.4565399885 2.1579999924 65.563003540 133.75000000 0.9290000200 55.734001160 1.0190000534 1.0190000534
 2123.8273926  -999.250000 13.538999557 0.0540000014 0.4384799898 2.1679999828 66.688003540 134.50000000 0.9330000281 55.672000885 1.0269999504 1.0269999504
 2123.9797363  -999.250000 13.538999557 0.0230000000 0.4243200123 2.1329998970 67.688003540 136.75000000 0.9359999895 55.297000885 1.0329999924 1.0329999924
 2124.1320801  -999.250000 13.547000885 0.0309999995 0.4130899906 2.1540000439 60.000000000 137.00000000 0.9390000105 55.547000885 1.0349999666 1.0349999666
 2124.2844238  -999.250000 13.538999557 0.0329999998 0.4394499958 2.1679999828 61.625000000 136.00000000 0.9409999847 55.609001160 1.0379999876 1.0379999876
 2124.4367676  -999.250000 13.538999557 0.0329999998 0.4165000021 2.1640000343 52.875000000 134.25000000 0.9419999719 55.484001160 1.0399999619 1.0399999619
 2124.5893555  -999.250000 13.538999557 0.0219999999 0.4038099945 2.1519999504 56.375000000 132.50000000 0.9390000105 56.297000885 1.0440000296 1.0440000296
 2124.7416992  -999.250000 13.538999557 0.0109999999 0.3945299983 2.1329998970 55.219001770 131.25000000 0.9359999895 56.547000885 1.0460000038 1.0460000038
 2124.8940430  -999.250000 13.531000137 0.0020000001 0.4311499894 2.1250000000 58.875000000 129.75000000 0.9330000281 56.297000885 1.0490000248 1.0490000248
 2125.0463867  -999.250000 13.538999557 -0.004000000 0.4267599881 2.1189999580 61.219001770 131.50000000 0.9279999733 55.734001160 1.0410000086 1.0410000086
 2125.1989746  -999.250000 13.538999557 -0.004000000 0.4218800068 2.1150000095 58.250000000 129.75000000 0.9259999990 55.172000885 1.0260000229 1.0260000229
 2125.3513184  -999.250000 13.538999557 0.0000000000 0.4321300089 2.1349999905 60.500000000 129.50000000 0.9200000167 55.859001160 1.0099999905 1.0099999905
 2125.5036621  -999.250000 13.522999763 0.0030000000 0.4389599860 2.1389999390 55.469001770 130.50000000 0.9139999747 55.297000885 1.0069999695 1.0069999695
