# LAS format log file from PETREL
# Project units are specified as depth units
#==================================================================
~Version information
VERS.   2.0:
WRAP.   NO:
#==================================================================
~Well
STRT .m      1977.9804688 :
STOP .m      4079.7290039 :
STEP .m     0.00000000 :
NULL .        -999.250000 :
COMP.           : COMPANY
WELL.  34/2-2R   : WELL
FLD.            : FIELD
LOC.            : LOCATION
SRVC.           : SERVICE COMPANY
DATE.  2018-09-11 14:48:48   : Log Export Date {yyyy-MM-dd HH:mm:ss}
PROV.           : PROVINCE
UWI.   34/2-2 R   : UNIQUE WELL ID
API.            : API NUMBER
#==================================================================
~Curve
DEPT .m                   : DEPTH
Lithology_geolink ._      : Lithology_geolink
CALI .in                  : CALI
DRHO .g/cm3               : DRHO
NPHI .m3/m3               : NPHI
RHOB .g/cm3               : RHOB
GR .gAPI                  : GR
DTC .us/ft                : DTC
RDEP .ohm.m               : RDEP
SP .mV                    : SP
RSHA .ohm.m               : RSHA
RMED .ohm.m               : RMED
~Parameter
#==================================================================
~Ascii
# ...
 3089.4335938  -999.250000 12.828000069 0.0260000005 0.3115200102 2.4340000153 62.125000000 99.750007629 1.6100000143 88.234001160 1.8300000429 1.8300000429
 3089.5861816  -999.250000 12.836001396 0.0379999988 0.2988300025 2.4730000496 59.687999725 100.00000000 1.6139999628 88.296997070 1.8530000448 1.8530000448
 3089.7385254  -999.250000 12.812999725 0.0430000015 0.3095700145 2.4860000610 57.905998230 101.00000000 1.6119999886 88.296997070 1.8890000582 1.8890000582
 3089.8908691  -999.250000 12.836001396 0.0480000004 0.3129900098 2.4960000515 54.875000000 100.00000000 1.6059999466 88.046997070 1.9019999504 1.9019999504
 3090.0432129  -999.250000 12.836001396 0.0350000001 0.3105500042 2.4749999046 55.719001770 100.37500000 1.5950000286 89.046997070 1.9010000229 1.9010000229
 3090.1958008  -999.250000 12.866998672 0.0379999988 0.2836900055 2.4609999657 52.594001770 99.625000000 1.5629999638 88.359001160 1.8860000372 1.8860000372
 3090.3481445  -999.250000 12.890998840 0.0439999998 0.2793000042 2.4709999561 57.312999725 101.62500000 1.5030000210 87.484001160 1.8660000563 1.8660000563
 3090.5004883  -999.250000 12.922000885 0.0509999990 0.2685500085 2.4790000916 60.687999725 102.00000000 1.4329999685 87.796997070 1.8240000010 1.8240000010
 3090.6528320  -999.250000 12.937999725 0.0820000023 0.2876000106 2.5199999809 61.594001770 103.99999237 1.3609999418 86.171997070 1.7209999561 1.7209999561
 3090.8051758  -999.250000 12.991999626 0.0649999976 0.2905299962 2.4749999046 62.780998230 105.75000000 1.3020000458 85.984001160 1.5629999638 1.5629999638
 3090.9577637  -999.250000 13.038999557 0.0750000030 0.3076199889 2.4749999046 63.030998230 106.87500763 1.2869999409 87.109001160 1.4010000229 1.4010000229
 3091.1101074  -999.250000 13.078001022 0.0430000015 0.3310500085 2.4449999332 60.062999725 105.37500000 1.2769999504 88.359001160 1.2949999571 1.2949999571
 3091.2624512  -999.250000 13.078001022 0.0450000018 0.3217799962 2.4609999657 59.405998230 104.50000000 1.2769999504 88.609001160 1.3240000010 1.3240000010
 3091.4147949  -999.250000 13.108999252 0.0450000018 0.3125000000 2.4670000076 58.125000000 102.25000000 1.2949999571 87.984001160 1.5230000019 1.5230000019
 3091.5673828  -999.250000 13.147999763 0.0240000002 0.2900399864 2.4360001087 62.719001770 101.25000000 1.3190000057 87.796997070 1.7089999914 1.7089999914
 3091.7197266  -999.250000 13.163998604 0.0199999996 0.2954100072 2.4430000782 64.438003540 101.00000000 1.3600000143 86.609001160 1.7589999437 1.7589999437
 3091.8720703  -999.250000 13.171999931 -0.001000000 0.3154299855 2.4059998989 60.094001770 100.37500000 1.4229999781 85.671997070 1.7749999762 1.7749999762
 3092.0244141  -999.250000 13.187999725 0.0070000002 0.3100599945 2.4240000248 61.905998230 99.750007629 1.4739999771 84.984001160 1.8029999733 1.8029999733
 3092.1770020  -999.250000 13.227001190 0.0160000008 0.3022499979 2.4240000248 53.687999725 99.500000000 1.5089999437 84.171997070 1.8090000153 1.8090000153
 3092.3293457  -999.250000 13.249999046 0.0149999997 0.2797900140 2.4340000153 54.875000000 100.12499237 1.5310000181 82.859001160 1.7819999456 1.7819999456
 3092.4816895  -999.250000 13.272999763 0.0149999997 0.2822299898 2.4300000668 58.530998230 100.62500763 1.5499999523 82.359001160 1.7519999743 1.7519999743
 3092.6340332  -999.250000 13.319999695 0.0299999993 0.2758800089 2.4389998913 61.312999725 101.12500000 1.5629999638 82.546997070 1.7549999952 1.7549999952
 3092.7863770  -999.250000 13.327999115 0.0520000011 0.2822299898 2.4709999561 61.375000000 100.49999237 1.5850000381 84.109001160 1.7760000229 1.7760000229
 3092.9389648  -999.250000 13.366999626 0.0570000000 0.2709999979 2.4709999561 56.969001770 100.12499237 1.6039999723 85.421997070 1.8029999733 1.8029999733
 3093.0913086  -999.250000 13.383001328 0.0260000005 0.2768599987 2.4379999638 56.969001770 99.875000000 1.6239999533 86.921997070 1.8320000172 1.8320000172
 3093.2436523  -999.250000 13.391001701 0.0160000008 0.2822299898 2.4319999218 59.844001770 99.625000000 1.6280000210 86.421997070 1.8839999437 1.8839999437
 3093.3959961  -999.250000 13.430000305 0.0230000000 0.2924799919 2.4430000782 63.405998230 99.000000000 1.6039999723 84.796997070 1.9240000248 1.9240000248
 3093.5485840  -999.250000 13.461001396 0.0130000003 0.2949199975 2.4340000153 66.625000000 99.500000000 1.5620000362 84.359001160 1.9390000105 1.9390000105
 3093.7009277  -999.250000 13.491998672 0.0060000001 0.2783200145 2.4119999409 62.844001770 100.37500000 1.5110000372 82.609001160 1.8990000486 1.8990000486
 3093.8532715  -999.250000 13.500000000 -0.008000000 0.2646499872 2.3870000839 57.875000000 103.12500763 1.4529999495 81.046997070 1.8040000200 1.8040000200
 3094.0056152  -999.250000 13.522999763 0.0089999996 0.2631799877 2.4260001183 52.469001770 103.12500763 1.4099999666 80.359001160 1.6649999619 1.6649999619
 3094.1582031  -999.250000 13.538999557 0.0120000001 0.2700200081 2.4140000343 58.000000000 103.99999237 1.3940000534 80.296997070 1.4609999657 1.4609999657
 3094.3105469  -999.250000 13.538999557 0.0189999994 0.2978500128 2.4159998894 58.844001770 103.62499237 1.3819999695 81.296997070 1.3170000315 1.3170000315
 3094.4628906  -999.250000 13.538999557 0.0080000004 0.3212899864 2.3849999905 60.594001770 101.50000000 1.3689999580 83.671997070 1.3350000381 1.3350000381
 3094.6152344  -999.250000 13.547000885 0.0109999999 0.3247100115 2.4059998989 61.312999725 101.00000000 1.3710000515 85.296997070 1.5310000181 1.5310000181
 3094.7675781  -999.250000 13.547000885 0.0189999994 0.3164100051 2.4379999638 58.469001770 98.875000000 1.3799999952 86.921997070 1.7589999437 1.7589999437
 3094.9201660  -999.250000 13.538999557 -0.001000000 0.2905299962 2.3959999084 57.687999725 99.375007629 1.4140000343 86.734001160 1.8530000448 1.8530000448
 3095.0725098  -999.250000 13.547000885 -0.020000000 0.2988300025 2.3650000095 52.219001770 99.625000000 1.4659999609 86.359001160 1.8450000286 1.8450000286
 3095.2248535  -999.250000 13.547000885 -0.017000001 0.3012700081 2.3650000095 58.780998230 100.12499237 1.5060000420 86.109001160 1.8170000315 1.8170000315
 3095.3771973  -999.250000 13.547000885 -0.013000000 0.2934600115 2.3910000324 57.905998230 99.875000000 1.4989999533 85.546997070 1.8140000105 1.8140000105
 3095.5297852  -999.250000 13.547000885 0.0250000004 0.2905299962 2.4470000267 60.125000000 101.12500000 1.4579999447 84.421997070 1.8250000477 1.8250000477
 3095.6821289  -999.250000 13.547000885 0.0179999992 0.2719700038 2.4389998913 57.125000000 101.74999237 1.4010000229 84.609001160 1.8140000105 1.8140000105
 3095.8344727  -999.250000 13.547000885 0.0399999991 0.2944299877 2.4549999237 56.405998230 102.99999237 1.3660000563 83.984001160 1.6770000458 1.6770000458
 3095.9868164  -999.250000 13.547000885 0.0020000001 0.3007799983 2.3949999809 54.405998230 103.37500000 1.3589999676 84.546997070 1.4450000525 1.4450000525
 3096.1394043  -999.250000 13.538999557 0.0070000002 0.3007799983 2.3929998875 59.969001770 103.99999237 1.3669999838 87.234001160 1.2960000038 1.2960000038
 3096.2917480  -999.250000 13.453001022 -0.004000000 0.2763699889 2.3770000935 65.688003540 101.74999237 1.3739999533 86.421997070 1.3530000448 1.3530000448
 3096.4440918  -999.250000 13.437999725 -0.005000000 0.2661100030 2.3870000839 68.375000000 99.500000000 1.3789999485 84.921997070 1.5590000153 1.5590000153
 3096.5964355  -999.250000 13.444999695 -0.006000000 0.2631799877 2.4019999504 61.905998230 98.125007629 1.4060000181 82.984001160 1.7519999743 1.7519999743
 3096.7487793  -999.250000 13.437999725 0.0020000001 0.2831999958 2.4200000763 62.750000000 96.999992371 1.4659999609 81.609001160 1.8370000124 1.8370000124
 3096.9013672  -999.250000 13.444999695 0.0089999996 0.2724600136 2.4379999638 62.030998230 97.875000000 1.5329999924 80.296997070 1.8589999676 1.8589999676
 3097.0537109  -999.250000 13.444999695 0.0160000008 0.2871100008 2.4449999332 59.937999725 97.750000000 1.5989999771 79.171997070 1.8860000372 1.8860000372
