# LAS format log file from PETREL
# Project units are specified as depth units
#==================================================================
~Version information
VERS.   2.0:
WRAP.   NO:
#==================================================================
~Well
STRT .m      1977.9804688 :
STOP .m      4079.7290039 :
STEP .m     0.00000000 :
NULL .        -999.250000 :
COMP.           : COMPANY
WELL.  34/2-2R   : WELL
FLD.            : FIELD
LOC.            : LOCATION
SRVC.           : SERVICE COMPANY
DATE.  2018-09-11 14:48:48   : Log Export Date {yyyy-MM-dd HH:mm:ss}
PROV.           : PROVINCE
UWI.   34/2-2 R   : UNIQUE WELL ID
API.            : API NUMBER
#==================================================================
~Curve
DEPT .m                   : DEPTH
Lithology_geolink ._      : Lithology_geolink
CALI .in                  : CALI
DRHO .g/cm3               : DRHO
NPHI .m3/m3               : NPHI
RHOB .g/cm3               : RHOB
GR .gAPI                  : GR
DTC .us/ft                : DTC
RDEP .ohm.m               : RDEP
SP .mV                    : SP
RSHA .ohm.m               : RSHA
RMED .ohm.m               : RMED
~Parameter
#==================================================================
~Ascii
# ...
 2257.7868652  -999.250000 13.234000206 0.0219999999 0.4091799855 2.1889998913 57.844001770 130.25000000 0.8610000014 59.484001160 1.0069999695 1.0069999695
 2257.9392090  -999.250000 13.234000206 0.0160000008 0.4013699889 2.1860001087 54.344001770 132.00000000 0.8610000014 59.109001160 1.0210000277 1.0210000277
 2258.0915527  -999.250000 13.234000206 0.0140000004 0.4072299898 2.1700000763 49.219001770 134.75000000 0.8679999709 57.797000885 1.0240000486 1.0240000486
 2258.2441406  -999.250000 13.281000137 0.0140000004 0.4360400140 2.1779999733 49.094001770 134.00000000 0.8679999709 55.734001160 1.0210000277 1.0210000277
 2258.3964844  -999.250000 13.296999931 0.0109999999 0.4731400013 2.1760001183 52.344001770 133.00000000 0.8750000000 57.609001160 1.0039999485 1.0039999485
 2258.5488281  -999.250000 13.319999695 0.0250000004 0.4843800068 2.2090001106 52.655998230 130.75000000 0.8769999743 59.547000885 1.0089999437 1.0089999437
 2258.7011719  -999.250000 13.319999695 0.0160000008 0.4833999872 2.1819999218 51.405998230 129.50000000 0.8759999871 58.984001160 1.0230000019 1.0230000019
 2258.8537598  -999.250000 13.327999115 0.0140000004 0.4487299919 2.1819999218 51.125000000 130.50000000 0.8780000210 59.172000885 1.0249999762 1.0249999762
 2259.0061035  -999.250000 13.319999695 -0.007000000 0.4433600008 2.1459999084 53.750000000 131.25000000 0.8820000291 59.359001160 1.0169999599 1.0169999599
 2259.1584473  -999.250000 13.319999695 -0.007000000 0.4043000042 2.1700000763 57.905998230 131.75000000 0.8849999905 59.297000885 1.0130000114 1.0130000114
 2259.3107910  -999.250000 13.305001259 0.0000000000 0.4047900140 2.1860001087 63.625000000 130.00000000 0.8899999857 59.484001160 1.0199999809 1.0199999809
 2259.4631348  -999.250000 13.305001259 0.0419999994 0.3857400119 2.2420001030 61.312999725 128.75000000 0.8939999938 59.109001160 1.0260000229 1.0260000229
 2259.6157227  -999.250000 13.305001259 0.0410000011 0.4301800132 2.2420001030 62.594001770 130.50000000 0.8970000148 58.234001160 1.0349999666 1.0349999666
 2259.7680664  -999.250000 13.305001259 0.0419999994 0.4760699868 2.2300000191 60.969001770 129.50000000 0.9010000229 58.297000885 1.0369999409 1.0369999409
 2259.9204102  -999.250000 13.242000580 0.0379999988 0.4677700102 2.2209999561 61.062999725 130.25000000 0.9060000181 58.359001160 1.0449999571 1.0449999571
 2260.0727539  -999.250000 13.234000206 0.0410000011 0.4438500106 2.2090001106 59.062999725 127.99999237 0.9089999795 57.672000885 1.0460000038 1.0460000038
 2260.2253418  -999.250000 13.210999489 0.0209999997 0.3950200081 2.2009999752 53.375000000 129.75000000 0.9169999957 58.109001160 1.0470000505 1.0470000505
 2260.3776855  -999.250000 13.210999489 0.0080000004 0.4038099945 2.2009999752 56.250000000 131.25000000 0.9210000038 57.547000885 1.0360000134 1.0360000134
 2260.5300293  -999.250000 13.218999863 0.0080000004 0.4135699868 2.2070000172 55.500000000 131.75000000 0.9229999781 57.672000885 1.0299999714 1.0299999714
 2260.6823730  -999.250000 13.227001190 0.0149999997 0.4121100008 2.2030000687 55.625000000 133.75000000 0.9229999781 58.422000885 1.0449999571 1.0449999571
 2260.8349609  -999.250000 13.296999931 0.0329999998 0.3950200081 2.2070000172 55.625000000 133.50000000 0.9250000119 57.984001160 1.0540000200 1.0540000200
 2260.9873047  -999.250000 13.327999115 0.0430000015 0.4370099902 2.2130000591 51.375000000 133.50000000 0.9229999781 59.422000885 1.0599999428 1.0599999428
 2261.1396484  -999.250000 13.366999626 0.0619999990 0.4521499872 2.2360000610 54.905998230 130.50000000 0.9250000119 59.984001160 1.0579999685 1.0579999685
 2261.2919922  -999.250000 13.374999046 0.0419999994 0.4682599902 2.2300000191 52.000000000 129.00000000 0.9229999781 59.172000885 1.0590000153 1.0590000153
 2261.4445801  -999.250000 13.249999046 0.0390000008 0.4165000021 2.2379999161 60.905998230 127.50000000 0.9190000296 58.922000885 1.0570000410 1.0570000410
 2261.5969238  -999.250000 13.258000374 0.0359999985 0.3652299941 2.2320001125 63.375000000 129.25000000 0.9160000086 58.922000885 1.0429999828 1.0429999828
 2261.7492676  -999.250000 13.249999046 0.0489999987 0.3696300089 2.2420001030 67.438003540 129.50000000 0.9110000134 58.484001160 1.0319999456 1.0319999456
 2261.9016113  -999.250000 13.227001190 0.0370000005 0.3676800132 2.2230000496 62.375000000 128.25000000 0.9060000181 57.047000885 1.0249999762 1.0249999762
 2262.0539551  -999.250000 13.187999725 0.0309999995 0.4248000085 2.2249999046 60.062999725 129.75000000 0.8989999890 54.984001160 1.0269999504 1.0269999504
 2262.2065430  -999.250000 13.163998604 0.0659999996 0.4267599881 2.2639999390 54.594001770 131.50000000 0.8930000067 55.109001160 1.0219999552 1.0219999552
 2262.3588867  -999.250000 13.163998604 0.0909999982 0.4272499979 2.2909998894 56.437999725 133.25000000 0.8870000243 54.484001160 1.0110000372 1.0110000372
 2262.5112305  -999.250000 13.156000137 0.1150000021 0.4218800068 2.3050000668 55.562999725 136.00000000 0.8840000033 54.859001160 0.9969999790 0.9969999790
 2262.6635742  -999.250000 13.163998604 0.0700000003 0.4643599987 2.2339999676 56.187999725 138.00000000 0.8830000162 53.234001160 0.9900000095 0.9900000095
 2262.8161621  -999.250000 13.156000137 0.0329999998 0.4721699953 2.1989998817 51.875000000 138.50000000 0.8799999952 52.797000885 0.9860000014 0.9860000014
 2262.9685059  -999.250000 13.086000443 0.0160000008 0.4721699953 2.1800000668 49.000000000 136.25000000 0.8769999743 54.859001160 0.9860000014 0.9860000014
 2263.1208496  -999.250000 13.069999695 0.0209999997 0.4150399864 2.1989998817 51.780998230 132.75000000 0.8740000129 54.922000885 0.9879999757 0.9879999757
 2263.2731934  -999.250000 13.055000305 0.0289999992 0.4213899970 2.2030000687 57.030998230 132.00000000 0.8669999838 55.922000885 0.9969999790 0.9969999790
 2263.4257813  -999.250000 13.038999557 0.0329999998 0.3784199953 2.1970000267 61.500000000 129.75000000 0.8590000272 56.922000885 0.9990000129 0.9990000129
 2263.5781250  -999.250000 13.055000305 0.0020000001 0.3847700059 2.1719999313 58.125000000 127.00000000 0.8539999723 57.109001160 0.9990000129 0.9990000129
 2263.7304688  -999.250000 13.031000137 0.0370000005 0.3916000128 2.2170000076 55.750000000 125.75000000 0.8479999900 55.922000885 0.9959999919 0.9959999919
 2263.8828125  -999.250000 12.984000206 0.0170000009 0.4267599881 2.2070000172 59.280998230 127.75000000 0.8429999948 54.859001160 0.9890000224 0.9890000224
 2264.0351563  -999.250000 12.930000305 0.0260000005 0.4267599881 2.2090001106 62.780998230 130.25000000 0.8410000205 54.297000885 0.9739999771 0.9739999771
 2264.1877441  -999.250000 12.930000305 -0.011000000 0.4057599902 2.1500000954 64.375000000 132.50000000 0.8370000124 54.234001160 0.9599999785 0.9599999785
 2264.3400879  -999.250000 12.883000374 -0.003000000 0.3862299919 2.1559998989 61.530998230 133.50000000 0.8349999785 54.359001160 0.9549999833 0.9549999833
 2264.4924316  -999.250000 12.836001396 -0.008000000 0.3984400034 2.1449999809 59.469001770 133.50000000 0.8320000172 54.859001160 0.9589999914 0.9589999914
 2264.6447754  -999.250000 12.828000069 -0.001000000 0.4399400055 2.1600000858 57.405998230 134.25000000 0.8270000219 54.734001160 0.9660000205 0.9660000205
 2264.7973633  -999.250000 12.836001396 0.0000000000 0.4936499894 2.1559998989 54.875000000 135.00000000 0.8249999881 56.922000885 0.9610000253 0.9610000253
 2264.9497070  -999.250000 12.836001396 0.0170000009 0.5249000192 2.1800000668 59.812999725 137.75000000 0.8270000219 56.922000885 0.9589999914 0.9589999914
 2265.1020508  -999.250000 12.866998672 0.0109999999 0.4912100136 2.1679999828 57.437999725 138.00000000 0.8320000172 57.109001160 0.9610000253 0.9610000253
 2265.2543945  -999.250000 12.866998672 0.0000000000 0.4472700059 2.1579999924 58.375000000 138.50000000 0.8389999866 55.984001160 0.9639999866 0.9639999866
 2265.4069824  -999.250000 12.883000374 -0.003000000 0.4081999958 2.1619999409 59.280998230 138.00000000 0.8429999948 55.297000885 0.9660000205 0.9660000205
