# LAS format log file from PETREL
# Project units are specified as depth units
#==================================================================
~Version information
VERS.   2.0:
WRAP.   NO:
#==================================================================
~Well
STRT .m      1977.9804688 :
STOP .m      4079.7290039 :
STEP .m     0.00000000 :
NULL .        -999.250000 :
COMP.           : COMPANY
WELL.  34/2-2R   : WELL
FLD.            : FIELD
LOC.            : LOCATION
SRVC.           : SERVICE COMPANY
DATE.  2018-09-11 14:48:48   : Log Export Date {yyyy-MM-dd HH:mm:ss}
PROV.           : PROVINCE
UWI.   34/2-2 R   : UNIQUE WELL ID
API.            : API NUMBER
#==================================================================
~Curve
DEPT .m                   : DEPTH
Lithology_geolink ._      : Lithology_geolink
CALI .in                  : CALI
DRHO .g/cm3               : DRHO
NPHI .m3/m3               : NPHI
RHOB .g/cm3               : RHOB
GR .gAPI                  : GR
DTC .us/ft                : DTC
RDEP .ohm.m               : RDEP
SP .mV                    : SP
RSHA .ohm.m               : RSHA
RMED .ohm.m               : RMED
~Parameter
#==================================================================
~Ascii
# ...
 2817.3996582  -999.250000 14.484000206 0.0630000010 0.3671900034 2.3320000172 48.094001770 112.12500000 1.1210000515 67.984001160 1.2480000257 1.2480000257
 2817.5522461  -999.250000 14.133000374 0.0540000014 0.4062500000 2.3359999657 48.219001770 113.62500000 1.1380000114 66.796997070 1.2020000219 1.2020000219
 2817.7045898  -999.250000 13.883000374 0.0309999995 0.3803699911 2.3029999733 55.344001770 113.25000000 1.1499999762 63.671997070 1.2269999981 1.2269999981
 2817.8569336  -999.250000 14.655999184 0.0020000001 0.3715800047 2.2890000343 57.312999725 115.37500763 1.1590000391 61.609001160 1.3329999447 1.3329999447
 2818.0092773  -999.250000 13.703000069 0.0010000000 0.3823199868 2.2990000248 59.969001770 115.75001526 1.1640000343 60.172000885 1.4379999638 1.4379999638
 2818.1616211  -999.250000 13.687999725 0.0089999996 0.3920899928 2.2850000858 53.437999725 114.50000000 1.1779999733 60.984001160 1.4479999542 1.4479999542
 2818.3142090  -999.250000 13.680000305 -0.010000000 0.3886699975 2.2209999561 48.405998230 107.87500000 1.2039999962 65.234001160 1.4160000086 1.4160000086
 2818.4665527  -999.250000 13.680000305 -0.033000000 0.3471699953 2.2190001011 46.969001770 109.75000000 1.2189999819 67.546997070 1.3980000019 1.3980000019
 2818.6188965  -999.250000 13.952999115 -0.021000000 0.3403300047 2.2769999504 49.030998230 104.87500000 1.2189999819 68.109001160 1.4190000296 1.4190000296
 2818.7712402  -999.250000 14.016000748 0.0070000002 0.3642599881 2.3480000496 54.219001770 104.75000000 1.2109999657 69.171997070 1.4539999962 1.4539999962
 2818.9238281  -999.250000 14.569999695 0.0670000017 0.3959999979 2.3540000916 54.155998230 104.87500000 1.1920000315 69.046997070 1.4140000343 1.4140000343
 2819.0761719  -999.250000 15.069999695 0.0179999992 0.4062500000 2.2639999390 53.500000000 114.75000000 1.1649999619 68.546997070 1.3400000334 1.3400000334
 2819.2285156  -999.250000 13.727000237 0.0040000002 0.4057599902 2.2320001125 49.812999725 112.75000000 1.1410000324 69.234001160 1.2970000505 1.2970000505
 2819.3808594  -999.250000 13.952999115 0.0040000002 0.3881799877 2.2170000076 46.280998230 113.75000000 1.1180000305 70.296997070 1.2910000086 1.2910000086
 2819.5334473  -999.250000 13.944999695 0.0070000002 0.3627899885 2.1879999638 52.000000000 114.50000000 1.1080000401 69.234001160 1.2309999466 1.2309999466
 2819.6857910  -999.250000 14.265999794 -0.007000000 0.3837899864 2.1459999084 53.344001770 114.37500763 1.1059999466 67.609001160 1.1759999990 1.1759999990
 2819.8381348  -999.250000 14.531000137 -0.013000000 0.4013699889 2.1480000019 59.812999725 115.25000000 1.1139999628 67.484001160 1.1599999666 1.1599999666
 2819.9904785  -999.250000 14.508000374 -0.012000000 0.4404299855 2.1840000153 54.219001770 114.12500000 1.1230000257 67.359001160 1.2159999609 1.2159999609
 2820.1428223  -999.250000 15.383000374 0.0160000008 0.3964799941 2.2420001030 53.530998230 113.25000000 1.1349999905 67.671997070 1.3079999685 1.3079999685
 2820.2954102  -999.250000 14.397999763 0.0049999999 0.3764599860 2.2290000916 51.469001770 110.87500000 1.1599999666 67.421997070 1.3669999838 1.3669999838
 2820.4477539  -999.250000 14.140999794 0.0060000001 0.3598600030 2.2209999561 52.344001770 113.25000000 1.1940000057 67.234001160 1.4079999924 1.4079999924
 2820.6000977  -999.250000 14.319999695 -0.005000000 0.3671900034 2.2009999752 55.530998230 109.24999237 1.2289999723 66.671997070 1.4240000248 1.4240000248
 2820.7524414  -999.250000 14.234000206 -0.003000000 0.3588899970 2.2130000591 54.219001770 111.87500763 1.2560000420 65.734001160 1.4320000410 1.4320000410
 2820.9050293  -999.250000 13.921999931 -0.001000000 0.3452099860 2.2070000172 57.344001770 109.37500763 1.2690000534 64.921997070 1.4459999800 1.4459999800
 2821.0573730  -999.250000 13.944999695 0.0199999996 0.3486300111 2.2400000095 54.844001770 112.99999237 1.2669999599 64.734001160 1.4529999495 1.4529999495
 2821.2097168  -999.250000 14.187999725 0.0379999988 0.3481400013 2.2520000935 59.719001770 109.75000000 1.2599999905 63.983997345 1.4309999943 1.4309999943
 2821.3620605  -999.250000 14.859000206 0.0350000001 0.3632799983 2.2460000515 58.437999725 115.25000000 1.2469999790 65.109001160 1.4170000553 1.4170000553
 2821.5146484  -999.250000 14.758001328 -0.001000000 0.3471699953 2.1840000153 59.219001770 107.87500000 1.2339999676 66.671997070 1.3949999809 1.3949999809
 2821.6669922  -999.250000 14.413999557 -0.015000000 0.3740200102 2.1429998875 54.094001770 109.75000000 1.2120000124 67.546997070 1.3949999809 1.3949999809
 2821.8193359  -999.250000 14.390999794 -0.018999999 0.4086900055 2.1459999084 52.687999725 108.75000763 1.1929999590 68.296997070 1.3420000076 1.3420000076
 2821.9716797  -999.250000 14.397999763 -0.010000000 0.4228500128 2.1700000763 50.625000000 110.49999237 1.1809999943 69.046997070 1.3129999638 1.3129999638
 2822.1240234  -999.250000 14.390999794 -0.013000000 0.4165000021 2.1889998913 52.844001770 114.50000000 1.1619999409 69.109001160 1.2560000420 1.2560000420
 2822.2766113  -999.250000 14.319999695 -0.017000001 0.3730500042 2.2149999142 51.405998230 112.99999237 1.1499999762 69.859001160 1.2569999695 1.2569999695
 2822.4289551  -999.250000 13.281000137 -0.028999999 0.3715800047 2.1619999409 51.312999725 112.50000000 1.1399999857 69.484001160 1.2319999933 1.2319999933
 2822.5812988  -999.250000 14.140999794 -0.018999999 0.3891600072 2.1540000439 49.750000000 112.00000000 1.1319999695 68.859001160 1.2469999790 1.2469999790
 2822.7336426  -999.250000 14.555001259 -0.022000000 0.3745099902 2.0959999561 52.594001770 115.75001526 1.1269999743 70.296997070 1.2549999952 1.2549999952
 2822.8862305  -999.250000 15.586001396 -0.026000001 0.4311499894 2.0880000591 53.375000000 113.25000000 1.1380000114 69.796997070 1.2539999485 1.2539999485
 2823.0385742  -999.250000 15.522998810 -0.046999998 0.3916000128 2.0409998894 59.187999725 112.50000000 1.1480000019 69.171997070 1.3090000153 1.3090000153
 2823.1909180  -999.250000 15.858999252 -0.057000000 0.4277299941 2.0350000858 57.187999725 111.25000000 1.1560000181 69.609001160 1.2699999809 1.2699999809
 2823.3432617  -999.250000 16.031000137 -0.054000001 0.3750000000 2.0269999504 60.937999725 112.00000000 1.1629999876 67.421997070 1.3159999847 1.3159999847
 2823.4958496  -999.250000 16.108999252 -0.035000000 0.3950200081 2.0469999313 54.687999725 113.25000000 1.1670000553 66.109001160 1.2910000086 1.2910000086
 2823.6481934  -999.250000 16.187999725 -0.017999999 0.3437500000 2.0490000248 54.750000000 113.87500000 1.1610000134 64.671997070 1.3480000496 1.3480000496
 2823.8005371  -999.250000 16.250000000 -0.028999999 0.3491199911 2.0329999924 51.000000000 109.00000000 1.1610000134 65.234001160 1.3270000219 1.3270000219
 2823.9528809  -999.250000 16.250000000 -0.044000000 0.3632799983 2.0160000324 53.594001770 112.87500000 1.1660000086 64.796997070 1.3059999943 1.3059999943
 2824.1052246  -999.250000 16.250000000 -0.059000000 0.4033200145 2.0000000000 51.969001770 111.37500000 1.1699999571 66.359001160 1.2710000277 1.2710000277
 2824.2578125  -999.250000 16.250000000 -0.052999999 0.4257799983 2.0060000420 48.937999725 112.50000000 1.1629999876 67.484001160 1.2580000162 1.2580000162
 2824.4101563  -999.250000 16.233999252 -0.035000000 0.3906300068 2.0230000019 47.562999725 116.74999237 1.1599999666 68.421997070 1.2589999437 1.2589999437
 2824.5625000  -999.250000 16.250000000 -0.039000001 0.3857400119 2.0139999390 54.125000000 110.75000000 1.1419999599 68.859001160 1.2510000467 1.2510000467
 2824.7148438  -999.250000 16.233999252 -0.043000001 0.3833000064 2.0209999084 53.437999725 115.25000000 1.1210000515 68.609001160 1.2560000420 1.2560000420
 2824.8674316  -999.250000 16.250000000 -0.054000001 0.3964799941 2.0199999809 56.250000000 114.50000000 1.1150000095 68.796997070 1.2419999838 1.2419999838
 2825.0197754  -999.250000 16.250000000 -0.057000000 0.3881799877 2.0269999504 47.625000000 113.25000000 1.1210000515 68.796997070 1.2339999676 1.2339999676
