# LAS format log file from PETREL
# Project units are specified as depth units
#==================================================================
~Version information
VERS.   2.0:
WRAP.   NO:
#==================================================================
~Well
STRT .m      1977.9804688 :
STOP .m      4079.7290039 :
STEP .m     0.00000000 :
NULL .        -999.250000 :
COMP.           : COMPANY
WELL.  34/2-2R   : WELL
FLD.            : FIELD
LOC.            : LOCATION
SRVC.           : SERVICE COMPANY
DATE.  2018-09-11 14:48:48   : Log Export Date {yyyy-MM-dd HH:mm:ss}
PROV.           : PROVINCE
UWI.   34/2-2 R   : UNIQUE WELL ID
API.            : API NUMBER
#==================================================================
~Curve
DEPT .m                   : DEPTH
Lithology_geolink ._      : Lithology_geolink
CALI .in                  : CALI
DRHO .g/cm3               : DRHO
NPHI .m3/m3               : NPHI
RHOB .g/cm3               : RHOB
GR .gAPI                  : GR
DTC .us/ft                : DTC
RDEP .ohm.m               : RDEP
SP .mV                    : SP
RSHA .ohm.m               : RSHA
RMED .ohm.m               : RMED
~Parameter
#==================================================================
~Ascii
# ...
 3788.9499512 6.0000000000 10.727001190 0.0509999990 0.3002600074 2.5910000801 80.573623657 90.000205994 3.1410031319 96.734001160 4.1249632835 4.1249632835
 3789.1022949 6.0000000000 10.727001190 0.0149999997 0.3095400035 2.5550000668 87.191207886 90.125999451 3.1429839134 96.734001160 4.1019377708 4.1019377708
 3789.2546387 6.0000000000 10.727001190 0.0080000004 0.3071100116 2.5490000248 89.190010071 90.750190735 3.1329870224 96.734001160 4.0629248619 4.0629248619
 3789.4069824 6.0000000000 10.727001190 0.0209999997 0.3175700009 2.5669999123 90.431289673 90.875000000 3.1249663830 96.733596802 4.0158681870 4.0158681870
 3789.5595703 6.0000000000 10.727001190 0.0370000005 0.2949599922 2.5750000477 86.246604919 90.875801086 3.1039423943 96.485603333 3.9337728024 3.9337728024
 3789.7119141 6.0000000000 10.727001190 0.0350000001 0.2757399976 2.5750000477 85.184196472 91.124794006 3.0859503746 96.984001160 3.8630447388 3.8630447388
 3789.8642578 6.0000000000 10.727001190 0.0340000018 0.2709099948 2.5820000172 82.810897827 91.000999451 3.0549151897 96.984001160 3.8910272121 3.8910272121
 3790.0166016 6.0000000000 10.727001190 0.0410000011 0.2888900042 2.5950000286 81.502708435 91.624000549 3.0018911362 96.983596802 3.9079840183 3.9079840183
 3790.1691895 6.0000000000 10.727001190 0.0370000005 0.2867699862 2.5959999561 83.201004028 90.999603271 2.9337983131 96.734001160 3.8978528976 3.8978528976
 3790.3215332 7.0000000000 10.727001190 0.0230000000 0.2836000025 2.5840001106 87.252403259 90.874397278 2.8709375858 96.734001160 3.8518958092 3.8518958092
 3790.4738770 7.0000000000 10.727001190 0.0020000001 0.2738099992 2.5720000267 88.745491028 90.500595093 2.8319439888 96.734001160 3.7867660522 3.7867660522
 3790.6262207 7.0000000000 10.727001190 0.0040000002 0.2723799944 2.5650000572 85.938507080 90.875198364 2.7969503403 96.733200073 3.6408028603 3.6408028603
 3790.7788086 7.0000000000 10.727001190 0.0070000002 0.2859199941 2.5550000668 86.260604858 90.999603271 2.7659745216 96.233200073 3.5176286697 3.5176286697
 3790.9311523 7.0000000000 10.727001190 0.0060000001 0.2922399938 2.5399999619 89.576522827 90.875000000 2.7579967976 95.984802246 3.4019229412 3.4019229412
 3791.0834961 7.0000000000 10.727001190 0.0000000000 0.2929700017 2.5339999199 98.002204895 90.875404358 2.7559905052 96.484405518 3.3540961742 3.3540961742
 3791.2358398 7.0000000000 10.727001190 0.0040000002 0.2880699933 2.5480000973 99.375404358 91.124389648 2.7500095367 96.733596802 3.4142532349 3.4142532349
 3791.3881836 7.0000000000 10.727001190 -0.001000000 0.2781400084 2.5460000038 99.608772278 90.750190735 2.7560529709 96.484001160 3.5722162724 3.5722162724
 3791.5407715 7.0000000000 10.727001190 -0.002000000 0.2788099945 2.5469999313 89.484397888 90.875000000 2.7891056538 96.484001160 3.7073071003 3.7073071003
 3791.6931152 7.0000000000 10.727001190 -0.009000000 0.2727600038 2.5450000763 84.625099182 90.873596191 2.8221106529 96.484405518 3.8029999733 3.8029999733
 3791.8454590 7.0000000000 10.739999771 -0.001000000 0.2910900116 2.5550000668 84.694610596 90.000610352 2.8911411762 96.734405518 3.8028862476 3.8028862476
 3791.9978027 7.0000000000 10.741999626 0.0099999998 0.3075799942 2.5750000477 88.816307068 90.374603271 2.9791154861 96.984001160 3.7319040298 3.7319040298
 3792.1503906 7.0000000000 10.741999626 0.0060000001 0.3125100136 2.5599999428 90.861999512 90.121803284 3.0511920452 96.983200073 3.6723232269 3.6723232269
 3792.3027344 6.0000000000 10.741999626 0.0130000003 0.3044100106 2.5710000992 86.803489685 89.124198914 3.1110754013 96.734001160 3.7735016346 3.7735016346
 3792.4550781 6.0000000000 10.748999596 0.0260000005 0.3015100062 2.5820000172 80.870094299 88.624801636 3.1580817699 96.734001160 4.0864629745 4.0864629745
 3792.6074219 6.0000000000 10.749999046 0.0260000005 0.3061699867 2.5789999962 77.820114136 88.500000000 3.2090914249 96.733596802 4.3752498627 4.3752498627
 3792.7600098 6.0000000000 10.743000031 0.0120000001 0.3152900040 2.5650000572 82.256202698 88.500000000 3.2662112713 96.484802246 4.5309648514 4.5309648514
 3792.9123535 6.0000000000 10.748999596 -0.001000000 0.3066999912 2.5460000038 84.194511414 88.500198364 3.3320848942 96.734405518 4.5200304985 4.5200304985
 3793.0646973 6.0000000000 10.749999046 0.0049999999 0.2997899950 2.5480000973 88.242187500 88.625404358 3.3850657940 96.983596802 4.5389437675 4.5389437675
 3793.2170410 6.0000000000 10.749999046 0.0109999999 0.2718699872 2.5590000153 83.378204346 88.875198364 3.4260208607 96.734802246 4.5040001869 4.5040001869
 3793.3693848 6.0000000000 10.756999969 0.0230000000 0.2641499937 2.5739998817 85.371192932 88.999397278 3.4390192032 97.234001160 4.5039682388 4.5039682388
 3793.5219727 6.0000000000 10.758000374 0.0120000001 0.2636699975 2.5580000877 82.990203857 88.624198914 3.4509680271 97.232398987 4.4840641022 4.4840641022
 3793.6743164 6.0000000000 10.758000374 0.0179999992 0.2873600125 2.5580000877 79.936203003 88.375198364 3.4409792423 96.734001160 4.5040693283 4.5040693283
 3793.8266602 6.0000000000 10.758000374 0.0099999998 0.2993400097 2.5439999104 78.818611145 88.499801636 3.4279806614 96.735603333 4.5470561981 4.5470561981
 3793.9790039 6.0000000000 10.758000374 0.0170000009 0.3081299961 2.5559999943 82.323318481 88.375999451 3.4159679413 97.734802246 4.5819869041 4.5819869041
 3794.1315918 6.0000000000 10.758000374 0.0070000002 0.3018200099 2.5360000134 88.760803223 89.000000000 3.3959136009 98.235603333 4.5737628937 4.5737628937
 3794.2839355 7.0000000000 10.758000374 0.0080000004 0.3149699867 2.5409998894 92.120590210 89.000801086 3.3689663410 98.733596802 4.4999008179 4.4999008179
 3794.4362793 7.0000000000 10.829999924 0.0040000002 0.3280799985 2.5409998894 89.378005981 89.500198364 3.3479406834 98.483200073 4.4377679825 4.4377679825
 3794.5886230 7.0000000000 10.935001373 0.0359999985 0.3304899931 2.5869998932 91.246795654 89.625602722 3.3109424114 97.984405518 4.2928752899 4.2928752899
 3794.7412109 7.0000000000 10.965999603 0.0320000015 0.3158900142 2.5780000687 89.246604919 89.998405457 3.2748944759 98.234001160 4.2150611877 4.2150611877
 3794.8935547 7.0000000000 11.013998985 0.0430000015 0.2844499946 2.5889999866 88.176788330 89.500999451 3.2419281006 98.233596802 4.2339940071 4.2339940071
 3795.0458984 6.0000000000 11.037000656 0.0230000000 0.2661499977 2.5480000973 81.190704346 90.123397827 3.1969470978 97.984001160 4.2298879623 4.2298879623
 3795.1982422 6.0000000000 11.078000069 0.0260000005 0.2661199868 2.5539999008 82.877105713 89.125801086 3.1639871597 97.983596802 4.1600317955 4.1600317955
 3795.3505859 6.0000000000 11.086000443 0.0340000018 0.2776300013 2.5550000668 84.184700012 89.627204895 3.1559791565 97.734405518 4.1799678802 4.1799678802
 3795.5031738 6.0000000000 11.079000473 0.0299999993 0.2948699892 2.5710000992 82.121002197 91.001602173 3.1429231167 97.984802246 4.1598367691 4.1598367691
 3795.6555176 6.0000000000 11.064999580 0.0230000000 0.3129599988 2.5559999943 80.873298645 91.499198914 3.1189663410 98.233596802 4.1088318825 4.1088318825
 3795.8078613 6.0000000000 11.062999725 0.0199999996 0.3236800134 2.5659999847 79.819015503 91.000801086 3.0979743004 97.983596802 4.0040130615 4.0040130615
 3795.9602051 6.0000000000 11.062999725 0.0329999998 0.3149800003 2.5750000477 83.567207336 91.499198914 3.0819871426 97.734405518 4.0120177269 4.0120177269
 3796.1127930 6.0000000000 11.062999725 0.0450000018 0.2970800102 2.5780000687 86.184402466 90.995201111 3.0739071369 97.982398987 4.0232267380 4.0232267380
 3796.2651367 6.0000000000 11.062999725 0.0280000009 0.2915000021 2.5520000458 85.060897827 89.500999451 3.0449712276 97.483596802 4.0938620567 4.0938620567
 3796.4174805 6.0000000000 11.055999756 0.0289999992 0.2967300117 2.5659999847 83.748596191 90.123199463 3.0269823074 97.233596802 4.0078234673 4.0078234673
 3796.5698242 7.0000000000 10.937000275 0.0260000005 0.2888700068 2.5869998932 82.883110046 89.000404358 3.0159680843 96.984405518 3.8976571560 3.8976571560
