# LAS format log file from PETREL
# Project units are specified as depth units
#==================================================================
~Version information
VERS.   2.0:
WRAP.   NO:
#==================================================================
~Well
STRT .m      1977.9804688 :
STOP .m      4079.7290039 :
STEP .m     0.00000000 :
NULL .        -999.250000 :
COMP.           : COMPANY
WELL.  34/2-2R   : WELL
FLD.            : FIELD
LOC.            : LOCATION
SRVC.           : SERVICE COMPANY
DATE.  2018-09-11 14:48:48   : Log Export Date {yyyy-MM-dd HH:mm:ss}
PROV.           : PROVINCE
UWI.   34/2-2 R   : UNIQUE WELL ID
API.            : API NUMBER
#==================================================================
~Curve
DEPT .m                   : DEPTH
Lithology_geolink ._      : Lithology_geolink
CALI .in                  : CALI
DRHO .g/cm3               : DRHO
NPHI .m3/m3               : NPHI
RHOB .g/cm3               : RHOB
GR .gAPI                  : GR
DTC .us/ft                : DTC
RDEP .ohm.m               : RDEP
SP .mV                    : SP
RSHA .ohm.m               : RSHA
RMED .ohm.m               : RMED
~Parameter
#==================================================================
~Ascii
# ...
 2397.6899414  -999.250000 15.905999184 0.0000000000 0.3520500064 2.2360000610 61.219001770 122.25000000 1.0829999447 63.234001160 1.1820000410 1.1820000410
 2397.8425293  -999.250000 15.602000237 0.0419999994 0.3496100008 2.2750000954 63.405998230 125.00000000 1.0579999685 64.046997070 1.1599999666 1.1599999666
 2397.9948730  -999.250000 15.586001396 0.0460000001 0.3432599902 2.2869999409 59.562999725 122.50000000 1.0410000086 63.859001160 1.1360000372 1.1360000372
 2398.1472168  -999.250000 15.578000069 0.0480000004 0.3476600051 2.3010001183 55.750000000 121.74999237 1.0310000181 63.797004700 1.1100000143 1.1100000143
 2398.2995605  -999.250000 15.522998810 0.0399999991 0.3632799983 2.2969999313 54.969001770 125.75000000 1.0240000486 61.984001160 1.1039999723 1.1039999723
 2398.4521484  -999.250000 15.522998810 0.0370000005 0.3881799877 2.3110001087 51.812999725 121.50000000 1.0260000229 61.047000885 1.1009999514 1.1009999514
 2398.6044922  -999.250000 15.522998810 0.0460000001 0.3935500085 2.3050000668 56.687999725 124.00000000 1.0299999714 59.922000885 1.1189999580 1.1189999580
 2398.7568359  -999.250000 15.522998810 0.0230000000 0.3950200081 2.2809998989 54.280998230 122.00001526 1.0390000343 58.609001160 1.1399999857 1.1399999857
 2398.9091797  -999.250000 15.522998810 0.0000000000 0.3735400140 2.2300000191 56.594001770 122.50000000 1.0529999733 58.922000885 1.1670000553 1.1670000553
 2399.0615234  -999.250000 15.522998810 0.0060000001 0.3852500021 2.2479999065 52.750000000 121.50000000 1.0650000572 58.734001160 1.1920000315 1.1920000315
 2399.2141113  -999.250000 15.531000137 -0.001000000 0.3886699975 2.2500000000 53.280998230 122.99999237 1.0809999704 58.422000885 1.2050000429 1.2050000429
 2399.3664551  -999.250000 15.531000137 0.0109999999 0.4174799919 2.2850000858 53.969001770 122.25000000 1.0930000544 60.422000885 1.2039999962 1.2039999962
 2399.5187988  -999.250000 15.562998772 0.0040000002 0.4199199975 2.2750000954 53.030998230 122.99999237 1.1009999514 60.547000885 1.2079999447 1.2079999447
 2399.6711426  -999.250000 15.647998810 0.0160000008 0.3969700038 2.2809998989 52.125000000 121.74999237 1.1039999723 60.109001160 1.2109999657 1.2109999657
 2399.8237305  -999.250000 15.616999626 0.0089999996 0.3715800047 2.2560000420 57.812999725 120.49999237 1.1069999933 61.422000885 1.2000000477 1.2000000477
 2399.9760742  -999.250000 15.616999626 0.0020000001 0.3608399928 2.2579998970 59.469001770 119.00000000 1.0980000496 63.609004974 1.1879999638 1.1879999638
 2400.1284180  -999.250000 15.913998604 0.0040000002 0.3833000064 2.2660000324 63.500000000 120.75000000 1.0850000381 63.734001160 1.1729999781 1.1729999781
 2400.2807617  -999.250000 15.913998604 0.0260000005 0.3842799962 2.3029999733 56.187999725 120.75000000 1.0750000477 62.484001160 1.1720000505 1.1720000505
 2400.4333496  -999.250000 15.602000237 0.0399999991 0.3959999979 2.3259999752 56.250000000 120.25000000 1.0659999847 63.422000885 1.1690000296 1.1690000296
 2400.5856934  -999.250000 15.602000237 0.0649999976 0.3959999979 2.3540000916 53.530998230 121.25000000 1.0629999638 63.734001160 1.1599999666 1.1599999666
 2400.7380371  -999.250000 15.641000748 0.0579999983 0.4370099902 2.3519999981 51.375000000 123.25000000 1.0640000105 63.797004700 1.1590000391 1.1590000391
 2400.8903809  -999.250000 15.656000137 0.0649999976 0.4086900055 2.3320000172 46.094001770 122.25000000 1.0720000267 62.047000885 1.1449999809 1.1449999809
 2401.0427246  -999.250000 15.522998810 0.0289999992 0.4028300047 2.2850000858 47.625000000 119.75000000 1.0800000429 62.922000885 1.1510000229 1.1510000229
 2401.1953125  -999.250000 15.522998810 0.0410000011 0.3911100030 2.2890000343 51.937999725 121.25000000 1.0900000334 63.983997345 1.1720000505 1.1720000505
 2401.3476563  -999.250000 15.522998810 0.0340000018 0.4003899992 2.2869999409 55.530998230 121.74999237 1.1039999723 63.422000885 1.2029999495 1.2029999495
 2401.5000000  -999.250000 15.515999794 0.0590000004 0.3798800111 2.3090000153 60.500000000 125.00000000 1.1250000000 63.859001160 1.2200000286 1.2200000286
 2401.6523438  -999.250000 15.515999794 0.0419999994 0.3559600115 2.2829999924 59.155998230 126.50000000 1.1440000534 63.359001160 1.2430000305 1.2430000305
 2401.8049316  -999.250000 15.522998810 0.0619999990 0.3466799855 2.3129999638 61.625000000 125.00000000 1.1720000505 61.422000885 1.2610000372 1.2610000372
 2401.9572754  -999.250000 15.522998810 0.0390000008 0.3447299898 2.3029999733 54.030998230 123.75000000 1.1929999590 60.922000885 1.2740000486 1.2740000486
 2402.1096191  -999.250000 15.531000137 0.0399999991 0.3481400013 2.3069999218 55.750000000 121.25000000 1.2180000544 60.797000885 1.2810000181 1.2810000181
 2402.2619629  -999.250000 15.531000137 0.0120000001 0.3383800089 2.2699999809 54.219001770 118.75000000 1.2339999676 59.797000885 1.2949999571 1.2949999571
 2402.4145508  -999.250000 15.531000137 0.0179999992 0.3647499979 2.2620000839 54.875000000 117.99999237 1.2439999580 61.984001160 1.3129999638 1.3129999638
 2402.5668945  -999.250000 15.531000137 0.0010000000 0.3706099987 2.2400000095 50.937999725 120.00000000 1.2460000515 63.422000885 1.3350000381 1.3350000381
 2402.7192383  -999.250000 15.539000511 0.0080000004 0.3857400119 2.2460000515 47.812999725 121.25000000 1.2430000305 64.921997070 1.3300000429 1.3300000429
 2402.8715820  -999.250000 15.507999420 -0.001000000 0.3618200123 2.2400000095 49.030998230 122.25000000 1.2350000143 66.796997070 1.2960000038 1.2960000038
 2403.0239258  -999.250000 15.562998772 0.0250000004 0.3681600094 2.2660000324 54.937999725 122.74999237 1.2189999819 66.671997070 1.2610000372 1.2610000372
 2403.1765137  -999.250000 15.562998772 0.0260000005 0.3642599881 2.2599999905 57.155998230 120.49999237 1.1950000525 65.546997070 1.2419999838 1.2419999838
 2403.3288574  -999.250000 15.522998810 0.0250000004 0.3998999894 2.2579998970 53.500000000 122.50000000 1.1579999924 64.234001160 1.2359999418 1.2359999418
 2403.4812012  -999.250000 15.578000069 0.0149999997 0.3950200081 2.2620000839 53.437999725 122.25000000 1.1219999790 64.234001160 1.2220000029 1.2220000029
 2403.6335449  -999.250000 15.687999725 0.0230000000 0.3945299983 2.2829999924 56.437999725 122.00001526 1.1000000238 63.983997345 1.1979999542 1.1979999542
 2403.7861328  -999.250000 15.813000679 0.0410000011 0.3627899885 2.3180000782 62.969001770 119.24999237 1.0939999819 63.483997345 1.1579999924 1.1579999924
 2403.9384766  -999.250000 15.578000069 0.0399999991 0.4067400098 2.3259999752 60.655998230 117.75000000 1.0880000591 62.546997070 1.1460000277 1.1460000277
 2404.0908203  -999.250000 15.569999695 0.0240000002 0.4067400098 2.3199999332 55.530998230 119.24999237 1.0920000076 62.109001160 1.1619999409 1.1619999409
 2404.2431641  -999.250000 15.578000069 0.0149999997 0.3945299983 2.3139998913 50.750000000 119.50000000 1.0980000496 61.609001160 1.2029999495 1.2029999495
 2404.3957520  -999.250000 15.602000237 0.0359999985 0.3315399885 2.3220000267 52.780998230 122.99999237 1.1180000305 61.234001160 1.2259999514 1.2259999514
 2404.5480957  -999.250000 15.531000137 0.0520000011 0.3164100051 2.3340001106 49.937999725 123.25000000 1.1410000324 61.109001160 1.2380000353 1.2380000353
 2404.7004395  -999.250000 15.522998810 0.0710000023 0.3344700038 2.3540000916 53.187999725 121.25000000 1.1679999828 61.734001160 1.2539999485 1.2539999485
 2404.8527832  -999.250000 15.562998772 0.0439999998 0.3344700038 2.3320000172 49.437999725 123.50000000 1.1959999800 62.609001160 1.2829999924 1.2829999924
 2405.0051270  -999.250000 15.562998772 0.0570000000 0.3662100136 2.3610000610 57.969001770 120.00000000 1.2120000124 63.047000885 1.3200000525 1.3200000525
 2405.1577148  -999.250000 15.539000511 0.0549999997 0.3740200102 2.3399999142 52.500000000 120.49999237 1.2230000496 64.734001160 1.3240000010 1.3240000010
 2405.3100586  -999.250000 15.366998672 0.0270000007 0.3798800111 2.3010001183 53.219001770 120.00000000 1.2300000191 66.109001160 1.3209999800 1.3209999800
