# LAS format log file from PETREL
# Project units are specified as depth units
#==================================================================
~Version information
VERS.   2.0:
WRAP.   NO:
#==================================================================
~Well
STRT .m      1977.9804688 :
STOP .m      4079.7290039 :
STEP .m     0.00000000 :
NULL .        -999.250000 :
COMP.           : COMPANY
WELL.  34/2-2R   : WELL
FLD.            : FIELD
LOC.            : LOCATION
SRVC.           : SERVICE COMPANY
DATE.  2018-09-11 14:48:48   : Log Export Date {yyyy-MM-dd HH:mm:ss}
PROV.           : PROVINCE
UWI.   34/2-2 R   : UNIQUE WELL ID
API.            : API NUMBER
#==================================================================
~Curve
DEPT .m                   : DEPTH
Lithology_geolink ._      : Lithology_geolink
CALI .in                  : CALI
DRHO .g/cm3               : DRHO
NPHI .m3/m3               : NPHI
RHOB .g/cm3               : RHOB
GR .gAPI                  : GR
DTC .us/ft                : DTC
RDEP .ohm.m               : RDEP
SP .mV                    : SP
RSHA .ohm.m               : RSHA
RMED .ohm.m               : RMED
~Parameter
#==================================================================
~Ascii
# ...
 3229.3369141  -999.250000 17.236999512 -0.052999999 0.4462099969 2.1779999733 60.437999725 109.50001526 0.9929999709 61.609001160 1.0970000029 1.0970000029
 3229.4892578  -999.250000 17.246999741 -0.046999998 0.4625999928 2.2079999447 59.500000000 110.49999237 1.0039999485 61.734001160 1.1710000038 1.1710000038
 3229.6416016  -999.250000 17.250000000 -0.032000002 0.4410699904 2.2479999065 60.500000000 110.24999237 0.9969999790 62.109001160 1.2109999657 1.2109999657
 3229.7939453  -999.250000 17.250000000 -0.018999999 0.4120199978 2.2720000744 64.500000000 109.50001526 1.0180000067 60.984001160 1.1349999905 1.1349999905
 3229.9465332  -999.250000 17.250000000 -0.017999999 0.3835400045 2.2620000839 66.688003540 109.24999237 1.0249999762 60.984001160 1.2319999933 1.2319999933
 3230.0988770  -999.250000 17.250000000 -0.037000000 0.4377399981 2.2500000000 71.750000000 108.75000763 1.0210000277 60.359001160 1.1619999409 1.1619999409
 3230.2512207  -999.250000 17.250000000 -0.039999999 0.4647400081 2.2479999065 70.250000000 108.75000763 1.0310000181 60.984001160 1.2560000420 1.2560000420
 3230.4035645  -999.250000 17.250000000 -0.048999999 0.4824799895 2.2279999256 69.438003540 109.75000000 1.0379999876 61.234001160 1.1560000181 1.1560000181
 3230.5561523  -999.250000 17.250000000 -0.035000000 0.4661499858 2.2409999371 69.563003540 109.50001526 1.0119999647 61.359001160 1.1360000372 1.1360000372
 3230.7084961  -999.250000 17.236999512 -0.029999999 0.4595499933 2.2650001049 71.313003540 109.24999237 1.0130000114 61.734001160 1.1139999628 1.1139999628
 3230.8608398  -999.250000 17.246999741 -0.023000000 0.4614399970 2.2860000134 69.813003540 108.75000763 0.9990000129 62.359001160 1.2000000477 1.2000000477
 3231.0131836  -999.250000 17.250000000 -0.029999999 0.4615100026 2.2630000114 72.063003540 111.50000000 0.9649999738 62.484001160 1.0820000172 1.0820000172
 3231.1657715  -999.250000 17.250000000 -0.034000002 0.4422299862 2.2249999046 71.875000000 110.00000000 0.9369999766 63.483997345 1.1510000229 1.1510000229
 3231.3181152  -999.250000 17.250000000 -0.044000000 0.4486699998 2.1809999943 69.813003540 109.75000000 0.9570000172 63.109001160 1.0520000458 1.0520000458
 3231.4704590  -999.250000 17.250000000 -0.048000000 0.4392499924 2.1619999409 60.719001770 110.00000000 0.9620000124 63.109001160 1.2020000219 1.2020000219
 3231.6228027  -999.250000 17.250000000 -0.055000000 0.4435499907 2.1719999313 61.405998230 109.75000000 0.9929999709 63.483997345 1.1059999466 1.1059999466
 3231.7751465  -999.250000 17.250000000 -0.057000000 0.4260300100 2.1740000248 61.750000000 110.00000000 1.0210000277 62.734001160 1.1519999504 1.1519999504
 3231.9277344  -999.250000 17.250000000 -0.059999999 0.4137899876 2.1930000782 63.405998230 110.49999237 1.0069999695 62.484001160 1.0319999456 1.0319999456
 3232.0800781  -999.250000 17.250000000 -0.052000001 0.4235500097 2.2170000076 64.563003540 110.49999237 1.0130000114 61.359001160 1.1770000458 1.1770000458
 3232.2324219  -999.250000 17.236999512 -0.039000001 0.4351800084 2.2550001144 66.813003540 111.74999237 1.0199999809 61.359001160 1.0679999590 1.0679999590
 3232.3847656  -999.250000 17.233999252 -0.037000000 0.4700999856 2.2369999886 67.125000000 115.49999237 1.0080000162 61.359001160 1.0740000010 1.0740000010
 3232.5373535  -999.250000 17.246999741 -0.044000000 0.4847300053 2.2339999676 63.844001770 116.00000000 1.0449999571 61.484001160 1.1059999466 1.1059999466
 3232.6896973  -999.250000 17.236999512 -0.039999999 0.4904100001 2.2460000515 56.937999725 112.75000000 1.0850000381 61.234001160 1.1039999723 1.1039999723
 3232.8420410  -999.250000 17.233999252 -0.028999999 0.4854899943 2.2820000648 55.469001770 110.00000000 1.0900000334 61.234001160 1.1490000486 1.1490000486
 3232.9943848  -999.250000 17.246999741 -0.020000000 0.4627299905 2.2660000324 52.937999725 105.75000000 1.0700000525 60.984001160 1.1369999647 1.1369999647
 3233.1469727  -999.250000 17.250000000 -0.039000001 0.4282700121 2.2139999866 56.344001770 104.75000000 1.0629999638 61.734001160 1.1310000420 1.1310000420
 3233.2993164  -999.250000 17.250000000 -0.052000001 0.4101099968 2.1689999104 60.687999725 109.24999237 1.0149999857 60.859001160 1.2079999447 1.2079999447
 3233.4516602  -999.250000 17.250000000 -0.052999999 0.4318200052 2.1640000343 60.187999725 105.49999237 0.9869999886 60.984001160 1.1879999638 1.1879999638
 3233.6040039  -999.250000 17.250000000 -0.043000001 0.4659300148 2.1970000267 61.530998230 107.25000000 1.0030000210 60.609001160 1.1979999542 1.1979999542
 3233.7563477  -999.250000 17.250000000 -0.037999999 0.4778099954 2.2279999256 56.375000000 110.00000000 1.0049999952 60.359001160 1.1390000582 1.1390000582
 3233.9089355  -999.250000 17.250000000 -0.035000000 0.4634799957 2.2539999485 58.125000000 107.50000000 1.0140000582 60.359001160 1.1720000505 1.1720000505
 3234.0612793  -999.250000 17.250000000 -0.035999998 0.4563600123 2.2500000000 58.125000000 109.75000000 1.0590000153 60.734001160 1.1499999762 1.1499999762
 3234.2136230  -999.250000 17.250000000 -0.032000002 0.4772199988 2.2239999771 55.062999725 109.00000000 1.0310000181 61.109001160 1.1610000134 1.1610000134
 3234.3659668  -999.250000 17.250000000 -0.048000000 0.5030900240 2.1730000973 58.937999725 109.24999237 1.0010000467 61.859001160 1.1879999638 1.1879999638
 3234.5185547  -999.250000 17.250000000 -0.035999998 0.5118200183 2.1749999523 59.687999725 109.24999237 1.0039999485 61.984001160 1.1469999552 1.1469999552
 3234.6708984  -999.250000 17.250000000 -0.032000002 0.4914900064 2.1940000057 68.438003540 108.50000000 1.0049999952 61.984001160 1.1560000181 1.1560000181
 3234.8232422  -999.250000 17.250000000 -0.024000000 0.4856700003 2.2149999142 65.313003540 109.75000000 0.9990000129 62.734001160 1.1440000534 1.1440000534
 3234.9755859  -999.250000 17.250000000 -0.032000002 0.4710600078 2.2060000896 65.188003540 108.25000000 1.0269999504 62.734001160 1.1829999685 1.1829999685
 3235.1281738  -999.250000 17.250000000 -0.039999999 0.4633600116 2.2049999237 61.875000000 108.75000763 1.0460000038 63.734001160 1.1399999857 1.1399999857
 3235.2805176  -999.250000 17.250000000 -0.043000001 0.4182899892 2.2130000591 64.125000000 107.25000000 1.0609999895 63.234001160 1.1729999781 1.1729999781
 3235.4328613  -999.250000 17.250000000 -0.045000002 0.4047600031 2.2279999256 63.437999725 108.75000763 1.0540000200 62.984004974 1.1790000200 1.1790000200
 3235.5852051  -999.250000 17.250000000 -0.035999998 0.3940100074 2.2320001125 62.500000000 109.00000000 1.0590000153 62.858997345 1.1640000343 1.1640000343
 3235.7377930  -999.250000 17.250000000 -0.028000001 0.4235399961 2.2439999580 57.875000000 108.75000763 1.0659999847 62.984004974 1.1579999924 1.1579999924
 3235.8901367  -999.250000 17.250000000 -0.024000000 0.4186600149 2.2439999580 62.250000000 109.75000000 1.0369999409 61.984001160 1.1829999685 1.1829999685
 3236.0424805  -999.250000 17.250000000 -0.034000002 0.4022000134 2.2209999561 64.313003540 109.24999237 1.0410000086 61.609001160 1.1729999781 1.1729999781
 3236.1948242  -999.250000 17.250000000 -0.041000001 0.4079900086 2.1940000057 69.063003540 108.50000000 1.0379999876 61.734001160 1.1690000296 1.1690000296
 3236.3471680  -999.250000 17.250000000 -0.043000001 0.4382599890 2.1879999638 67.188003540 109.24999237 1.0349999666 61.734001160 1.1169999838 1.1169999838
 3236.4997559  -999.250000 17.250000000 -0.052000001 0.4438500106 2.2009999752 66.875000000 107.75000000 1.0399999619 62.858997345 1.2089999914 1.2089999914
 3236.6520996  -999.250000 17.250000000 -0.043000001 0.4454799891 2.2279999256 67.438003540 109.50001526 1.0950000286 62.734001160 1.1349999905 1.1349999905
 3236.8044434  -999.250000 17.250000000 -0.039999999 0.4433499873 2.2239999771 67.750000000 109.50001526 1.0789999962 63.109001160 1.2539999485 1.2539999485
 3236.9567871  -999.250000 17.250000000 -0.028999999 0.4555299878 2.2339999676 65.188003540 109.50001526 1.1019999981 63.234001160 1.2020000219 1.2020000219
