# LAS format log file from PETREL
# Project units are specified as depth units
#==================================================================
~Version information
VERS.   2.0:
WRAP.   NO:
#==================================================================
~Well
STRT .m      437.13198853 :
STOP .m      2196.1328125 :
STEP .m     0.00000000 :
NULL .        -999.250000 :
COMP.           : COMPANY
WELL.  34/3-1 S   : WELL
FLD.            : FIELD
LOC.            : LOCATION
SRVC.           : SERVICE COMPANY
DATE.  2018-09-11 14:48:49   : Log Export Date {yyyy-MM-dd HH:mm:ss}
PROV.           : PROVINCE
UWI.   34/3-1 S   : UNIQUE WELL ID
API.            : API NUMBER
#==================================================================
~Curve
DEPT .m                   : DEPTH
Lithology_geolink ._      : Lithology_geolink
BS .in                    : BS
ROP .m/h                  : ROP
GR .gAPI                  : GR
RDEP .ohm.m               : RDEP
RMED .ohm.m               : RMED
~Parameter
#==================================================================
~Ascii
# ...
 781.86083984  -999.250000 9.8750000000 231.55378723 97.420402527 2.6466999054 2.6714999676
 782.01324463  -999.250000 9.8750000000 206.38352966 92.164703369 2.5868999958 2.6070001125
 782.16558838  -999.250000 9.8750000000 157.12696838 97.209503174 2.5808999538 2.5841999054
 782.31799316  -999.250000 9.8750000000 130.61515808 96.880096436 2.5569000244 2.5566999912
 782.47039795  -999.250000 9.8750000000 114.47966003 101.69850159 2.5571000576 2.5648999214
 782.62280273  -999.250000 9.8750000000 103.66174316 97.586997986 2.5704998970 2.5662000179
 782.77520752  -999.250000 9.8750000000 106.87139893 98.048400879 2.5715000629 2.5766000748
 782.92761230  -999.250000 9.8750000000 127.57022095 90.961997986 2.5657000542 2.5694000721
 783.08001709  -999.250000 9.8750000000 153.76377869 94.278503418 2.5592999458 2.5678999424
 783.23242188  -999.250000 9.8750000000 166.51739502 96.095596313 2.5704998970 2.5738999844
 783.38482666  -999.250000 9.8750000000 166.16404724 96.679496765 2.5801999569 2.5757999420
 783.53723145  -999.250000 9.8750000000 150.02853394 96.269401550 2.6017999649 2.6029000282
 783.68963623  -999.250000 9.8750000000 137.70242310 92.243797302 2.6284999847 2.6256000996
 783.84204102  -999.250000 9.8750000000 136.62008667 94.696403503 2.6677000523 2.6661000252
 783.99444580  -999.250000 9.8750000000 127.61416626 93.430198669 2.7435998917 2.7518999577
 784.14685059  -999.250000 9.8750000000 118.11679840 93.868301392 2.8341226578 2.7924773693
 784.29919434  -999.250000 9.8750000000 125.31004333 99.881599426 2.8623971939 2.8889963627
 784.45159912  -999.250000 9.8750000000 135.06430054 86.285400391 2.8555436134 2.8801367283
 784.60400391  -999.250000 9.8750000000 132.83203125 86.327903748 2.9646313190 2.9719331264
 784.75640869  -999.250000 9.8750000000 110.61875916 86.447998047 3.0428256989 3.0549252033
 784.90881348  -999.250000 9.8750000000 95.706695557 86.318801880 3.1071085930 3.1182103157
 785.06121826  -999.250000 9.8750000000 99.797897339 89.394500732 3.1283988953 3.1438031197
 785.21362305  -999.250000 9.8750000000 105.32054138 85.574096680 3.1251912117 3.1512911320
 785.36602783  -999.250000 9.8750000000 111.45767975 88.276298523 3.1032781601 3.1292808056
 785.51843262  -999.250000 9.8750000000 121.56529236 89.155799866 3.0487759113 3.0812718868
 785.67083740  -999.250000 9.8750000000 125.60925293 93.669700623 2.9883649349 3.0112512112
 785.82324219  -999.250000 9.8750000000 119.99540710 94.377502441 2.9006993771 2.8890099525
 785.97564697  -999.250000 9.8750000000 121.00590515 91.678901672 2.7750542164 2.7764382362
 786.12805176  -999.250000 9.8750000000 125.34941864 92.717201233 2.7177824974 2.6994891167
 786.28039551  -999.250000 9.8750000000 125.54756927 94.483398438 2.6961002350 2.6857988834
 786.43280029  -999.250000 9.8750000000 122.80807495 93.696403503 2.6963996887 2.6831080914
 786.58520508  -999.250000 9.8750000000 123.17126465 96.182426453 2.6957037449 2.7034051418
 786.73760986  -999.250000 9.8750000000 135.97276306 93.497344971 2.7051997185 2.7167005539
 786.89001465  -999.250000 9.8750000000 142.65124512 89.373703003 2.7045991421 2.7178962231
 787.04241943  -999.250000 9.8750000000 138.06135559 90.627876282 2.7023975849 2.7084960938
 787.19482422  -999.250000 9.8750000000 129.39895630 96.296318054 2.6962969303 2.6989967823
 787.34722900  -999.250000 9.8750000000 120.42225647 98.587921143 2.6882927418 2.6912930012
 787.49963379  -999.250000 9.8750000000 111.67749023 91.159088135 2.6702985764 2.6742889881
 787.65203857  -999.250000 9.8750000000 103.01443481 91.890983582 2.6665117741 2.6467180252
 787.80444336  -999.250000 9.8750000000 99.967849731 90.586883545 2.6958186626 2.6919200420
 787.95684814  -999.250000 9.8750000000 103.21391296 88.299926758 2.7420709133 2.7420725822
 788.10925293  -999.250000 9.8750000000 104.21588135 92.577163696 2.8303425312 2.8325440884
 788.26165771  -999.250000 9.8750000000 90.758201599 93.530624390 2.8831830025 2.8876197338
 788.41400146  -999.250000 9.8750000000 79.521324158 94.925079346 2.7369618416 2.7872369289
 788.56640625  -999.250000 9.8750000000 75.108924866 93.381774902 2.6419768333 2.6294760704
 788.71881104  -999.250000 9.8750000000 82.315940857 94.072059631 2.5844991207 2.5698983669
 788.87115479  -999.250000 9.8750000000 95.394035339 94.218803406 2.5824000835 2.5655000210
 789.02355957  -999.250000 9.8750000000 109.52288055 91.352996826 2.5964000225 2.5826001167
 789.17596436  -999.250000 9.8750000000 124.79867554 90.341201782 2.6136999130 2.6080000401
 789.32836914  -999.250000 9.8750000000 140.04507446 99.661903381 2.6473000050 2.6517000198
 789.48077393  -999.250000 9.8750000000 150.52008057 98.075698853 2.6472001076 2.6526000500
 789.63317871  -999.250000 9.8750000000 159.70104980 97.160797119 2.6463999748 2.6484999657
 789.78558350  -999.250000 9.8750000000 158.49623108 93.912498474 2.6407999992 2.6393001080
 789.93798828  -999.250000 9.8750000000 142.96948242 96.327499390 2.6291999817 2.6263999939
 790.09033203  -999.250000 9.8750000000 137.24473572 98.569602966 2.6261999607 2.6293001175
 790.24273682  -999.250000 9.8750000000 128.57125854 100.95300293 2.6449999809 2.6345999241
 790.39514160  -999.250000 9.8750000000 121.19062042 96.725097656 2.6507000923 2.6403000355
 790.54754639  -999.250000 9.8750000000 113.18857574 93.449996948 2.6540999413 2.6654999256
 790.69995117  -999.250000 9.8750000000 106.73683929 95.278999329 2.6696000099 2.6700000763
 790.85235596  -999.250000 9.8750000000 109.82717896 100.39739990 2.6670999527 2.6656000614
 791.00476074  -999.250000 9.8750000000 111.22581482 91.266197205 2.6459000111 2.6568999290
 791.15716553  -999.250000 9.8750000000 112.00132751 92.499603271 2.6066000462 2.6098999977
 791.30957031  -999.250000 9.8750000000 112.46143341 97.346496582 2.5720000267 2.5952000618
 791.46197510  -999.250000 9.8750000000 110.77658844 93.446800232 2.5627999306 2.5594000816
 791.61437988  -999.250000 9.8750000000 112.46159363 90.962097168 2.5622000694 2.5555000305
 791.76678467  -999.250000 9.8750000000 111.76275635 92.000297546 2.5638999939 2.5546998978
 791.91918945  -999.250000 9.8750000000 105.10174561 90.957000732 2.5652000904 2.5794999599
 792.07153320  -999.250000 9.8750000000 97.690322876 95.427902222 2.5912001133 2.5943999290
 792.22393799  -999.250000 9.8750000000 98.001388550 93.284301758 2.5890998840 2.6015999317
 792.37634277  -999.250000 9.8750000000 101.12807465 88.461700439 2.5855000019 2.5980999470
 792.52874756  -999.250000 9.8750000000 114.07421875 96.245101929 2.5724999905 2.5924999714
 792.68115234  -999.250000 9.8750000000 124.53517151 97.928100586 2.5690000057 2.5766000748
 792.83355713  -999.250000 9.8750000000 132.01176453 99.559600830 2.5392000675 2.5557999611
 792.98596191  -999.250000 9.8750000000 137.11605835 101.16960144 2.5260999203 2.5432999134
 793.13836670  -999.250000 9.8750000000 142.75167847 96.274696350 2.5160999298 2.5241000652
 793.29077148  -999.250000 9.8750000000 140.28675842 94.198799133 2.4904999733 2.4923999310
 793.44317627  -999.250000 9.8750000000 131.40283203 93.209098816 2.4583001137 2.4690001011
 793.59558105  -999.250000 9.8750000000 127.87708282 91.595397949 2.4100999832 2.4096999168
 793.74798584  -999.250000 9.8750000000 127.59658051 97.029403687 2.3766999245 2.3819000721
 793.90039063  -999.250000 9.8750000000 127.48266602 95.021598816 2.3680000305 2.3680999279
 794.05279541  -999.250000 9.8750000000 138.47787476 93.179298401 2.3619999886 2.3524000645
 794.20513916  -999.250000 9.8750000000 146.24836731 98.067802429 2.3457999229 2.3448998928
 794.35754395  -999.250000 9.8750000000 134.85330200 97.425201416 2.3401000500 2.3406000137
 794.50994873  -999.250000 9.8750000000 130.19270325 96.251502991 2.3373000622 2.3396000862
 794.66235352  -999.250000 9.8750000000 133.38487244 95.169898987 2.3347001076 2.3350999355
 794.81475830  -999.250000 9.8750000000 128.15858459 94.922599792 2.3296000957 2.3287999630
 794.96716309  -999.250000 9.8750000000 123.64781189 93.890800476 2.3225998878 2.3182001114
