# LAS format log file from PETREL
# Project units are specified as depth units
#==================================================================
~Version information
VERS.   2.0:
WRAP.   NO:
#==================================================================
~Well
STRT .m      437.13198853 :
STOP .m      2196.1328125 :
STEP .m     0.00000000 :
NULL .        -999.250000 :
COMP.           : COMPANY
WELL.  34/3-1 S   : WELL
FLD.            : FIELD
LOC.            : LOCATION
SRVC.           : SERVICE COMPANY
DATE.  2018-09-11 14:48:49   : Log Export Date {yyyy-MM-dd HH:mm:ss}
PROV.           : PROVINCE
UWI.   34/3-1 S   : UNIQUE WELL ID
API.            : API NUMBER
#==================================================================
~Curve
DEPT .m                   : DEPTH
Lithology_geolink ._      : Lithology_geolink
BS .in                    : BS
ROP .m/h                  : ROP
GR .gAPI                  : GR
RDEP .ohm.m               : RDEP
RMED .ohm.m               : RMED
~Parameter
#==================================================================
~Ascii
# ...
 1139.8483887  -999.250000 17.500000000 142.25262451 103.39620209 2.7439999580 2.2218999863
 1140.0007324  -999.250000 17.500000000 142.25262451 110.94329834 2.7439999580 2.2218999863
 1140.1531982  -999.250000 17.500000000 142.25262451 110.94329834 2.7439999580 2.2218999863
 1140.3055420  -999.250000 17.500000000 142.25262451 95.849197388 2.7439999580 2.2218999863
 1140.4580078  -999.250000 17.500000000 142.25262451 95.849197388 2.7439999580 2.2218999863
 1140.6103516  -999.250000 17.500000000 170.72769165 93.307899475 2.7439999580 2.2218999863
 1140.7628174  -999.250000 17.500000000 170.72769165 92.494903564 2.7439999580 2.2218999863
 1140.9151611  -999.250000 17.500000000 170.72769165 80.754997253 2.6647000313 2.2218999863
 1141.0676270  -999.250000 17.500000000 170.72769165 82.020896912 2.6466999054 2.2218999863
 1141.2199707  -999.250000 17.500000000 170.72769165 91.228996277 2.7439999580 2.2218999863
 1141.3724365  -999.250000 17.500000000 170.72769165 96.433296204 2.7439999580 2.2218999863
 1141.5247803  -999.250000 17.500000000 170.72769165 99.203399658 2.7439999580 2.2218999863
 1141.6772461  -999.250000 17.500000000 134.98457336 95.940200806 2.7439999580 2.2218999863
 1141.8295898  -999.250000 17.500000000 134.98457336 92.494903564 2.7439999580 2.2218999863
 1141.9819336  -999.250000 17.500000000 134.98457336 103.41010284 2.7439999580 2.2149999142
 1142.1343994  -999.250000 17.500000000 134.98457336 96.182800293 2.7439999580 2.1482999325
 1142.2867432  -999.250000 17.500000000 134.98457336 80.754997253 2.7439999580 2.1431000233
 1142.4392090  -999.250000 17.500000000 134.98457336 109.26619720 2.7439999580 2.2218999863
 1142.5915527  -999.250000 17.500000000 136.36746216 109.26619720 2.7439999580 2.2218999863
 1142.7440186  -999.250000 17.500000000 136.36746216 90.817802429 2.7439999580 2.2218999863
 1142.8963623  -999.250000 17.500000000 136.36746216 90.817802429 2.7439999580 2.2218999863
 1143.0488281  -999.250000 17.500000000 136.36746216 97.526298523 2.7439999580 2.2218999863
 1143.2011719  -999.250000 17.500000000 136.36746216 97.526298523 2.7439999580 2.2218999863
 1143.3536377  -999.250000 17.500000000 136.36746216 98.559997559 2.7439999580 2.2957999706
 1143.5059814  -999.250000 17.500000000 136.36746216 100.88050079 2.7439999580 2.3034999371
 1143.6584473  -999.250000 17.500000000 163.30085754 100.88050079 2.7439999580 2.2627000809
 1143.8107910  -999.250000 17.500000000 163.30085754 85.786399841 2.7439999580 2.2218999863
 1143.9632568  -999.250000 17.500000000 163.30085754 85.786399841 2.7692000866 2.2218999863
 1144.1156006  -999.250000 17.500000000 163.30085754 92.494903564 2.8447000980 2.2218999863
 1144.2679443  -999.250000 17.500000000 163.30085754 95.854896545 2.8447000980 2.2218999863
 1144.4204102  -999.250000 17.500000000 163.30085754 97.526298523 2.8278999329 2.2355000973
 1144.5727539  -999.250000 17.500000000 133.59022522 104.23480225 2.8111000061 2.2490999699
 1144.7252197  -999.250000 17.500000000 133.59022522 104.23480225 2.7943999767 2.2627000809
 1144.8775635  -999.250000 17.500000000 133.59022522 100.88050079 2.7776000500 2.2762999535
 1145.0300293  -999.250000 17.500000000 133.59022522 97.526298523 2.7607998848 2.2899000645
 1145.1823730  -999.250000 17.500000000 133.59022522 98.153701782 2.7439999580 2.3034999371
 1145.3348389  -999.250000 17.500000000 133.59022522 98.822700500 2.7439999580 2.3310999870
 1145.4871826  -999.250000 17.500000000 133.59022522 90.817802429 2.7439999580 2.3882999420
 1145.6396484  -999.250000 17.500000000 153.98228455 90.817802429 2.7439999580 2.3882999420
 1145.7919922  -999.250000 17.500000000 153.98228455 96.687698364 2.7439999580 2.3714001179
 1145.9444580  -999.250000 17.500000000 153.98228455 102.55770111 2.7439999580 2.3545000553
 1146.0968018  -999.250000 17.500000000 153.98228455 96.952499390 2.7439999580 2.3375999928
 1146.2491455  -999.250000 17.500000000 153.98228455 84.109298706 2.7439999580 2.3208000660
 1146.4016113  -999.250000 17.500000000 153.98228455 98.371498108 2.7439999580 2.3039000034
 1146.5539551  -999.250000 17.500000000 98.157478333 112.62039948 2.7439999580 2.2869999409
 1146.7064209  -999.250000 17.500000000 98.157478333 112.62039948 2.7439999580 2.2383999825
 1146.8587646  -999.250000 17.500000000 98.157478333 89.140701294 2.7439999580 2.2218999863
 1147.0112305  -999.250000 17.500000000 98.157478333 89.140701294 2.7439999580 2.3034999371
 1147.1635742  -999.250000 17.500000000 98.157478333 96.507797241 2.7439999580 2.2960999012
 1147.3160400  -999.250000 17.500000000 98.157478333 99.203399658 2.7439999580 2.2374000549
 1147.4683838  -999.250000 17.500000000 98.157478333 91.567901611 2.7439999580 2.2218999863
 1147.6208496  -999.250000 17.500000000 152.74343872 98.453300476 2.7439999580 2.2218999863
 1147.7731934  -999.250000 17.500000000 152.74343872 100.88050079 2.7439999580 2.2218999863
 1147.9256592  -999.250000 17.500000000 152.74343872 97.526298523 2.7439999580 2.2218999863
 1148.0780029  -999.250000 17.500000000 152.74343872 94.171997070 2.7439999580 2.2218999863
 1148.2303467  -999.250000 17.500000000 152.74343872 96.323898315 2.7439999580 2.2423000336
 1148.3828125  -999.250000 17.500000000 152.74343872 100.88050079 2.7439999580 2.2627000809
 1148.5351563  -999.250000 17.500000000 152.74343872 95.849197388 2.7439999580 2.2830998898
 1148.6876221  -999.250000 17.500000000 134.29067993 95.849197388 2.7439999580 2.3034999371
 1148.8399658  -999.250000 17.500000000 134.29067993 95.849197388 2.7439999580 2.3034999371
 1148.9924316  -999.250000 17.500000000 134.29067993 107.58899689 2.8001999855 2.3034999371
 1149.1447754  -999.250000 17.500000000 134.29067993 104.82379913 2.8447000980 2.2744998932
 1149.2972412  -999.250000 17.500000000 134.29067993 97.450897217 2.8447000980 2.2418999672
 1149.4495850  -999.250000 17.500000000 134.29067993 91.506202698 2.7439999580 2.3034999371
 1149.6020508  -999.250000 17.500000000 129.53904724 111.62580109 2.7439999580 2.2901999950
 1149.7543945  -999.250000 17.500000000 129.53904724 70.311096191 2.7439999580 2.2218999863
 1149.9068604  -999.250000 17.500000000 129.53904724 86.378303528 2.7439999580 2.2218999863
 1150.0592041  -999.250000 17.500000000 129.53904724 89.658996582 2.7439999580 2.2218999863
 1150.2116699  -999.250000 17.500000000 129.53904724 101.00350189 2.6466999054 2.3034999371
 1150.3640137  -999.250000 17.500000000 129.53904724 110.46859741 2.6640999317 2.2888998985
 1150.5163574  -999.250000 17.500000000 129.53904724 110.94329834 2.7439999580 2.2218999863
 1150.6688232  -999.250000 17.500000000 185.80839539 103.71790314 2.7439999580 2.2218999863
 1150.8211670  -999.250000 17.500000000 185.80839539 94.171997070 2.7065999508 2.1805999279
 1150.9736328  -999.250000 17.500000000 185.80839539 91.656303406 2.6877999306 2.1886000633
 1151.1259766  -999.250000 17.500000000 185.80839539 89.140701294 2.7439999580 2.1431000233
 1151.2784424  -999.250000 17.500000000 185.80839539 89.140701294 2.7439999580 2.1431000233
 1151.4307861  -999.250000 17.500000000 185.80839539 94.841598511 2.7439999580 2.1431000233
 1151.5832520  -999.250000 17.500000000 108.06365204 97.780799866 2.6084001064 2.1119999886
 1151.7355957  -999.250000 17.500000000 108.06365204 89.185302734 2.5913000107 2.0980999470
 1151.8880615  -999.250000 17.500000000 108.06365204 104.32640076 2.5529000759 1.9938000441
 1152.0404053  -999.250000 17.500000000 108.06365204 105.91190338 2.5529000759 2.0269999504
 1152.1928711  -999.250000 17.500000000 108.06365204 85.786399841 2.5462000370 2.0615999699
 1152.3452148  -999.250000 17.500000000 108.06365204 88.420997620 2.4695000648 1.9995000362
 1152.4975586  -999.250000 17.500000000 108.06365204 96.351898193 2.4625000954 1.9938000441
 1152.6500244  -999.250000 17.500000000 125.21916962 105.32440186 2.4625000954 1.9938000441
 1152.8023682  -999.250000 17.500000000 125.21916962 111.36620331 2.4625000954 1.9938000441
 1152.9548340  -999.250000 17.500000000 125.21916962 113.87460327 2.4625000954 1.9938000441
