# LAS format log file from PETREL
# Project units are specified as depth units
#==================================================================
~Version information
VERS.   2.0:
WRAP.   NO:
#==================================================================
~Well
STRT .m      2233.7756348 :
STOP .m      5007.4555664 :
STEP .m     0.00000000 :
NULL .        -999.250000 :
COMP.           : COMPANY
WELL.  34/3-3 A   : WELL
FLD.            : FIELD
LOC.            : LOCATION
SRVC.           : SERVICE COMPANY
DATE.  2018-09-11 14:48:49   : Log Export Date {yyyy-MM-dd HH:mm:ss}
PROV.           : PROVINCE
UWI.   34/3-3 A   : UNIQUE WELL ID
API.            : API NUMBER
#==================================================================
~Curve
DEPT .m                   : DEPTH
Lithology_geolink ._      : Lithology_geolink
CALI .in                  : CALI
BS .in                    : BS
ROP .m/h                  : ROP
DRHO .g/cm3               : DRHO
NPHI .m3/m3               : NPHI
RHOB .g/cm3               : RHOB
PEF .b/e                  : PEF
GR .gAPI                  : GR
DTC .us/ft                : DTC
DTS .us/ft                : DTS
RDEP .ohm.m               : RDEP
RMED .ohm.m               : RMED
~Parameter
#==================================================================
~Ascii
# ...
 4064.4045410  -999.250000 12.318599701 12.250000954 82.314956665 -0.002304968 0.2917999923 2.5126221180 3.9937489033 103.36931610 95.451896667 208.45370483 1.5828000307 1.5901999474
 4064.5568848  -999.250000 12.322798729 12.250000954 83.505577087 -0.005393910 0.3018999994 2.5265030861 3.9621760845 100.27207184 94.719902039 209.32931519 1.7066999674 1.6328999996
 4064.7092285  -999.250000 12.346599579 12.250000954 82.775588989 -0.001598397 0.3034000099 2.5285091400 4.0719604492 102.88693237 93.013099670 208.44604492 1.7114000320 1.6433999538
 4064.8618164  -999.250000 12.357100487 12.250000954 78.125656128 -0.000583040 0.3181999922 2.5340516567 4.0481586456 111.89078522 92.850997925 208.22434998 1.6183999777 1.5950000286
 4065.0141602  -999.250000 12.362001419 12.250000954 75.138778687 0.0047032051 0.3197000027 2.5189898014 4.2846436501 114.83927917 93.708702087 207.79869080 1.6145999432 1.5845999718
 4065.1665039  -999.250000 12.348299980 12.250000954 79.593177795 0.0067147436 0.3118999898 2.5126140118 4.3741507530 111.58491516 93.759803772 207.29360962 1.6670000553 1.6080000401
 4065.3188477  -999.250000 12.371199608 12.250000954 82.839569092 0.0158935916 0.3016999960 2.5213925838 4.4054698944 109.28818512 94.448699951 206.91261292 1.6940000057 1.6226999760
 4065.4711914  -999.250000 12.380200386 12.250000954 82.699142456 0.0118907057 0.3039000034 2.5167841911 4.3247160912 109.03055573 95.660499573 205.90924072 1.7771999836 1.7007999420
 4065.6237793  -999.250000 12.387600899 12.250000954 89.264762878 0.0060993601 0.3055999875 2.5071852207 4.5223360062 108.24448395 93.871604919 207.34729004 1.8305000067 1.7223000526
 4065.7761230  -999.250000 12.385600090 12.250000954 77.511154175 0.0059044873 0.3095999956 2.5025985241 4.7206335068 104.93452454 94.153800964 206.73876953 1.8007999659 1.7348999977
 4065.9284668  -999.250000 12.394901276 12.250000954 84.108268738 0.0087008011 0.3000000119 2.5016856194 4.8035044670 101.83393097 94.596702576 206.17669678 1.7976000309 1.7274999619
 4066.0808105  -999.250000 12.389300346 12.250000954 77.760826111 0.0092064105 0.3007000089 2.4928245544 4.6191186905 101.17030334 95.333198547 208.46594238 1.8006000519 1.7326999903
 4066.2333984  -999.250000 12.403300285 12.250000954 78.945213318 0.0132003203 0.2896000147 2.5081400871 4.5679783821 102.67465973 95.528800964 208.49157715 1.7926000357 1.7361999750
 4066.3857422  -999.250000 12.402600288 12.250000954 86.321525574 0.0133157047 0.2843999863 2.5206475258 4.4366183281 105.56260681 94.958198547 210.06408691 1.7756999731 1.7113000154
 4066.5380859  -999.250000 12.401499748 12.250000954 79.754486084 0.0230873395 0.2883000076 2.5501725674 4.3859753609 106.68836212 93.870002747 210.59095764 1.7970999479 1.7144999504
 4066.6904297  -999.250000 12.400500298 12.250000954 81.732810974 0.0151939103 0.2867999971 2.5330832005 4.4332809448 106.98133087 94.003097534 209.20016479 1.8467999697 1.7454999685
 4066.8430176  -999.250000 12.381600380 12.250000954 81.233665466 0.0113811204 0.2881999910 2.5225882530 4.6713666916 108.62910461 94.150802612 209.83247375 1.8791999817 1.8029999733
 4066.9953613  -999.250000 12.362700462 12.250000954 77.778572083 0.0054891026 0.2996000051 2.4877927303 4.8789730072 110.37695313 92.482597351 211.28846741 1.8535000086 1.7876000404
 4067.1477051  -999.250000 12.387901306 12.250000954 75.967781067 -0.001300000 0.3052999973 2.4832875729 4.8620996475 111.03266907 91.886901855 211.01174927 1.8082000017 1.7510999441
 4067.3000488  -999.250000 12.387600899 12.250000954 82.461303711 -0.001290064 0.3059000075 2.4755406380 4.9246435165 110.83011627 92.678802490 210.56860352 1.8056999445 1.7423000336
 4067.4523926  -999.250000 12.387200356 12.250000954 81.250137329 0.0049081598 0.3025999963 2.5008070469 5.2013983727 110.96163177 93.598197937 210.65830994 1.8413000107 1.7649999857
 4067.6049805  -999.250000 12.413100243 12.250000954 83.791091919 0.0100104166 0.3125999868 2.5053198338 5.5128197670 111.16307831 93.476997375 209.13024902 1.8087999821 1.6924999952
 4067.7573242  -999.250000 12.409199715 12.250000954 83.833671570 0.0164903849 0.3195999861 2.5176861286 5.8364086151 110.27759552 94.084297180 207.16914368 1.7335000038 1.6805000305
 4067.9096680  -999.250000 12.401899338 12.250000954 78.337707520 0.0105145834 0.3201999962 2.5089895725 5.7175245285 108.59519196 93.679603577 206.38745117 1.7111999989 1.6447999477
 4068.0620117  -999.250000 12.379400253 12.250000954 88.824066162 0.0195972752 0.3203000128 2.5023899078 5.9203772545 108.34583282 92.543296814 208.44161987 1.6715999842 1.6245000362
 4068.2145996  -999.250000 12.366900444 12.250000954 86.094474792 0.0179038402 0.3167000115 2.4961674213 6.2192025185 109.04667664 92.254302979 208.75511169 1.6650999784 1.6227999926
 4068.3669434  -999.250000 12.358499527 12.250000954 79.150482178 0.0190907046 0.3080999851 2.4860067368 6.7192420959 108.10315704 92.387702942 207.96626282 1.6440000534 1.5707000494
 4068.5192871  -999.250000 12.368398666 12.250000954 85.424850464 0.0132993590 0.3088000119 2.4900991917 7.2442235947 106.45764923 94.619102478 207.31883240 1.6009999514 1.5398000479
 4068.6716309  -999.250000 12.385800362 12.250000954 87.249183655 0.0129011227 0.3086999953 2.4897160530 7.3837575912 106.86457825 95.664299011 208.79734802 1.6109000444 1.5443999767
 4068.8242188  -999.250000 12.418700218 12.250000954 85.920555115 0.0135929603 0.3104000092 2.4996325970 7.4810619354 107.72419739 96.817901611 208.57196045 1.6280000210 1.5655000210
 4068.9765625  -999.250000 12.416199684 12.250000954 84.482505798 0.0114025641 0.3185999990 2.4786071777 7.2504677773 107.97527313 95.294403076 208.07818604 1.5925999880 1.5494999886
 4069.1289063  -999.250000 12.412500381 12.250000954 90.919624329 0.0130080134 0.3203000128 2.4830458164 6.8556299210 108.57755280 93.510002136 208.03907776 1.6821999550 1.6078000069
 4069.2812500  -999.250000 12.410300255 12.250000954 68.226074219 0.0180067308 0.3131999969 2.5115437508 6.1882057190 104.73390198 92.377090454 208.09651184 2.0959999561 1.8990999460
 4069.4338379  -999.250000 12.401899338 12.250000954 64.561882019 0.0222207997 0.2779000103 2.5389888287 5.6916642189 95.690315247 91.863800049  -999.250000 2.5113000870 2.2671999931
 4069.5861816  -999.250000 12.295499802 12.250000954 64.827018738 0.0286943913 0.2685000002 2.5666773319 5.1821169853 91.530624390 91.495101929  -999.250000 2.2888000011 2.1598999500
 4069.7385254  -999.250000 12.299300194 12.250000954 62.942031860 0.0251980778 0.2739000022 2.5525035858 5.1305699348 96.982376099 90.707199097  -999.250000 1.6713999510 1.6765999794
 4069.8908691  -999.250000 12.307399750 12.250000954 67.708885193 0.0239875000 0.2915999889 2.5546669960 5.1749596596 104.57352448 91.443702698  -999.250000 1.5937000513 1.5870000124
 4070.0432129  -999.250000 12.302499771 12.250000954 70.708137512 0.0161971152 0.3003999889 2.5341114998 5.6483917236 107.26802063 91.412498474  -999.250000 1.5808000565 1.6053999662
 4070.1958008  -999.250000 12.298999786 12.250000954 70.185073853 0.0143951997 0.3075999916 2.5412852764 5.7679219246 106.40180206 92.583999634  -999.250000 1.5770000219 1.6069999933
 4070.3481445  -999.250000 12.329799652 12.250000954 72.242721558 0.0128927892 0.2879000008 2.5366835594 5.8371639252 104.12152863 91.260696411  -999.250000 1.6354000568 1.6299999952
 4070.5004883  -999.250000 12.373200417 12.250000954 73.011734009 0.0084046470 0.2739999890 2.5264670849 5.9401950836 100.64665985 90.123596191  -999.250000 1.7848999500 1.7402000427
 4070.6528320  -999.250000 12.402600288 12.250000954 67.473999023 0.0113068912 0.2529000044 2.5058970451 6.4986128807 98.440505981 89.727600098  -999.250000 2.0838999748 1.9234999418
 4070.8054199  -999.250000 12.446701050 12.250000954 85.218132019 0.0156780798 0.2563000023 2.5042934418 7.0690431595 98.888092041 88.574798584  -999.250000 2.0912001133 1.9464000463
 4070.9577637  -999.250000 12.459900856 12.250000954 90.317535400 0.0400165059 0.2545999885 2.5645580292 7.6131567955 100.82297516 89.382400513  -999.250000 2.0141999722 1.9112999439
