# LAS format log file from PETREL
# Project units are specified as depth units
#==================================================================
~Version information
VERS.   2.0:
WRAP.   NO:
#==================================================================
~Well
STRT .m      3771.1865234 :
STOP .m      4146.8525391 :
STEP .m     0.00000000 :
NULL .        -999.250000 :
COMP.           : COMPANY
WELL.  34/3-1 A   : WELL
FLD.            : FIELD
LOC.            : LOCATION
SRVC.           : SERVICE COMPANY
DATE.  2018-09-11 14:48:49   : Log Export Date {yyyy-MM-dd HH:mm:ss}
PROV.           : PROVINCE
UWI.   34/3-1 A   : UNIQUE WELL ID
API.            : API NUMBER
#==================================================================
~Curve
DEPT .m                   : DEPTH
Lithology_geolink ._      : Lithology_geolink
CALI .in                  : CALI
BS .in                    : BS
ROP .m/h                  : ROP
DRHO .g/cm3               : DRHO
NPHI .m3/m3               : NPHI
RHOB .g/cm3               : RHOB
PEF .b/e                  : PEF
GR .gAPI                  : GR
DTC .us/ft                : DTC
DTS .us/ft                : DTS
RDEP .ohm.m               : RDEP
RMIC .ohm.m               : RMIC
RMED .ohm.m               : RMED
~Parameter
#==================================================================
~Ascii
# ...
 3921.1481934 7.0000000000 8.5855998993 8.5000000000 62.760417938 -0.014703366 0.3427000046 2.5510001183 7.7895002365 142.23280334 93.716400146 169.15420532 2.7499001026  -999.250000 2.3610000610
 3921.3005371 7.0000000000 8.5855998993 8.5000000000 65.446487427 -0.007124320 0.3477999866 2.5636000633 8.3763999939 134.22639465 91.792503357 167.19299316 2.7409000397  -999.250000 2.3657000065
 3921.4531250 7.0000000000 8.5799999237 8.5000000000 63.177215576 -0.005502564 0.3610999882 2.5822000504 8.2358999252 139.35409546 90.241798401 168.05499268 2.7265000343  -999.250000 2.3357000351
 3921.6054688 7.0000000000 8.5743999481 8.5000000000 61.768989563 -0.004401763 0.3634000123 2.5911002159 7.6739997864 133.23030090 89.294502258 167.44940186 2.7400000095  -999.250000 2.3045001030
 3921.7578125 7.0000000000 8.5885000229 8.5000000000 66.496673584 -0.007794551 0.3574000001 2.5883998871 7.3280000687 136.13920593 89.001289368 167.70190430 2.7251999378  -999.250000 2.2467999458
 3921.9101563 7.0000000000 8.6023998260 8.5000000000 73.114715576 -0.009200000 0.3555000126 2.5859999657 7.5490999222 137.22540283 87.482208252 170.02810669 2.7474999428  -999.250000 2.2063000202
 3922.0627441 7.0000000000 8.6218996048 8.5000000000 74.691719055 -0.008700000 0.3662000000 2.5785999298 8.2840995789 147.84930420 88.375297546 172.00700378 2.7699000835  -999.250000 2.1989998817
 3922.2150879 7.0000000000 8.6064996719 8.5000000000 76.472541809 -0.008200000 0.3495000005 2.5764000416 8.6028003693 135.08590698 88.639900208 172.07249451 2.7904999256  -999.250000 2.2119998932
 3922.3674316 7.0000000000 8.5964002609 8.5000000000 83.734085083 -0.011600000 0.3495999873 2.5604999065 8.8470001221 129.21539307 88.126701355 170.65150452 2.7967998981  -999.250000 2.2688999176
 3922.5197754 7.0000000000 8.5901002884 8.5000000000 82.422065735 -0.011700000 0.3513999879 2.5620000362 9.0662002563 138.12620544 88.754997253 170.03939819 2.8189001083  -999.250000 2.3124001026
 3922.6721191 7.0000000000 8.5839004517 8.5000000000 65.932197571 -0.009000000 0.3504000008 2.5555000305 8.6057996750 137.78939819 93.333396912 170.11390686 2.7841999531  -999.250000 2.3657999039
 3922.8247070 7.0000000000 8.5775995255 8.5000000000 60.090332031 -0.006400000 0.3524000049 2.5511000156 8.3899002075 136.15809631 92.252792358 170.63308716 2.8006000519  -999.250000 2.4040000439
 3922.9770508 7.0000000000 8.5775995255 8.5000000000 67.546737671 -0.006000000 0.3499000072 2.5499000549 8.7389001846 137.24009705 91.623306274 171.45820618 2.8029000759  -999.250000 2.4051001072
 3923.1293945 7.0000000000 8.5775995255 8.5000000000 78.090705872 -0.006300000 0.3472000062 2.5438001156 8.7839002609 137.73789978 91.177398682 172.16920471 2.7876000404  -999.250000 2.3877000809
 3923.2817383 7.0000000000 8.5875997543 8.5000000000 92.150459290 -0.007000000 0.3474999964 2.5555999279 8.4034004211 148.54730225 91.302001953 173.27969360 2.7706999779  -999.250000 2.3812999725
 3923.4343262 7.0000000000 8.5875997543 8.5000000000 84.138122559 -0.007000000 0.3558000028 2.5655999184 8.3011999130 143.35209656 89.505996704 171.63909912 2.7620999813  -999.250000 2.3445000648
 3923.5866699 7.0000000000 8.5706996918 8.5000000000 66.825126648 -0.016600000 0.3576000035 2.5729999542 7.3716001511 141.24890137 90.295600891 172.29890442 2.7704000473  -999.250000 2.2630999088
 3923.7390137 7.0000000000 8.4955997467 8.5000000000 55.051506042 -0.008700000 0.3538999856 2.6045999527 8.1928997040 136.00990295 91.562301636 173.69979858 2.7060000896  -999.250000 2.1326999664
 3923.8913574 7.0000000000 8.4350996017 8.5000000000 42.637798309 -0.009000000 0.3474999964 2.5992000103 7.7733001709 136.86419678 90.262397766 171.40539551 2.5975000858  -999.250000 1.9565000534
 3924.0439453 7.0000000000 8.4027004242 8.5000000000 42.738517761 -0.006100000 0.3490000069 2.5887000561 7.3779001236 141.92250061 88.880897522 170.55369568 2.4941999912  -999.250000 1.8457000256
 3924.1962891 7.0000000000 8.3702001572 8.5000000000 44.198490143 -0.010100000 0.3504999876 2.5843000412 7.9695000648 138.59739685 90.978797913 170.63490295 2.5130999088  -999.250000 1.8559000492
 3924.3486328 7.0000000000 8.3702001572 8.5000000000 45.758201599 -0.001200000 0.3402999938 2.6075997353 8.7672996521 143.36489868 90.929702759 172.28300476 2.5820999146  -999.250000 1.9233000278
 3924.5009766 7.0000000000 8.3702001572 8.5000000000 49.202754974 -0.001100000 0.3388999999 2.6050000191 8.8347997665 145.33610535 91.629501343 171.15179443 2.5525999069  -999.250000 1.9394999743
 3924.6533203 7.0000000000 8.6582002640 8.5000000000 54.240814209 -0.006900000 0.3467000127 2.5848999023 8.4588003159 143.70239258 90.225402832 171.38259888 2.5376000404  -999.250000 1.9519000053
 3924.8059082 7.0000000000 8.6582002640 8.5000000000 61.270671844 -0.008600000 0.3449000120 2.5785999298 7.6304998398 137.50039673 92.132400513 171.32209778 2.5392999649  -999.250000 2.0209000111
 3924.9582520 7.0000000000 8.6568002701 8.5000000000 61.619747162 -0.015200000 0.3400000036 2.5608000755 7.2655000687 136.33760071 92.975799561 170.70230103 2.5431001186  -999.250000 2.0552000999
 3925.1105957 7.0000000000 8.6554002762 8.5000000000 65.634513855 -0.013200000 0.3389999866 2.5673000813 6.7137999535 139.68809509 92.316795349 170.39939880 2.5910000801  -999.250000 2.0752000809
 3925.2629395 7.0000000000 8.6554002762 8.5000000000 59.613845825 -0.010500000 0.3407000005 2.5838999748 6.1058998108 133.17889404 91.668609619 169.93490601 2.5669999123  -999.250000 2.0950999260
 3925.4155273 7.0000000000 8.6554002762 8.5000000000 52.072509766 -0.010000000 0.3391000032 2.5778000355 6.9890999794 127.32859802 91.529090881 169.47099304 2.5650999546  -999.250000 2.1206998825
 3925.5678711 7.0000000000 8.6448001862 8.5000000000 50.903213501 -0.006700000 0.3377999961 2.5850999355 8.6684999466 140.32800293 94.214393616 168.24389648 2.6024999619  -999.250000 2.1373999119
 3925.7202148 7.0000000000 8.6342000961 8.5000000000 52.610237122 -0.003800000 0.3305000067 2.5947999954 9.8383998871 142.23370361 93.971496582 169.11880493 2.5920999050  -999.250000 2.1256000996
 3925.8725586 7.0000000000 8.6342000961 8.5000000000 57.117126465 -0.002900000 0.3485000134 2.5848000050 9.7807998657 135.86030579 94.608901978 168.85639954 2.5729999542  -999.250000 2.1047000885
 3926.0251465 7.0000000000 8.6491003036 8.5000000000 57.134181976 -0.001500000 0.3492999971 2.5855000019 9.5108003616 132.74440002 94.095199585 168.71008301 2.5768001080  -999.250000 2.1170001030
 3926.1774902 7.0000000000 8.6639995575 8.5000000000 52.412731171 -0.008000000 0.3501999974 2.5762000084 9.3824996948 138.34019470 91.331596375 167.24818420 2.6015999317  -999.250000 2.1340000629
 3926.3298340 7.0000000000 8.6639995575 8.5000000000 49.129264832 -0.011300000 0.3499999940 2.5625998974 9.3979997635 139.18829346 89.126800537 168.05380249 2.6154999733  -999.250000 2.1514999866
 3926.4821777 7.0000000000 8.6740999222 8.5000000000 50.018371582 -0.002600000 0.3556999862 2.5622999668 9.8009004593 144.72200012 86.652397156 168.77110291 2.6317999363  -999.250000 2.1714999676
 3926.6345215 7.0000000000 8.6842002869 8.5000000000 55.172576904 -0.005200000 0.3429000080 2.5683999062 9.5071001053 139.61169434 88.282600403 170.60330200 2.6577999592  -999.250000 2.2188999653
 3926.7871094 7.0000000000 8.6842002869 8.5000000000 57.520339966 -0.001800000 0.3422999978 2.5780999660 9.3964004517 136.92080688 90.881202698 171.54389954 2.6905999184  -999.250000 2.2425999641
 3926.9394531 7.0000000000 8.6740999222 8.5000000000 50.934383392 -0.008700000 0.3398999870 2.5759000778 9.7088003159 131.59280396 94.226097107 171.68080139 2.6944999695  -999.250000 2.2330999374
 3927.0917969 7.0000000000 8.6639995575 8.5000000000 43.798885345 -0.006400000 0.3452999890 2.5761001110 9.4184999466 135.03300476 94.613700867 171.83061218 2.6684999466  -999.250000 2.2070000172
 3927.2441406 7.0000000000 8.6639995575 8.5000000000 37.932415009 -0.004500000 0.3476000130 2.5708000660 9.2252998352 133.76449585 92.429710388 171.73449707 2.6770000458  -999.250000 2.1709001064
