# LAS format log file from PETREL
# Project units are specified as depth units
#==================================================================
~Version information
VERS.   2.0:
WRAP.   NO:
#==================================================================
~Well
STRT .m      2233.7756348 :
STOP .m      5007.4555664 :
STEP .m     0.00000000 :
NULL .        -999.250000 :
COMP.           : COMPANY
WELL.  34/3-3 A   : WELL
FLD.            : FIELD
LOC.            : LOCATION
SRVC.           : SERVICE COMPANY
DATE.  2018-09-11 14:48:49   : Log Export Date {yyyy-MM-dd HH:mm:ss}
PROV.           : PROVINCE
UWI.   34/3-3 A   : UNIQUE WELL ID
API.            : API NUMBER
#==================================================================
~Curve
DEPT .m                   : DEPTH
Lithology_geolink ._      : Lithology_geolink
CALI .in                  : CALI
BS .in                    : BS
ROP .m/h                  : ROP
DRHO .g/cm3               : DRHO
NPHI .m3/m3               : NPHI
RHOB .g/cm3               : RHOB
PEF .b/e                  : PEF
GR .gAPI                  : GR
DTC .us/ft                : DTC
DTS .us/ft                : DTS
RDEP .ohm.m               : RDEP
RMED .ohm.m               : RMED
~Parameter
#==================================================================
~Ascii
# ...
 2964.6860352  -999.250000 12.362001419 12.250000954 124.25491333 0.0428999998 0.2806000113 2.4328000546 9.6423997879 93.382202148 100.38007355 214.89443970 1.7680000067 1.7387000322
 2964.8383789  -999.250000 12.415900230 12.250000954 126.15812683 0.0348999985 0.2885999978 2.4165000916 9.9699001312 89.863800049 99.682823181 212.83807373 1.7800999880 1.7475999594
 2964.9907227  -999.250000 12.377400398 12.250000954 118.92453766 0.0359999985 0.2840999961 2.4105999470 10.265600204 85.523002625 97.271934509 213.81355286 1.7542999983 1.7330000401
 2965.1433105  -999.250000 12.407600403 12.250000954 115.47801971 0.0302000009 0.2782999873 2.3926000595 10.510100365 82.964797974 98.175636292 218.16751099 1.7631000280 1.7410999537
 2965.2956543  -999.250000 12.435500145 12.250000954 113.58299255 0.0281000007 0.2698000073 2.3982999325 10.565600395 85.104797363 98.229019165 216.35762024 1.7692999840 1.7422000170
 2965.4479980  -999.250000 12.441100121 12.250000954 117.68863678 0.0292000007 0.2793000042 2.4072999954 10.525899887 90.316596985 97.902328491 212.58674622 1.7477999926 1.7216000557
 2965.6003418  -999.250000 12.491499901 12.250000954 115.12893677 0.0421999991 0.2904999852 2.4200000763 10.854999542 93.628997803 96.173873901 212.27468872 1.7168999910 1.6950000525
 2965.7526855  -999.250000 12.460699081 12.250000954 99.897636414 0.0436999984 0.2989000082 2.4138000011 10.863800049 95.130203247 95.418914795 213.18536377 1.7087999582 1.6897000074
 2965.9052734  -999.250000 12.359900475 12.250000954 101.64960480 0.0445999987 0.2976000011 2.4031999111 10.988300323 93.971702576 94.802482605 217.70664978 1.7003999949 1.6825000048
 2966.0576172  -999.250000 12.371800423 12.250000954 98.251640320 0.0463999994 0.2885999978 2.4075999260 11.141599655 89.916801453 95.251274109 217.42077637 1.6737999916 1.6584999561
 2966.2099609  -999.250000 12.390000343 12.250000954 95.705055237 0.0551999994 0.2770000100 2.4063999653 11.404100418 88.170898438 96.703681946 215.77024841 1.6897000074 1.6492999792
 2966.3623047  -999.250000 12.425700188 12.250000954 95.627624512 0.0520000011 0.2730999887 2.4123001099 11.277899742 90.230903625 97.887908936 216.54519653 1.6871999502 1.6407999992
 2966.5148926  -999.250000 12.432900429 12.250000954 92.837928772 0.0037000000 0.2736999989 2.4135999680 12.582599640 91.295700073 100.51009369 215.67999268 1.6706999540 1.6411000490
 2966.6672363  -999.250000 12.441799164 12.250000954 96.275917053 -0.031599998 0.2773000002 2.4584999084 13.154700279 88.801597595 101.86283112 216.92109680 1.5233000517 1.5543999672
 2966.8195801  -999.250000 12.449500084 12.250000954 99.467849731 -0.021100000 0.2700999975 2.5448999405 12.934300423 83.892501831 101.58675385 221.23637390 1.4852999449 1.5176000595
 2966.9719238  -999.250000 12.363499641 12.250000954 86.526245117 0.0194000024 0.2802999914 2.5353999138 11.308400154 78.513496399 100.66196442 224.13482666 1.7770999670 1.7230000496
 2967.1245117  -999.250000 12.332599640 12.250000954 86.522308350 0.0694999993 0.2815000117 2.5141000748 10.970800400 75.394401550 100.34879303 219.52590942 1.9075000286 1.8370000124
 2967.2768555  -999.250000 12.324899673 12.250000954 94.311347961 0.0467000008 0.2908999920 2.4223001003 11.082900047 75.922203064 99.940559387 218.31733704 1.8265000582 1.7649999857
 2967.4291992  -999.250000 12.415200233 12.250000954 76.861877441 0.0410000011 0.2829000056 2.4172999859 10.839099884 79.175102234 99.254898071 218.80201721 1.6109999418 1.5983999968
 2967.5815430  -999.250000 12.315798759 12.250000954 70.843505859 0.0476999991 0.2899000049 2.4391000271 10.521699905 81.098899841 97.965667725 217.89096069 1.5573999882 1.5519000292
 2967.7338867  -999.250000 12.331200600 12.250000954 67.976051331 0.0621000007 0.2879000008 2.4614000320 10.949000359 83.750900269 99.679893494 218.25979614 1.5691000223 1.5489000082
 2967.8864746  -999.250000 12.339099884 12.250000954 50.160434723 0.0640999973 0.2933000028 2.4544000626 11.407099724 90.353302002 98.481529236 215.66206360 1.5983999968 1.5442999601
 2968.0388184  -999.250000 12.352198601 12.250000954 52.695869446 0.0599000007 0.2928999960 2.4295001030 11.845700264 94.381698608 98.595115662 215.47549438 1.5573999882 1.5127999783
 2968.1911621  -999.250000 12.344499588 12.250000954 52.624675751 0.0476000011 0.3027999997 2.4075999260 11.801500320 91.801498413 99.753929138 212.29040527 1.5163999796 1.4895000458
 2968.3435059  -999.250000 12.338899612 12.250000954 49.833007813 0.0452999994 0.2964000106 2.3979001045 11.969599724 89.088699341 100.23386383 206.99040222 1.5194000006 1.4981000423
 2968.4960938  -999.250000 12.353400230 12.250000954 54.109577179 0.0518000014 0.2973000109 2.4117000103 11.996000290 87.917999268 99.084342957 205.08503723 1.5212999582 1.5008000135
 2968.6484375  -999.250000 12.369700432 12.250000954 53.103347778 0.0600999966 0.2944999933 2.4148001671 11.934399605 85.458099365 98.441932678 204.13482666 1.5285999775 1.5187000036
 2968.8007813  -999.250000 12.429900169 12.250000954 54.031169891 0.0588999987 0.2915000021 2.4142999649 11.718799591 84.968597412 98.268577576 204.25349426 1.5872000456 1.5672999620
 2968.9531250  -999.250000 12.389699936 12.250000954 60.793308258 0.0522999987 0.2906000018 2.4031000137 11.289600372 85.617202759 98.681869507 207.44314575 1.6276999712 1.6138000488
 2969.1057129  -999.250000 12.380499840 12.250000954 66.869094849 0.0491999984 0.2854999900 2.4093999863 10.942000389 86.718597412 100.14175415 210.95628357 1.6657999754 1.6503000259
 2969.2580566  -999.250000 12.375999451 12.250000954 70.824806213 0.0465999991 0.2827000022 2.4026999474 10.725000381 88.125999451 100.04785156 211.73435974 1.6828000546 1.6634999514
 2969.4104004  -999.250000 12.370499611 12.250000954 109.33300781 0.0489000008 0.2784999907 2.4073998928 10.740900040 86.167900085 99.828948975 209.00688171 1.7082999945 1.6857999563
 2969.5627441  -999.250000 12.366200447 12.250000954 101.88188934 0.0474000014 0.2858999968 2.3998999596 10.951999664 83.418403625 101.85575104 208.30191040 1.7063000202 1.6901999712
 2969.7150879  -999.250000 12.394200325 12.250000954 101.87500000 0.0427000001 0.2985999882 2.3914000988 11.019100189 85.250099182 103.55615234 207.57821655 1.7164000273 1.6967999935
 2969.8676758  -999.250000 12.367600441 12.250000954 112.08366394 0.0557000004 0.3041000068 2.3980998993 11.666399956 89.729202271 104.87429810 206.70788574 1.7024999857 1.6806999445
 2970.0200195  -999.250000 12.404700279 12.250000954 107.64533997 0.0599000007 0.2894999981 2.4093999863 11.804900169 93.337402344 103.65016937 207.56941223 1.6763000488 1.6622999907
 2970.1723633  -999.250000 12.386699677 12.250000954 111.68175507 0.0696000010 0.2773999870 2.4230000973 12.087200165 94.881401062 102.17126465 211.43470764 1.6826000214 1.6562999487
 2970.3247070  -999.250000 12.364800453 12.250000954 99.630249023 0.0531999990 0.2831000090 2.4026999474 11.939499855 90.383903503 101.98997498 214.89302063 1.6790000200 1.6559000015
 2970.4772949  -999.250000 12.421500206 12.250000954 102.53116608 0.0527999997 0.2883000076 2.3945999146 12.003000259 84.359199524 102.43279266 216.19583130 1.6830999851 1.6618000269
 2970.6296387  -999.250000 12.413800240 12.250000954 106.11647034 0.0542999990 0.2949999869 2.4126999378 11.553000450 84.369796753 102.81108856 217.66873169 1.6748000383 1.6433000565
 2970.7819824  -999.250000 12.388600349 12.250000954 105.95079041 0.0485000014 0.2919000089 2.3936998844 11.171400070 87.728698730 103.54513550 217.00497437 1.6282999516 1.6092000008
 2970.9343262  -999.250000 12.351499557 12.250000954 107.98950195 0.0509000011 0.2951999903 2.4001998901 10.880499840 89.592903137 104.26738739 218.43400574 1.5875999928 1.5813000202
 2971.0869141  -999.250000 12.401899338 12.250000954 109.69947815 0.0474000014 0.2827999890 2.3875999451 10.806099892 88.216598511 104.21249390 218.37130737 1.5535000563 1.5509999990
 2971.2392578  -999.250000 12.404700279 12.250000954 108.70800781 0.0553000011 0.2811999917 2.4165000916 10.815099716 87.479797363 103.36515808 217.23013306 1.5405000448 1.5415999889
