# LAS format log file from PETREL
# Project units are specified as depth units
#==================================================================
~Version information
VERS.   2.0:
WRAP.   NO:
#==================================================================
~Well
STRT .m      3771.1865234 :
STOP .m      4146.8525391 :
STEP .m     0.00000000 :
NULL .        -999.250000 :
COMP.           : COMPANY
WELL.  34/3-1 A   : WELL
FLD.            : FIELD
LOC.            : LOCATION
SRVC.           : SERVICE COMPANY
DATE.  2018-09-11 14:48:49   : Log Export Date {yyyy-MM-dd HH:mm:ss}
PROV.           : PROVINCE
UWI.   34/3-1 A   : UNIQUE WELL ID
API.            : API NUMBER
#==================================================================
~Curve
DEPT .m                   : DEPTH
Lithology_geolink ._      : Lithology_geolink
CALI .in                  : CALI
BS .in                    : BS
ROP .m/h                  : ROP
DRHO .g/cm3               : DRHO
NPHI .m3/m3               : NPHI
RHOB .g/cm3               : RHOB
PEF .b/e                  : PEF
GR .gAPI                  : GR
DTC .us/ft                : DTC
DTS .us/ft                : DTS
RDEP .ohm.m               : RDEP
RMIC .ohm.m               : RMIC
RMED .ohm.m               : RMED
~Parameter
#==================================================================
~Ascii
# ...
 4014.8740234 2.0000000000 8.5909996033 8.5000000000 76.159461975 -0.016799999 0.2817233503 2.3092241287 6.6273865700 63.511611938 90.562843323 153.95545959 1.4956656694  -999.250000 1.2059820890
 4015.0266113 2.0000000000 8.5909996033 8.5000000000 70.378097534 -0.010110737 0.2800027132 2.2680659294 6.5129833221 60.586910248 88.325386047 152.79765320 1.5678845644  -999.250000 1.2331572771
 4015.1789551 2.0000000000 8.5909996033 8.5000000000 58.455806732 -0.014093590 0.2720128298 2.2702963352 6.2971463203 61.512508392 86.859138489 152.27253723 1.5091943741  -999.250000 1.2737349272
 4015.3312988 2.0000000000 8.3731002808 8.5000000000 51.640830994 -0.022985738 0.2715007961 2.2813820839 5.9890937805 62.119926453 86.323455811 151.54446411 1.6377934217  -999.250000 1.2925698757
 4015.4836426 2.0000000000 8.3731002808 8.5000000000 50.689044952 -0.021205759 0.2795740664 2.3002393246 6.2663083076 56.149173737 87.044685364 150.84353638 1.7161490917  -999.250000 1.3547006845
 4015.6362305 2.0000000000 8.3731002808 8.5000000000 54.571849823 -0.015708813 0.2751072049 2.3049924374 6.4289407730 56.130001068 88.209533691 148.49397278 1.7719109058  -999.250000 1.4043207169
 4015.7885742 2.0000000000 8.5478000641 8.5000000000 61.553104401 -0.013403686 0.2659147382 2.3070967197 6.5976295471 59.252887726 88.977371216 148.66471863 1.7683060169  -999.250000 1.4165804386
 4015.9409180 2.0000000000 8.5478000641 8.5000000000 55.790439606 -0.020488622 0.2641028762 2.3071000576 6.4831838608 62.380687714 88.679077148 150.98548889 1.8075370789  -999.250000 1.4338722229
 4016.0932617 2.0000000000 8.2588996887 8.5000000000 44.047046661 -0.014809134 0.2645992041 2.3043045998 6.1667079926 62.385700226 88.467338562 150.41511536 1.7894291878  -999.250000 1.4145311117
 4016.2456055 2.0000000000 8.3021001816 8.5000000000 31.296775818 -0.010214720 0.2636031806 2.2842643261 6.0108985901 56.178527832 88.520332336 149.74385071 1.7441452742  -999.250000 1.3323637247
 4016.3981934 2.0000000000 8.3309001923 8.5000000000 24.346393585 -0.014293429 0.2695903778 2.2855978012 6.2629947662 58.315437317 87.299560547 149.46075439 1.7642674446  -999.250000 1.3247117996
 4016.5505371 2.0000000000 8.5583000183 8.5000000000 24.541992188 -0.014000481 0.2741926312 2.3174490929 6.5194888115 58.692802429 83.168327332 149.32582092 1.8502620459  -999.250000 1.4466043711
 4016.7028809 2.0000000000 8.4331998825 8.5000000000 45.293464661 -0.024882533 0.2654140890 2.3617289066 6.7486329079 60.332168579 78.949058533 147.45210266 1.9357630014  -999.250000 1.6089397669
 4016.8552246 16.000000000 8.3681001663 8.5000000000 64.749328613 -0.031877600 0.2460620850 2.3735623360 7.2940502167 58.583801270 75.173599243 145.69274902 2.0242164135  -999.250000 1.8156373501
 4017.0078125 2.0000000000 8.5749998093 8.5000000000 80.466018677 -0.014727565 0.2416070551 2.3833842278 7.2878127098 57.172599792 78.466400146 144.63787842 2.0428705215  -999.250000 1.9164392948
 4017.1601563 2.0000000000 8.5485000610 8.5000000000 91.124008179 -0.005614583 0.2369075269 2.3493545055 6.4759030342 64.489196777 79.067947388 145.39947510 1.9938787222  -999.250000 1.8022834063
 4017.3125000 2.0000000000 8.5101003647 8.5000000000 93.178489685 -0.020076763 0.2580660284 2.3007779121 6.2403755188 64.764297485 80.639183044 146.96260071 1.9097349644  -999.250000 1.6589298248
 4017.4648438 2.0000000000 8.3565998077 8.5000000000 76.067733765 -0.016910240 0.2679683268 2.2826578617 6.5164127350 63.270999908 84.154815674 148.49508667 1.8314509392  -999.250000 1.4829641581
 4017.6174316 2.0000000000 8.4029998779 8.5000000000 62.737518311 -0.010110897 0.2724927962 2.2872924805 6.6433978081 61.468700409 85.525520325 150.76954651 1.8369907141  -999.250000 1.4736140966
 4017.7697754 2.0000000000 8.4105997086 8.5000000000 51.432151794 -0.007404327 0.2726996839 2.3016769886 6.6636676788 63.948299408 86.293273926 153.01460266 1.8715445995  -999.250000 1.5162315369
 4017.9221191 2.0000000000 8.4012002945 8.5000000000 34.220840454 -0.013789743 0.2700043321 2.3177742958 6.6705889702 63.480899811 86.832336426 152.82142639 1.8927659988  -999.250000 1.5555371046
 4018.0744629 2.0000000000 8.4167003632 8.5000000000 30.013595581 -0.012002884 0.2620128095 2.3225922585 6.5366148949 65.016098022 86.792572021 150.11973572 1.9049804211  -999.250000 1.5960351229
 4018.2268066 2.0000000000 8.4198999405 8.5000000000 31.130580902 -0.011202560 0.2542249858 2.3297767639 6.0087938309 65.379096985 85.203002930 146.56289673 1.9195532799  -999.250000 1.6501265764
 4018.3793945 2.0000000000 8.4202003479 8.5000000000 30.919963837 -0.019486699 0.2545993328 2.3303990364 5.7687826157 65.310798645 84.437423706 144.30990601 1.9631301165  -999.250000 1.7485423088
 4018.5317383 2.0000000000 8.4154996872 8.5000000000 27.130098343 -0.020598238 0.2515049875 2.3255078793 5.9663825035 71.224502563 84.170928955 143.79930115 2.0059313774  -999.250000 1.8355605602
 4018.6840820 4.0000000000 8.4479999542 8.5000000000 22.892946243 -0.007720673 0.2570910156 2.3437707424 6.5097284317 70.964401245 84.396736145 142.58485413 2.0549216270  -999.250000 1.9051884413
 4018.8364258 4.0000000000 8.5158004761 8.5000000000 19.407493591 -0.008597121 0.2619843185 2.3510766029 6.8264856339 69.004203796 84.163948059 142.36907959 2.0740389824  -999.250000 1.9564357996
 4018.9890137 4.0000000000 8.6063003540 8.5000000000 24.610397339 -0.013292468 0.2614009678 2.3517987728 7.0134015083 65.963401794 83.329833984 141.85432434 2.0799903870  -999.250000 1.9746710062
 4019.1413574 2.0000000000 8.7053003311 8.5000000000 86.220016479 -0.012101923 0.2595030367 2.3565924168 7.0866827965 63.090900421 82.535476685 141.54598999 2.0790016651  -999.250000 1.9179910421
 4019.2937012 2.0000000000 8.7468004227 8.5000000000 510.02499390 -0.022183813 0.2581022382 2.3447191715 6.5821099281 61.276298523 82.522621155 142.06237793 2.0636248589  -999.250000 1.7980922461
 4019.4460449 2.0000000000 8.5936002731 8.5000000000 520.12396240 -0.018412160 0.2583990395 2.3349313736 6.6985239983 62.674198151 84.401763916 143.42314148 1.9861487150  -999.250000 1.6320325136
 4019.5986328 2.0000000000 8.3915004730 8.5000000000 378.43252563 -0.011710737 0.2630924582 2.3177275658 6.6850223541 59.513599396 85.608070374 145.18069458 1.8980410099  -999.250000 1.4363132715
 4019.7509766 2.0000000000 8.4314002991 8.5000000000 276.79696655 -0.011999520 0.2664945424 2.2936387062 6.0030941963 66.815597534 85.334342957 144.26068115 1.9556074142  -999.250000 1.5366384983
 4019.9033203 2.0000000000 8.6260004044 8.5000000000 224.03193665 -0.017491186 0.2710926533 2.2929012775 5.7729678154 60.749900818 84.907188416 144.01718140 1.9393261671  -999.250000 1.6069873571
 4020.0556641 2.0000000000 8.5548000336 8.5000000000 188.75891113 -0.025487179 0.2678052783 2.3091738224 5.7882747650 62.838199615 84.634941101 144.65856934 1.9197313786  -999.250000 1.6388491392
 4020.2080078 2.0000000000 8.4949998856 8.5000000000 154.71672058 -0.017724959 0.2632147372 2.3241519928 6.0686998367 66.731697083 85.275245667 146.51324463 1.9311631918  -999.250000 1.6515593529
 4020.3605957 2.0000000000 8.5536003113 8.5000000000 140.07385254 -0.008215224 0.2681919932 2.3359811306 6.3990712166 62.884300232 84.946434021 146.01940918 1.9115315676  -999.250000 1.6218477488
 4020.5129395 2.0000000000 8.5466003418 8.5000000000 157.26142883 -0.013791026 0.2670019269 2.3379969597 6.8795294762 58.739799500 84.552932739 147.79354858 1.8341242075  -999.250000 1.5971395969
 4020.6652832 16.000000000 8.5083999634 8.5000000000 166.94972229 -0.010704968 0.2676988542 2.3522772789 7.1680378914 56.077899933 84.852218628 147.84172058 1.9298460484  -999.250000 1.4910702705
 4020.8176270 16.000000000 8.5312004089 8.5000000000 203.49003601 -0.013989440 0.2679990530 2.3382451534 6.8410515785 60.242599487 85.221916199 147.96389771 1.8656066656  -999.250000 1.3826475143
 4020.9702148 2.0000000000 8.5045995712 8.5000000000 233.20021057 -0.009607051 0.2687987089 2.3076491356 6.3638644218 63.058399200 85.640830994 146.95462036 1.8197731972  -999.250000 1.2741736174
