# LAS format log file from PETREL
# Project units are specified as depth units
#==================================================================
~Version information
VERS.   2.0:
WRAP.   NO:
#==================================================================
~Well
STRT .m      2233.7756348 :
STOP .m      5007.4555664 :
STEP .m     0.00000000 :
NULL .        -999.250000 :
COMP.           : COMPANY
WELL.  34/3-3 A   : WELL
FLD.            : FIELD
LOC.            : LOCATION
SRVC.           : SERVICE COMPANY
DATE.  2018-09-11 14:48:49   : Log Export Date {yyyy-MM-dd HH:mm:ss}
PROV.           : PROVINCE
UWI.   34/3-3 A   : UNIQUE WELL ID
API.            : API NUMBER
#==================================================================
~Curve
DEPT .m                   : DEPTH
Lithology_geolink ._      : Lithology_geolink
CALI .in                  : CALI
BS .in                    : BS
ROP .m/h                  : ROP
DRHO .g/cm3               : DRHO
NPHI .m3/m3               : NPHI
RHOB .g/cm3               : RHOB
PEF .b/e                  : PEF
GR .gAPI                  : GR
DTC .us/ft                : DTC
DTS .us/ft                : DTS
RDEP .ohm.m               : RDEP
RMED .ohm.m               : RMED
~Parameter
#==================================================================
~Ascii
# ...
 3883.3532715  -999.250000 12.371400833 12.250000954 81.889114380 0.0121999998 0.2149000019 2.5085000992 4.0942001343 106.32338715 93.879035950 182.20915222 1.7029000521 1.6916999817
 3883.5056152  -999.250000 12.406499863 12.250000954 87.447837830 0.0100999996 0.2195000052 2.5044000149 4.2157001495 106.00233459 93.955383301 182.55395508 1.7110999823 1.6829999685
 3883.6579590  -999.250000 12.359199524 12.250000954 85.953414917 0.0120000001 0.2194000036 2.5034999847 4.5486001968 103.85079193 94.661239624 182.63563538 1.7008999586 1.6727000475
 3883.8105469  -999.250000 12.371100426 12.250000954 94.287078857 0.0153999999 0.2231000066 2.5102999210 4.8112998009 107.04133606 95.161300659 183.67063904 1.6496000290 1.6345000267
 3883.9628906  -999.250000 12.490098953 12.250000954 99.346130371 0.0135000004 0.2273000032 2.4939999580 4.9380002022 113.22140503 96.323829651 184.98458862 1.6399999857 1.5985000134
 3884.1152344  -999.250000 12.402600288 12.250000954 82.063652039 0.0109999999 0.2310000062 2.4832999706 5.0160999298 114.02781677 96.365341187 186.70166016 1.5893000364 1.5269999504
 3884.2675781  -999.250000 12.390000343 12.250000954 89.545928955 0.0124000004 0.2258999944 2.4509000778 5.3386998177 110.23870850 96.018653870 188.85992432 1.3969999552 1.3286999464
 3884.4201660  -999.250000 12.382999420 12.250000954 86.957023621 0.0121999998 0.2251999974 2.4460000992 5.4496998787 109.39187622 97.825897217 192.33094788 1.0900000334 1.1078000069
 3884.5725098  -999.250000 12.385699272 12.250000954 87.107284546 0.0197000001 0.2327000052 2.4549002647 5.7814002037 114.57278442 97.646987915 197.42063904 0.9344000220 0.9937000275
 3884.7248535  -999.250000 12.385499954 12.250000954 85.929458618 0.0238000005 0.2302999943 2.4753999710 6.0060000420 124.98851776 97.461196899 202.07135010 1.1842999458 1.1638000011
 3884.8771973  -999.250000 12.441799164 12.250000954 84.500000000 0.0219999999 0.2287999988 2.4674999714 6.4029002190 138.72502136 96.529792786 206.44380188 1.3465000391 1.2848999500
 3885.0295410  -999.250000 12.441100121 12.250000954 82.825790405 0.0200999994 0.2284999937 2.4663000107 6.6795997620 150.71002197 98.802200317 210.82754517 1.4047000408 1.3430000544
 3885.1821289  -999.250000 12.461400032 12.250000954 79.481300354 0.0185000002 0.2331999987 2.4765999317 6.6426000595 157.58282471 101.83654022 214.01940918 1.2802000046 1.3121000528
 3885.3344727  -999.250000 12.481699944 12.250000954 80.927818298 0.0239000004 0.2334000021 2.5058999062 6.3397002220 159.45794678 104.35366058 215.47068787 1.2308000326 1.3141000271
 3885.4868164  -999.250000 12.384400368 12.250000954 68.069221497 0.0280000009 0.2407000065 2.5201001167 5.6536998749 157.29882813 103.04780579 214.24928284 1.2669999599 1.3946000338
 3885.6391602  -999.250000 12.369700432 12.250000954 78.302169800 0.0308999997 0.2378000021 2.5322999954 5.1413002014 151.81314087 101.52588654 210.98696899 1.2669999599 1.3946000338
 3885.7917480  -999.250000 12.375999451 12.250000954 79.122047424 0.0357000008 0.2300000042 2.5376999378 4.9060001373 139.32801819 99.335411072 206.11749268 1.4780999422 1.5801000595
 3885.9440918  -999.250000 12.426400185 12.250000954 75.979003906 0.0274999999 0.2100999951 2.5248999596 4.7539000511 122.20948029 98.564033508 200.84684753 1.7164000273 1.7342000008
 3886.0964355  -999.250000 12.411700249 12.250000954 75.347442627 0.0204000007 0.1977999955 2.5111999512 4.6384000778 109.84971619 97.624008179 196.22459412 1.8998999596 1.8592000008
 3886.2487793  -999.250000 12.439000130 12.250000954 63.170928955 0.0120999999 0.1873999983 2.4967000484 4.5074000359 102.99845123 97.731758118 192.38760376 1.9754999876 1.9328999519
 3886.4013672  -999.250000 12.446701050 12.250000954 58.074142456 0.0068999999 0.1872999966 2.4911000729 4.3157000542 97.411865234 97.327049255 186.94781494 2.0137999058 1.9905999899
 3886.5537109  -999.250000 12.430600166 12.250000954 60.063644409 0.0104999999 0.1820999980 2.5090999603 4.1718001366 94.628318787 95.300750732 184.67852783 2.0495998859 2.0587999821
 3886.7060547  -999.250000 12.413100243 12.250000954 60.733921051 0.0109999999 0.1879000068 2.5134999752 4.0219001770 94.516708374 92.893859863 183.54063416 2.0701999664 2.0969998837
 3886.8583984  -999.250000 12.392100334 12.250000954 56.143043518 0.0159000009 0.1917999983 2.5223000050 4.0349998474 94.772491455 92.764701843 183.23088074 2.0861001015 2.0924000740
 3887.0107422  -999.250000 12.370400429 12.250000954 60.715549469 0.0152000003 0.2002999932 2.5197999477 3.9528000355 93.017829895 92.032646179 182.46903992 2.0601999760 2.0682001114
 3887.1633301  -999.250000 12.336400032 12.250000954 55.882873535 0.0122999996 0.2099000067 2.5148999691 3.8789000511 90.924743652 90.842010498 183.48606873 2.0206000805 2.0316998959
 3887.3156738  -999.250000 12.335498810 12.250000954 52.185367584 0.0155999996 0.2113000005 2.5209999084 4.0288000107 93.561798096 91.526298523 183.73751831 1.9814000130 1.9868999720
 3887.4680176  -999.250000 12.357799530 12.250000954 56.721458435 0.0141000003 0.2097000033 2.5090000629 4.1677999496 96.797554016 93.381225586 184.15353394 1.9383000135 1.9405000210
 3887.6203613  -999.250000 12.465999603 12.250000954 57.659446716 0.0159000009 0.2004999965 2.5148000717 4.2975001335 97.329063416 94.142265320 184.38914490 1.8705999851 1.8732000589
 3887.7729492  -999.250000 12.493598938 12.250000954 59.036083221 0.0197999999 0.1960999966 2.5285000801 4.1767997742 96.743614197 93.308845520 184.18872070 1.8084000349 1.8149000406
 3887.9252930  -999.250000 12.425000191 12.250000954 63.540031433 0.0199999996 0.1979999989 2.5248999596 4.2249999046 96.098258972 93.722038269 184.61093140 1.8482999802 1.8319000006
 3888.0776367  -999.250000 12.481699944 12.250000954 64.720146179 0.0237000007 0.1996999979 2.5253999233 4.2525000572 98.129295349 93.930564880 186.22689819 1.8299000263 1.8212000132
 3888.2299805  -999.250000 12.437600136 12.250000954 60.588256836 0.0142000001 0.1972000003 2.5129001141 4.1919999123 99.303604126 93.769218445 186.26707458 1.7552000284 1.7683999538
 3888.3825684  -999.250000 12.272700310 12.250000954 64.954071045 0.0118000004 0.1985999942 2.5153000355 4.1069998741 97.069313049 93.785568237 187.44500732 1.7243000269 1.7473000288
 3888.5349121  -999.250000 12.193200111 12.250000954 58.015094757 0.0074000000 0.1976999938 2.5109999180 4.0700001717 97.859962463 93.937057495 187.71327209 1.7249000072 1.7496999502
 3888.6872559  -999.250000 12.292699814 12.250000954 62.024600983 0.0051000002 0.2061000019 2.4953999519 4.0836000443 103.88774872 93.827186584 188.70581055 1.7324999571 1.7497999668
 3888.8395996  -999.250000 12.541999817 12.250000954 63.081035614 0.0091000004 0.2100999951 2.5041000843 3.9888000488 109.46228790 93.574203491 188.78118896 1.7308000326 1.7441999912
 3888.9919434  -999.250000 12.581199646 12.250000954 61.810043335 0.0082999999 0.2152999938 2.5018999577 3.8097000122 108.26043701 93.329887390 189.27192688 1.7141000032 1.7395000458
 3889.1445313  -999.250000 12.534299850 12.250000954 54.605972290 0.0085000005 0.2133000046 2.5099000931 3.6154999733 102.42192078 93.370132446 189.81062317 1.7209999561 1.7282999754
 3889.2968750  -999.250000 12.451600075 12.250000954 58.655513763 0.0065000001 0.2152999938 2.5139000416 3.6110000610 100.47181702 94.174514771 190.15625000 1.7111999989 1.7287000418
 3889.4492188  -999.250000 12.439700127 12.250000954 59.093502045 0.0063999998 0.2106000036 2.5158998966 3.6891999245 104.09419250 94.693969727 191.72698975 1.7079999447 1.7210999727
 3889.6015625  -999.250000 12.537099838 12.250000954 59.824478149 0.0087000001 0.2046999931 2.5223999023 3.8919999599 105.14446259 96.678833008 192.42039490 1.7109999657 1.7232999802
 3889.7541504  -999.250000 12.453300476 12.250000954 67.602691650 0.0052000000 0.1924999952 2.5136001110 3.9172000885 102.24983215 96.495407104 190.46903992 1.7095999718 1.7194000483
 3889.9064941  -999.250000 12.400899887 12.250000954 58.821529388 0.0066999998 0.1852000058 2.5211999416 3.9138000011 100.32631683 95.724433899 187.73507690 1.6998000145 1.7153999805
