# LAS format log file from PETREL
# Project units are specified as depth units
#==================================================================
~Version information
VERS.   2.0:
WRAP.   NO:
#==================================================================
~Well
STRT .m      3771.1865234 :
STOP .m      4146.8525391 :
STEP .m     0.00000000 :
NULL .        -999.250000 :
COMP.           : COMPANY
WELL.  34/3-1 A   : WELL
FLD.            : FIELD
LOC.            : LOCATION
SRVC.           : SERVICE COMPANY
DATE.  2018-09-11 14:48:49   : Log Export Date {yyyy-MM-dd HH:mm:ss}
PROV.           : PROVINCE
UWI.   34/3-1 A   : UNIQUE WELL ID
API.            : API NUMBER
#==================================================================
~Curve
DEPT .m                   : DEPTH
Lithology_geolink ._      : Lithology_geolink
CALI .in                  : CALI
BS .in                    : BS
ROP .m/h                  : ROP
DRHO .g/cm3               : DRHO
NPHI .m3/m3               : NPHI
RHOB .g/cm3               : RHOB
PEF .b/e                  : PEF
GR .gAPI                  : GR
DTC .us/ft                : DTC
DTS .us/ft                : DTS
RDEP .ohm.m               : RDEP
RMIC .ohm.m               : RMIC
RMED .ohm.m               : RMED
~Parameter
#==================================================================
~Ascii
# ...
 3796.1801758 7.0000000000 8.6479997635 8.5000000000 24.235893250 -0.006500000 0.4180000126 2.5398001671 8.4146995544 131.33770752 85.457206726 181.14900208 1.9458999634  -999.250000 1.5722999573
 3796.3327637 7.0000000000 8.7573003769 8.5000000000 24.463254929 -0.008900000 0.4162000120 2.5446999073 8.2692003250 136.85459900 84.447700500 180.45860291 1.9035999775  -999.250000 1.5535000563
 3796.4851074 7.0000000000 8.7917003632 8.5000000000 25.901903152 -0.009200000 0.4176999927 2.5585000515 8.6118001938 140.29449463 86.224601746 180.88360596 1.8828999996  -999.250000 1.5290999413
 3796.6374512 7.0000000000 8.6562004089 8.5000000000 28.280181885 -0.008500000 0.4205000103 2.5594000816 8.4885997772 135.70350647 87.328201294 180.52677917 1.8697999716  -999.250000 1.5152000189
 3796.7897949 7.0000000000 8.6564998627 8.5000000000 30.653213501 -0.004600000 0.4237000048 2.5560998917 8.4167995453 134.53430176 86.914001465 177.26388550 1.9012000561  -999.250000 1.5620000362
 3796.9423828 7.0000000000 8.6716003418 8.5000000000 30.569555283 -0.002400000 0.4244000018 2.5513999462 8.3622999191 131.12100220 86.247299194 172.48759460 1.9479999542  -999.250000 1.6110999584
 3797.0947266 7.0000000000 8.7925996780 8.5000000000 27.519683838 -0.006500000 0.4273000062 2.5499000549 8.4898004532 136.07029724 88.799102783 174.99510193 1.9491000175  -999.250000 1.6213999987
 3797.2470703 7.0000000000 8.7379999161 8.5000000000 25.101051331 -0.006900000 0.4275999963 2.5611999035 8.9659996033 132.71820068 92.430496216 178.43960571 1.9273999929  -999.250000 1.5816999674
 3797.3994141 7.0000000000 8.6583995819 8.5000000000 26.354986191 -0.014600000 0.4226999879 2.5438001156 9.1618995667 136.26930237 93.042800903 180.09228516 1.8798999786  -999.250000 1.5104999542
 3797.5517578 7.0000000000 8.7580003738 8.5000000000 28.868766785 -0.004200000 0.4241999984 2.5573999882 9.4181995392 133.82440186 89.136489868 181.05400085 1.9003000259  -999.250000 1.4672000408
 3797.7043457 7.0000000000 8.7416000366 8.5000000000 31.875986099 -0.000100000 0.4232000113 2.5641000271 9.4616003036 138.69250488 88.563102722 181.75529480 1.9426000118  -999.250000 1.4946999550
 3797.8566895 7.0000000000 8.6455001831 8.5000000000 38.219814301 -0.004200000 0.4133999944 2.5713999271 9.0235004425 134.96859741 87.062500000 182.12449646 1.9579000473  -999.250000 1.5345000029
 3798.0090332 7.0000000000 8.6363000870 8.5000000000 40.418308258 -0.008400000 0.4135999978 2.5827999115 8.9910001755 132.45339966 90.953598022 182.23608398 1.9453999996  -999.250000 1.5634000301
 3798.1613770 7.0000000000 8.7526998520 8.5000000000 34.039371490 -0.000700000 0.4144000113 2.5966999531 9.3571996689 130.08210754 89.530296326 180.30348206 1.9931999445  -999.250000 1.6552000046
 3798.3139648 7.0000000000 8.7437000275 8.5000000000 27.054460526 -0.010500000 0.4146000147 2.5827999115 8.4301004410 120.57469940 88.902099609 174.58659363 2.0336999893  -999.250000 1.6642999649
 3798.4663086 7.0000000000 8.6450004578 8.5000000000 25.707349777 -0.007000000 0.4221999943 2.5855998993 8.7439002991 126.25399780 87.840301514 172.72549438 2.0271999836  -999.250000 1.6440999508
 3798.6186523 7.0000000000 8.6583003998 8.5000000000 30.894357681 -0.006700000 0.4140000045 2.5655999184 9.4539003372 126.46109772 84.453002930 171.58940125 2.0058999062  -999.250000 1.6119999886
 3798.7709961 7.0000000000 8.6886997223 8.5000000000 32.640419006 -0.004000000 0.4083999991 2.5662999153 9.6120004654 125.44619751 85.188697815 173.03010559 2.0081000328  -999.250000 1.6188000441
 3798.9235840 7.0000000000 8.7194995880 8.5000000000 35.573490143 -0.003700000 0.4104000032 2.5699000359 9.0513000488 123.06929779 85.816802979 175.17300415 2.0406999588  -999.250000 1.6757999659
 3799.0759277 7.0000000000 8.7636003494 8.5000000000 39.312007904 -0.008100000 0.4255000055 2.5597999096 8.4546003342 128.93710327 84.815902710 180.68469238 2.0912001133  -999.250000 1.7089999914
 3799.2282715 7.0000000000 8.6774997711 8.5000000000 36.499015808 -0.007000000 0.4223000109 2.5583999157 8.2792997360 129.25500488 84.539299011 178.70158386 2.1061999798  -999.250000 1.7179000378
 3799.3806152 7.0000000000 8.6382999420 8.5000000000 30.871391296 -0.001800000 0.4298000038 2.5817999840 8.7880001068 133.05690002 86.613403320 173.46569824 2.0764999390  -999.250000 1.6952999830
 3799.5329590 7.0000000000 8.6858997345 8.5000000000 29.240812302 -0.003700000 0.4246999919 2.5841999054 8.8325004578 129.34640503 87.782211304 169.65229797 2.0606000423  -999.250000 1.6447999477
 3799.6855469 7.0000000000 8.6819000244 8.5000000000 28.708988190 -0.004700000 0.4189000130 2.5764999390 8.5072002411 123.96880341 87.599098206 172.68370056 2.0618999004  -999.250000 1.6236000061
 3799.8378906 7.0000000000 8.6539001465 8.5000000000 25.945537567 -0.006600000 0.4169000089 2.5673000813 8.2452001572 127.28160095 85.527900696 175.87919617 2.0869998932  -999.250000 1.6358000040
 3799.9902344 7.0000000000 8.7417001724 8.5000000000 24.021982193 -0.010400000 0.4180000126 2.5585000515 8.2779998779 129.80059814 87.676597595 174.19990540 2.1170001030  -999.250000 1.7005000114
 3800.1425781 7.0000000000 8.5986995697 8.5000000000 24.331037521 -0.005200000 0.4149999917 2.5615999699 8.4512996674 131.28030396 89.493598938 174.80679321 2.1805999279  -999.250000 1.7798999548
 3800.2951660 7.0000000000 8.5444002151 8.5000000000 24.308727264 -0.006000000 0.4124000072 2.5671000481 8.9098997116 135.09910583 91.862197876 174.77227783 2.1858999729  -999.250000 1.8161000013
 3800.4475098 7.0000000000 8.5550003052 8.5000000000 22.510171890 -0.010000000 0.4126999974 2.5711998940 9.2149000168 135.79359436 92.685501099 172.84530640 2.1998000145  -999.250000 1.8401999474
 3800.5998535 7.0000000000 8.5023002625 8.5000000000 22.067913055 -0.009900000 0.4228999913 2.5752000809 8.9211997986 124.89209747 90.642097473 171.32720947 2.2290000916  -999.250000 1.9069999456
 3800.7521973 7.0000000000 8.5025997162 8.5000000000 24.066928864 -0.005000000 0.4093999863 2.5792000294 8.8118000031 130.04460144 88.662796021 173.91749573 2.2843999863  -999.250000 2.0069999695
 3800.9047852 7.0000000000 8.5549001694 8.5000000000 27.571193695 -0.002100000 0.4104999900 2.5778000355 8.9610004425 123.32150269 88.132499695 176.49247742 2.2927999496  -999.250000 2.0283000469
 3801.0571289 7.0000000000 8.6072998047 8.5000000000 31.306102753 -0.001600000 0.4169000089 2.5741999149 8.9974002838 126.24400330 86.076499939 177.40609741 2.2844998837  -999.250000 2.0811998844
 3801.2094727 7.0000000000 8.5511999130 8.5000000000 32.008201599 0.0000000000 0.4124000072 2.5722000599 9.2074003220 128.95249939 84.902000427 176.55149841 2.3129999638  -999.250000 2.2170000076
 3801.3618164 7.0000000000 8.5424995422 8.5000000000 28.969486237 -0.001200000 0.4169000089 2.5776000023 8.8815002441 128.18359375 83.758796692 174.36212158 2.3908998966  -999.250000 2.3877999783
 3801.5141602 7.0000000000 8.6445999146 8.5000000000 25.857938766 -0.005000000 0.4140000045 2.5789999962 8.9709997177 125.93280029 83.148902893 174.27949524 2.4444999695  -999.250000 2.4465999603
 3801.6667480 7.0000000000 8.6861000061 8.5000000000 24.656167984 -0.007000000 0.4119000137 2.5766999722 9.1409997940 114.77410126 84.149002075 175.17349243 2.4052999020  -999.250000 2.3296999931
 3801.8190918 7.0000000000 8.7033996582 8.5000000000 26.024934769 -0.003200000 0.4122000039 2.5752999783 8.5221996307 119.58139801 83.810798645 173.82899475 2.3187000751  -999.250000 2.1126999855
 3801.9714355 7.0000000000 8.7206001282 8.5000000000 27.093177795 -0.005300000 0.4212000072 2.5555999279 8.4060001373 120.81199646 83.974700928 174.22801208 2.2578999996  -999.250000 1.9079999924
 3802.1237793 7.0000000000 8.7110996246 8.5000000000 27.345472336 -0.006800000 0.4368999898 2.5497999191 8.5770998001 124.09410095 83.511299133 178.32141113 2.2044999599  -999.250000 1.7964999676
 3802.2763672 7.0000000000 8.6190004349 8.5000000000 27.683727264 -0.008500000 0.4320999980 2.5487999916 8.8313999176 122.74060059 84.256095886 179.47630310 2.1830999851  -999.250000 1.7395000458
