# LAS format log file from PETREL
# Project units are specified as depth units
#==================================================================
~Version information
VERS.   2.0:
WRAP.   NO:
#==================================================================
~Well
STRT .m      437.13198853 :
STOP .m      2196.1328125 :
STEP .m     0.00000000 :
NULL .        -999.250000 :
COMP.           : COMPANY
WELL.  34/3-1 S   : WELL
FLD.            : FIELD
LOC.            : LOCATION
SRVC.           : SERVICE COMPANY
DATE.  2018-09-11 14:48:49   : Log Export Date {yyyy-MM-dd HH:mm:ss}
PROV.           : PROVINCE
UWI.   34/3-1 S   : UNIQUE WELL ID
API.            : API NUMBER
#==================================================================
~Curve
DEPT .m                   : DEPTH
Lithology_geolink ._      : Lithology_geolink
BS .in                    : BS
ROP .m/h                  : ROP
GR .gAPI                  : GR
RDEP .ohm.m               : RDEP
RMED .ohm.m               : RMED
~Parameter
#==================================================================
~Ascii
# ...
 556.46118164  -999.250000 9.8750000000 131.94731140 87.921699524 2.5813999176 2.5780999660
 556.61358643  -999.250000 9.8750000000 138.31463623 88.283500671 2.6101000309 2.5994999409
 556.76599121  -999.250000 9.8750000000 169.48982239 88.283500671 2.6257998943 2.6140999794
 556.91839600  -999.250000 9.8750000000 211.85597229 100.19920349 2.6196999550 2.6147999763
 557.07080078  -999.250000 9.8750000000 227.41702271 100.19920349 2.6106998920 2.6066999435
 557.22320557  -999.250000 9.8750000000 221.76246643 96.615196228 2.6063001156 2.5989000797
 557.37554932  -999.250000 9.8750000000 202.87666321 96.615196228 2.6129999161 2.6064999104
 557.52795410  -999.250000 9.8750000000 187.52789307 91.459098816 2.6199998856 2.6119999886
 557.68035889  -999.250000 9.8750000000 185.55348206 87.521598816 2.6259999275 2.6214001179
 557.83276367  -999.250000 9.8750000000 204.28608704 87.890602112 2.6280999184 2.6249001026
 557.98516846  -999.250000 9.8750000000 227.13716125 89.550697327 2.6243999004 2.6208000183
 558.13757324  -999.250000 9.8750000000 247.00624084 90.962898254 2.6103000641 2.6038000584
 558.28997803  -999.250000 9.8750000000 237.80084229 95.711700439 2.5912001133 2.5868000984
 558.44238281  -999.250000 9.8750000000 211.17060852 96.370697021 2.5773000717 2.5669000149
 558.59478760  -999.250000 9.8750000000 179.04298401 91.074600220 2.5567998886 2.5485000610
 558.74719238  -999.250000 9.8750000000 152.21325684 94.795799255 2.5494000912 2.5457000732
 558.89959717  -999.250000 9.8750000000 155.03083801 97.849998474 2.5362000465 2.5395998955
 559.05200195  -999.250000 9.8750000000 198.68013000 94.845703125 2.5285000801 2.5325999260
 559.20440674  -999.250000 9.8750000000 214.49409485 91.778999329 2.5274000168 2.5313000679
 559.35675049  -999.250000 9.8750000000 222.21357727 90.778800964 2.5290000439 2.5360999107
 559.50915527  -999.250000 9.8750000000 212.66371155 92.108802795 2.5292999744 2.5385999680
 559.66156006  -999.250000 9.8750000000 202.58595276 91.045898438 2.5299999714 2.5369999409
 559.81396484  -999.250000 9.8750000000 183.80938721 89.960197449 2.5334999561 2.5373001099
 559.96636963  -999.250000 9.8750000000 150.24703979 92.167198181 2.5357999802 2.5411999226
 560.11877441  -999.250000 9.8750000000 116.77788544 87.638298035 2.5518999100 2.5464000702
 560.27117920  -999.250000 9.8750000000 81.192260742 90.857299805 2.5638000965 2.5662000179
 560.42358398  -999.250000 9.8750000000 59.596786499 93.391296387 2.5799999237 2.5697999001
 560.57598877  -999.250000 9.8750000000 48.811679840 98.193702698 2.5903999805 2.5896999836
 560.72839355  -999.250000 9.8750000000 41.807743073 94.800102234 2.6087999344 2.6033000946
 560.88079834  -999.250000 9.8750000000 40.846786499 92.382301331 2.6187000275 2.6182999611
 561.03320313  -999.250000 9.8750000000 45.806430817 90.343200684 2.6340000629 2.6403999329
 561.18560791  -999.250000 9.8750000000 50.501968384 92.975502014 2.6549999714 2.6566998959
 561.33801270  -999.250000 9.8750000000 58.871719360 88.047698975 2.6826999187 2.6900999546
 561.49035645  -999.250000 9.8750000000 71.084320068 92.862701416 2.7100000381 2.7163000107
 561.64276123  -999.250000 9.8750000000 85.620407104 92.405601501 2.7111001015 2.7190001011
 561.79516602  -999.250000 9.8750000000 106.85105133 89.819503784 2.6856000423 2.6926000118
 561.94757080  -999.250000 9.8750000000 116.85368347 92.085899353 2.6573998928 2.6603999138
 562.09997559  -999.250000 9.8750000000 110.37894440 94.977302551 2.6421000957 2.6389000416
 562.25238037  -999.250000 9.8750000000 94.053153992 87.694396973 2.6368000507 2.6343998909
 562.40478516  -999.250000 9.8750000000 87.546913147 93.865997314 2.6451001167 2.6405000687
 562.55718994  -999.250000 9.8750000000 85.348426819 89.768997192 2.6451001167 2.6445000172
 562.70959473  -999.250000 9.8750000000 80.088577271 91.250801086 2.6463000774 2.6507000923
 562.86199951  -999.250000 9.8750000000 76.267723083 90.740798950 2.6510000229 2.6579999924
 563.01440430  -999.250000 9.8750000000 76.663055420 90.597602844 2.6638000011 2.6696999073
 563.16680908  -999.250000 9.8750000000 81.861221313 92.742301941 2.6663999557 2.6740000248
 563.31921387  -999.250000 9.8750000000 79.629264832 91.982002258 2.6670999527 2.6758999825
 563.47161865  -999.250000 9.8750000000 72.802497864 88.941902161 2.6538000107 2.6501998901
 563.62396240  -999.250000 9.8750000000 62.163055420 88.102699280 2.6405999660 2.6287000179
 563.77636719  -999.250000 9.8750000000 57.524932861 90.398597717 2.6254000664 2.6229999065
 563.92877197  -999.250000 9.8750000000 55.643699646 85.097000122 2.6156001091 2.6178998947
 564.08117676  -999.250000 9.8750000000 53.908794403 89.367103577 2.6045000553 2.5971999168
 564.23358154  -999.250000 9.8750000000 57.618106842 89.724800110 2.6043999195 2.5747001171
 564.38598633  -999.250000 9.8750000000 59.962928772 91.831199646 2.6208000183 2.6057999134
 564.53839111  -999.250000 9.8750000000 63.475387573 93.414199829 2.6384000778 2.6421000957
 564.69079590  -999.250000 9.8750000000 62.144027710 93.335502625 2.6482999325 2.6489000320
 564.84320068  -999.250000 9.8750000000 57.077098846 89.719200134 2.6552000046 2.6530001163
 564.99560547  -999.250000 9.8750000000 58.804134369 94.083801270 2.6584000587 2.6563999653
 565.14801025  -999.250000 9.8750000000 65.713912964 90.543800354 2.6644001007 2.6682999134
 565.30041504  -999.250000 9.8750000000 71.777236938 90.748703003 2.6672000885 2.6728000641
 565.45281982  -999.250000 9.8750000000 68.433395386 85.329902649 2.6696000099 2.6719000340
 565.60516357  -999.250000 9.8750000000 66.200782776 87.912696838 2.6631999016 2.6609001160
 565.75756836  -999.250000 9.8750000000 64.191276550 91.894699097 2.6408998966 2.6393001080
 565.90997314  -999.250000 9.8750000000 62.935035706 89.417098999 2.6254000664 2.6219999790
 566.06237793  -999.250000 9.8750000000 61.586936951 90.310699463 2.6224000454 2.6173999310
 566.21478271  -999.250000 9.8750000000 61.037071228 91.870300293 2.6278998852 2.6215000153
 566.36718750  -999.250000 9.8750000000 62.458007813 91.448402405 2.6310999393 2.6356000900
 566.51959229  -999.250000 9.8750000000 69.119422913 89.845901489 2.6419999599 2.6405999660
 566.67199707  -999.250000 9.8750000000 73.725395203 91.129096985 2.6482999325 2.6512000561
 566.82440186  -999.250000 9.8750000000 69.934387207 87.240501404 2.6475999355 2.6521000862
 566.97680664  -999.250000 9.8750000000 62.112857819 88.643402100 2.6375000477 2.6380000114
 567.12921143  -999.250000 9.8750000000 58.644355774 90.434799194 2.6398999691 2.6319000721
 567.28161621  -999.250000 9.8750000000 65.589241028 92.351303101 2.6387000084 2.6375999451
 567.43402100  -999.250000 9.8750000000 73.843833923 93.920997620 2.6556000710 2.6503000259
 567.58642578  -999.250000 9.8750000000 68.826118469 90.968696594 2.6758000851 2.6700999737
 567.73876953  -999.250000 9.8750000000 62.863521576 86.549003601 2.6867001057 2.6874001026
 567.89117432  -999.250000 9.8750000000 63.453742981 89.968498230 2.6844000816 2.6860001087
 568.04357910  -999.250000 9.8750000000 68.093505859 91.109596252 2.6763000488 2.6812000275
 568.19598389  -999.250000 9.8750000000 74.658134460 88.274101257 2.6635000706 2.6575999260
 568.34838867  -999.250000 9.8750000000 84.202758789 89.440498352 2.6233000755 2.6127998829
 568.50079346  -999.250000 9.8750000000 87.232940674 97.446701050 2.5734000206 2.5815999508
 568.65319824  -999.250000 9.8750000000 78.423233032 85.986000061 2.5487999916 2.5504000187
 568.80560303  -999.250000 9.8750000000 73.333992004 92.473800659 2.5309998989 2.5281999111
 568.95800781  -999.250000 9.8750000000 75.548225403 88.425102234 2.5065000057 2.4986999035
 569.11041260  -999.250000 9.8750000000 80.005577087 89.100502014 2.4835999012 2.4758000374
 569.26281738  -999.250000 9.8750000000 88.174209595 91.547996521 2.4621000290 2.4598000050
 569.41522217  -999.250000 9.8750000000 88.721458435 90.057098389 2.4512000084 2.4540998936
 569.56762695  -999.250000 9.8750000000 79.421913147 94.382003784 2.4314999580 2.4358000755
