# LAS format log file from PETREL
# Project units are specified as depth units
#==================================================================
~Version information
VERS.   2.0:
WRAP.   NO:
#==================================================================
~Well
STRT .m      3771.1865234 :
STOP .m      4146.8525391 :
STEP .m     0.00000000 :
NULL .        -999.250000 :
COMP.           : COMPANY
WELL.  34/3-1 A   : WELL
FLD.            : FIELD
LOC.            : LOCATION
SRVC.           : SERVICE COMPANY
DATE.  2018-09-11 14:48:49   : Log Export Date {yyyy-MM-dd HH:mm:ss}
PROV.           : PROVINCE
UWI.   34/3-1 A   : UNIQUE WELL ID
API.            : API NUMBER
#==================================================================
~Curve
DEPT .m                   : DEPTH
Lithology_geolink ._      : Lithology_geolink
CALI .in                  : CALI
BS .in                    : BS
ROP .m/h                  : ROP
DRHO .g/cm3               : DRHO
NPHI .m3/m3               : NPHI
RHOB .g/cm3               : RHOB
PEF .b/e                  : PEF
GR .gAPI                  : GR
DTC .us/ft                : DTC
DTS .us/ft                : DTS
RDEP .ohm.m               : RDEP
RMIC .ohm.m               : RMIC
RMED .ohm.m               : RMED
~Parameter
#==================================================================
~Ascii
# ...
 3946.1418457 7.0000000000 8.6520004272 8.5000000000 58.227691650 -0.016200000 0.3172999918 2.6052999496 8.4287996292 113.52169800 86.788398743 155.10229492 3.7239000797  -999.250000 2.8371000290
 3946.2941895 7.0000000000 8.6106004715 8.5000000000 56.250007629 -0.008400000 0.3073999882 2.6163001060 8.3115997314 113.41519928 84.789497375 151.68370056 3.8080999851  -999.250000 3.0062000751
 3946.4467773 7.0000000000 8.7072000504 8.5000000000 58.569881439 -0.008800000 0.2973999977 2.5985000134 8.1742000580 107.83000183 84.226600647 151.47570801 3.8884000778  -999.250000 3.1198000908
 3946.5991211 7.0000000000 8.7072000504 8.5000000000 65.666007996 -0.006500000 0.2879999876 2.6027998924 8.0958995819 104.62439728 83.555702209 150.38900757 3.8989000320  -999.250000 3.1703999043
 3946.7514648 6.0000000000 8.6089000702 8.5000000000 61.841541290 -0.010600000 0.2797000110 2.5996000767 8.1206998825 107.95559692 82.718299866 148.27130127 3.9256999493  -999.250000 3.2028999329
 3946.9038086 6.0000000000 8.7173004150 8.5000000000 49.671260834 -0.008300000 0.2750000060 2.6033000946 8.3334999084 113.21360016 81.604797363 144.11549377 3.9504001141  -999.250000 3.2242999077
 3947.0561523 6.0000000000 8.7741003036 8.5000000000 47.399936676 -0.007500000 0.2703999877 2.6180000305 8.8149995804 108.01399994 81.422698975 144.62429810 3.9542999268  -999.250000 3.2420001030
 3947.2087402 6.0000000000 8.6709003448 8.5000000000 56.594161987 -0.004600000 0.2657999992 2.6275999546 8.8871002197 108.66680145 79.569801331 145.20719910 3.9783000946  -999.250000 3.2795999050
 3947.3610840 6.0000000000 8.7445001602 8.5000000000 72.041007996 -0.002400000 0.2660999894 2.6382999420 8.7089004517 104.94889832 80.256500244 144.24189758 3.9658000469  -999.250000 3.3176999092
 3947.5134277 6.0000000000 8.7349996567 8.5000000000 78.605644226 -0.004700000 0.2642999887 2.6387999058 8.3654003143 101.18779755 80.252998352 143.70060730 3.9858999252  -999.250000 3.3750000000
 3947.6657715 6.0000000000 8.7997999191 8.5000000000 73.529525757 -0.003300000 0.2703000009 2.6391000748 8.6478004456 103.99160004 81.894699097 144.74400330 4.0060000420  -999.250000 3.2490999699
 3947.8183594 6.0000000000 8.8406000137 8.5000000000 72.718505859 -0.005800000 0.2768000066 2.6273999214 8.4556999207 108.20919800 83.059501648 146.02659607 3.9542999268  -999.250000 3.1194000244
 3947.9707031 6.0000000000 8.6947002411 8.5000000000 78.120079041 -0.007600000 0.2772000134 2.6164999008 8.4846000671 108.30120087 82.787200928 143.09039307 3.9667000771  -999.250000 3.0764999390
 3948.1230469 6.0000000000 8.6940002441 8.5000000000 80.788711548 0.0001000000 0.2770999968 2.6147000790 8.4110002518 112.06559753 83.270202637 143.56359863 4.0061998367  -999.250000 3.0745999813
 3948.2753906 6.0000000000 8.6752004623 8.5000000000 84.035438538 -0.000300000 0.2788999975 2.6159999371 8.3173999786 111.78919983 83.714897156 144.58979797 3.9467000961  -999.250000 3.0948998928
 3948.4279785 6.0000000000 8.6256999969 8.5000000000 75.629592896 -0.001300000 0.2784000039 2.6006000042 8.4790000916 108.23829651 83.457199097 145.54859924 3.9691998959  -999.250000 3.1022999287
 3948.5803223 6.0000000000 8.6681003571 8.5000000000 64.261154175 0.0037000000 0.2754000127 2.6099998951 8.5659999847 107.02950287 82.818199158 145.62539673 3.9546999931  -999.250000 3.0961999893
 3948.7326660 6.0000000000 8.7314996719 8.5000000000 59.394031525 -0.002200000 0.2781000137 2.6005001068 8.7072000504 111.71520233 83.173599243 145.47619629 3.9170999527  -999.250000 3.0938999653
 3948.8850098 6.0000000000 8.6823997498 8.5000000000 59.039699554 -0.002200000 0.2813000083 2.6066000462 8.6843996048 110.73549652 82.597389221 144.82099915 3.8954999447  -999.250000 3.1278998852
 3949.0375977 6.0000000000 8.6556997299 8.5000000000 52.901905060 -0.007900000 0.2816999853 2.5968000889 8.4429998398 113.86840057 82.418701172 143.51699829 3.9119000435  -999.250000 3.1531999111
 3949.1899414 6.0000000000 8.6937999725 8.5000000000 49.345142365 -0.004400000 0.2754999995 2.5938999653 8.1520996094 104.69580078 82.032302856 143.23120117 3.8759999275  -999.250000 3.1707999706
 3949.3422852 6.0000000000 8.7273998260 8.5000000000 48.707019806 -0.006200000 0.2736000121 2.5864999294 8.0412998199 103.89730072 81.549201965 143.42759705 3.8322000504  -999.250000 3.1208000183
 3949.4946289 6.0000000000 8.7327003479 8.5000000000 52.094818115 -0.009500000 0.2705000043 2.5831000805 8.0680999756 109.13469696 83.329399109 143.82980347 3.8036000729  -999.250000 3.0613999367
 3949.6469727 6.0000000000 8.7466001511 8.5000000000 61.053482056 -0.009500000 0.2624999881 2.5894999504 8.1504001617 114.34040070 84.071502686 142.17640686 3.7751998901  -999.250000 3.0288000107
 3949.7995605 6.0000000000 8.7395000458 8.5000000000 69.057418823 -0.007500000 0.2597999871 2.6085999012 8.2894001007 110.62680054 82.819297791 142.16409302 3.7723999023  -999.250000 3.0483999252
 3949.9519043 6.0000000000 8.7362003326 8.5000000000 72.339569092 -0.006600000 0.2606999874 2.6078999043 8.2447004318 107.28579712 80.260391235 143.77139282 3.7846999168  -999.250000 3.0664000511
 3950.1042480 6.0000000000 8.7602996826 8.5000000000 77.376640320 -0.007700000 0.2588000000 2.5901000500 8.1527004242 107.97619629 81.719596863 144.28630066 3.7720999718  -999.250000 3.0887999535
 3950.2565918 6.0000000000 8.7833003998 8.5000000000 83.909782410 -0.006600000 0.2623000145 2.5994999409 8.0974998474 117.09210205 83.208503723 146.55039978 3.7625000477  -999.250000 3.1070001125
 3950.4091797 6.0000000000 8.8173999786 8.5000000000 87.244750977 -0.002800000 0.2628999949 2.6078999043 8.7705001831 108.85859680 87.386001587 144.08630371 3.7362999916  -999.250000 3.1140999794
 3950.5615234 6.0000000000 8.7291002274 8.5000000000 83.023292542 0.0009000000 0.2657999992 2.6117999554 8.7384004593 107.96009827 86.338096619 143.09629822 3.7367999554  -999.250000 3.1159000397
 3950.7138672 6.0000000000 8.7812004089 8.5000000000 69.614830017 -0.002000000 0.2624999881 2.5952999592 8.3122997284 110.61730194 86.109710693 142.20590210 3.7102000713  -999.250000 3.0968999863
 3950.8662109 6.0000000000 8.7350997925 8.5000000000 62.910755157 -0.000300000 0.2632000148 2.5955998898 8.2543001175 112.66829681 83.767097473 143.45910645 3.6926999092  -999.250000 3.0529999733
 3951.0187988 6.0000000000 8.7587995529 8.5000000000 60.096454620 -0.002100000 0.2680999935 2.5924999714 8.0195999146 113.63410187 83.327301025 143.87770081 3.6853001118  -999.250000 3.0137000084
 3951.1711426 6.0000000000 8.6729001999 8.5000000000 52.541339874 -0.005600000 0.2691999972 2.5787999630 7.8870000839 115.34760284 83.154502869 144.26910400 3.7053999901  -999.250000 2.9226000309
 3951.3234863 6.0000000000 8.6584997177 8.5000000000 47.642715454 -0.007200000 0.2696999907 2.5711998940 8.1480998993 119.64189911 80.938789368 144.84910583 3.6619999409  -999.250000 2.8426001072
 3951.4758301 6.0000000000 8.9055995941 8.5000000000 46.756561279 -0.002400000 0.2730000019 2.5768001080 8.1033000946 118.48770142 80.764099121 144.89930725 3.6129999161  -999.250000 2.7179000378
 3951.6281738 6.0000000000 8.7306003571 8.5000000000 42.968502045 -0.003800000 0.2685999870 2.5787999630 8.2621002197 109.30930328 80.543998718 145.77609253 3.6152999401  -999.250000 2.6668999195
 3951.7807617 6.0000000000 8.7087001801 8.5000000000 41.558071136 -0.001900000 0.2689999938 2.5936999321 8.3362998962 93.978996277 81.031303406 144.73570251 3.6373999119  -999.250000 2.6250000000
 3951.9331055 5.0000000000 8.7917995453 8.5000000000 42.802165985 0.0043000001 0.2716999948 2.6215999126 8.7122001648 96.049400330 81.878303528 143.12339783 3.6989998817  -999.250000 2.7504000664
 3952.0854492 5.0000000000 8.8011999130 8.5000000000 44.206035614 0.0001000000 0.2639000118 2.6221001148 8.5573997498 104.28540039 81.736808777 140.93649292 3.8185999393  -999.250000 2.9430000782
 3952.2377930 5.0000000000 8.7142000198 8.5000000000 47.149280548 0.0010000000 0.2540999949 2.6187000275 8.6492996216 104.72589874 80.967399597 139.38049316 3.8891000748  -999.250000 3.0044000149
