# LAS format log file from PETREL
# Project units are specified as depth units
#==================================================================
~Version information
VERS.   2.0:
WRAP.   NO:
#==================================================================
~Well
STRT .m      437.13198853 :
STOP .m      2196.1328125 :
STEP .m     0.00000000 :
NULL .        -999.250000 :
COMP.           : COMPANY
WELL.  34/3-1 S   : WELL
FLD.            : FIELD
LOC.            : LOCATION
SRVC.           : SERVICE COMPANY
DATE.  2018-09-11 14:48:49   : Log Export Date {yyyy-MM-dd HH:mm:ss}
PROV.           : PROVINCE
UWI.   34/3-1 S   : UNIQUE WELL ID
API.            : API NUMBER
#==================================================================
~Curve
DEPT .m                   : DEPTH
Lithology_geolink ._      : Lithology_geolink
BS .in                    : BS
ROP .m/h                  : ROP
GR .gAPI                  : GR
RDEP .ohm.m               : RDEP
RMED .ohm.m               : RMED
~Parameter
#==================================================================
~Ascii
# ...
 2187.2937012  -999.250000 17.500000000 68.587928772 90.720870972 1.0432872772 0.8858345747
 2187.4460449  -999.250000 17.500000000 68.587928772 88.454696655 1.0353000164 0.9074000120
 2187.5983887  -999.250000 17.500000000 70.351379395 93.191703796 1.0353000164 0.9476000071
 2187.7509766  -999.250000 17.500000000 70.351379395 93.670722961 1.0353000164 0.9345999956
 2187.9033203  -999.250000 17.500000000 70.351379395 79.477249146 1.0353069305 0.9345999956
 2188.0556641  -999.250000 17.500000000 70.351379395 75.469772339 1.0396463871 0.9346187115
 2188.2080078  -999.250000 17.500000000 70.351379395 84.188301086 1.0686000586 0.9463000298
 2188.3605957  -999.250000 17.500000000 70.351379395 84.190361023 1.0733000040 0.9412892461
 2188.5129395  -999.250000 17.500000000 70.351379395 85.477500916 1.0732469559 0.9345725775
 2188.6652832  -999.250000 17.500000000 73.516075134 86.654167175 1.0402359962 0.9175353646
 2188.8176270  -999.250000 17.500000000 73.516075134 81.765800476 1.0627000332 0.9395999908
 2188.9699707  -999.250000 17.500000000 73.516075134 81.892303467 1.0733000040 0.9610999823
 2189.1225586  -999.250000 17.500000000 73.516075134 93.081550598 1.1126893759 1.0045000315
 2189.2749023  -999.250000 17.500000000 73.516075134 97.218910217 1.1060687304 1.0044800043
 2189.4272461  -999.250000 17.500000000 73.516075134 91.174301147 1.0865999460 0.9919999838
 2189.5795898  -999.250000 17.500000000 72.176506042 88.962799072 1.1023999453 0.9951999784
 2189.7321777  -999.250000 17.500000000 72.176506042 88.656311035 1.1126791239 0.9926394224
 2189.8845215  -999.250000 17.500000000 72.176506042 88.042900085 1.0996576548 0.9549224377
 2190.0368652  -999.250000 17.500000000 72.176506042 91.067947388 1.0733000040 0.9689129591
 2190.1892090  -999.250000 17.500000000 72.176506042 73.624099731 1.0733000040 0.9769999981
 2190.3417969  -999.250000 17.500000000 72.176506042 80.078506470 1.0827177763 0.9599646926
 2190.4941406  -999.250000 17.500000000 72.176506042 90.918586731 1.0937911272 0.9379631877
 2190.6464844  -999.250000 17.500000000 59.599407196 86.990661621 1.0882802010 0.9150406718
 2190.7988281  -999.250000 17.500000000 59.599407196 89.776802063 1.0758999586 0.9404000044
 2190.9511719  -999.250000 17.500000000 59.599407196 82.565498352 1.0733000040 0.9488999844
 2191.1037598  -999.250000 17.500000000 59.599407196 89.579048157  -999.250000  -999.250000
 2191.2561035  -999.250000 17.500000000 59.599407196 92.715019226  -999.250000  -999.250000
 2191.4084473  -999.250000 17.500000000 59.599407196 87.485900879  -999.250000  -999.250000
 2191.5607910  -999.250000 17.500000000 65.115158081 89.319396973  -999.250000  -999.250000
 2191.7133789  -999.250000 17.500000000 65.115158081 80.952697754  -999.250000  -999.250000
 2191.8657227  -999.250000 17.500000000 65.115158081 93.969116211  -999.250000  -999.250000
 2192.0180664  -999.250000 17.500000000 65.115158081 91.771690369  -999.250000  -999.250000
 2192.1704102  -999.250000 17.500000000 65.115158081 76.727996826  -999.250000  -999.250000
 2192.3229980  -999.250000 17.500000000 65.115158081 79.017532349  -999.250000  -999.250000
 2192.4753418  -999.250000 17.500000000 65.115158081 78.620597839  -999.250000  -999.250000
 2192.6276855  -999.250000 17.500000000 58.731296539 91.895240784  -999.250000  -999.250000
 2192.7800293  -999.250000 17.500000000 58.731296539 95.729598999  -999.250000  -999.250000
 2192.9323730  -999.250000 17.500000000 58.731296539 87.795303345  -999.250000  -999.250000
 2193.0849609  -999.250000 17.500000000 58.731296539 85.442604065  -999.250000  -999.250000
 2193.2373047  -999.250000 17.500000000 58.731296539 86.005447388  -999.250000  -999.250000
 2193.3896484  -999.250000 17.500000000 58.731296539 87.596099854  -999.250000  -999.250000
 2193.5419922  -999.250000 17.500000000 58.731296539 86.590896606  -999.250000  -999.250000
 2193.6943359  -999.250000 17.500000000 68.637008667  -999.250000  -999.250000  -999.250000
 2193.8466797  -999.250000 17.500000000 68.652885437  -999.250000  -999.250000  -999.250000
 2193.9990234  -999.250000 17.500000000 68.652885437  -999.250000  -999.250000  -999.250000
 2194.1516113  -999.250000 17.500000000 68.652885437  -999.250000  -999.250000  -999.250000
 2194.3039551  -999.250000 17.500000000 68.652885437  -999.250000  -999.250000  -999.250000
 2194.4562988  -999.250000 17.500000000 68.652885437  -999.250000  -999.250000  -999.250000
 2194.6086426  -999.250000 17.500000000 62.487583160  -999.250000  -999.250000  -999.250000
 2194.7612305  -999.250000 17.500000000 62.477687836  -999.250000  -999.250000  -999.250000
 2194.9135742  -999.250000 17.500000000 62.477687836  -999.250000  -999.250000  -999.250000
 2195.0659180  -999.250000 17.500000000 62.477687836  -999.250000  -999.250000  -999.250000
 2195.2182617  -999.250000 17.500000000 62.477687836  -999.250000  -999.250000  -999.250000
 2195.3708496  -999.250000 17.500000000 62.477687836  -999.250000  -999.250000  -999.250000
 2195.5231934  -999.250000 17.500000000 62.477687836  -999.250000  -999.250000  -999.250000
 2195.6755371  -999.250000 17.500000000 36.158977509  -999.250000  -999.250000  -999.250000
 2195.8278809  -999.250000 17.500000000 36.116798401  -999.250000  -999.250000  -999.250000
 2195.9802246  -999.250000 17.500000000 36.116798401  -999.250000  -999.250000  -999.250000
 2196.1328125  -999.250000 17.500000000  -999.250000  -999.250000  -999.250000  -999.250000
