# LAS format log file from PETREL
# Project units are specified as depth units
#==================================================================
~Version information
VERS.   2.0:
WRAP.   NO:
#==================================================================
~Well
STRT .m      3771.1865234 :
STOP .m      4146.8525391 :
STEP .m     0.00000000 :
NULL .        -999.250000 :
COMP.           : COMPANY
WELL.  34/3-1 A   : WELL
FLD.            : FIELD
LOC.            : LOCATION
SRVC.           : SERVICE COMPANY
DATE.  2018-09-11 14:48:49   : Log Export Date {yyyy-MM-dd HH:mm:ss}
PROV.           : PROVINCE
UWI.   34/3-1 A   : UNIQUE WELL ID
API.            : API NUMBER
#==================================================================
~Curve
DEPT .m                   : DEPTH
Lithology_geolink ._      : Lithology_geolink
CALI .in                  : CALI
BS .in                    : BS
ROP .m/h                  : ROP
DRHO .g/cm3               : DRHO
NPHI .m3/m3               : NPHI
RHOB .g/cm3               : RHOB
PEF .b/e                  : PEF
GR .gAPI                  : GR
DTC .us/ft                : DTC
DTS .us/ft                : DTS
RDEP .ohm.m               : RDEP
RMIC .ohm.m               : RMIC
RMED .ohm.m               : RMED
~Parameter
#==================================================================
~Ascii
# ...
 3846.1674805 7.0000000000 8.4393997192 8.5000000000 38.761482239 -0.003600000 0.3201999962 2.5866000652 9.1463003159 116.50990295 82.478202820 156.38020325 3.2237000465  -999.250000 2.6493000984
 3846.3200684 7.0000000000 8.4355001450 8.5000000000 38.145015717 -0.007300000 0.3244999945 2.5878999233 8.8273000717 119.17559814 85.347801208 156.74742126 3.2232999802  -999.250000 2.6149001122
 3846.4724121 7.0000000000 8.4316997528 8.5000000000 36.922241211 -0.007800000 0.3179999888 2.5866999626 8.3690004349 122.22149658 85.927200317 156.47709656 3.2067999840  -999.250000 2.5806999207
 3846.6247559 7.0000000000 8.4316997528 8.5000000000 37.880905151 -0.010900000 0.3185999990 2.5782001019 7.9731998444 124.48600006 85.537399292 157.01651001 3.1726000309  -999.250000 2.5534999371
 3846.7770996 7.0000000000 8.5467996597 8.5000000000 42.209972382 -0.010800000 0.3201999962 2.5757000446 7.9352002144 123.12429810 86.964401245 159.03880310 3.1501998901  -999.250000 2.5223999023
 3846.9296875 7.0000000000 8.5663003922 8.5000000000 47.121719360 -0.009300000 0.3260000050 2.5785999298 8.0732002258 125.49559784 87.425598145 157.72309875 3.1587998867  -999.250000 2.5144000053
 3847.0820313 7.0000000000 8.5735998154 8.5000000000 48.604003906 -0.008500000 0.3249000013 2.5782001019 7.5378999710 129.04479980 86.346603394 157.72079468 3.1642000675  -999.250000 2.5178999901
 3847.2343750 7.0000000000 8.5918998718 8.5000000000 45.732284546 -0.009400000 0.3328999877 2.5822999477 7.4454002380 128.48640442 84.315193176 156.67579651 3.1321001053  -999.250000 2.5132000446
 3847.3867188 7.0000000000 8.5918998718 8.5000000000 42.271980286 -0.007600000 0.3418000042 2.5836999416 7.5205998421 123.93029785 84.939201355 157.52189636 3.1133999825  -999.250000 2.5162999630
 3847.5390625 7.0000000000 8.7600002289 8.5000000000 44.098098755 -0.010400000 0.3404000103 2.5845000744 8.0338001251 124.05690002 84.910797119 156.03349304 3.1117999554  -999.250000 2.5202999115
 3847.6916504 7.0000000000 8.6858997345 8.5000000000 46.606300354 -0.009600000 0.3375000060 2.5894000530 8.2244997025 126.40830231 84.904800415 156.39129639 3.0943999290  -999.250000 2.4921000004
 3847.8439941 7.0000000000 8.6583995819 8.5000000000 45.430446625 -0.002600000 0.3400000036 2.5943000317 9.0099000931 126.83899689 83.890197754 155.31558228 3.0652000904  -999.250000 2.4609999657
 3847.9963379 7.0000000000 8.6572999954 8.5000000000 41.689632416 -0.007700000 0.3488999903 2.5878000259 8.6728000641 122.12999725 84.589996338 157.06059265 3.0966999531  -999.250000 2.4626998901
 3848.1486816 7.0000000000 8.6572999954 8.5000000000 35.934383392 -0.010500000 0.3483000100 2.5913999081 8.3540000916 130.14579773 84.361396790 159.12319946 3.0954000950  -999.250000 2.4637999535
 3848.3012695 7.0000000000 8.6494998932 8.5000000000 32.576774597 -0.009300000 0.3443000019 2.5950999260 8.4180002213 129.94239807 84.743209839 159.10710144 3.0578999519  -999.250000 2.4649000168
 3848.4536133 7.0000000000 8.6416997910 8.5000000000 32.528217316 -0.009200000 0.3510000110 2.5843999386 8.4560003281 128.06660461 85.498001099 161.58308411 3.0676999092  -999.250000 2.4816999435
 3848.6059570 7.0000000000 8.6416997910 8.5000000000 37.912075043 -0.007000000 0.3506999910 2.5804998875 9.0315999985 121.01580048 87.565200806 164.98629761 3.0655999184  -999.250000 2.4995999336
 3848.7583008 7.0000000000 8.6372003555 8.5000000000 42.924213409 -0.007700000 0.3485000134 2.5831000805 9.1183004379 122.69049835 88.610397339 166.21589661 3.0467000008  -999.250000 2.5011999607
 3848.9108887 7.0000000000 8.6328001022 8.5000000000 43.123031616 -0.008000000 0.3517000079 2.5838999748 9.1571998596 125.72499847 88.384803772 164.05099487 3.0513000488  -999.250000 2.4990999699
 3849.0632324 7.0000000000 8.6415996552 8.5000000000 36.801509857 -0.002500000 0.3472999930 2.5885000229 8.6621999741 127.18730164 87.469100952 159.63780212 3.0341000557  -999.250000 2.4904000759
 3849.2155762 7.0000000000 8.6668996811 8.5000000000 27.927820206 -0.005800000 0.3416000009 2.5759000778 8.4491996765 136.50489807 88.633300781 159.98579407 3.0606000423  -999.250000 2.4948000908
 3849.3679199 7.0000000000 8.6668996811 8.5000000000 18.801837921 -0.006700000 0.3352000117 2.5848000050 8.4770002365 124.72869873 89.082397461 159.45719910 3.0483000278  -999.250000 2.4876999855
 3849.5202637 7.0000000000 8.6514997482 8.5000000000 16.340879440 -0.008500000 0.3427000046 2.5769999027 8.2845001221 127.88510132 87.325599670 159.51579285 3.0364999771  -999.250000 2.4614000320
 3849.6728516 7.0000000000 8.6683998108 8.5000000000 16.629592896 -0.009000000 0.3389999866 2.5706999302 8.1266002655 127.36360168 84.764503479 159.31579590 3.0408000946  -999.250000 2.4405999184
 3849.8251953 7.0000000000 8.6918001175 8.5000000000 12.229659081 -0.002800000 0.3353999853 2.5826001167 8.2376003265 131.33580017 84.549102783 159.25019836 3.0118000507  -999.250000 2.4240999222
 3849.9775391 7.0000000000 8.6437997818 8.5000000000 11.696194649 -0.006100000 0.3397000134 2.5773999691 7.8161001205 118.78410339 86.475402832 160.39390564 3.0232999325  -999.250000 2.4096999168
 3850.1298828 7.0000000000 8.6437997818 8.5000000000 18.563648224 -0.015600000 0.3386000097 2.5639998913 8.3940000534 126.06320190 89.157501221 162.03169250 3.0589001179  -999.250000 2.4159998894
 3850.2824707 7.0000000000 8.6802997589 8.5000000000 23.419618607 -0.012300000 0.3267000020 2.5729999542 8.2895002365 129.75450134 88.363098145 159.09240723 3.0606999397  -999.250000 2.4300000668
 3850.4348145 7.0000000000 8.7167997360 8.5000000000 29.088909149 -0.011400000 0.3361000121 2.5673999786 8.1154003143 129.95199585 85.658699036 157.96421814 3.0664999485  -999.250000 2.4804000854
 3850.5871582 7.0000000000 8.7167997360 8.5000000000 34.885826111 -0.008900000 0.3255999982 2.5683999062 8.0380001068 128.65490723 85.805702209 159.73109436 3.0662000179  -999.250000 2.4553999901
 3850.7395020 7.0000000000 8.5895996094 8.5000000000 41.468502045 -0.005400000 0.3251999915 2.5759999752 8.0621004105 127.73269653 87.655799866 161.53819275 3.0576000214  -999.250000 2.4623999596
 3850.8920898 7.0000000000 8.5895996094 8.5000000000 43.378608704 -0.003300000 0.3253999949 2.5834000111 8.0972003937 116.18029785 87.568000793 160.09721375 3.0580000877  -999.250000 2.4667000771
 3851.0444336 7.0000000000 8.5961999893 8.5000000000 42.342193604 -0.002600000 0.3204999864 2.5838000774 8.7572002411 123.36979675 88.968498230 163.04420471 3.0557999611  -999.250000 2.4649999142
 3851.1967773 7.0000000000 8.5961999893 8.5000000000 36.065616608 -0.007000000 0.3127000034 2.5757000446 9.3444004059 126.00140381 88.937500000 162.12829590 3.0480000973  -999.250000 2.4605998993
 3851.3491211 7.0000000000 8.6121997833 8.5000000000 30.208990097 -0.003700000 0.3183000088 2.5780000687 8.9520998001 123.54409790 87.526397705 160.85249329 3.0929000378  -999.250000 2.4697000980
 3851.5014648 7.0000000000 8.6170997620 8.5000000000 27.715877533 -0.000600000 0.3165000081 2.5811998844 8.8378000259 124.20099640 84.335197449 158.13389587 3.1192998886  -999.250000 2.4756000042
 3851.6540527 7.0000000000 8.6429004669 8.5000000000 34.691600800 -0.004100000 0.3079999983 2.5789000988 8.7666997910 121.50610352 79.305900574 156.69920349 3.1006999016  -999.250000 2.4902999401
 3851.8063965 7.0000000000 8.6429004669 8.5000000000 42.628280640 -0.004900000 0.3059999943 2.5787000656 8.7052001953 117.42109680 80.904899597 155.02270508 3.1231999397  -999.250000 2.5153000355
 3851.9587402 7.0000000000 8.5889997482 8.5000000000 46.497703552 -0.006400000 0.3055999875 2.5866000652 8.2589998245 117.69740295 80.437896729 154.76759338 3.1271998882  -999.250000 2.5193998814
 3852.1110840 7.0000000000 8.5889997482 8.5000000000 46.498031616 -0.010700000 0.3149999976 2.5799999237 7.8442997932 116.34159851 81.635803223 156.23930359 3.1719999313  -999.250000 2.5422000885
 3852.2636719 7.0000000000 8.6255998611 8.5000000000 45.644359589 -0.005100000 0.3091999888 2.5799002647 6.7291002274 115.49690247 84.153999329 157.85191345 3.1673998833  -999.250000 2.5727999210
