# LAS format log file from PETREL
# Project units are specified as depth units
#==================================================================
~Version information
VERS.   2.0:
WRAP.   NO:
#==================================================================
~Well
STRT .m      2233.7756348 :
STOP .m      5007.4555664 :
STEP .m     0.00000000 :
NULL .        -999.250000 :
COMP.           : COMPANY
WELL.  34/3-3 A   : WELL
FLD.            : FIELD
LOC.            : LOCATION
SRVC.           : SERVICE COMPANY
DATE.  2018-09-11 14:48:49   : Log Export Date {yyyy-MM-dd HH:mm:ss}
PROV.           : PROVINCE
UWI.   34/3-3 A   : UNIQUE WELL ID
API.            : API NUMBER
#==================================================================
~Curve
DEPT .m                   : DEPTH
Lithology_geolink ._      : Lithology_geolink
CALI .in                  : CALI
BS .in                    : BS
ROP .m/h                  : ROP
DRHO .g/cm3               : DRHO
NPHI .m3/m3               : NPHI
RHOB .g/cm3               : RHOB
PEF .b/e                  : PEF
GR .gAPI                  : GR
DTC .us/ft                : DTC
DTS .us/ft                : DTS
RDEP .ohm.m               : RDEP
RMED .ohm.m               : RMED
~Parameter
#==================================================================
~Ascii
# ...
 2414.8269043  -999.250000 12.287099838 12.250000954 105.50905609 0.0040000002 0.3393000066 2.3450000286 4.3696999550 95.355155945 127.04730225  -999.250000 0.8478999734 0.8377000093
 2414.9792480  -999.250000 12.430299759 12.250000954 113.61614990 -0.004500000 0.3386999965 2.3261001110 4.5718002319 94.078796387 125.41600037  -999.250000 0.8575000167 0.8449000120
 2415.1315918  -999.250000 12.383700371 12.250000954 114.84381866 -0.005300000 0.3393999934 2.3201999664 4.6518001556 94.102699280 124.69619751  -999.250000 0.8499000072 0.8479999900
 2415.2841797  -999.250000 12.357100487 12.250000954 113.19341278 0.0004000000 0.3472000062 2.3269000053 5.0376000404 94.362823486 124.66230774  -999.250000 0.8472999930 0.8417999744
 2415.4365234  -999.250000 12.378299713 12.250000954 112.73496246 0.0094999997 0.3501999974 2.3387000561 5.4896998405 92.693954468 125.95829773  -999.250000 0.8374000192 0.8452000022
 2415.5888672  -999.250000 12.393500328 12.250000954 140.17228699 0.0089999996 0.3463999927 2.3368000984 5.6942000389 93.415206909 126.62770081  -999.250000 0.8414999843 0.8479999900
 2415.7412109  -999.250000 12.455800056 12.250000954 150.84251404 0.0052999998 0.3438000083 2.3501999378 5.3702001572 96.850700378 126.16750336  -999.250000 0.8571000099 0.8579000235
 2415.8937988  -999.250000 12.404700279 12.250000954 153.89944458 0.0035999999 0.3454000056 2.3682999611 5.2772002220 98.178550720 125.74320221  -999.250000 0.8845000267 0.8851000071
 2416.0461426  -999.250000 12.356399536 12.250000954 145.61894226 0.0037000000 0.3452000022 2.3770000935 5.4496002197 96.711570740 123.87490082  -999.250000 0.8963999748 0.8999999762
 2416.1984863  -999.250000 12.353899956 12.250000954 146.75642395 -0.000600000 0.3411000073 2.3538999557 5.4555997849 94.386199951 122.51909637  -999.250000 0.8996000290 0.9028999805
 2416.3508301  -999.250000 12.350799561 12.250000954 148.51640320 -0.000800000 0.3467999995 2.3401999474 4.9260001183 93.636703491 121.87709808  -999.250000 0.9258999825 0.9180999994
 2416.5031738  -999.250000 12.340200424 12.250000954 138.31365967 0.0031000001 0.3447999954 2.3387000561 4.4113001823 94.944999695 121.96279907  -999.250000 0.9294000268 0.9233999848
 2416.6557617  -999.250000 12.323499680 12.250000954 139.99882507 0.0080000004 0.3610000014 2.3482000828 4.0989999771 96.434936523 123.09359741  -999.250000 0.9078999758 0.9100000262
 2416.8081055  -999.250000 12.367600441 12.250000954 143.96878052 0.0041999999 0.3574999869 2.3310000896 4.1392998695 97.947761536 124.60769653  -999.250000 0.9028999805 0.9064999819
 2416.9604492  -999.250000 12.373600006 12.250000954 145.56430054 0.0066000000 0.3535999954 2.3496999741 4.2027997971 96.552001953 126.05000305  -999.250000 0.9035000205 0.8968999982
 2417.1127930  -999.250000 12.380000114 12.250000954 156.01902771 0.0063999998 0.3370999992 2.3515000343 4.5401000977 91.067901611 127.37650299  -999.250000 0.8901000023 0.8815000057
 2417.2653809  -999.250000 12.383700371 12.250000954 142.52290344 0.0033000000 0.3321000040 2.3554999828 4.7009000778 89.258979797 127.00990295  -999.250000 0.8766999841 0.8762000203
 2417.4177246  -999.250000 12.434100151 12.250000954 137.00035095 -0.000400000 0.3454999924 2.3389999866 4.7494997978 93.741699219 128.16639709  -999.250000 0.8528000116 0.8622999787
 2417.5700684  -999.250000 12.446599960 12.250000954 153.36607361 -0.002700000 0.3540000021 2.3210999966 4.9555997849 99.603561401 128.25520325  -999.250000 0.8499000072 0.8543000221
 2417.7224121  -999.250000 12.455100060 12.250000954 151.68635559 0.0011000000 0.3609000146 2.3134999275 5.3537998199 102.57379913 127.83619690  -999.250000 0.8472999930 0.8536000252
 2417.8750000  -999.250000 12.402600288 12.250000954 150.13055420 0.0041000000 0.3616999984 2.3211998940 5.5584001541 101.57891846 127.63680267  -999.250000 0.8557999730 0.8471999764
 2418.0273438  -999.250000 12.349900246 12.250000954 164.82257080 0.0024000001 0.3598000109 2.3333001137 5.2885999680 99.593704224 126.11759949  -999.250000 0.8483999968 0.8398000002
 2418.1796875  -999.250000 12.313699722 12.250000954 163.84408569 -0.000100000 0.3542000055 2.3301999569 4.9994001389 96.413719177 122.66699982  -999.250000 0.8586000204 0.8482000232
 2418.3320313  -999.250000 12.226099968 12.250000954 163.58531189 -0.002700000 0.3474999964 2.3171000481 4.8108000755 92.119300842 124.51249695  -999.250000 0.8202999830 0.8342999816
 2418.4843750  -999.250000 12.251299858 12.250000954 160.74705505 0.0022000000 0.3531999886 2.3318998814 4.8576998711 92.704803467 125.18389893  -999.250000 0.8367000222 0.8300999999
 2418.6369629  -999.250000 12.269100189 12.250000954 162.51068115 0.0019000000 0.3666999936 2.3427000046 4.6266999245 96.732673645 124.65470123  -999.250000 0.8414000273 0.8392999768
 2418.7893066  -999.250000 12.293398857 12.250000954 165.92745972 0.0024000001 0.3844000101 2.3508999348 4.4862999916 97.648796082 123.69309998  -999.250000 0.8737000227 0.8731999993
 2418.9416504  -999.250000 12.266099930 12.250000954 183.71424866 -0.003600000 0.3908999860 2.3464999199 3.9690999985 96.086097717 120.19760132  -999.250000 0.8955000043 0.8809000254
 2419.0939941  -999.250000 12.244999886 12.250000954 145.52886963 -0.001100000 0.3637999892 2.3592000008 4.0173001289 95.201896667 120.04069519  -999.250000 0.8884000182 0.8896999955
 2419.2465820  -999.250000 12.448100090 12.250000954 145.54037476 -0.002600000 0.3585999906 2.3573000431 4.1958999634 96.852005005 123.16290283  -999.250000 0.8773999810 0.8736000061
 2419.3989258  -999.250000 12.441200256 12.250000954 159.02859497 0.0041000000 0.3447999954 2.3754000664 4.6883001328 97.655982971 124.55970764  -999.250000 0.8572000265 0.8687999845
 2419.5512695  -999.250000 12.427100182 12.250000954 146.36965942 -0.002400000 0.3585000038 2.3987998962 5.7438998222 93.150596619 123.69170380  -999.250000 0.8985000253 0.8887000084
 2419.7036133  -999.250000 12.403300285 12.250000954 137.50918579 -0.012000000 0.3646999896 2.4028000832 6.2593998909 88.033096313 122.52410126  -999.250000 0.8695999980 0.8593000174
 2419.8562012  -999.250000 12.421298981 12.250000954 144.16746521 -0.017600000 0.3896999955 2.3552999496 6.5310001373 88.652458191 120.98020172  -999.250000 0.8404999971 0.8338000178
 2420.0085449  -999.250000 12.446599960 12.250000954 147.09361267 -0.012100000 0.3982000053 2.3085000515 5.9608001709 94.924903870 120.99469757  -999.250000 0.8105999827 0.8134999871
 2420.1608887  -999.250000 12.475800514 12.250000954 134.49192810 0.0046999999 0.3741999865 2.3099000454 5.6855998039 101.03110504 123.16169739  -999.250000 0.8284000158 0.8190000057
 2420.3132324  -999.250000 12.451499939 12.250000954 136.21522522 0.0043000001 0.3592000008 2.3181002140 5.6001000404 100.16030121 124.24649811  -999.250000 0.8328999877 0.8213999867
 2420.4655762  -999.250000 12.418700218 12.250000954 135.19619751 0.0029000000 0.3689000010 2.3276000023 5.2237000465 96.133796692 124.55259705  -999.250000 0.8343999982 0.8295000196
 2420.6181641  -999.250000 12.387901306 12.250000954 153.11970520 -0.001200000 0.3650999963 2.3201000690 5.1387000084 97.468879700 123.56060028  -999.250000 0.8119999766 0.8100000024
 2420.7705078  -999.250000 12.277299881 12.250000954 168.60029602 0.0031000001 0.3700000048 2.3341000080 5.0310997963 98.001991272 120.71649933  -999.250000 0.8016999960 0.8149999976
 2420.9228516  -999.250000 12.256999016 12.250000954 153.38909912 0.0077000000 0.3711999953 2.3798000813 5.1900000572 90.693496704 120.60710144  -999.250000 0.8834999800 0.8629000187
 2421.0751953  -999.250000 12.298300743 12.250000954 156.49835205 -0.031300001 0.3727000058 2.4331998825 6.2539000511 84.998298645 121.17369843  -999.250000 1.0189000368 0.9922999740
 2421.2277832  -999.250000 12.326499939 12.250000954 150.58355713 -0.022200000 0.3639000058 2.5125999451 5.9050998688 87.298538208 121.56880188  -999.250000 0.8938000202 0.8820000291
 2421.3801270  -999.250000 12.362001419 12.250000954 131.11112976 -0.030500000 0.3422999978 2.4505000114 5.3498001099 91.189010620 121.55049896  -999.250000 0.8457999825 0.8489000201
