# LAS format log file from PETREL
# Project units are specified as depth units
#==================================================================
~Version information
VERS.   2.0:
WRAP.   NO:
#==================================================================
~Well
STRT .m      3771.1865234 :
STOP .m      4146.8525391 :
STEP .m     0.00000000 :
NULL .        -999.250000 :
COMP.           : COMPANY
WELL.  34/3-1 A   : WELL
FLD.            : FIELD
LOC.            : LOCATION
SRVC.           : SERVICE COMPANY
DATE.  2018-09-11 14:48:49   : Log Export Date {yyyy-MM-dd HH:mm:ss}
PROV.           : PROVINCE
UWI.   34/3-1 A   : UNIQUE WELL ID
API.            : API NUMBER
#==================================================================
~Curve
DEPT .m                   : DEPTH
Lithology_geolink ._      : Lithology_geolink
CALI .in                  : CALI
BS .in                    : BS
ROP .m/h                  : ROP
DRHO .g/cm3               : DRHO
NPHI .m3/m3               : NPHI
RHOB .g/cm3               : RHOB
PEF .b/e                  : PEF
GR .gAPI                  : GR
DTC .us/ft                : DTC
DTS .us/ft                : DTS
RDEP .ohm.m               : RDEP
RMIC .ohm.m               : RMIC
RMED .ohm.m               : RMED
~Parameter
#==================================================================
~Ascii
# ...
 3964.8872070 2.0000000000 8.8166999817 8.5000000000 36.198818207 -0.016000001 0.2125999928 2.3685998917 8.1443004608 51.759399414 79.066490173 130.77380371 18.785800934  -999.250000 16.854000092
 3965.0395508 2.0000000000 8.7982997894 8.5000000000 44.840225220 -0.014600000 0.2105000019 2.3680000305 8.0230998993 47.550300598 79.132698059 129.56779480 19.577400208  -999.250000 19.207199097
 3965.1918945 2.0000000000 8.7273998260 8.5000000000 37.159446716 -0.014400000 0.2168000042 2.3863000870 8.1213998795 45.157501221 78.089797974 129.00889587 20.560100555  -999.250000 21.233299255
 3965.3442383 2.0000000000 8.7660999298 8.5000000000 29.295930862 -0.014100000 0.2149000019 2.4038000107 8.2617998123 41.897800446 78.500900269 132.49659729 21.277700424  -999.250000 22.159900665
 3965.4968262 2.0000000000 8.9238996506 8.5000000000 27.592519760 -0.013700000 0.2108000070 2.4205999374 7.7726998329 47.565700531 76.873298645 131.74699402 21.272499084  -999.250000 21.640100479
 3965.6491699 2.0000000000 8.9510002136 8.5000000000 29.091205597 -0.015500000 0.2124000043 2.4481999874 8.2437000275 49.626598358 75.418800354 129.55239868 21.767999649  -999.250000 20.533700943
 3965.8015137 2.0000000000 8.7811002731 8.5000000000 25.479330063 -0.011700000 0.2134999931 2.4556000233 8.3816003799 52.989299774 72.066299438 125.84390259 23.244199753  -999.250000 20.756999969
 3965.9538574 2.0000000000 8.6403999329 8.5000000000 20.640420914 -0.010500000 0.2085999995 2.4460000992 8.9513998032 53.518299103 74.524108887 126.96340179 23.867300034  -999.250000 20.586200714
 3966.1062012 2.0000000000 8.6288995743 8.5000000000 18.647966385 -0.008700000 0.2148000002 2.4370999336 9.2082996368 56.755100250 76.615699768 129.77049255 23.657899857  -999.250000 20.114700317
 3966.2587891 2.0000000000 8.9812002182 8.5000000000 18.191928864 -0.006800000 0.2192000002 2.4437003136 9.2510004044 52.854000092 75.976402283 130.34500122 23.948900223  -999.250000 19.740999222
 3966.4111328 2.0000000000 9.0486001968 8.5000000000 18.590879440 -0.005600000 0.2194000036 2.5127000809 10.805199623 54.335601807 74.740898132 129.79460144 24.884899139  -999.250000 18.689500809
 3966.5634766 2.0000000000 8.9040002823 8.5000000000 12.932086945 -0.008600000 0.2122000009 2.5236999989 11.176199913 54.394100189 75.423995972 129.22470093 24.785999298  -999.250000 18.898300171
 3966.7158203 2.0000000000 9.0523004532 8.5000000000 8.2545928955 -0.002600000 0.2071000040 2.5032000542 9.9969997406 52.488399506 76.720901489 127.24379730 24.385499954  -999.250000 18.842199326
 3966.8684082 2.0000000000 8.7604999542 8.5000000000 6.5314960480 -0.002600000 0.2025000006 2.4630000591 9.5355997086 54.674301147 76.470596313 124.82040405 25.250999451  -999.250000 18.594400406
 3967.0207520 2.0000000000 8.5938997269 8.5000000000 6.0085301399 -0.008800000 0.2008000016 2.4601998329 10.076600075 54.618099213 75.042800903 123.27790070 25.135999680  -999.250000 18.692100525
 3967.1730957 2.0000000000 8.7341003418 8.5000000000 3.0935039520 -0.012900000 0.2054000050 2.4730000496 10.731800079 54.007400513 74.152801514 123.12159729 26.004800797  -999.250000 19.287900925
 3967.3254395 2.0000000000 8.7568998337 8.5000000000 3.5016403198 -0.007900000 0.2090000063 2.4828000069 10.625200272 53.620201111 74.057098389 128.47979736 26.079900742  -999.250000 19.550300598
 3967.4780273 2.0000000000 8.8941001892 8.5000000000 8.7306432724 -0.002100000 0.2016000003 2.4686999321 9.5670995712 50.459999084 73.205101013 130.03860474 26.236000061  -999.250000 19.956199646
 3967.6303711 2.0000000000 8.8882999420 8.5000000000 17.744094849 -0.005700000 0.1985999942 2.4925999641 8.7404003143 50.477100372 71.502098083 124.39850616 26.037500381  -999.250000 20.055099487
 3967.7827148 2.0000000000 8.9027004242 8.5000000000 23.246719360 -0.009200000 0.1981000006 2.5223999023 10.163299561 48.775901794 70.375000000 124.63680267 26.435899734  -999.250000 20.145599365
 3967.9350586 2.0000000000 8.6533002853 8.5000000000 18.696851730 -0.001400000 0.1775999963 2.5625000000 10.716699600 48.931400299 73.332603455 125.15450287 26.277399063  -999.250000 20.145900726
 3968.0874023 16.000000000 8.6844997406 8.5000000000 13.541337967 0.0002000000 0.1616999954 2.5969998837 11.165200233 49.398998260 74.212196350 125.01339722 25.904300690  -999.250000 19.783500671
 3968.2399902 16.000000000 8.8773002625 8.5000000000 14.421260834 -0.000400000 0.1450999975 2.6033000946 11.872300148 56.073898315 73.305900574 122.67050934 26.363899231  -999.250000 20.372200012
 3968.3923340 16.000000000 8.9630002975 8.5000000000 18.087598801 -0.002200000 0.1375000030 2.5906999111 10.603099823 57.920101166 73.326301575 119.32420349 26.774599075  -999.250000 20.600400925
 3968.5446777 16.000000000 9.2428998947 8.5000000000 23.977691650 -0.001100000 0.1440999955 2.5639998913 10.068099976 55.874599457 78.090499878 125.84870148 26.664400101  -999.250000 21.571399689
 3968.6970215 2.0000000000 9.2150001526 8.5000000000 26.013450623 0.0137999998 0.1525000036 2.5578000546 10.767499924 55.432399750 83.207000732 126.13120270 26.816900253  -999.250000 25.052000046
 3968.8496094 2.0000000000 8.8325004578 8.5000000000 29.418308258 0.0038000001 0.1624999940 2.5264000893 10.842599869 49.463901520 83.898796082 126.30579376 27.217899323  -999.250000 25.880699158
 3969.0019531 2.0000000000 8.8803997040 8.5000000000 32.372375488 -0.012000000 0.1696999967 2.4642999172 10.263600349 50.025100708 78.681900024 124.79579926 27.561899185  -999.250000 26.741300583
 3969.1542969 2.0000000000 9.0440998077 8.5000000000 19.887466431 -0.012500000 0.1992000043 2.4442999363 10.311900139 52.517101288 74.576301575 131.02110291 26.385000229  -999.250000 25.296400070
 3969.3066406 2.0000000000 9.1356000900 8.5000000000 16.274604797 -0.005600000 0.2097000033 2.4442999363 9.1600999832 51.964401245 72.846496582 130.42900085 26.152900696  -999.250000 23.179700851
 3969.4592285 2.0000000000 8.8367996216 8.5000000000 16.190944672 -0.006200000 0.2234999985 2.4474999905 10.668100357 54.526699066 72.797599792 127.12950134 25.829200745  -999.250000 22.087499619
 3969.6115723 2.0000000000 8.2550001144 8.5000000000 14.853018761 -0.015200000 0.2281000018 2.4282999039 8.9886999130 54.673900604 74.023200989 127.21620178 25.145700455  -999.250000 20.752000809
 3969.7639160 2.0000000000 8.8219003677 8.5000000000 15.323819160 -0.011300000 0.2278999984 2.4207003117 6.8555998802 54.999198914 76.661697388 129.37030029 24.814800262  -999.250000 19.685300827
 3969.9162598 2.0000000000 8.9701995850 8.5000000000 14.139764786 -0.005700000 0.2256000042 2.4321999550 7.8892002106 53.772998810 78.201698303 131.25250244 24.373899460  -999.250000 18.868700027
 3970.0686035 2.0000000000 8.9116001129 8.5000000000 10.479330063 -0.012800000 0.2117999941 2.4391999245 10.457400322 54.852901459 79.134300232 128.51669312 23.887599945  -999.250000 18.313699722
 3970.2211914 2.0000000000 8.8712997437 8.5000000000 7.7066931725 -0.012700000 0.2101999968 2.4453999996 10.520799637 54.242099762 79.399093628 128.55340576 23.735500336  -999.250000 18.152700424
 3970.3735352 2.0000000000 8.9139003754 8.5000000000 4.7335958481 -0.008600000 0.2186000049 2.4435000420 9.5132999420 53.791599274 78.282897949 128.94580078 23.772300720  -999.250000 18.070899963
 3970.5258789 2.0000000000 9.1034002304 8.5000000000 7.7234249115 -0.006700000 0.2162999958 2.4351999760 9.4813995361 53.815299988 76.630203247 127.53170013 23.432399750  -999.250000 17.409599304
 3970.6782227 2.0000000000 9.0072002411 8.5000000000 11.055445671 -0.010200000 0.2155999988 2.4310998917 10.049900055 53.765499115 74.805603027 125.59230042 22.934499741  -999.250000 17.201299667
 3970.8308105 2.0000000000 8.6252002716 8.5000000000 10.498031616 -0.014000000 0.2124000043 2.4437003136 9.4976997375 54.241100311 76.154602051 124.18840027 22.937900543  -999.250000 16.832799911
 3970.9831543 2.0000000000 8.5946998596 8.5000000000 8.5449476242 -0.012500000 0.2171999961 2.4502000809 9.0586996078 52.791801453 75.964195251 124.13468933 22.455699921  -999.250000 16.526699066
