# LAS format log file from PETREL
# Project units are specified as depth units
#==================================================================
~Version information
VERS.   2.0:
WRAP.   NO:
#==================================================================
~Well
STRT .m      437.13198853 :
STOP .m      2196.1328125 :
STEP .m     0.00000000 :
NULL .        -999.250000 :
COMP.           : COMPANY
WELL.  34/3-1 S   : WELL
FLD.            : FIELD
LOC.            : LOCATION
SRVC.           : SERVICE COMPANY
DATE.  2018-09-11 14:48:49   : Log Export Date {yyyy-MM-dd HH:mm:ss}
PROV.           : PROVINCE
UWI.   34/3-1 S   : UNIQUE WELL ID
API.            : API NUMBER
#==================================================================
~Curve
DEPT .m                   : DEPTH
Lithology_geolink ._      : Lithology_geolink
BS .in                    : BS
ROP .m/h                  : ROP
GR .gAPI                  : GR
RDEP .ohm.m               : RDEP
RMED .ohm.m               : RMED
~Parameter
#==================================================================
~Ascii
# ...
 1020.5191650  -999.250000 17.500000000 121.62599182 106.72959900 2.6466999054 2.1431000233
 1020.6715698  -999.250000 17.500000000 125.48762512 104.44550323 2.6466999054 2.1431000233
 1020.8239746  -999.250000 17.500000000 125.48917389 101.76799774 2.6466999054 2.1431000233
 1020.9763794  -999.250000 17.500000000 125.48917389 101.50659943 2.6466999054 2.1431000233
 1021.1287842  -999.250000 17.500000000 125.48917389 93.840103149 2.6466999054 2.1431000233
 1021.2811890  -999.250000 17.500000000 125.48917389 91.740898132 2.6466999054 2.1431000233
 1021.4335938  -999.250000 17.500000000 125.48917389 94.460403442 2.6466999054 2.0671000481
 1021.5859985  -999.250000 17.500000000 190.63597107 103.87850189 2.6466999054 2.0671000481
 1021.7384033  -999.250000 17.500000000 190.66207886 105.07569885 2.6466999054 2.0671000481
 1021.8907471  -999.250000 17.500000000 190.66207886 110.03730011 2.5998001099 2.0671000481
 1022.0431519  -999.250000 17.500000000 190.66207886 112.21029663 2.5529000759 2.0671000481
 1022.1955566  -999.250000 17.500000000 190.66207886 114.99890137 2.5529000759 2.0671000481
 1022.3479614  -999.250000 17.500000000 190.66207886 110.03730011 2.5529000759 2.0671000481
 1022.5003662  -999.250000 17.500000000 190.66207886 110.03730011 2.5883998871 2.0671000481
 1022.6527710  -999.250000 17.500000000 89.089256287 106.41770172 2.6466999054 2.0671000481
 1022.8051758  -999.250000 17.500000000 89.048561096 101.76799774 2.5529000759 2.1431000233
 1022.9575806  -999.250000 17.500000000 89.048561096 101.76799774 2.5529000759 2.1431000233
 1023.1099854  -999.250000 17.500000000 89.048561096 95.152496338 2.6008999348 2.1431000233
 1023.2623901  -999.250000 17.500000000 89.048561096 95.152496338 2.6466999054 2.1431000233
 1023.4147949  -999.250000 17.500000000 89.048561096 103.42189789 2.6466999054 2.1431000233
 1023.5671997  -999.250000 17.500000000 99.103584290 111.69120026 2.6466999054 2.1431000233
 1023.7196045  -999.250000 17.500000000 99.107612610 109.76779938 2.6466999054 2.1431000233
 1023.8720093  -999.250000 17.500000000 99.107612610 95.152496338 2.6466999054 2.0671000481
 1024.0244141  -999.250000 17.500000000 99.107612610 95.152496338 2.6187999249 2.0671000481
 1024.1767578  -999.250000 17.500000000 99.107612610 105.07569885 2.5529000759 2.0671000481
 1024.3292236  -999.250000 17.500000000 99.107612610 105.07569885 2.5529000759 2.0671000481
 1024.4815674  -999.250000 17.500000000 99.107612610 103.42189789 2.5529000759 2.0671000481
 1024.6340332  -999.250000 17.500000000 87.268043518 103.42189789 2.5529000759 2.0671000481
 1024.7863770  -999.250000 17.500000000 87.268043518 98.718299866 2.5529000759 2.0671000481
 1024.9388428  -999.250000 17.500000000 87.268043518 94.921501160 2.5529000759 2.0671000481
 1025.0911865  -999.250000 17.500000000 87.268043518 90.190902710 2.5529000759 2.0671000481
 1025.2435303  -999.250000 17.500000000 87.268043518 113.34510040 2.6333999634 2.0671000481
 1025.3959961  -999.250000 17.500000000 87.268043518 113.34510040 2.6189999580 2.0671000481
 1025.5483398  -999.250000 17.500000000 87.268043518 113.34510040 2.5529000759 2.0671000481
 1025.7008057  -999.250000 17.500000000 123.15255737 96.806396484 2.5529000759 2.0671000481
 1025.8531494  -999.250000 17.500000000 123.15255737 96.806396484 2.6466999054 2.1431000233
 1026.0056152  -999.250000 17.500000000 123.15255737 104.40609741 2.6466999054 2.1431000233
 1026.1579590  -999.250000 17.500000000 123.15255737 90.608596802 2.6466999054 2.0683999062
 1026.3104248  -999.250000 17.500000000 123.15255737 78.074798584 2.6466999054 1.9938000441
 1026.4627686  -999.250000 17.500000000 123.15255737 97.282897949 2.6466999054 1.9938000441
 1026.6152344  -999.250000 17.500000000 103.13156128 99.291198730 2.5529000759 2.0671000481
 1026.7675781  -999.250000 17.500000000 103.13156128 100.11409760 2.5529000759 2.0515000820
 1026.9200439  -999.250000 17.500000000 103.13156128 100.11409760 2.5529000759 1.9938000441
 1027.0723877  -999.250000 17.500000000 103.13156128 106.72959900 2.5529000759 2.0578000546
 1027.2247314  -999.250000 17.500000000 103.13156128 103.16850281 2.5529000759 2.0671000481
 1027.3771973  -999.250000 17.500000000 103.13156128 90.444198608 2.5529000759 2.0671000481
 1027.5295410  -999.250000 17.500000000 103.13156128 92.798400879 2.5529000759 2.0671000481
 1027.6820068  -999.250000 17.500000000 128.36712646 95.152496338 2.5529000759 2.0671000481
 1027.8343506  -999.250000 17.500000000 128.36712646 91.278396606 2.5529000759 2.0671000481
 1027.9868164  -999.250000 17.500000000 128.36712646 85.229301453 2.5529000759 2.0671000481
 1028.1391602  -999.250000 17.500000000 128.36712646 91.844802856 2.5529000759 2.0671000481
 1028.2916260  -999.250000 17.500000000 128.36712646 102.17440033 2.5529000759 2.0183999538
 1028.4439697  -999.250000 17.500000000 128.36712646 119.96050262 2.5529000759 1.9938000441
 1028.5964355  -999.250000 17.500000000 115.91929626 110.86430359 2.5529000759 1.9938000441
 1028.7487793  -999.250000 17.500000000 115.91929626 101.76799774 2.5529000759 2.0671000481
 1028.9012451  -999.250000 17.500000000 115.91929626 102.86060333 2.5529000759 2.0169000626
 1029.0535889  -999.250000 17.500000000 115.91929626 110.59850311 2.5529000759 1.9232000113
 1029.2059326  -999.250000 17.500000000 115.91929626 105.34239960 2.5529000759 1.9709000587
 1029.3583984  -999.250000 17.500000000 115.91929626 103.42189789 2.5529000759 1.9938000441
 1029.5107422  -999.250000 17.500000000 115.91929626 101.76799774 2.5529000759 1.9938000441
 1029.6632080  -999.250000 17.500000000 129.66897583 101.76799774 2.5529000759 1.9938000441
 1029.8155518  -999.250000 17.500000000 129.66897583 88.537002563 2.5529000759 1.9938000441
 1029.9680176  -999.250000 17.500000000 129.66897583 88.537002563 2.5529000759 1.9938000441
 1030.1203613  -999.250000 17.500000000 129.66897583 90.190902710 2.5529000759 1.9938000441
 1030.2728271  -999.250000 17.500000000 129.66897583 90.190902710 2.5529000759 2.0304000378
 1030.4251709  -999.250000 17.500000000 129.66897583 107.30120087 2.5529000759 2.0671000481
 1030.5776367  -999.250000 17.500000000 129.44488525 113.34510040 2.5529000759 2.0671000481
 1030.7299805  -999.250000 17.500000000 129.44488525 98.460197449 2.5529000759 2.0671000481
 1030.8824463  -999.250000 17.500000000 129.44488525 98.460197449 2.5529000759 2.0671000481
 1031.0347900  -999.250000 17.500000000 129.44488525 101.76799774 2.5529000759 2.0671000481
 1031.1871338  -999.250000 17.500000000 129.44488525 105.07569885 2.5529000759 2.0671000481
 1031.3395996  -999.250000 17.500000000 129.44488525 107.16459656 2.5529000759 2.0671000481
 1031.4919434  -999.250000 17.500000000 129.44488525 111.69120026 2.5529000759 2.0671000481
 1031.6444092  -999.250000 17.500000000 103.52526855 106.51290131 2.5529000759 2.0671000481
 1031.7967529  -999.250000 17.500000000 103.52526855 97.342796326 2.5529000759 2.0671000481
 1031.9492188  -999.250000 17.500000000 103.52526855 88.537002563 2.5529000759 2.0671000481
 1032.1015625  -999.250000 17.500000000 103.52526855 96.806396484 2.5529000759 2.0671000481
 1032.2540283  -999.250000 17.500000000 103.52526855 105.07569885 2.5529000759 2.5169000626
 1032.4063721  -999.250000 17.500000000 103.52526855 105.07569885 2.5529000759 2.9667999744
 1032.5588379  -999.250000 17.500000000 128.49540710 105.07569885 2.5529000759 2.9667999744
 1032.7111816  -999.250000 17.500000000 128.49540710 96.806396484 2.5764000416 2.7806000710
 1032.8636475  -999.250000 17.500000000 128.49540710 96.806396484 2.5998001099 2.5943000317
 1033.0159912  -999.250000 17.500000000 128.49540710 100.11409760 2.6233000755 2.4080998898
 1033.1684570  -999.250000 17.500000000 128.49540710 100.11409760 2.6466999054 2.2218999863
 1033.3208008  -999.250000 17.500000000 128.49540710 89.363998413 2.6466999054 2.2218999863
 1033.4731445  -999.250000 17.500000000 128.49540710 78.613800049 2.7237999439 2.2218999863
 1033.6256104  -999.250000 17.500000000 105.96096802 78.613800049 2.7439999580 2.1800999641
