# LAS format log file from PETREL
# Project units are specified as depth units
#==================================================================
~Version information
VERS.   2.0:
WRAP.   NO:
#==================================================================
~Well
STRT .m      437.13198853 :
STOP .m      2196.1328125 :
STEP .m     0.00000000 :
NULL .        -999.250000 :
COMP.           : COMPANY
WELL.  34/3-1 S   : WELL
FLD.            : FIELD
LOC.            : LOCATION
SRVC.           : SERVICE COMPANY
DATE.  2018-09-11 14:48:49   : Log Export Date {yyyy-MM-dd HH:mm:ss}
PROV.           : PROVINCE
UWI.   34/3-1 S   : UNIQUE WELL ID
API.            : API NUMBER
#==================================================================
~Curve
DEPT .m                   : DEPTH
Lithology_geolink ._      : Lithology_geolink
BS .in                    : BS
ROP .m/h                  : ROP
GR .gAPI                  : GR
RDEP .ohm.m               : RDEP
RMED .ohm.m               : RMED
~Parameter
#==================================================================
~Ascii
# ...
 1365.2480469  -999.250000 17.500000000 90.870407104 80.413040161 2.1314001083 1.7259582281
 1365.4005127  -999.250000 17.500000000 90.870407104 86.204689026 2.1314001083 1.9232448339
 1365.5528564  -999.250000 17.500000000 76.105316162 88.826393127 2.1314117908 1.9512341022
 1365.7053223  -999.250000 17.500000000 76.105316162 98.671371460 2.1463124752 1.9938000441
 1365.8576660  -999.250000 17.500000000 76.105316162 98.708396912 2.2786521912 1.9938522577
 1366.0100098  -999.250000 17.500000000 76.105316162 93.845924377 2.2188150883 2.0589277744
 1366.1624756  -999.250000 17.500000000 76.105316162 104.23409271 2.2377426624 2.0933399200
 1366.3148193  -999.250000 17.500000000 76.105316162 103.34556580 2.2908999920 2.1431000233
 1366.4672852  -999.250000 17.500000000 76.105316162 102.55590820 2.2908999920 2.1431000233
 1366.6196289  -999.250000 17.500000000 80.160766602 100.32108307 2.2909300327 2.1431000233
 1366.7720947  -999.250000 17.500000000 80.160766602 100.92064667 2.3285038471 2.1430983543
 1366.9244385  -999.250000 17.500000000 80.160766602 104.84585571 2.3332269192 2.1409542561
 1367.0769043  -999.250000 17.500000000 80.160766602 105.90608215 2.3669066429 2.0836865902
 1367.2292480  -999.250000 17.500000000 80.160766602 98.638389587 2.3752000332 2.0671000481
 1367.3817139  -999.250000 17.500000000 80.160766602 85.812019348 2.3752000332 2.0671763420
 1367.5340576  -999.250000 17.500000000 80.160766602 101.78665161 2.3752124310 2.1147227287
 1367.6865234  -999.250000 17.500000000 98.498687744 103.33320618 2.3908150196 2.1431000233
 1367.8388672  -999.250000 17.500000000 98.498687744 94.171997070 2.4625000954 2.1430027485
 1367.9913330  -999.250000 17.500000000 98.498687744 94.161254883 2.4624738693 2.0216553211
 1368.1436768  -999.250000 17.500000000 98.498687744 87.473426819 2.4460432529 1.9938000441
 1368.2960205  -999.250000 17.500000000 98.498687744 99.849067688 2.3752348423 1.9938000441
 1368.4484863  -999.250000 17.500000000 98.498687744 102.56710815 2.4188351631 1.9938048124
 1368.6008301  -999.250000 17.500000000 80.121063232 114.29750061 2.4625000954 1.9997560978
 1368.7532959  -999.250000 17.500000000 80.121063232 114.28406525 2.4625000954 2.0698521137
 1368.9056396  -999.250000 17.500000000 80.121063232 97.528656006 2.4625000954 2.1350643635
 1369.0581055  -999.250000 17.500000000 80.121063232 100.47854614 2.4624907970 2.0905735493
 1369.2104492  -999.250000 17.500000000 80.121063232 113.87736511 2.4509391785 2.0574650764
 1369.3629150  -999.250000 17.500000000 80.121063232 104.24523926 2.3752000332 2.0141525269
 1369.5151367  -999.250000 17.500000000 80.121063232 110.75360107 2.3752000332 2.0467998981
 1369.6674805  -999.250000 17.500000000 128.39764404 113.99379730 2.4625000954 1.9938000441
 1369.8199463  -999.250000 17.500000000 128.47506714 112.93150330 2.4625000954 1.9938000441
 1369.9722900  -999.250000 17.500000000 128.47506714 106.09819794 2.4625000954 2.0193998814
 1370.1247559  -999.250000 17.500000000 128.47506714 97.733100891 2.4579000473 2.0827000141
 1370.2770996  -999.250000 17.500000000 128.47506714 99.203399658 2.4212999344 2.1366000175
 1370.4295654  -999.250000 17.500000000 128.47506714 102.67150116 2.3752000332 2.1431000233
 1370.5819092  -999.250000 17.500000000 141.56922913 104.23480225 2.4042999744 2.1177000999
 1370.7343750  -999.250000 17.500000000 141.57972717 114.29750061 2.4333999157 2.0924000740
 1370.8867188  -999.250000 17.500000000 141.57972717 109.41320038 2.4625000954 2.0671000481
 1371.0391846  -999.250000 17.500000000 141.57972717 99.203399658 2.4625000954 2.0671000481
 1371.1915283  -999.250000 17.500000000 141.57972717 110.94329834 2.4625000954 2.0671000481
 1371.3438721  -999.250000 17.500000000 141.57972717 101.56819916 2.4625000954 2.0671000481
 1371.4963379  -999.250000 17.500000000 141.57972717 92.452598572 2.5067000389 2.0313000679
 1371.6486816  -999.250000 17.500000000 87.368438721 98.224502563 2.5395998955 1.9938000441
 1371.8011475  -999.250000 17.500000000 87.281494141 100.18740082 2.4625000954 1.9938000441
 1371.9534912  -999.250000 17.500000000 87.281494141 110.94329834 2.4625000954 1.9938000441
 1372.1059570  -999.250000 17.500000000 87.281494141 110.63089752 2.4625000954 2.0388000011
 1372.2583008  -999.250000 17.500000000 87.281494141 107.79620361 2.4625000954 2.0671000481
 1372.4107666  -999.250000 17.500000000 87.281494141 98.461196899 2.5529000759 2.1431000233
 1372.5631104  -999.250000 17.500000000 66.496330261 88.563903809 2.4935998917 2.0452001095
 1372.7155762  -999.250000 17.500000000 66.479660034 101.97160339 2.4625000954 2.0111999512
 1372.8679199  -999.250000 17.500000000 66.479660034 111.35990143 2.4625000954 2.0671000481
 1373.0203857  -999.250000 17.500000000 66.479660034 107.96430206 2.4625000954 2.0671000481
 1373.1727295  -999.250000 17.500000000 66.479660034 97.421096802 2.5453000069 2.0671000481
 1373.3251953  -999.250000 17.500000000 66.479660034 84.109298706 2.5141999722 2.0996000767
 1373.4775391  -999.250000 17.500000000 66.479660034 104.23480225 2.4625000954 2.1431000233
 1373.6298828  -999.250000 17.500000000 74.469795227 105.29280090 2.5018999577 2.0441999435
 1373.7823486  -999.250000 17.500000000 74.482612610 114.29750061 2.5081000328 2.0301001072
 1373.9346924  -999.250000 17.500000000 74.482612610 114.29750061 2.4853000641 2.0120000839
 1374.0871582  -999.250000 17.500000000 74.482612610 114.82460022 2.4625000954 1.9938000441
 1374.2395020  -999.250000 17.500000000 74.482612610 107.33260345 2.4460999966 2.0076000690
 1374.3919678  -999.250000 17.500000000 74.482612610 104.97949982 2.3989999294 2.0671000481
 1374.5443115  -999.250000 17.500000000 74.482612610 98.657096863 2.4625000954 2.0671000481
 1374.6967773  -999.250000 17.500000000 77.573638916 106.75879669 2.4625000954 2.1050999165
 1374.8491211  -999.250000 17.500000000 77.576118469 114.29750061 2.4625000954 2.1431000233
 1375.0015869  -999.250000 17.500000000 77.576118469 103.52680206 2.4625000954 2.1431000233
 1375.1539307  -999.250000 17.500000000 77.576118469 96.646598816 2.4625000954 2.0869998932
 1375.3063965  -999.250000 17.500000000 77.576118469 90.817802429 2.4625000954 2.0671000481
 1375.4587402  -999.250000 17.500000000 77.576118469 114.29750061 2.4498000145 2.0044000149
 1375.6110840  -999.250000 17.500000000 88.586997986 111.70400238 2.3952999115 2.0501999855
 1375.7635498  -999.250000 17.500000000 88.604660034 102.55770111 2.3752000332 2.0369999409
 1375.9158936  -999.250000 17.500000000 88.604660034 111.65930176 2.3863000870 1.9938000441
 1376.0683594  -999.250000 17.500000000 88.604660034 109.95529938 2.4512999058 1.9938000441
 1376.2207031  -999.250000 17.500000000 88.604660034 107.28749847 2.4625000954 1.9338999987
 1376.3731689  -999.250000 17.500000000 88.604660034 109.26619720 2.4625000954 1.9232000113
 1376.5255127  -999.250000 17.500000000 88.604660034 98.800399780 2.4442999363 2.0518000126
 1376.6779785  -999.250000 17.500000000 78.940811157 97.526298523 2.3933000565 2.0090000629
 1376.8303223  -999.250000 17.500000000 78.933067322 99.416999817 2.3752000332 1.9938000441
 1376.9827881  -999.250000 17.500000000 78.933067322 113.44989777 2.3752000332 1.9938000441
 1377.1351318  -999.250000 17.500000000 78.933067322 119.32890320 2.3752000332 1.9938000441
 1377.2875977  -999.250000 17.500000000 78.933067322 84.738296509 2.2908999920 1.9232000113
 1377.4399414  -999.250000 17.500000000 78.933067322 79.077903748 2.2908999920 1.9232000113
 1377.5922852  -999.250000 17.500000000 83.894279480 90.817802429 2.2908999920 1.9232000113
 1377.7447510  -999.250000 17.500000000 83.902236938 102.55770111 2.3752000332 1.9232000113
 1377.8970947  -999.250000 17.500000000 83.902236938 105.61129761 2.3752000332 1.9232000113
 1378.0495605  -999.250000 17.500000000 83.902236938 109.46189880 2.3752000332 1.9938000441
 1378.2019043  -999.250000 17.500000000 83.902236938 103.92919922 2.4012999535 1.9938000441
 1378.3543701  -999.250000 17.500000000 83.902236938 98.406600952 2.4105000496 1.9938000441
