# LAS format log file from PETREL
# Project units are specified as depth units
#==================================================================
~Version information
VERS.   2.0:
WRAP.   NO:
#==================================================================
~Well
STRT .m      437.13198853 :
STOP .m      2196.1328125 :
STEP .m     0.00000000 :
NULL .        -999.250000 :
COMP.           : COMPANY
WELL.  34/3-1 S   : WELL
FLD.            : FIELD
LOC.            : LOCATION
SRVC.           : SERVICE COMPANY
DATE.  2018-09-11 14:48:49   : Log Export Date {yyyy-MM-dd HH:mm:ss}
PROV.           : PROVINCE
UWI.   34/3-1 S   : UNIQUE WELL ID
API.            : API NUMBER
#==================================================================
~Curve
DEPT .m                   : DEPTH
Lithology_geolink ._      : Lithology_geolink
BS .in                    : BS
ROP .m/h                  : ROP
GR .gAPI                  : GR
RDEP .ohm.m               : RDEP
RMED .ohm.m               : RMED
~Parameter
#==================================================================
~Ascii
# ...
 1842.5648193  -999.250000 17.500000000 82.020996094 71.101303101 0.5832999945 0.5442000031
 1842.7171631  -999.250000 17.500000000 82.020996094 72.561698914 0.5917999744 0.5522000194
 1842.8696289  -999.250000 17.500000000 82.020996094 68.267196655 0.6266000271 0.5882999897
 1843.0219727  -999.250000 17.500000000 82.020996094 62.671100616 0.6629999876 0.6133000255
 1843.1744385  -999.250000 17.500000000 82.020996094 70.124496460 0.6898000240 0.5303999782
 1843.3267822  -999.250000 17.500000000 82.020996094 79.194702148 0.6420999765 0.5037999749
 1843.4791260  -999.250000 17.500000000 82.020996094 70.997596741 0.6266000271 0.4774999917
 1843.6315918  -999.250000 17.500000000 86.059379578 64.595901489 0.6105999947 0.4591000080
 1843.7839355  -999.250000 17.500000000 86.059379578 80.077903748 0.6044999957 0.4544999897
 1843.9364014  -999.250000 17.500000000 86.059379578 77.307998657 0.5832999945 0.4803000093
 1844.0887451  -999.250000 17.500000000 86.059379578 76.834503174 0.5952000022 0.4747999907
 1844.2412109  -999.250000 17.500000000 86.059379578 59.961498260 0.6006000042 0.4711999893
 1844.3935547  -999.250000 17.500000000 86.059379578 69.268402100 0.5929999948 0.4711999893
 1844.5460205  -999.250000 17.500000000 86.059379578 73.254096985 0.5878999829 0.4711999893
 1844.6983643  -999.250000 17.500000000 78.999015808 75.198402405 0.5832999945 0.4711999893
 1844.8508301  -999.250000 17.500000000 78.999015808 70.750297546 0.5832999945 0.4711999893
 1845.0031738  -999.250000 17.500000000 78.999015808 75.633903503 0.5832999945 0.4711999893
 1845.1556396  -999.250000 17.500000000 78.999015808 48.171100616 0.5627999902 0.5249999762
 1845.3079834  -999.250000 17.500000000 78.999015808 54.666400909 0.5627999902 0.5372999907
 1845.4603271  -999.250000 17.500000000 78.999015808 60.242801666 0.5691999793 0.5350000262
 1845.6127930  -999.250000 17.500000000 37.574474335 73.650001526 0.5777999759 0.4832000136
 1845.7651367  -999.250000 17.500000000 37.574474335 78.948799133 0.5627999902 0.4711999893
 1845.9176025  -999.250000 17.500000000 37.574474335 89.427803040 0.5627999902 0.4711999893
 1846.0699463  -999.250000 17.500000000 37.574474335 79.739601135 0.5627999902 0.4618999958
 1846.2224121  -999.250000 17.500000000 37.574474335 70.524299622 0.5627999902 0.4467999935
 1846.3747559  -999.250000 17.500000000 37.574474335 71.177001953 0.5572000146 0.4341000021
 1846.5272217  -999.250000 17.500000000 37.574474335 76.429000854 0.5429000258 0.4228999913
 1846.6795654  -999.250000 17.500000000 72.554794312 82.005996704 0.5429000258 0.4515999854
 1846.8320313  -999.250000 17.500000000 72.554794312 76.470397949 0.5429000258 0.4544999897
 1846.9843750  -999.250000 17.500000000 72.554794312 75.569297791 0.5522999763 0.4623999894
 1847.1368408  -999.250000 17.500000000 72.554794312 72.823501587 0.5590999722 0.4681999981
 1847.2891846  -999.250000 17.500000000 72.554794312 55.630001068 0.5832999945 0.4711999893
 1847.4416504  -999.250000 17.500000000 72.554794312 73.988800049 0.5832999945 0.4711999893
 1847.5939941  -999.250000 17.500000000 69.859252930 73.126800537 0.5874000192 0.4711999893
 1847.7463379  -999.250000 17.500000000 69.859252930 78.948799133 0.5924000144 0.4711999893
 1847.8988037  -999.250000 17.500000000 69.859252930 83.934700012 0.5853999853 0.4751000106
 1848.0511475  -999.250000 17.500000000 69.859252930 87.681297302 0.5922999978 0.4808999896
 1848.2036133  -999.250000 17.500000000 69.859252930 74.450996399 0.5850999951 0.4860999882
 1848.3559570  -999.250000 17.500000000 69.859252930 69.114997864 0.5832999945 0.4884999990
 1848.5084229  -999.250000 17.500000000 69.859252930 63.230300903 0.5832999945 0.4923000038
 1848.6607666  -999.250000 17.500000000 59.138450623 79.652297974 0.5832999945 0.5063999891
 1848.8132324  -999.250000 17.500000000 59.138450623 79.004997253 0.5832999945 0.5408999920
 1848.9655762  -999.250000 17.500000000 59.138450623 79.562500000 0.5832999945 0.5442000031
 1849.1180420  -999.250000 17.500000000 59.138450623 78.961303711 0.6730999947 0.5442000031
 1849.2703857  -999.250000 17.500000000 59.138450623 76.430099487 0.6701999903 0.5418999791
 1849.4228516  -999.250000 17.500000000 59.138450623 73.272300720 0.6493999958 0.5249999762
 1849.5751953  -999.250000 17.500000000 60.927169800 66.723297119 0.6493999958 0.5249999762
 1849.7275391  -999.250000 17.500000000 60.927169800 66.723297119 0.6044999957 0.4884999990
 1849.8800049  -999.250000 17.500000000 60.927169800 66.723297119 0.6044999957 0.4884999990
 1850.0323486  -999.250000 17.500000000 60.927169800 77.690200806 0.5832999945 0.5063999891
 1850.1848145  -999.250000 17.500000000 60.927169800 78.546203613 0.5878999829 0.4916000068
 1850.3371582  -999.250000 17.500000000 60.927169800 81.243499756 0.5970000029 0.4772999883
 1850.4896240  -999.250000 17.500000000 60.927169800 80.563796997 0.5799000263 0.4742999971
 1850.6419678  -999.250000 17.500000000 95.233924866 78.062103271 0.5627999902 0.4711999893
 1850.7944336  -999.250000 17.500000000 95.233924866 72.999000549 0.5770000219 0.4832000136
 1850.9467773  -999.250000 17.500000000 95.233924866 72.703201294 0.5832999945 0.4839999974
 1851.0992432  -999.250000 17.500000000 95.233924866 82.780700684 0.5832999945 0.4873000085
 1851.2515869  -999.250000 17.500000000 95.233924866 82.833396912 0.5832999945 0.5040000081
 1851.4040527  -999.250000 17.500000000 95.233924866 84.188301086 0.5907999873 0.5115000010
 1851.5563965  -999.250000 17.500000000 96.262794495 68.236701965 0.5996000171 0.4932999909
 1851.7087402  -999.250000 17.500000000 96.262794495 50.631401062 0.5831999779 0.4711000025
 1851.8612061  -999.250000 17.500000000 96.262794495 71.921600342 0.5709999800 0.4544999897
 1852.0135498  -999.250000 17.500000000 96.262794495 75.274200439 0.5655999780 0.4526000023
 1852.1660156  -999.250000 17.500000000 96.262794495 73.709297180 0.5627999902 0.4465000033
 1852.3183594  -999.250000 17.500000000 96.262794495 76.250099182 0.5627999902 0.4393000007
 1852.4708252  -999.250000 17.500000000 96.262794495 91.610900879 0.5627999902 0.4433999956
 1852.6231689  -999.250000 17.500000000 54.058395386 76.594596863 0.5627999902 0.4799999893
 1852.7756348  -999.250000 17.500000000 54.058395386 65.462501526 0.5702999830 0.5084999800
 1852.9279785  -999.250000 17.500000000 54.058395386 73.011199951 0.5920000076 0.5175999999
 1853.0804443  -999.250000 17.500000000 54.058395386 61.160400391 0.6266000271 0.4950000048
 1853.2327881  -999.250000 17.500000000 54.058395386 71.913803101 0.6266000271 0.4812000096
 1853.3852539  -999.250000 17.500000000 54.058395386 69.281898499 0.6266000271 0.4659999907
 1853.5375977  -999.250000 17.500000000 54.058395386 65.266899109 0.6266000271 0.4916000068
 1853.6899414  -999.250000 17.500000000 33.659450531 70.993896484 0.6317999959 0.5173000097
 1853.8424072  -999.250000 17.500000000 33.659450531 77.564598083 0.6493999958 0.5249999762
 1853.9947510  -999.250000 17.500000000 33.659450531 79.337997437 0.6596999764 0.4828999937
 1854.1472168  -999.250000 17.500000000 33.659450531 75.858497620 0.6521999836 0.5238000154
 1854.2995605  -999.250000 17.500000000 33.659450531 74.896301270 0.6493999958 0.6011999846
 1854.4520264  -999.250000 17.500000000 33.659450531 69.872299194 0.6590999961 0.6265000105
 1854.6043701  -999.250000 17.500000000 61.852363586 72.495101929 0.6730999947 0.6517000198
 1854.7568359  -999.250000 17.500000000 61.852363586 76.914199829 0.6730999947 0.6517000198
 1854.9091797  -999.250000 17.500000000 61.852363586 85.021797180 0.6493999958 0.5063999891
 1855.0616455  -999.250000 17.500000000 61.852363586 86.913597107 0.6448000073 0.5091999769
 1855.2139893  -999.250000 17.500000000 61.852363586 83.495903015 0.6276999712 0.5149999857
 1855.3664551  -999.250000 17.500000000 61.852363586 85.545700073 0.6266000271 0.4999000132
 1855.5187988  -999.250000 17.500000000 61.852363586 91.962501526 0.6266000271 0.4988000095
 1855.6712646  -999.250000 17.500000000 68.871391296 82.525001526 0.6266000271 0.5023000240
