# LAS format log file from PETREL
# Project units are specified as depth units
#==================================================================
~Version information
VERS.   2.0:
WRAP.   NO:
#==================================================================
~Well
STRT .m      3771.1865234 :
STOP .m      4146.8525391 :
STEP .m     0.00000000 :
NULL .        -999.250000 :
COMP.           : COMPANY
WELL.  34/3-1 A   : WELL
FLD.            : FIELD
LOC.            : LOCATION
SRVC.           : SERVICE COMPANY
DATE.  2018-09-11 14:48:49   : Log Export Date {yyyy-MM-dd HH:mm:ss}
PROV.           : PROVINCE
UWI.   34/3-1 A   : UNIQUE WELL ID
API.            : API NUMBER
#==================================================================
~Curve
DEPT .m                   : DEPTH
Lithology_geolink ._      : Lithology_geolink
CALI .in                  : CALI
BS .in                    : BS
ROP .m/h                  : ROP
DRHO .g/cm3               : DRHO
NPHI .m3/m3               : NPHI
RHOB .g/cm3               : RHOB
PEF .b/e                  : PEF
GR .gAPI                  : GR
DTC .us/ft                : DTC
DTS .us/ft                : DTS
RDEP .ohm.m               : RDEP
RMIC .ohm.m               : RMIC
RMED .ohm.m               : RMED
~Parameter
#==================================================================
~Ascii
# ...
 4139.8422852 16.000000000 8.6132001877 8.5000000000 29.101377487 0.0091000004 0.1322000027 2.6700997353 9.1261997223 80.079696655  -999.250000  -999.250000 9.2609996796  -999.250000 8.9500999451
 4139.9946289 16.000000000 8.7026996613 8.5000000000 28.578083038 0.0070000002 0.1372999996 2.6614000797 8.9289999008 71.613998413  -999.250000  -999.250000 9.1526002884  -999.250000 9.6948995590
 4140.1469727 5.0000000000 8.7922000885 8.5000000000 30.415355682 0.0010000000 0.1427000016 2.6301999092 8.7439002991 71.364601135  -999.250000  -999.250000 9.6885004044  -999.250000 9.7854995728
 4140.2993164 4.0000000000 8.7922000885 8.5000000000 36.151237488 -0.001990415 0.1482821107 2.5918231010 8.0309848785 75.505233765  -999.250000  -999.250000 9.5538320541  -999.250000 10.439205170
 4140.4516602 4.0000000000 8.7922000885 8.5000000000 50.520782471 -0.002697757 0.1565733999 2.5709667206 7.9058947563 72.320785522  -999.250000  -999.250000 9.6176929474  -999.250000 10.288691521
 4140.6040039 4.0000000000 8.6766004562 8.5000000000 71.600669861 -0.004992628 0.1633781940 2.5643212795 8.3173751831 68.514205933  -999.250000  -999.250000 10.116895676  -999.250000 10.857369423
 4140.7563477 4.0000000000 8.6766004562 8.5000000000 85.129615784 -0.004900320 0.1632006466 2.5590169430 8.5839471817 67.723602295  -999.250000  -999.250000 10.285163879  -999.250000 10.346050262
 4140.9086914 4.0000000000 8.6766004562 8.5000000000 92.132804871 -0.008887179 0.1632000059 2.5456428528 8.9373664856 75.045249939  -999.250000  -999.250000 10.295069695  -999.250000 9.7633686066
 4141.0610352 4.0000000000 8.6375999451 8.5000000000 88.723297119 -0.004813141 0.1693801284 2.5402173996 9.5992755890 76.843795776  -999.250000  -999.250000 10.531937599  -999.250000 8.5572719574
 4141.2138672 4.0000000000 8.5986995697 8.5000000000 75.212928772 -0.001100000 0.1744000018 2.5439999104 9.8706998825 76.440498352  -999.250000  -999.250000 10.720199585  -999.250000 9.1154003143
 4141.3662109 4.0000000000 8.5986995697 8.5000000000 64.530181885 -0.003500000 0.1756000072 2.5478000641 9.1749000549 74.805099487  -999.250000  -999.250000 10.875300407  -999.250000 9.2510004044
 4141.5185547 4.0000000000 8.6531000137 8.5000000000 64.900588989 -0.002800000 0.1752000004 2.5422999859 9.5051002502 73.069099426  -999.250000  -999.250000 10.817600250  -999.250000 8.9886999130
 4141.6708984 4.0000000000 8.7075996399 8.5000000000 69.496421814 -0.001005751 0.1763961762 2.5430974960 9.5779666901 74.001213074  -999.250000  -999.250000 10.554344177  -999.250000 8.6065244675
 4141.8232422 4.0000000000 8.7075996399 8.5000000000 81.304603577 0.0034855769 0.1782938987 2.5556597710 9.1717071533 78.984489441  -999.250000  -999.250000 10.614802361  -999.250000 8.3870019913
 4141.9755859 4.0000000000 8.7260999680 8.5000000000 92.812530518 0.0039983978 0.1670362204 2.5791246891 8.8536186218 80.967376709  -999.250000  -999.250000 10.180796623  -999.250000 7.8819217682
 4142.1279297 4.0000000000 8.7446002960 8.5000000000 75.369522095 -0.001083654 0.1659035385 2.5746147633 8.5346221924 76.286567688  -999.250000  -999.250000 9.8665065765  -999.250000 8.0563335419
 4142.2802734 16.000000000 8.7446002960 8.5000000000 60.780651093 0.0010929487 0.1554336399 2.6004171371 7.4540715218 74.920639038  -999.250000  -999.250000 10.090177536  -999.250000 8.7646245956
 4142.4331055 16.000000000 8.6345996857 8.5000000000 55.114830017 0.0003000000 0.1578000039 2.5977001190 7.4352002144 71.156501770  -999.250000  -999.250000 10.145000458  -999.250000 8.6423997879
 4142.5854492 16.000000000 8.5769996643 8.5000000000 60.217853546 -0.001800000 0.1592999995 2.5977001190 8.0522003174 73.134002686  -999.250000  -999.250000 10.141500473  -999.250000 9.6655998230
 4142.7377930 4.0000000000 8.5769996643 8.5000000000 63.252944946 -0.006200000 0.1650999933 2.5660998821 8.6464996338 71.782798767  -999.250000  -999.250000 9.8808002472  -999.250000 9.7750997543
 4142.8901367 4.0000000000 8.7072000504 8.5000000000 65.272636414 -0.002300000 0.1745000035 2.5513999462 8.9729003906 70.814102173  -999.250000  -999.250000 9.5143003464  -999.250000 9.9790000916
 4143.0424805 4.0000000000 8.7072000504 8.5000000000 73.154533386 -0.003695527 0.1872591078 2.5291712284 9.1888074875 70.135673523  -999.250000  -999.250000 9.4252853394  -999.250000 10.078182220
 4143.1948242 4.0000000000 8.7072000504 8.5000000000 79.981407166 0.0001875000 0.1972679496 2.5224213600 9.7730245590 73.327629089  -999.250000  -999.250000 9.1932449341  -999.250000 8.3930196762
 4143.3471680 4.0000000000 8.7039003372 8.5000000000 66.224754333 0.0058817309 0.2007887810 2.5337634087 9.7027320862 82.868553162  -999.250000  -999.250000 8.7030735016  -999.250000 7.6991138458
 4143.4995117 4.0000000000 8.7005996704 8.5000000000 53.414085388 -0.000778526 0.2134592831 2.5337998867 8.7706966400 86.240760803  -999.250000  -999.250000 8.1933336258  -999.250000 6.5457015038
 4143.6518555 5.0000000000 8.7005996704 8.5000000000 49.262886047 -0.003491346 0.2107089758 2.5359928608 8.2770776749 90.530143738  -999.250000  -999.250000 8.1231203079  -999.250000 6.3557987213
 4143.8046875 5.0000000000 8.7005996704 8.5000000000 57.515747070 -0.005100000  -999.250000 2.5297000408 8.3458003998 86.503097534  -999.250000  -999.250000 8.0416002274  -999.250000 5.7846999168
 4143.9570313 5.0000000000 8.6964998245 8.5000000000 77.715217590 0.0043000001  -999.250000 2.5469999313 9.0348997116 93.878402710  -999.250000  -999.250000 7.5322999954  -999.250000 5.3681998253
 4144.1093750 5.0000000000 8.6922998428 8.5000000000 91.101051331 0.0029000000  -999.250000 2.5418999195 9.1582002640 93.254302979  -999.250000  -999.250000 7.2192997932  -999.250000 4.9939999580
 4144.2617188 6.0000000000 8.6639995575 8.5000000000 89.436103821 0.0009063898  -999.250000 2.5464851856 8.8503866196 94.236549377  -999.250000  -999.250000 7.0363860130  -999.250000 4.9120626450
 4144.4140625 6.0000000000 8.6774997711 8.5000000000 79.974960327 0.0009000000  -999.250000 2.5479953289 9.8141975403 94.864593506  -999.250000  -999.250000 7.0878324509  -999.250000 4.7848081589
 4144.5664063 6.0000000000 8.7397003174 8.5000000000 71.409988403 0.0016974360  -999.250000 2.5544793606 9.6947937012 92.260879517  -999.250000  -999.250000 6.9362878799  -999.250000 4.6862158775
 4144.7187500 6.0000000000 8.7638998032 8.5000000000 71.569282532 0.0030955130  -999.250000 2.5607798100 9.4020404816 95.813049316  -999.250000  -999.250000 6.8762912750  -999.250000 4.6509127617
 4144.8710938 6.0000000000 8.7882003784 8.5000000000 71.818099976 0.0066884612  -999.250000 2.5600025654 8.6751346588 98.444274902  -999.250000  -999.250000 6.8239679337  -999.250000 4.6549868584
 4145.0234375 6.0000000000 8.7882003784 8.5000000000 78.455368042 0.0055038463  -999.250000 2.5557138920 7.5124311447 77.048828125  -999.250000  -999.250000 6.8545012474  -999.250000 4.6566948891
 4145.1762695 6.0000000000 8.6909999847 8.5000000000 80.417984009 0.0055000000  -999.250000 2.5571000576 6.9113998413 87.227096558  -999.250000  -999.250000 6.6473999023  -999.250000 4.7467999458
 4145.3286133 4.0000000000 8.6909999847 8.5000000000 80.474082947 0.0065000001  -999.250000 2.5696001053 7.2729001045 78.803802490  -999.250000  -999.250000 6.5514998436  -999.250000 4.8449997902
 4145.4809570 4.0000000000 8.6472997665 8.5000000000 73.835296631 0.0074000000  -999.250000 2.5971000195 7.6711001396 75.177902222  -999.250000  -999.250000 6.7420001030  -999.250000 5.3076000214
 4145.6333008 4.0000000000 8.5873003006 8.5000000000 62.591152191 0.0075993612  -999.250000 2.6497311592 9.2515344620 73.737113953  -999.250000  -999.250000 6.7120957375  -999.250000 5.8545470238
 4145.7856445 4.0000000000 8.4725999832 8.5000000000 53.377609253 0.0049086539  -999.250000 2.6556813717 9.7662620544 73.351127625  -999.250000  -999.250000 6.9626941681  -999.250000 6.8584775925
 4145.9379883 4.0000000000 8.5293998718 8.5000000000 44.483226776 0.0033051281  -999.250000 2.6642723083 10.273175240 74.820472717  -999.250000  -999.250000 7.2110042572  -999.250000 7.6939239502
