# LAS format log file from PETREL
# Project units are specified as depth units
#==================================================================
~Version information
VERS.   2.0:
WRAP.   NO:
#==================================================================
~Well
STRT .m      3771.1865234 :
STOP .m      4146.8525391 :
STEP .m     0.00000000 :
NULL .        -999.250000 :
COMP.           : COMPANY
WELL.  34/3-1 A   : WELL
FLD.            : FIELD
LOC.            : LOCATION
SRVC.           : SERVICE COMPANY
DATE.  2018-09-11 14:48:49   : Log Export Date {yyyy-MM-dd HH:mm:ss}
PROV.           : PROVINCE
UWI.   34/3-1 A   : UNIQUE WELL ID
API.            : API NUMBER
#==================================================================
~Curve
DEPT .m                   : DEPTH
Lithology_geolink ._      : Lithology_geolink
CALI .in                  : CALI
BS .in                    : BS
ROP .m/h                  : ROP
DRHO .g/cm3               : DRHO
NPHI .m3/m3               : NPHI
RHOB .g/cm3               : RHOB
PEF .b/e                  : PEF
GR .gAPI                  : GR
DTC .us/ft                : DTC
DTS .us/ft                : DTS
RDEP .ohm.m               : RDEP
RMIC .ohm.m               : RMIC
RMED .ohm.m               : RMED
~Parameter
#==================================================================
~Ascii
# ...
 3871.1611328 7.0000000000 8.5998001099 8.5000000000 55.903545380 -0.004200000 0.2782999873 2.5789999962 8.3923997879 114.18885040 83.346099854 155.47909546 3.3538000584  -999.250000 2.8259999752
 3871.3137207 7.0000000000 8.6183996201 8.5000000000 49.354656219 -0.006500000 0.2815999985 2.5757000446 8.5047998428 114.54570770 82.600509644 158.35130310 3.3861000538  -999.250000 2.8543000221
 3871.4660645 7.0000000000 8.6485004425 8.5000000000 46.328411102 -0.004700000 0.2919000089 2.5840001106 8.5165004730 119.49198151 81.246398926 157.92579651 3.4296998978  -999.250000 2.8550000191
 3871.6184082 7.0000000000 8.6599998474 8.5000000000 45.196193695 -0.004000000 0.2852999866 2.5901000500 9.0048999786 114.63086700 85.174301147 155.54209900 3.4428999424  -999.250000 2.8097999096
 3871.7707520 7.0000000000 8.6878995895 8.5000000000 43.859252930 -0.004100000 0.2984000146 2.5952000618 9.1617002487 120.20153046 89.104301453 153.14450073 3.4739000797  -999.250000 2.7867000103
 3871.9233398 7.0000000000 8.6414003372 8.5000000000 41.256889343 -0.002700000 0.3095000088 2.6034998894 9.0644998550 110.95161438 87.798202515 152.94659424 3.4684998989  -999.250000 2.7421998978
 3872.0756836 7.0000000000 8.6149997711 8.5000000000 42.143043518 -0.010500000 0.3109999895 2.5803000927 8.7218999863 115.93900299 85.132598877 153.58859253 3.4783000946  -999.250000 2.7358000278
 3872.2280273 7.0000000000 8.6372995377 8.5000000000 45.387138367 -0.011500000 0.3134000003 2.5766999722 8.6027002335 115.25843811 82.010398865 152.02529907 3.5920000076  -999.250000 2.7595999241
 3872.3803711 7.0000000000 8.6364002228 8.5000000000 53.814304352 -0.000500000 0.3111000061 2.5994000435 8.9333000183 117.77770233 79.797096252 151.24819946 3.5852000713  -999.250000 2.8043999672
 3872.5327148 7.0000000000 8.6239004135 8.5000000000 55.224739075 -0.003600000 0.3063000143 2.5998001099 9.1464996338 120.14831543 80.622703552 151.17179871 3.6405999660  -999.250000 2.8592998981
 3872.6853027 7.0000000000 8.6106996536 8.5000000000 52.518699646 -0.000600000 0.3023000062 2.6024000645 9.4330997467 121.15214539 83.553901672 151.93850708 3.6686000824  -999.250000 2.9207999706
 3872.8376465 7.0000000000 8.6401996613 8.5000000000 52.572505951 0.0005000000 0.2946000099 2.5947999954 9.6527004242 120.04341888 86.224502563 152.11610413 3.7121000290  -999.250000 2.9590001106
 3872.9899902 7.0000000000 8.6394996643 8.5000000000 52.106956482 -0.002700000 0.2782999873 2.5862998962 9.5761995316 119.18185425 84.466400146 151.79240417 3.6921000481  -999.250000 3.0123000145
 3873.1423340 7.0000000000 8.6385002136 8.5000000000 51.092189789 -0.003700000 0.2730999887 2.5787999630 9.2850999832 118.39472961 83.360397339 151.38748169 3.7732000351  -999.250000 3.0922999382
 3873.2949219 7.0000000000 8.6639995575 8.5000000000 50.042980194 -0.001400000 0.2612999976 2.5815999508 9.1582002640 110.48995972 79.431800842 151.94709778 3.7818999290  -999.250000 3.1401000023
 3873.4472656 7.0000000000 8.6639995575 8.5000000000 51.116470337 -0.002300000 0.2538999915 2.5790998936 8.6300001144 107.38845825 79.476501465 152.57580566 3.8127000332  -999.250000 3.2158999443
 3873.5996094 7.0000000000 8.6049003601 8.5000000000 50.181430817 -0.004700000 0.2425999939 2.5783998966 8.5151996613 104.43790436 82.764297485 153.28669739 3.8392000198  -999.250000 3.1930999756
 3873.7519531 6.0000000000 8.5699996948 8.5000000000 49.586944580 -0.005300000 0.2392999977 2.5808999538 9.1267004013 107.37342072 82.893096924 154.63598633 3.8594999313  -999.250000 3.1977999210
 3873.9045410 6.0000000000 8.5818004608 8.5000000000 54.217849731 -0.004600000 0.2392999977 2.5873999596 8.4666996002 108.91432190 81.128097534 153.25340271 3.8169000149  -999.250000 3.2165000439
 3874.0568848 6.0000000000 8.6331996918 8.5000000000 60.063644409 -0.008500000 0.2453999966 2.5754001141 7.9727001190 100.98494720 80.845497131 152.18908691 3.8108999729  -999.250000 3.1686000824
 3874.2092285 6.0000000000 8.6331996918 8.5000000000 67.753608704 -0.006800000 0.2460999936 2.5696001053 8.0824003220 104.63505554 79.464797974 149.90829468 3.7834999561  -999.250000 3.1199998856
 3874.3615723 6.0000000000 8.6426000595 8.5000000000 71.854988098 -0.006300000 0.2506999969 2.5710000992 7.9864001274 111.69976044 79.603996277 150.16430664 3.7486000061  -999.250000 3.0355000496
 3874.5139160 6.0000000000 8.6339998245 8.5000000000 63.448493958 -0.007000000 0.2508000135 2.5662000179 7.7358999252 106.75365448 80.360198975 148.70080566 3.7399001122  -999.250000 3.0023000240
 3874.6665039 6.0000000000 8.6758003235 8.5000000000 54.054462433 -0.007500000 0.2481999993 2.5625998974 7.7034997940 106.97304535 80.549011230 146.82749939 3.7479000092  -999.250000 2.9955000877
 3874.8188477 6.0000000000 8.7177000046 8.5000000000 48.539039612 -0.007400000 0.2300000042 2.5620999336 7.7407999039 106.53971100 82.694099426 147.22219849 3.7715001106  -999.250000 3.0301001072
 3874.9711914 6.0000000000 8.7126998901 8.5000000000 45.328083038 -0.006800000 0.2257999927 2.5617001057 7.4994001389 100.06265259 81.007896423 148.32670593 3.7699000835  -999.250000 3.0685000420
 3875.1235352 6.0000000000 8.7108001709 8.5000000000 42.958335876 -0.008100000 0.2281000018 2.5508999825 7.8067998886 97.722198486 80.195701599 148.10809326 3.7920000553  -999.250000 3.1173999310
 3875.2761230 6.0000000000 8.6505002975 8.5000000000 39.508857727 -0.007200000 0.2358999997 2.5648000240 8.4815998077 94.609901428 79.673210144 148.33120728 3.7802999020  -999.250000 3.1493999958
 3875.4284668 6.0000000000 8.5902996063 8.5000000000 34.643699646 -0.005600000 0.2321999967 2.5717999935 8.7002000809 97.051254272 78.892997742 148.47349548 3.7906000614  -999.250000 3.1912999153
 3875.5808105 6.0000000000 8.5859003067 8.5000000000 37.516731262 -0.001500000 0.2327000052 2.5724000931 9.1161003113 103.06666565 78.832199097 147.55430603 3.8101000786  -999.250000 3.2211999893
 3875.7331543 6.0000000000 8.5797004700 8.5000000000 35.200790405 0.0003000000 0.2247000039 2.5757999420 9.7124004364 103.35359192 80.801803589 145.14320374 3.8048999310  -999.250000 3.2242999077
 3875.8857422 6.0000000000 8.5733003616 8.5000000000 31.594820023 -0.000500000 0.2256000042 2.5734000206 10.338800430 102.33510590 81.534896851 144.59260559 3.8575000763  -999.250000 3.2211999893
 3876.0380859 6.0000000000 8.5669002533 8.5000000000 29.248687744 -0.006000000 0.2266000062 2.5710999966 9.0166997910 98.195907593 82.141197205 141.94960022 3.8619000912  -999.250000 3.2195999622
 3876.1904297 6.0000000000 8.6080999374 8.5000000000 30.267063141 -0.000300000 0.2261999995 2.5687003136 8.8915996552 99.322921753 81.880302429 141.57189941 3.8873000145  -999.250000 3.2119998932
 3876.3427734 6.0000000000 8.7118997574 8.5000000000 30.270996094 -0.009900000 0.2284000069 2.5560998917 7.9979000092 101.01985931 80.059402466 142.49879456 3.9072999954  -999.250000 3.2181000710
 3876.4951172 6.0000000000 8.6415996552 8.5000000000 25.808399200 -0.003100000 0.2275000066 2.5711998940 8.1141996384 100.50343323 78.856697083 146.74369812 3.9516000748  -999.250000 3.2186000347
 3876.6477051 6.0000000000 8.5904998779 8.5000000000 21.833333969 -0.003100000 0.2251999974 2.5711998940 7.7319998741 105.12602234 77.983299255 146.57119751 3.9672999382  -999.250000 3.2170000076
 3876.8000488 6.0000000000 8.5878000259 8.5000000000 19.415353775 -0.007500000 0.2285999954 2.5627999306 7.5048999786 103.59817505 78.414695740 149.11000061 3.9791998863  -999.250000 3.2172000408
 3876.9523926 5.0000000000 8.6478004456 8.5000000000 25.041337967 -0.012900000 0.2292000055 2.5532000065 7.1083998680 97.466194153 78.543998718 147.48950195 3.9967999458  -999.250000 3.2276000977
 3877.1047363 5.0000000000 8.6941995621 8.5000000000 39.330379486 -0.009400000 0.2239000052 2.5631999969 7.0458002090 92.666542053 78.812400818 144.04220581 3.9509999752  -999.250000 3.2434000969
 3877.2573242 5.0000000000 8.7012996674 8.5000000000 43.957347870 -0.004500000 0.2217999995 2.5659999847 8.3352003098 92.010429382 78.859397888 145.54159546 3.9514000416  -999.250000 3.2509000301
