# LAS format log file from PETREL
# Project units are specified as depth units
#==================================================================
~Version information
VERS.   2.0:
WRAP.   NO:
#==================================================================
~Well
STRT .m      2233.7756348 :
STOP .m      5007.4555664 :
STEP .m     0.00000000 :
NULL .        -999.250000 :
COMP.           : COMPANY
WELL.  34/3-3 A   : WELL
FLD.            : FIELD
LOC.            : LOCATION
SRVC.           : SERVICE COMPANY
DATE.  2018-09-11 14:48:49   : Log Export Date {yyyy-MM-dd HH:mm:ss}
PROV.           : PROVINCE
UWI.   34/3-3 A   : UNIQUE WELL ID
API.            : API NUMBER
#==================================================================
~Curve
DEPT .m                   : DEPTH
Lithology_geolink ._      : Lithology_geolink
CALI .in                  : CALI
BS .in                    : BS
ROP .m/h                  : ROP
DRHO .g/cm3               : DRHO
NPHI .m3/m3               : NPHI
RHOB .g/cm3               : RHOB
PEF .b/e                  : PEF
GR .gAPI                  : GR
DTC .us/ft                : DTC
DTS .us/ft                : DTS
RDEP .ohm.m               : RDEP
RMED .ohm.m               : RMED
~Parameter
#==================================================================
~Ascii
# ...
 3702.3020020  -999.250000 12.581199646 12.250000954 73.772308350 0.0166999996 0.2522054613 2.4877998829 6.0016999245 95.795196533 89.574722290  -999.250000 2.6257998943 2.4823999405
 3702.4543457  -999.250000 12.593099594 12.250000954 74.612205505 0.0100999996 0.2633820474 2.4649000168 6.6714000702 92.250198364 89.571304321  -999.250000 2.6514000893 2.4971001148
 3702.6066895  -999.250000 12.606200218 12.250000954 73.410430908 0.0137000000 0.2663904130 2.4756000042 6.9542999268 92.156402588 89.720016479  -999.250000 2.6505999565 2.4958999157
 3702.7592773  -999.250000 12.616800308 12.250000954 73.514770508 0.0231999997 0.2751859128 2.4930999279 7.3306999207 95.905296326 89.788192749  -999.250000 2.5943999290 2.4647998810
 3702.9116211  -999.250000 12.623200417 12.250000954 72.432739258 0.0309999995 0.2752998471 2.4976000786 7.5496001244 100.51090240 90.902114868  -999.250000 2.5701000690 2.4461998940
 3703.0639648  -999.250000 12.612799644 12.250000954 65.186027527 0.0377000012 0.2797927856 2.4974999428 7.6536002159 102.84829712 91.346290588  -999.250000 2.5434999466 2.4133999348
 3703.2163086  -999.250000 12.607099533 12.250000954 66.318901062 0.0326999985 0.2801987231 2.4951999187 6.9333000183 101.41239929 90.767158508  -999.250000 2.4921998978 2.3854999542
 3703.3688965  -999.250000 12.651201248 12.250000954 66.110893250 0.0184000004 0.2819971144 2.4786000252 6.0138001442 97.663497925 89.895294189  -999.250000 2.5002999306 2.3773999214
 3703.5212402  -999.250000 12.427498817 12.250000954 75.809387207 0.0186000001 0.2829983830 2.4930999279 5.5528001785 96.345901489 91.946807861  -999.250000 2.4784998894 2.3661000729
 3703.6735840  -999.250000 12.279000282 12.250000954 71.396987915 0.0186999999 0.2831996679 2.4821000099 5.8341999054 97.855201721 92.103958130  -999.250000 2.4860999584 2.3575000763
 3703.8259277  -999.250000 12.291299820 12.250000954 80.014106750 0.0306000002 0.2839987278 2.4872999191 6.9485001564 97.063796997 91.309677124  -999.250000 2.4753999710 2.3480000496
 3703.9782715  -999.250000 12.309499741 12.250000954 85.837928772 0.0309999995 0.2807105482 2.4793999195 7.5381999016 93.983901978 91.123893738  -999.250000 2.4942998886 2.3626000881
 3704.1308594  -999.250000 12.310199738 12.250000954 96.500000000 0.0362000018 0.2941783667 2.4886000156 8.0017004013 95.709503174 91.523857117  -999.250000 2.4979000092 2.3678998947
 3704.2832031  -999.250000 12.325200081 12.250000954 92.873359680 0.0250000004 0.2939004898 2.4800000191 7.6003999710 99.026000977 91.632225037  -999.250000 2.5455000401 2.3914000988
 3704.4355469  -999.250000 12.335399628 12.250000954 90.184379578 0.0242999997 0.2954974473 2.4786999226 7.6655001640 94.273597717 91.226051331  -999.250000 2.5643000603 2.3894999027
 3704.5878906  -999.250000 12.353599548 12.250000954 102.44389343 0.0297999997 0.2776572704 2.4899001122 7.5163002014 88.676696777 91.464332581  -999.250000 2.4993000031 2.3538999557
 3704.7404785  -999.250000 12.385100365 12.250000954 103.34186554 0.0346999988 0.2752038538 2.4976999760 7.5602998734 90.615196228 92.158386230  -999.250000 2.4458000660 2.3308000565
 3704.8928223  -999.250000 12.441799164 12.250000954 92.519027710 0.0278999992 0.2810905576 2.4897999763 7.4162001610 96.947196960 93.101486206  -999.250000 2.3791999817 2.2818999290
 3705.0451660  -999.250000 12.356399536 12.250000954 95.447181702 0.0199999996 0.2887876630 2.4786999226 7.0935997963 102.68190002 93.478096008  -999.250000 2.3512001038 2.2444999218
 3705.1975098  -999.250000 12.336099625 12.250000954 95.135826111 0.0221999995 0.2941827178 2.4821000099 6.8635001183 101.09420013 92.319320679  -999.250000 2.3259999752 2.2246999741
 3705.3500977  -999.250000 12.326999664 12.250000954 94.925529480 0.0210999995 0.2902064025 2.4825000763 6.7328000069 94.457199097 92.275657654  -999.250000 2.3197000027 2.1986999512
 3705.5024414  -999.250000 12.349399567 12.250000954 95.742126465 0.0245999992 0.2915977538 2.4756999016 7.3320999146 94.069602966 92.359260559  -999.250000 2.2427000999 2.1466999054
 3705.6547852  -999.250000 12.302499771 12.250000954 95.117454529 0.0239000004 0.2803181112 2.4704000950 7.5490999222 100.32489777 92.277328491  -999.250000 2.1445000172 2.0887000561
 3705.8071289  -999.250000 12.404399872 12.250000954 89.069885254 0.0247000009 0.2850923240 2.4670000076 7.5289998055 103.45539856 94.040573120  -999.250000 2.1201999187 2.0776000023
 3705.9594727  -999.250000 12.604299545 12.250000954 93.956039429 0.0211999994 0.2874923050 2.4597001076 7.3790998459 100.76139832 95.732772827  -999.250000 2.0369000435 2.0301001072
 3706.1120605  -999.250000 12.544400215 12.250000954 88.989830017 0.0182000007 0.2955870032 2.4539000988 7.4057998657 97.296401978 95.776741028  -999.250000 2.0494999886 2.0192000866
 3706.2644043  -999.250000 12.505500793 12.250000954 84.459320068 0.0239000004 0.2795258164 2.4553999901 7.7726998329 93.726997375 96.372047424  -999.250000 2.0954999924 2.0481998920
 3706.4167480  -999.250000 12.491499901 12.250000954 92.599411011 0.0303000007 0.2657221258 2.4739000797 7.8534998894 90.940803528 94.607627869  -999.250000 2.0689001083 2.0374000072
 3706.5690918  -999.250000 12.492199898 12.250000954 90.482284546 0.0430000015 0.2647031844 2.5002000332 8.0369997025 91.654602051 95.659019470  -999.250000 2.0701999664 2.0464000702
 3706.7216797  -999.250000 12.476799965 12.250000954 90.732612610 0.0401000008 0.2660977542 2.4993999004 8.0544004440 93.073097229 95.475700378  -999.250000 2.0727000237 2.0608999729
 3706.8740234  -999.250000 12.418700218 12.250000954 91.940620422 0.0368000008 0.2704929411 2.5037000179 7.7989001274 91.097503662 94.918395996  -999.250000 2.0827999115 2.0815999508
 3707.0263672  -999.250000 12.426400185 12.250000954 92.984252930 0.0296000000 0.2841780484 2.4923000336 7.5851001740 86.170799255 94.690269470  -999.250000 2.1689000130 2.2016999722
 3707.1787109  -999.250000 12.392800331 12.250000954 86.818244934 0.0357999988 0.2906791866 2.5202000141 7.2210001945 82.671897888 94.459037781  -999.250000 2.2281000614 2.2778000832
 3707.3312988  -999.250000 12.369001389 12.250000954 92.176506042 0.0237000007 0.2820139527 2.5009000301 6.9717998505 79.098396301 90.825721741  -999.250000 2.3345999718 2.3394000530
 3707.4836426  -999.250000 12.333999634 12.250000954 91.544296265 0.0135000004 0.2582381368 2.5369999409 7.3930997849 73.868698120 89.028472900  -999.250000 2.5992000103 2.5099000931
 3707.6359863  -999.250000 12.334700584 12.250000954 93.593177795 -0.003900000 0.2353367060 2.5353999138 7.3327999115 77.850196838 87.880340576  -999.250000 2.4147000313 2.3970999718
 3707.7883301  -999.250000 12.358499527 12.250000954 97.213912964 -0.005400000 0.2324000001 2.5352001190 6.9597001076 94.428596497 88.532348633  -999.250000 2.0466001034 2.1017999649
 3707.9406738  -999.250000 12.296899796 12.250000954 98.933731079 0.0027000001 0.2355999947 2.5076999664 5.5413999557 113.05889893 93.492774963  -999.250000 1.8901000023 1.9426000118
 3708.0932617  -999.250000 12.261099815 12.250000954 103.22277069 0.0110999998 0.2547999918 2.4892001152 4.9833002090 122.51490021 95.980628967 195.15458679 1.9486000538 1.9765000343
 3708.2456055  -999.250000 12.284999847 12.250000954 97.131889343 0.0214000009 0.2700999975 2.5088999271 4.4692997932 116.86090088 98.149917603 194.28628540 2.0304999352 2.0244998932
 3708.3979492  -999.250000 12.300000191 12.250000954 96.289039612 0.0154999997 0.2705000043 2.4960999489 4.1715998650 106.65440369 97.102088928 192.86817932 2.0432000160 2.0306000710
 3708.5502930  -999.250000 12.282799721 12.250000954 83.361549377 0.0087000001 0.2599999905 2.4800999165 3.7395000458 102.75039673 95.159629822 190.90229797 1.9808000326 2.0007998943
 3708.7028809  -999.250000 12.273799896 12.250000954 78.954399109 0.0076000001 0.2481999993 2.4809000492 3.5799000263 102.91359711 94.306846619 184.03561401 1.9831999540 1.9938999414
 3708.8552246  -999.250000 12.230999947 12.250000954 83.985893250 0.0107000005 0.2536999881 2.4995000362 3.4544999599 99.760299683 94.264869690 182.17796326 1.9372999668 1.9788000584
