# LAS format log file from PETREL
# Project units are specified as depth units
#==================================================================
~Version information
VERS.   2.0:
WRAP.   NO:
#==================================================================
~Well
STRT .m      3771.1865234 :
STOP .m      4146.8525391 :
STEP .m     0.00000000 :
NULL .        -999.250000 :
COMP.           : COMPANY
WELL.  34/3-1 A   : WELL
FLD.            : FIELD
LOC.            : LOCATION
SRVC.           : SERVICE COMPANY
DATE.  2018-09-11 14:48:49   : Log Export Date {yyyy-MM-dd HH:mm:ss}
PROV.           : PROVINCE
UWI.   34/3-1 A   : UNIQUE WELL ID
API.            : API NUMBER
#==================================================================
~Curve
DEPT .m                   : DEPTH
Lithology_geolink ._      : Lithology_geolink
CALI .in                  : CALI
BS .in                    : BS
ROP .m/h                  : ROP
DRHO .g/cm3               : DRHO
NPHI .m3/m3               : NPHI
RHOB .g/cm3               : RHOB
PEF .b/e                  : PEF
GR .gAPI                  : GR
DTC .us/ft                : DTC
DTS .us/ft                : DTS
RDEP .ohm.m               : RDEP
RMIC .ohm.m               : RMIC
RMED .ohm.m               : RMED
~Parameter
#==================================================================
~Ascii
# ...
 4064.8613281 2.0000000000 8.6736001968 8.5000000000 51.575771332 -0.014700000 0.2879999876 2.3578999043 7.9134001732 58.960899353 83.514801025 152.47500610 2.9862999916  -999.250000 1.4499664307
 4065.0139160 2.0000000000 8.6347999573 8.5000000000 48.213771820 -0.021900000 0.2763999999 2.3794999123 7.9457998276 56.782699585 83.181106567 152.38160706 3.1163001060  -999.250000 1.4265372753
 4065.1662598 2.0000000000 8.5691003799 8.5000000000 42.133438110 -0.015100000 0.2894000113 2.3840000629 7.9590997696 63.387599945 85.238296509 152.33279419 3.2297999859  -999.250000 1.5194507837
 4065.3186035 2.0000000000 8.5923995972 8.5000000000 31.209449768 -0.011500000 0.2867999971 2.3599998951 7.3022999763 67.867301941 83.177001953 150.81990051 3.9068000317  -999.250000 2.0120096207
 4065.4709473 4.0000000000 8.6153001785 8.5000000000 23.229644775 -0.007900000 0.2838000059 2.3568000793 7.2182002068 69.696403503 82.302696228 148.47779846 4.3138999939  -999.250000 2.4453058243
 4065.6232910 4.0000000000 8.6851997375 8.5000000000 19.829442978 -0.010800000 0.2739000022 2.3833000660 7.6098999977 58.586200714 82.412689209 146.67379761 4.7441000938  -999.250000 3.1496412754
 4065.7758789 4.0000000000 8.7552003860 8.5000000000 20.944713593 -0.005400000 0.2671999931 2.4175999165 7.7444000244 56.882198334 82.110603333 148.11230469 5.0622000694  -999.250000 3.8027553558
 4065.9282227 16.000000000 8.7552003860 8.5000000000 26.727596283 -0.003600000 0.2320999950 2.4440999031 7.9423999786 59.101200104 81.951591492 149.30130005 5.6105999947  -999.250000 4.8938503265
 4066.0805664 16.000000000 8.6856002808 8.5000000000 39.143798828 -0.005800000 0.2105000019 2.4904000759 8.1351995468 65.034400940 80.054397583 149.27040100 6.2512001991  -999.250000 6.5093097687
 4066.2329102 4.0000000000 8.6160001755 8.5000000000 52.248023987 -0.005700000 0.1800000072 2.5622000694 8.2498998642 69.385696411 80.151000977 147.41639709 6.6887001991  -999.250000 7.9009404182
 4066.3854980 4.0000000000 8.6160001755 8.5000000000 54.465995789 -0.010000000 0.1589999944 2.5738000870 8.2207002640 74.649497986 77.420303345 145.66720581 6.6002998352  -999.250000 8.9734849930
 4066.5378418 5.0000000000 8.5756998062 8.5000000000 52.641712189 -0.005900000 0.1360000074 2.5922999382 8.5742998123 77.583297729 74.547897339 141.73240662 5.3025999069  -999.250000 9.4745979309
 4066.6901855 5.0000000000 8.5756998062 8.5000000000 53.920516968 -0.002300000 0.1321000010 2.6085000038 8.5916996002 82.089996338 76.373992920 138.46980286 6.9040999413  -999.250000 7.5080575943
 4066.8425293 5.0000000000 8.6688003540 8.5000000000 54.513195038 -0.007100000 0.1386999935 2.6198000908 8.3829002380 85.587196350 75.518699646 134.28179932 5.8907999992  -999.250000 6.5607314110
 4066.9951172 5.0000000000 8.7714996338 8.5000000000 53.961845398 -0.002500000 0.1474999934 2.6398000717 8.8128995895 94.508300781 73.419998169 129.64450073 6.4956998825  -999.250000 8.6547336578
 4067.1474609 5.0000000000 8.7714996338 8.5000000000 52.600284576 0.0011000000 0.1511999965 2.6473999023 8.8937997818 101.41390228 72.527000427 124.41970062 5.6518998146  -999.250000 5.6767854691
 4067.2998047 6.0000000000 8.6597995758 8.5000000000 53.675769806 0.0055999998 0.1615999937 2.6380999088 8.8421001434 110.77290344 70.737998962 123.41210175 6.7003002167  -999.250000 5.7025508881
 4067.4521484 6.0000000000 8.7874002457 8.5000000000 61.231643677 -0.002100000 0.1659000069 2.6389000416 8.9007997513 119.10269928 70.049797058 124.65589905 6.5015997887  -999.250000 5.8697314262
 4067.6047363 7.0000000000 8.8224000931 8.5000000000 60.179195404 -0.006900000 0.1733999997 2.6612999439 8.7121000290 122.27549744 67.867897034 121.76550293 6.2941999435  -999.250000 5.7879314423
 4067.7570801 7.0000000000 8.7666997910 8.5000000000 53.252914429 -0.002900000 0.1770000011 2.6777000427 8.6674995422 113.50730133 72.008102417 122.15519714 5.6399998665  -999.250000 4.7187161446
 4067.9094238 7.0000000000 8.7110004425 8.5000000000 43.833343506 -0.002400000 0.1933999956 2.6663000584 8.8512001038 114.01879883 71.115303040 126.84519958 5.4039998055  -999.250000 4.5679392815
 4068.0617676 7.0000000000 8.7025003433 8.5000000000 44.436016083 -0.002700000 0.2224999964 2.6484000683 8.6399002075 118.64900208 70.669296265 128.41990662 5.1788001060  -999.250000 3.6117343903
 4068.2141113 7.0000000000 8.6288003922 8.5000000000 44.684574127 -0.006800000 0.2524000108 2.6287999153 8.3547000885 109.27210236 72.443000793 135.75489807 4.9092998505  -999.250000 3.3043818474
 4068.3666992 7.0000000000 8.6237001419 8.5000000000 41.555549622 -0.000800000 0.2588000000 2.6322999001 8.4912004471 119.83489990 77.052391052 138.23249817 4.8604001999  -999.250000 3.3364470005
 4068.5190430 7.0000000000 8.6885004044 8.5000000000 42.306201935 -0.000700000 0.2579999864 2.6333000660 8.4267997742 125.56849670 80.050697327 141.39149475 4.8867001534  -999.250000 3.4283525944
 4068.6713867 7.0000000000 8.7532997131 8.5000000000 48.457973480 -0.008100000 0.2621000111 2.6159000397 8.2313995361 121.14790344 80.139694214 142.48710632 4.8324999809  -999.250000 3.4561555386
 4068.8237305 7.0000000000 8.7048997879 8.5000000000 54.337455750 -0.010600000 0.2653000057 2.6124999523 8.1792001724 119.18080139 77.849090576 142.27990723 4.7803997993  -999.250000 3.5142138004
 4068.9763184 7.0000000000 8.6850996017 8.5000000000 59.950664520 -0.007200000 0.2653000057 2.6073999405 8.0559997559 108.71009827 80.207305908 142.05200195 4.7852997780  -999.250000 3.5435533524
 4069.1286621 7.0000000000 8.6808004379 8.5000000000 65.535339355 -0.007400000 0.2705000043 2.6054999828 8.1548004150 112.06050110 81.632499695 142.09280396 4.7241001129  -999.250000 3.5890269279
 4069.2810059 7.0000000000 8.6765003204 8.5000000000 69.245368958 -0.002500000 0.2700999975 2.5968000889 8.5922002792 115.81880188 81.931106567 141.69149780 4.6841001511  -999.250000 3.6577899456
 4069.4333496 7.0000000000 8.6765003204 8.5000000000 64.509643555 -0.001800000 0.2700000107 2.5912001133 8.6433000565 117.62999725 81.562797546 139.57690430 4.7188000679  -999.250000 3.7604706287
 4069.5859375 7.0000000000 8.7349996567 8.5000000000 59.081851959 -0.001000000 0.2653000057 2.5861999989 8.6346998215 106.17949677 80.943496704 139.93029785 4.7832999229  -999.250000 3.8368000984
 4069.7382813 6.0000000000 8.7349996567 8.5000000000 58.398719788 0.0003000000 0.2655999959 2.5694999695 8.4182996750 108.13130188 81.897697449 142.25709534 4.7511000633  -999.250000 3.9653000832
 4069.8906250 6.0000000000 8.7812004089 8.5000000000 57.992122650 -0.002200000 0.2689999938 2.5545001030 8.2506999969 105.71029663 83.021301270 141.50669861 4.7126002312  -999.250000 4.1089000702
 4070.0429688 6.0000000000 8.8099002838 8.5000000000 54.284492493 -0.004700000 0.2741999924 2.5501000881 8.0853996277 109.52069855 82.799110413 140.52409363 4.6928000450  -999.250000 4.1465001106
 4070.1953125 6.0000000000 8.8099002838 8.5000000000 40.863281250 -0.002000000 0.2689999938 2.5515000820 8.4759998322 107.25599670 82.383796692 140.02220154 4.6984000206  -999.250000 4.1501002312
 4070.3479004 6.0000000000 8.7538003922 8.5000000000 29.934471130 -0.001300000 0.2741999924 2.5581998825 8.6890001297 111.20300293 81.518310547 140.85600281 4.6866002083  -999.250000 4.1090998650
 4070.5002441 6.0000000000 8.6976003647 8.5000000000 22.052322388 -0.014500000 0.2782999873 2.5494999886 8.4371995926 114.04869843 81.121002197 140.56930542 4.6044001579  -999.250000 4.0673999786
 4070.6525879 6.0000000000 8.6976003647 8.5000000000 18.639642715 -0.008600000 0.2815000117 2.5502998829 7.9614000320 111.14199829 80.716201782 140.66799927 4.5557999611  -999.250000 3.9707000256
 4070.8049316 6.0000000000 8.7666997910 8.5000000000 17.609588623 -0.003400000 0.2915999889 2.5576000214 8.2224998474 113.18090057 81.443405151 142.26370239 4.4375000000  -999.250000 3.8840000629
 4070.9575195 6.0000000000 8.7666997910 8.5000000000 18.340030670 -0.006900000 0.3043999970 2.5527000427 8.2995996475 116.61430359 81.017906189 142.54449463 4.4512000084  -999.250000 3.7541999817
