# LAS format log file from PETREL
# Project units are specified as depth units
#==================================================================
~Version information
VERS.   2.0:
WRAP.   NO:
#==================================================================
~Well
STRT .m      2233.7756348 :
STOP .m      5007.4555664 :
STEP .m     0.00000000 :
NULL .        -999.250000 :
COMP.           : COMPANY
WELL.  34/3-3 A   : WELL
FLD.            : FIELD
LOC.            : LOCATION
SRVC.           : SERVICE COMPANY
DATE.  2018-09-11 14:48:49   : Log Export Date {yyyy-MM-dd HH:mm:ss}
PROV.           : PROVINCE
UWI.   34/3-3 A   : UNIQUE WELL ID
API.            : API NUMBER
#==================================================================
~Curve
DEPT .m                   : DEPTH
Lithology_geolink ._      : Lithology_geolink
CALI .in                  : CALI
BS .in                    : BS
ROP .m/h                  : ROP
DRHO .g/cm3               : DRHO
NPHI .m3/m3               : NPHI
RHOB .g/cm3               : RHOB
PEF .b/e                  : PEF
GR .gAPI                  : GR
DTC .us/ft                : DTC
DTS .us/ft                : DTS
RDEP .ohm.m               : RDEP
RMED .ohm.m               : RMED
~Parameter
#==================================================================
~Ascii
# ...
 2602.5837402  -999.250000 12.595899582 12.250000954 99.773262024 0.0142947119 0.3098999858 2.3835999966 4.1145000458 94.864273071 109.78839111  -999.250000 1.3681000471 1.3777999878
 2602.7360840  -999.250000 12.546198845 12.250000954 96.486267090 0.0109858969 0.3167999983 2.3763999939 4.5451002121 92.976135254 109.04840088  -999.250000 1.3792999983 1.3865000010
 2602.8886719  -999.250000 12.441799164 12.250000954 96.712730408 0.0022150399 0.3021000028 2.3661000729 4.9537000656 90.807556152 108.33750153  -999.250000 1.3792999983 1.3865000010
 2603.0410156  -999.250000 12.494299889 12.250000954 94.001358032 0.0069032051 0.2908000052 2.3622999191 5.5334000587 87.863555908 109.80519867  -999.250000 1.3918000460 1.3805999756
 2603.1933594  -999.250000 12.539600372 12.250000954 98.097953796 0.0089141028 0.2985999882 2.3619000912 6.0872001648 86.472824097 111.05490112  -999.250000 1.3136999607 1.3192000389
 2603.3457031  -999.250000 12.584000587 12.250000954 85.570594788 0.0177044868 0.3120000064 2.3666999340 7.0029997826 89.549491882 112.55809784  -999.250000 1.2391999960 1.2525999546
 2603.4980469  -999.250000 12.524499893 12.250000954 103.99459839 0.0205083340 0.3235000074 2.3640000820 7.8958997726 96.403533936 113.51670837  -999.250000 1.2028000355 1.2120000124
 2603.6506348  -999.250000 12.625301361 12.250000954 101.48476410 0.0256785583 0.3194000125 2.3719999790 7.8115000725 100.65831757 114.08010101  -999.250000 1.1823999882 1.1957999468
 2603.8029785  -999.250000 12.498800278 12.250000954 113.17704773 0.0189910252 0.3253999949 2.3728001118 7.2946000099 99.475608826 115.02179718  -999.250000 1.1636999846 1.1554000378
 2603.9553223  -999.250000 12.508000374 12.250000954 103.69548035 0.0134057691 0.3355000019 2.3673999310 6.7287001610 97.165122986 117.33369446  -999.250000 1.1023000479 1.1016999483
 2604.1076660  -999.250000 12.474699974 12.250000954 96.930870056 0.0170270838 0.3147999942 2.3756000996 6.9675002098 92.059059143 117.71829987  -999.250000 1.0645999908 1.0850000381
 2604.2602539  -999.250000 12.464199066 12.250000954 104.31936646 0.0338667184 0.3188000023 2.4718000889 7.9183998108 84.288780212 116.84690094  -999.250000 1.0932999849 1.1016999483
 2604.4125977  -999.250000 12.459300041 12.250000954 94.126716614 0.0235205125 0.3115999997 2.5590999126 9.4984998703 79.143417358 114.93800354  -999.250000 1.4127000570 1.3388999701
 2604.5649414  -999.250000 12.490098953 12.250000954 84.548896790 0.0362722762 0.3294000030 2.6092000008 10.010700226 78.910736084 111.71399689  -999.250000 1.4783999920 1.3875000477
 2604.7172852  -999.250000 12.438299179 12.250000954 72.514801025 0.0190259609 0.3195999861 2.4918000698 8.7505998611 82.617492676 108.86779785  -999.250000 1.2632000446 1.2458000183
 2604.8698730  -999.250000 12.416000366 12.250000954 81.129417419 0.0351379216 0.3282000124 2.4205000401 7.0334000587 88.119140625 109.82209778  -999.250000 1.2048000097 1.1941000223
 2605.0222168  -999.250000 12.362700462 12.250000954 82.819984436 0.0157785248 0.3102000058 2.3643000126 5.8614997864 96.336387634 112.65769958  -999.250000 1.1504000425 1.1548000574
 2605.1745605  -999.250000 12.378100395 12.250000954 87.948066711 0.0023866987 0.3012000024 2.3455998898 5.0746002197 103.43658447 112.78649902  -999.250000 1.1504000425 1.1548000574
 2605.3269043  -999.250000 12.393699646 12.250000954 56.789829254 -0.005896635 0.3075999916 2.3347001076 4.7481999397 104.98199463 113.76699829  -999.250000 1.1742000580 1.1497000456
 2605.4792480  -999.250000 12.413800240 12.250000954 38.274211884 -0.003780128 0.3061999977 2.3350999355 5.2497000694 101.66921234 113.98529816  -999.250000 1.1940000057 1.1520999670
 2605.6318359  -999.250000 12.444299698 12.250000954 39.450275421 0.0086329607 0.3102999926 2.3513998985 6.0448999405 96.375740051 113.26909637  -999.250000 1.1940000057 1.1520999670
 2605.7841797  -999.250000 12.446599960 12.250000954 36.534393311 0.0188931078 0.3109000027 2.3738000393 6.8060002327 93.549652100 113.04000092  -999.250000 1.1776000261 1.1719000340
 2605.9365234  -999.250000 12.420100212 12.250000954 37.931751251 0.0145841353 0.3097000122 2.3738000393 6.5068998337 91.398071289 112.29090118  -999.250000 1.2073999643 1.2103999853
 2606.0888672  -999.250000 12.429200172 12.250000954 38.750885010 0.0046921475 0.3041999936 2.3699998856 5.3263001442 88.702125549 112.77320099  -999.250000 1.2073999643 1.2103999853
 2606.2414551  -999.250000 12.409999847 12.250000954 42.772670746 -0.000196160 0.2948000133 2.3554999828 4.3294000626 88.659370422 112.14179993  -999.250000 1.2498999834 1.2474999428
 2606.3937988  -999.250000 12.390700340 12.250000954 41.657341003 0.0010025641 0.3061999977 2.3615000248 3.7346000671 90.207221985 112.38610077  -999.250000 1.3040000200 1.2946000099
 2606.5461426  -999.250000 12.378800392 12.250000954 41.364524841 0.0025972757 0.3136999905 2.3682999611 3.8933999538 89.965980530 112.09530640  -999.250000 1.3007999659 1.3112000227
 2606.6984863  -999.250000 12.324199677 12.250000954 40.373611450 0.0009027243 0.3170999885 2.3712999821 4.1208000183 88.272750854 111.18219757  -999.250000 1.3007999659 1.3112000227
 2606.8510742  -999.250000 12.326299667 12.250000954 51.089233398 0.0026086401 0.3059999943 2.3822000027 4.4784998894 88.742622375 110.76889801  -999.250000 1.3041000366 1.3127000332
 2607.0034180  -999.250000 12.345899582 12.250000954 93.089355469 0.0053080125 0.3007000089 2.3835000992 4.8143000603 90.185173035 109.85791016  -999.250000 1.3238999844 1.3257000446
 2607.1557617  -999.250000 12.343899727 12.250000954 92.159599304 0.0102926288 0.3030000031 2.3884000778 5.2947998047 91.108352661 108.41000366  -999.250000 1.4005000591 1.3986999989
 2607.3081055  -999.250000 12.339599609 12.250000954 106.35516357 0.0056951926 0.3169000149 2.3838000298 5.4331002235 94.012847900 107.31790161  -999.250000 1.4614000320 1.4401999712
 2607.4604492  -999.250000 12.371400833 12.250000954 104.63271332 0.0026985600 0.3066999912 2.3710999489 5.0230998993 97.591094971 106.32579803  -999.250000 1.4614000320 1.4401999712
 2607.6130371  -999.250000 12.357299805 12.250000954 109.23084259 0.0018068909 0.3174999952 2.3736000061 4.3227000237 97.328422546 106.85179901  -999.250000 1.4919999838 1.4895999432
 2607.7653809  -999.250000 12.352198601 12.250000954 102.80323029 0.0061038462 0.3118999898 2.3673000336 3.8750998974 92.224082947 106.63040161  -999.250000 1.4560999870 1.4673000574
 2607.9177246  -999.250000 12.387200356 12.250000954 96.515884399 0.0084950328 0.2996000051 2.3768000603 3.8754000664 88.038444519 106.70020294  -999.250000 1.4765000343 1.4800000191
 2608.0700684  -999.250000 12.388600349 12.250000954 93.333816528 0.0054060901 0.2883000076 2.3636999130 4.7147998810 86.381370544 107.97879791  -999.250000 1.5168999434 1.5110000372
 2608.2226563  -999.250000 12.371800423 12.250000954 95.055839539 0.0092291199 0.2739999890 2.3650000095 5.8217000961 84.618690491 108.28249359  -999.250000 1.5360493660 1.5211735964
 2608.3750000  -999.250000 12.383399963 12.250000954 92.822204590 0.0182947125 0.2825999856 2.3733999729 7.3585000038 85.496276855 108.11190033  -999.250000 1.4890286922 1.4817326069
 2608.5273438  -999.250000 12.468400002 12.250000954 90.589027405 0.0149866985 0.2716999948 2.3482999802 7.7736001015 90.596618652 110.14669800  -999.250000 1.4444804192 1.4396902323
 2608.6796875  -999.250000 12.455299377 12.250000954 90.607727051 0.0066884612 0.2851999998 2.3441998959 6.2432999611 94.723121643 109.91690063  -999.250000 1.3699104786 1.3712073565
 2608.8322754  -999.250000 12.436900139 12.250000954 57.205856323 -0.000510880 0.2892999947 2.3378000259 4.6870999336 94.164802551 110.30609894  -999.250000 1.3138591051 1.3132712841
 2608.9846191  -999.250000 12.433300018 12.250000954 71.481613159 -0.003899679 0.3007999957 2.3573000431 3.6196999550 91.172584534 111.93849945  -999.250000 1.2387249470 1.2419226170
 2609.1369629  -999.250000 12.429900169 12.250000954 150.29898071 -0.003695833 0.3009000123 2.3587000370 3.8696999550 89.420593262 112.27600098  -999.250000 1.1919587851 1.1937377453
