# LAS format log file from PETREL
# Project units are specified as depth units
#==================================================================
~Version information
VERS.   2.0:
WRAP.   NO:
#==================================================================
~Well
STRT .m      2233.7756348 :
STOP .m      5007.4555664 :
STEP .m     0.00000000 :
NULL .        -999.250000 :
COMP.           : COMPANY
WELL.  34/3-3 A   : WELL
FLD.            : FIELD
LOC.            : LOCATION
SRVC.           : SERVICE COMPANY
DATE.  2018-09-11 14:48:49   : Log Export Date {yyyy-MM-dd HH:mm:ss}
PROV.           : PROVINCE
UWI.   34/3-3 A   : UNIQUE WELL ID
API.            : API NUMBER
#==================================================================
~Curve
DEPT .m                   : DEPTH
Lithology_geolink ._      : Lithology_geolink
CALI .in                  : CALI
BS .in                    : BS
ROP .m/h                  : ROP
DRHO .g/cm3               : DRHO
NPHI .m3/m3               : NPHI
RHOB .g/cm3               : RHOB
PEF .b/e                  : PEF
GR .gAPI                  : GR
DTC .us/ft                : DTC
DTS .us/ft                : DTS
RDEP .ohm.m               : RDEP
RMED .ohm.m               : RMED
~Parameter
#==================================================================
~Ascii
# ...
 5003.1884766 4.0000000000 8.8228998184 8.5000000000 54.111549377 0.0450999998 0.2264589816 2.3768000603 12.375399590 56.480400085  -999.250000  -999.250000 3.2811000347 3.2358999252
 5003.3408203 4.0000000000 8.8844995499 8.5000000000 49.188976288 0.0487000011 0.2104516029 2.3833999634 12.888999939 58.933200836  -999.250000  -999.250000 3.3034000397 3.2604000568
 5003.4931641 4.0000000000 8.8765001297 8.5000000000 52.720474243 0.0447999984 0.2093035281 2.4047999382 11.422300339 61.362701416  -999.250000  -999.250000 3.3211998940 3.2755999565
 5003.6455078 4.0000000000 8.8253002167 8.5000000000 58.224407196 0.0439999998 0.2303323746 2.4107000828 10.821800232 61.177600861  -999.250000  -999.250000 3.3608000278 3.3055000305
 5003.7978516 4.0000000000 8.8233003616 8.5000000000 57.515747070 0.0445000008 0.2136538476 2.4158000946 10.588299751 60.961399078  -999.250000  -999.250000 3.3912000656 3.3471999168
 5003.9501953 4.0000000000 8.7583999634 8.5000000000 53.063320160 0.0436000004 0.2108089775 2.3989999294 11.676600456 61.739700317  -999.250000  -999.250000 3.3901000023 3.3740999699
 5004.1025391 4.0000000000 8.7546997070 8.5000000000 53.101051331 0.0480000004 0.2146750838 2.3938999176 12.475700378 66.049201965  -999.250000  -999.250000 3.4614000320 3.4200999737
 5004.2548828 4.0000000000 8.7210998535 8.5000000000 49.919292450 0.0546999983 0.2041679472 2.3864998817 13.792900085 65.801597595  -999.250000  -999.250000 3.5053999424 3.4509000778
 5004.4077148 5.0000000000 8.6750001907 8.5000000000 48.935695648 0.0520000011 0.2088846266 2.3949000835 12.682900429 66.306396484  -999.250000  -999.250000 3.5459001064 3.4862000942
 5004.5600586 5.0000000000 8.6352996826 8.5000000000 53.800197601 0.0417999998 0.2409967929 2.4073998928 10.918000221 63.131698608  -999.250000  -999.250000 3.5836999416 3.5332000256
 5004.7124023 5.0000000000 8.7164001465 8.5000000000 45.129264832 0.0216000006 0.2101993561 2.4247000217 7.6416997910 64.163002014  -999.250000  -999.250000 3.6099998951 3.5913999081
 5004.8647461 5.0000000000 8.7346000671 8.5000000000 49.661087036 0.0167999994 0.2048169822 2.4428999424 6.0464000702 64.813003540  -999.250000  -999.250000 3.7005000114 3.6730000973
 5005.0170898 5.0000000000 8.7151002884 8.5000000000 35.667980194 0.0136000002 0.1961278766 2.4553999901 5.4724001884 67.161903381  -999.250000  -999.250000 3.8045001030 3.7711000443
 5005.1694336 5.0000000000 8.7100000381 8.5000000000 24.186679840 0.0183000006 0.1917140931 2.4658000469 5.8527998924 67.862098694  -999.250000  -999.250000 3.8591001034 3.8276000023
 5005.3217773 5.0000000000 8.5768995285 8.5000000000 24.122375488 0.0199999996 0.1860182732 2.4712998867 6.0338001251 66.634803772  -999.250000  -999.250000 3.9823000431 3.9233000278
 5005.4741211 5.0000000000 8.6378002167 8.5000000000 24.729988098 0.0241000000 0.1919616610 2.4816999435 6.1336002350 66.628196716  -999.250000  -999.250000 4.0774998665 4.0090999603
 5005.6264648 5.0000000000 8.6300001144 8.5000000000 24.599081039 0.0276999995  -999.250000 2.4753999710 7.6131000519 65.082496643  -999.250000  -999.250000 4.2762999535 4.1149001122
 5005.7792969 5.0000000000 8.6337003708 8.5000000000 25.062664032 0.0386999995  -999.250000 2.4725000858 9.6115999222 65.605499268  -999.250000  -999.250000 4.4980001450 4.2548999786
 5005.9316406 5.0000000000 8.6577997208 8.5000000000 25.832349777 0.0485999994  -999.250000 2.4553000927 11.212499619 64.223098755  -999.250000  -999.250000 4.7007999420 4.3661999702
 5006.0839844 5.0000000000 8.6625003815 8.5000000000 25.505577087 0.0436000004  -999.250000 2.4637999535 9.9465999603 65.073501587  -999.250000  -999.250000  -999.250000  -999.250000
 5006.2363281 5.0000000000 8.6687002182 8.5000000000 26.634187698 0.0329999998  -999.250000 2.4735000134 7.9053997993 63.909599304  -999.250000  -999.250000  -999.250000  -999.250000
 5006.3886719 5.0000000000 8.6625003815 8.5000000000 25.454397202 0.0384000018  -999.250000 2.4976000786 7.0939002037 65.746002197  -999.250000  -999.250000  -999.250000  -999.250000
 5006.5410156 5.0000000000 8.6576995850 8.5000000000 31.055776596 0.0344000012  -999.250000 2.5009999275 6.6992001534 65.517303467  -999.250000  -999.250000  -999.250000  -999.250000
 5006.6933594 5.0000000000 8.6564998627 8.5000000000 50.742454529 0.0399000011  -999.250000 2.5041999817 7.8885998726 66.919197083  -999.250000  -999.250000  -999.250000  -999.250000
 5006.8457031 5.0000000000 8.6447000504 8.5000000000 51.889106750 0.0443999991  -999.250000 2.5185000896 9.1863002777 65.621696472  -999.250000  -999.250000  -999.250000  -999.250000
 5006.9985352 5.0000000000 8.6340999603 8.5000000000 51.668636322 0.0568000004  -999.250000 2.5508000851 10.567600250 66.509498596  -999.250000  -999.250000  -999.250000  -999.250000
 5007.1508789 5.0000000000 8.5794000626 8.5000000000 52.630252838 0.0545999967  -999.250000 2.5845000744 11.008000374 64.324401855  -999.250000  -999.250000  -999.250000  -999.250000
 5007.3032227 4.0000000000 8.5354995728 8.5000000000 49.728019714 0.0452000014  -999.250000 2.6140000820 10.294400215 62.279598236  -999.250000  -999.250000  -999.250000  -999.250000
 5007.4555664 4.0000000000 8.5600004196 8.5000000000 52.591865540 0.0357000008  -999.250000 2.6364998817 9.4243001938 59.192699432  -999.250000  -999.250000  -999.250000  -999.250000
