# LAS format log file from PETREL
# Project units are specified as depth units
#==================================================================
~Version information
VERS.   2.0:
WRAP.   NO:
#==================================================================
~Well
STRT .m      2233.7756348 :
STOP .m      5007.4555664 :
STEP .m     0.00000000 :
NULL .        -999.250000 :
COMP.           : COMPANY
WELL.  34/3-3 A   : WELL
FLD.            : FIELD
LOC.            : LOCATION
SRVC.           : SERVICE COMPANY
DATE.  2018-09-11 14:48:49   : Log Export Date {yyyy-MM-dd HH:mm:ss}
PROV.           : PROVINCE
UWI.   34/3-3 A   : UNIQUE WELL ID
API.            : API NUMBER
#==================================================================
~Curve
DEPT .m                   : DEPTH
Lithology_geolink ._      : Lithology_geolink
CALI .in                  : CALI
BS .in                    : BS
ROP .m/h                  : ROP
DRHO .g/cm3               : DRHO
NPHI .m3/m3               : NPHI
RHOB .g/cm3               : RHOB
PEF .b/e                  : PEF
GR .gAPI                  : GR
DTC .us/ft                : DTC
DTS .us/ft                : DTS
RDEP .ohm.m               : RDEP
RMED .ohm.m               : RMED
~Parameter
#==================================================================
~Ascii
# ...
 4252.1611328  -999.250000 12.350099564 12.250000954  -999.250000 0.0063999998 0.2945111692 2.5720999241 4.0510997772 114.99179840 95.162101746  -999.250000 2.0090999603 1.8991999626
 4252.3134766  -999.250000 12.366900444 12.250000954  -999.250000 0.0068999999 0.2967926264 2.5780999660 4.0996999741 112.06140137 94.410415649  -999.250000 1.9776999950 1.9057999849
 4252.4658203  -999.250000 12.362700462 12.250000954  -999.250000 -0.000600000 0.3049737215 2.5474998951 4.1159000397 111.57430267 91.073028564  -999.250000 2.0188999176 1.9270000458
 4252.6181641  -999.250000 12.366900444 12.250000954  -999.250000 -0.005000000 0.3219455183 2.5218000412 4.0275001526 110.31500244 90.360656738  -999.250000 1.9934999943 1.9074000120
 4252.7705078  -999.250000 12.347999573 12.250000954  -999.250000 -0.001700000 0.3263859153 2.5315001011 4.4222998619 113.55999756 89.950714111  -999.250000 2.0148999691 1.9219000340
 4252.9228516  -999.250000 12.347999573 12.250000954  -999.250000 0.0009000000 0.3281942308 2.5450000763 4.4657998085 118.67379761 91.828056335  -999.250000 2.0216999054 1.9213000536
 4253.0756836  -999.250000 12.346599579 12.250000954  -999.250000 0.0035999999 0.3136000037 2.5539000034 4.6020998955 120.08959961 92.628700256  -999.250000 1.9780000448 1.8628000021
 4253.2280273  -999.250000 12.345198631 12.250000954  -999.250000 0.0034000000 0.3098999858 2.5524001122 4.3913002014 118.66069794 92.343696594  -999.250000 1.9405000210 1.8580000401
 4253.3803711  -999.250000 12.365501404 12.250000954  -999.250000 0.0020000001 0.3210999966 2.5434000492 4.4910001755 114.42389679 92.174697876  -999.250000 2.0243000984 1.9414000511
 4253.5327148  -999.250000 12.365099907 12.250000954  -999.250000 0.0118000004 0.3272801936 2.5680000782 4.5044999123 110.96849823 90.531761169  -999.250000 2.2149999142 2.0132000446
 4253.6850586  -999.250000 12.360600471 12.250000954  -999.250000 0.0063999998 0.3271006644 2.5450997353 4.4704999924 110.61959839 90.571151733  -999.250000 2.0539999008 1.9265999794
 4253.8374023  -999.250000 12.360600471 12.250000954  -999.250000 0.0080000004 0.3131448925 2.5518000126 4.3235001564 111.59300232 89.431358337  -999.250000 2.0638000965 1.9552999735
 4253.9897461  -999.250000 12.389300346 12.250000954  -999.250000 0.0015000000 0.3157913685 2.5271999836 4.3509001732 112.51260376 89.858016968  -999.250000 2.0315999985 1.9625999928
 4254.1420898  -999.250000 12.359199524 12.250000954  -999.250000 0.0024000001 0.3265653849 2.5404000282 4.2287998199 115.03170013 91.355583191  -999.250000 2.1605000496 2.0109999180
 4254.2949219  -999.250000 12.303899765 12.250000954  -999.250000 -0.002600000 0.3431999981 2.5334000587 4.2828001976 117.38099670 90.975303650  -999.250000 2.2313001156 2.0299000740
 4254.4472656  -999.250000 12.339299202 12.250000954  -999.250000 -0.004400000 0.3470999897 2.5399999619 4.4388999939 111.56590271 88.728599548  -999.250000 2.1164000034 2.0011999607
 4254.5996094  -999.250000 12.349200249 12.250000954  -999.250000 -0.005900000 0.3386999965 2.5543000698 4.8635997772 104.76989746 90.797698975  -999.250000 1.9450999498 1.8877999783
 4254.7519531  -999.250000 12.374401093 12.250000954  -999.250000 -0.001600000 0.3231999874 2.5683999062 5.1975998878 105.99490356 93.669097900  -999.250000 1.9321000576 1.8803000450
 4254.9042969  -999.250000 12.371199608 12.250000954  -999.250000 -0.002500000 0.3288818002 2.5680000782 5.0841999054 110.10910034 95.138984680  -999.250000 2.1145000458 1.9786000252
 4255.0566406  -999.250000 12.383299828 12.250000954  -999.250000 0.0004000000 0.3235173225 2.5666000843 4.8463001251 111.98329926 94.565063477  -999.250000 2.1268000603 1.9879000187
 4255.2089844  -999.250000 12.364100456 12.250000954  -999.250000 0.0022000000 0.3245964944 2.5682001114 4.7266998291 110.76699829 93.632888794  -999.250000 2.0494000912 1.9460999966
 4255.3613281  -999.250000 12.349399567 12.250000954  -999.250000 0.0057999999 0.3163266182 2.5666999817 4.7456998825 110.94779968 91.142097473  -999.250000 1.8939000368 1.8650000095
 4255.5136719  -999.250000 12.325099945 12.250000954  -999.250000 0.0015000000 0.3131102622 2.5545001030 4.4762001038 113.44259644 89.624153137  -999.250000 1.9215999842 1.8510999680
 4255.6665039  -999.250000 12.323499680 12.250000954  -999.250000 -0.001000000 0.3048999906 2.5494000912 4.2125000954 115.54139709 90.131896973  -999.250000 1.9153000116 1.8226000071
 4255.8188477  -999.250000 12.405399323 12.250000954  -999.250000 0.0052000000 0.3016000092 2.5615999699 4.3105001450 115.93370056 90.410202026  -999.250000 2.0518999100 1.9002000093
 4255.9711914  -999.250000 12.362299919 12.250000954  -999.250000 0.0087000001 0.3082000017 2.5632998943 4.3031997681 113.64569855 90.698097229  -999.250000 1.9455000162 1.8454999924
 4256.1235352  -999.250000 12.352198601 12.250000954  -999.250000 0.0092000002 0.3126856387 2.5566999912 4.2620000839 113.41670227 89.532135010  -999.250000 1.9198000431 1.8544000387
 4256.2758789  -999.250000 12.356699944 12.250000954  -999.250000 0.0002000000 0.3147932589 2.5476999283 4.1205000877 116.94730377 89.692871094  -999.250000 1.9257999659 1.8552999496
 4256.4282227  -999.250000 12.364800453 12.250000954  -999.250000 -0.003800000 0.3164945543 2.5504999161 4.1883997917 117.61640167 89.022956848  -999.250000 1.9589999914 1.8644000292
 4256.5805664  -999.250000 12.373900414 12.250000954  -999.250000 -0.003500000 0.3130111992 2.5585000515 4.1599001884 114.00090027 89.785041809  -999.250000 1.9435000420 1.8422000408
 4256.7329102  -999.250000 12.347999573 12.250000954  -999.250000 -0.001300000 0.3034307659 2.5539999008 4.2362999916 112.56950378 89.619346619  -999.250000 1.9579000473 1.8618999720
 4256.8852539  -999.250000 12.359900475 12.250000954  -999.250000 0.0024000001 0.2917374969 2.5460000038 4.5963997841 117.37740326 88.323562622  -999.250000 1.9537999630 1.8652000427
 4257.0380859  -999.250000 12.371100426 12.250000954  -999.250000 0.0104000000 0.2992999852 2.5460999012 5.3793001175 118.06210327 89.270698547  -999.250000 1.9394999743 1.8619999886
 4257.1904297  -999.250000 12.396300316 12.250000954  -999.250000 0.0120999999 0.3077999949 2.5536000729 5.5113000870 113.56600189 90.575103760  -999.250000 2.0074000359 1.8978999853
 4257.3427734  -999.250000 12.380200386 12.250000954  -999.250000 0.0065000001 0.3133000135 2.5497999191 5.2042999268 114.01889801 89.693901062  -999.250000 2.2416999340 2.0476000309
 4257.4951172  -999.250000 12.376999855 12.250000954  -999.250000 0.0012000001 0.3081165850 2.5453999043 4.5394001007 113.01399994 88.371345520  -999.250000 2.1163001060 2.0069000721
 4257.6474609  -999.250000 12.408200264 12.250000954  -999.250000 0.0044999998 0.3154762685 2.5462000370 4.3196001053 108.89910126 88.110923767  -999.250000 1.9673999548 1.9155999422
 4257.7998047  -999.250000 12.398401260 12.250000954  -999.250000 0.0115999999 0.3215804398 2.5557999611 4.1391000748 108.08190155 89.250228882  -999.250000 1.9939999580 1.9277000427
 4257.9521484  -999.250000 12.419400215 12.250000954  -999.250000 0.0120999999 0.3359538317 2.5564999580 4.0911998749 108.07230377 89.876991272  -999.250000 1.9879000187 1.9078999758
 4258.1044922  -999.250000 12.362700462 12.250000954  -999.250000 0.0057999999 0.3435756564 2.5562000275 3.9767999649 107.89550018 89.621726990  -999.250000 2.0676999092 1.9409999847
 4258.2573242  -999.250000 12.371100426 12.250000954  -999.250000 0.0008000000 0.3278999925 2.5476000309 4.1206998825 111.49900055 91.005302429  -999.250000 2.0625998974 1.9412000179
 4258.4096680  -999.250000 12.375300407 12.250000954  -999.250000 -0.002300000 0.3174000084 2.5436999798 4.0911002159 114.97109985 91.267807007  -999.250000 1.9203000069 1.8602000475
 4258.5620117  -999.250000 12.388600349 12.250000954  -999.250000 0.0007000000 0.3084000051 2.5439000130 4.1041998863 113.89219666 92.647201538  -999.250000 1.9558000565 1.8901000023
 4258.7143555  -999.250000 12.367799759 12.250000954  -999.250000 -0.008800000 0.3064000010 2.5502998829 4.2678999901 114.64129639 91.162101746  -999.250000 1.9627000093 1.8603999615
