# LAS format log file from PETREL
# Project units are specified as depth units
#==================================================================
~Version information
VERS.   2.0:
WRAP.   NO:
#==================================================================
~Well
STRT .m      2233.7756348 :
STOP .m      5007.4555664 :
STEP .m     0.00000000 :
NULL .        -999.250000 :
COMP.           : COMPANY
WELL.  34/3-3 A   : WELL
FLD.            : FIELD
LOC.            : LOCATION
SRVC.           : SERVICE COMPANY
DATE.  2018-09-11 14:48:49   : Log Export Date {yyyy-MM-dd HH:mm:ss}
PROV.           : PROVINCE
UWI.   34/3-3 A   : UNIQUE WELL ID
API.            : API NUMBER
#==================================================================
~Curve
DEPT .m                   : DEPTH
Lithology_geolink ._      : Lithology_geolink
CALI .in                  : CALI
BS .in                    : BS
ROP .m/h                  : ROP
DRHO .g/cm3               : DRHO
NPHI .m3/m3               : NPHI
RHOB .g/cm3               : RHOB
PEF .b/e                  : PEF
GR .gAPI                  : GR
DTC .us/ft                : DTC
DTS .us/ft                : DTS
RDEP .ohm.m               : RDEP
RMED .ohm.m               : RMED
~Parameter
#==================================================================
~Ascii
# ...
 4822.1372070 2.0000000000 8.7504997253 8.5000000000 110.48130798 0.0078999996 0.2583000064 2.3206000328 4.6901001930 50.040500641 74.507820129 135.66506958 16.756099701 16.936800003
 4822.2895508 2.0000000000 8.7572002411 8.5000000000 110.63845062 0.0119000003 0.2885999978 2.2866001129 4.7909998894 46.633701324 74.125129700 136.15531921 16.583799362 16.696899414
 4822.4418945 2.0000000000 8.7483997345 8.5000000000 110.61450958 -0.003100000 0.2879000008 2.2458000183 4.8653001785 45.288501740 75.970161438 137.38624573 18.470100403 18.692100525
 4822.5942383 2.0000000000 8.7503004074 8.5000000000 110.46489716 -0.004300000 0.3023536801 2.2111999989 4.7919001579 43.775100708 77.611946106 137.32620239 17.575866699 17.714334488
 4822.7465820 2.0000000000 8.7462997437 8.5000000000 110.53379822 -0.002700000 0.2823644280 2.2109999657 4.6778001785 44.391700745 77.754455566 137.84553528 19.732955933 20.181755066
 4822.8989258 2.0000000000 8.7527999878 8.5000000000 110.54921722 -0.000200000 0.3185833097 2.1932001114 4.6170001030 45.227500916 79.240921021 139.05212402 20.665822983 21.262151718
 4823.0512695 2.0000000000 8.7669000626 8.5000000000 110.29855347 -0.000900000 0.3402307630 2.1812996864 4.5699000359 43.037399292 81.689483643 144.19534302 21.128124237 21.568126678
 4823.2036133 2.0000000000 8.7624998093 8.5000000000 110.20341492 -0.001100000 0.3112932742 2.1596999168 4.4738998413 37.992900848 82.747581482 148.80636597 21.394449234 21.974796295
 4823.3564453 2.0000000000 8.7511997223 8.5000000000 110.40322113 0.0024999999 0.3169000149 2.1630001068 4.4586000443 34.183898926 84.405693054 155.04194641 21.786500931 22.393299103
 4823.5087891 2.0000000000 8.7399997711 8.5000000000 110.60301971 0.0060000001 0.3226999938 2.1663000584 4.4432001114 35.195400238 92.042564392 161.78587341 22.177600861 22.810499191
 4823.6611328 2.0000000000 8.7553997040 8.5000000000 110.83366394 0.0043000001 0.3285999894 2.1607000828 4.4271998405 39.093799591 91.431243896 166.63328552 22.402500153 22.956499100
 4823.8134766 2.0000000000 8.7166004181 8.5000000000 110.49836731 0.0063999998 0.3223201036 2.1677999496 4.4988999367 42.569499969 95.537094116 171.49751282 22.236732483 22.760427475
 4823.9658203 2.0000000000 8.7280998230 8.5000000000 110.21654510 0.0024000001 0.3123320341 2.1602001190 4.4317002296 42.906299591 99.544563293 173.79666138 23.037723541 23.503707886
 4824.1181641 2.0000000000 8.7462997437 8.5000000000 110.47113037 0.0049000001 0.3226666749 2.1670000553 4.4210000038 42.286800385 102.17897034 175.73451233 22.991058350 23.517562866
 4824.2705078 2.0000000000 8.7330999374 8.5000000000 110.75655365 0.0022000000 0.3067512810 2.1619999409 4.4121999741 39.932598114 103.50486755 180.02682495 23.425701141 23.789525986
 4824.4228516 2.0000000000 8.7421998978 8.5000000000 110.59645844 0.0024000001 0.3269349337 2.1630001068 4.4748997688 40.884998322 102.07899475 180.05322266 23.373373032 23.749431610
 4824.5756836 2.0000000000 8.7475004196 8.5000000000 110.28379059 0.0060000001 0.3152999878 2.1663999557 4.6238999367 42.135601044 100.16173553 181.50952148 23.379299164 23.774499893
 4824.7280273 2.0000000000 8.7362003326 8.5000000000 110.45308685 0.0034000000 0.3034999967 2.1700997353 4.6413998604 42.641998291 98.275444031 181.58627319 23.194200516 23.616500854
 4824.8803711 2.0000000000 8.7466001511 8.5000000000 110.04396820 0.0068000001 0.2924000025 2.1921999454 4.7220001221 42.195201874 99.489280701 181.81875610 23.137599945 23.325199127
 4825.0327148 2.0000000000 8.7497997284 8.5000000000 109.26377869 0.0037000000 0.3208000064 2.1965999603 4.7642002106 40.454601288 100.73162079 182.33554077 23.223100662 23.460399628
 4825.1850586 2.0000000000 8.7511997223 8.5000000000 108.06922150 0.0120000001 0.3314658105 2.2184000015 4.9148998260 41.127201080 102.41171265 182.38066101 23.159704208 23.394710541
 4825.3374023 2.0000000000 8.7391996384 8.5000000000 107.89075470 0.0166999996 0.3015961349 2.2416999340 4.9825000763 39.612701416 103.28301239 181.80635071 22.968614578 23.228334427
 4825.4897461 2.0000000000 8.7208995819 8.5000000000 107.36711884 0.0065000001 0.3236288428 2.2388000488 5.0913000107 39.850498199 102.45446777 182.00505066 22.586029053 22.791801453
 4825.6420898 2.0000000000 8.7105998993 8.5000000000 106.50229645 -0.004100000 0.3387516141 2.2341001034 5.1293001175 39.514198303 101.46663666 177.57389832 22.571443558 22.706371307
 4825.7944336 2.0000000000 8.7152996063 8.5000000000 105.67323303 -0.008900000 0.3149766028 2.2286000252 5.0802001953 43.214599609 101.85337067 173.07255554 21.845731735 21.818754196
 4825.9472656 2.0000000000 8.7044000626 8.5000000000 105.08824921 -0.007400000 0.3312999904 2.2216000557 4.9941000938 43.970100403 102.59412384 171.61547852 21.636699677 21.633600235
 4826.0996094 2.0000000000 8.7265996933 8.5000000000 105.04986572 -0.003100000 0.3319999874 2.2221000195 4.7725000381 47.495601654 105.57482147 172.90942383 21.331899643 21.300199509
 4826.2519531 2.0000000000 8.7260999680 8.5000000000 104.65091705 -0.005900000 0.3337000012 2.2111001015 4.8085999489 48.162601471 106.49158478 173.14775085 21.243900299 21.216499329
 4826.4042969 2.0000000000 8.7256002426 8.5000000000 104.25164032 -0.008700000 0.3354942501 2.2002000809 4.8446998596 47.192401886 104.23246765 175.17897034 21.156082153 21.133066177
 4826.5566406 2.0000000000 8.7156000137 8.5000000000 103.67256927 -0.000300000 0.3375932574 2.2216999531 4.6848998070 42.658000946 101.33549500 175.78187561 20.577360153 20.612472534
 4826.7089844 2.0000000000 8.7309999466 8.5000000000 103.90354156 -0.000300000 0.3219503164 2.2102999687 4.7052998543 39.468799591 100.79499817 175.42236328 20.768878937 20.686357498
 4826.8613281 2.0000000000 8.7384004593 8.5000000000 104.50721741 0.0074000000 0.3633666635 2.2084000111 4.5805997849 39.010898590 100.08358002 174.48471069 20.545619965 20.530202866
 4827.0136719 2.0000000000 8.7363004684 8.5000000000 103.99540710 0.0012000001 0.3070814013 2.1877000332 4.5872998238 38.338298798 100.69028473 174.34646606 20.477716446 20.517539978
 4827.1660156 2.0000000000 8.7319002151 8.5000000000 103.90945435 0.0031999999 0.3407910168 2.1856999397 4.6184000969 39.515300751 99.385444641 175.15031433 20.427459717 20.466264725
 4827.3188477 2.0000000000 8.7325000763 8.5000000000 103.94226074 0.0019000000 0.3503000140 2.1868000031 4.5701999664 41.699798584 99.043479919 174.24902344 20.391799927 20.520299911
 4827.4711914 2.0000000000 8.7330999374 8.5000000000 104.18995667 0.0070000002 0.3334999979 2.1954998970 4.6044998169 44.894699097 99.107994080 173.87898254 20.401100159 20.479600906
 4827.6235352 2.0000000000 8.7319002151 8.5000000000 104.20767975 0.0027999999 0.3228000104 2.1932001114 4.5977997780 42.201999664 98.685554504 173.87422180 20.388000488 20.434099197
 4827.7758789 2.0000000000 8.7319002151 8.5000000000 104.15583801 0.0044000000 0.3069508076 2.1918001175 4.6684999466 43.212398529 98.676612854 174.05374146 20.465452194 20.510055542
 4827.9282227 2.0000000000 8.7325000763 8.5000000000 104.21096039 -0.001800000 0.3170672953 2.1823000908 4.7442002296 43.916198730 99.614784241 173.58689880 20.516836166 20.564226151
 4828.0805664 2.0000000000 8.7308998108 8.5000000000 104.51115417 -0.001500000 0.3321515918 2.1821999550 4.8475999832 47.335800171 101.30696869 172.78996277 20.345651627 20.434717178
 4828.2329102 2.0000000000 8.7257003784 8.5000000000 104.55183411 -0.001000000 0.3387788534 2.1812000275 4.9088997841 45.149799347 99.978179932 174.27970886 20.811401367 20.809593201
 4828.3852539 2.0000000000 8.7117004395 8.5000000000 104.08005524 0.0091000004 0.3634208441 2.1909999847 4.9320998192 47.977100372 99.606643677 174.72439575 20.980161667 20.990821838
 4828.5380859 2.0000000000 8.7308998108 8.5000000000 104.11712646 0.0122999996 0.3075000048 2.1953999996 5.1016001701 48.735500336 99.644569397 173.89387512 21.038299561 21.044799805
 4828.6904297 2.0000000000 8.7546997070 8.5000000000 104.00196838 0.0093000000 0.3361000121 2.1931002140 5.1593999863 52.765800476 101.31881714 173.76310730 21.084999084 21.148899078
