# LAS format log file from PETREL
# Project units are specified as depth units
#==================================================================
~Version information
VERS.   2.0:
WRAP.   NO:
#==================================================================
~Well
STRT .m      437.13198853 :
STOP .m      2196.1328125 :
STEP .m     0.00000000 :
NULL .        -999.250000 :
COMP.           : COMPANY
WELL.  34/3-1 S   : WELL
FLD.            : FIELD
LOC.            : LOCATION
SRVC.           : SERVICE COMPANY
DATE.  2018-09-11 14:48:49   : Log Export Date {yyyy-MM-dd HH:mm:ss}
PROV.           : PROVINCE
UWI.   34/3-1 S   : UNIQUE WELL ID
API.            : API NUMBER
#==================================================================
~Curve
DEPT .m                   : DEPTH
Lithology_geolink ._      : Lithology_geolink
BS .in                    : BS
ROP .m/h                  : ROP
GR .gAPI                  : GR
RDEP .ohm.m               : RDEP
RMED .ohm.m               : RMED
~Parameter
#==================================================================
~Ascii
# ...
 1948.6352539  -999.250000 17.500000000 39.134513855 65.828903198 0.5044000149 0.4363000095
 1948.7875977  -999.250000 17.500000000 39.134513855 64.938499451 0.5264999866 0.4417000115
 1948.9400635  -999.250000 17.500000000 39.134513855 58.968799591 0.5325999856 0.4390000105
 1949.0924072  -999.250000 17.500000000 39.134513855 64.327400208 0.5299999714 0.4307999909
 1949.2448730  -999.250000 17.500000000 39.134513855 56.694698334 0.5192999840 0.4262999892
 1949.3972168  -999.250000 17.500000000 39.134513855 58.688499451 0.5238000154 0.4259999990
 1949.5496826  -999.250000 17.500000000 36.307743073 63.690601349 0.5238000154 0.4156999886
 1949.7020264  -999.250000 17.500000000 36.307743073 59.040000916 0.5108000040 0.4083999991
 1949.8544922  -999.250000 17.500000000 36.307743073 57.981498718 0.5062000155 0.4079999924
 1950.0068359  -999.250000 17.500000000 36.307743073 60.554698944 0.5052999854 0.4079999924
 1950.1593018  -999.250000 17.500000000 36.307743073 56.403198242 0.5042999983 0.4009000063
 1950.3116455  -999.250000 17.500000000 36.307743073 66.615196228 0.4968000054 0.3941999972
 1950.4639893  -999.250000 17.500000000 36.307743073 62.896999359 0.4882999957 0.3993000090
 1950.6164551  -999.250000 17.500000000 34.307086945 64.880401611 0.4880999923 0.4063999951
 1950.7687988  -999.250000 17.500000000 34.307086945 60.774898529 0.5030000210 0.4058000147
 1950.9212646  -999.250000 17.500000000 34.307086945 62.765998840 0.5052999854 0.3995999992
 1951.0736084  -999.250000 17.500000000 34.307086945 65.430198669 0.5016999841 0.3964999914
 1951.2260742  -999.250000 17.500000000 34.307086945 54.062198639 0.4890987277 0.4067010283
 1951.3784180  -999.250000 17.500000000 34.307086945 30.916400909 0.4875000119 0.4079999924
 1951.5308838  -999.250000 17.500000000 34.307086945 70.316299438 0.4875285029 0.4080238640
 1951.6832275  -999.250000 17.500000000 32.080051422 64.952697754 0.5052999854 0.4228924513
 1951.8356934  -999.250000 17.500000000 32.080051422 67.455398560 0.5052999854 0.4134919941
 1951.9880371  -999.250000 17.500000000 32.080051422 66.998703003 0.5052951574 0.4084990323
 1952.1405029  -999.250000 17.500000000 32.080051422 70.305297852 0.4992825389 0.4072895944
 1952.2928467  -999.250000 17.500000000 32.080051422 67.953796387 0.4883992970 0.4008047283
 1952.4451904  -999.250000 17.500000000 32.080051422 65.861503601 0.4875000119 0.4067010283
 1952.5976563  -999.250000 17.500000000 29.418632507 65.507202148 0.4875000119 0.4079978168
 1952.7500000  -999.250000 17.500000000 29.418632507 63.273700714 0.4875000119 0.4052987993
 1952.9024658  -999.250000 17.500000000 29.418632507 61.178298950 0.4875000119 0.4038064182
 1953.0548096  -999.250000 17.500000000 29.418632507 61.148399353 0.4875000119 0.4118046463
 1953.2072754  -999.250000 17.500000000 29.418632507 63.548999786 0.4875000119 0.4175942242
 1953.3596191  -999.250000 17.500000000 29.418632507 69.467300415 0.4875000119 0.4103998542
 1953.5120850  -999.250000 17.500000000 29.418632507 69.695503235 0.4874988198 0.4101898968
 1953.6644287  -999.250000 17.500000000 23.055118561 66.155899048 0.4859922230 0.3975963891
 1953.8168945  -999.250000 17.500000000 23.055118561 68.002403259 0.4762950242 0.3930895925
 1953.9692383  -999.250000 17.500000000 23.055118561 67.862297058 0.4731976688 0.3865990341
 1954.1217041  -999.250000 17.500000000 23.055118561 74.588302612 0.4702999890 0.3853950202
 1954.2740479  -999.250000 17.500000000 23.055118561 65.722999573 0.4702999890 0.3822988570
 1954.4265137  -999.250000 17.500000000 23.055118561 71.320198059 0.4702999890 0.3808979094
 1954.5788574  -999.250000 17.500000000 31.110239029 72.054702759 0.4702994227 0.3795999885
 1954.7312012  -999.250000 17.500000000 31.110239029 65.919097900 0.4695906341 0.3796019852
 1954.8836670  -999.250000 17.500000000 31.110239029 68.864997864 0.4579073489 0.3821069598
 1955.0360107  -999.250000 17.500000000 31.110239029 66.666000366 0.4671031833 0.3908004761
 1955.1884766  -999.250000 17.500000000 31.110239029 71.627296448 0.4711032808 0.3914003968
 1955.3408203  -999.250000 17.500000000 31.110239029 66.418800354 0.4752032757 0.3919004798
 1955.4932861  -999.250000 17.500000000 31.110239029 69.199996948 0.4793032706 0.3925004005
 1955.6456299  -999.250000 17.500000000 35.170932770 66.335899353 0.4834032655 0.3930003941
 1955.7980957  -999.250000 17.500000000 35.170932770 59.839801788 0.4875000119 0.3935000002
 1955.9504395  -999.250000 17.500000000 35.170932770 67.598396301 0.4875000119 0.3935027122
 1956.1029053  -999.250000 17.500000000 35.170932770 69.643096924 0.4875000119 0.3969132900
 1956.2552490  -999.250000 17.500000000 35.170932770 72.138603210 0.4875000119 0.4052011967
 1956.4077148  -999.250000 17.500000000 35.170932770 62.660099030 0.4875000119 0.4066857398
 1956.5600586  -999.250000 17.500000000 30.837598801 64.864799500 0.4875000119 0.3977965415
 1956.7124023  -999.250000 17.500000000 30.837598801 69.444000244 0.4875000119 0.3935155272
 1956.8648682  -999.250000 17.500000000 30.837598801 61.678199768 0.4875000119 0.4129154682
 1957.0172119  -999.250000 17.500000000 30.837598801 61.105800629 0.4875013828 0.4322007298
 1957.1696777  -999.250000 17.500000000 30.837598801 55.895999908 0.4892075360 0.4331123233
 1957.3220215  -999.250000 17.500000000 30.837598801 70.225502014 0.4986053705 0.4485048056
 1957.4744873  -999.250000 17.500000000 30.837598801 73.972900391 0.5053129792 0.4545117021
 1957.6268311  -999.250000 17.500000000 28.827430725 80.391197205 0.5215135217 0.4691016674
 1957.7792969  -999.250000 17.500000000 28.827430725 74.136398315 0.5384072065 0.4711939096
 1957.9316406  -999.250000 17.500000000 28.827430725 67.881698608 0.5429000258 0.4674014449
 1958.0841064  -999.250000 17.500000000 28.827430725 61.626899719 0.5429000258 0.4692031741
 1958.2364502  -999.250000 17.500000000 28.827430725 55.372200012 0.5429000258 0.4711999893
 1958.3889160  -999.250000 17.500000000 28.827430725 54.843601227 0.5429049730 0.4712277055
 1958.5412598  -999.250000 17.500000000 28.827430725 58.092899323 0.5460116267 0.4884953499
 1958.6936035  -999.250000 17.500000000 46.829071045 57.990798950 0.5605018735 0.4826850891
 1958.8460693  -999.250000 17.500000000 46.829071045 56.961101532 0.5627952814 0.4641101062
 1958.9984131  -999.250000 17.500000000 46.829071045 55.931400299 0.5568972230 0.4767149687
 1959.1508789  -999.250000 17.500000000 46.829071045 59.200698853 0.5534155369 0.4954044223
 1959.3032227  -999.250000 17.500000000 46.829071045 60.656600952 0.5727939010 0.5008883476
 1959.4556885  -999.250000 17.500000000 46.829071045 66.723297119 0.5652135015 0.4863815904
 1959.6080322  -999.250000 17.500000000 38.349739075 57.073699951 0.5820909142 0.4633792043
 1959.7604980  -999.250000 17.500000000 38.349739075 52.237800598 0.5707712173 0.4373949766
 1959.9128418  -999.250000 17.500000000 38.349739075 44.657001495 0.5348929763 0.4311044216
 1960.0653076  -999.250000 17.500000000 38.349739075 46.591209412 0.5260962844 0.4366028905
 1960.2176514  -999.250000 17.500000000 38.349739075 47.597625732 0.5238000154 0.4384000003
 1960.3701172  -999.250000 17.500000000 38.349739075 51.001899719 0.5237937570 0.4384000003
 1960.5224609  -999.250000 17.500000000 38.349739075 54.119888306 0.5198883414 0.4383959174
 1960.6749268  -999.250000 17.500000000 33.025592804 53.113948822 0.5052999854 0.4332863688
 1960.8272705  -999.250000 17.500000000 33.025592804 56.449790955 0.5052999854 0.4248085916
 1960.9796143  -999.250000 17.500000000 33.025592804 57.430675507 0.5052999854 0.4355042279
 1961.1320801  -999.250000 17.500000000 33.025592804 51.779483795 0.5052999854 0.4407991171
 1961.2844238  -999.250000 17.500000000 33.025592804 47.147243500 0.5052999854 0.4396918416
 1961.4368896  -999.250000 17.500000000 33.025592804 49.950901031 0.5052999854 0.4295078516
 1961.5892334  -999.250000 17.500000000 30.523294449 53.434810638 0.5053033233 0.4393045604
 1961.7416992  -999.250000 17.500000000 30.523294449 46.084541321 0.5095083714 0.4450087249
