# LAS format log file from PETREL
# Project units are specified as depth units
#==================================================================
~Version information
VERS.   2.0:
WRAP.   NO:
#==================================================================
~Well
STRT .m      2233.7756348 :
STOP .m      5007.4555664 :
STEP .m     0.00000000 :
NULL .        -999.250000 :
COMP.           : COMPANY
WELL.  34/3-3 A   : WELL
FLD.            : FIELD
LOC.            : LOCATION
SRVC.           : SERVICE COMPANY
DATE.  2018-09-11 14:48:49   : Log Export Date {yyyy-MM-dd HH:mm:ss}
PROV.           : PROVINCE
UWI.   34/3-3 A   : UNIQUE WELL ID
API.            : API NUMBER
#==================================================================
~Curve
DEPT .m                   : DEPTH
Lithology_geolink ._      : Lithology_geolink
CALI .in                  : CALI
BS .in                    : BS
ROP .m/h                  : ROP
DRHO .g/cm3               : DRHO
NPHI .m3/m3               : NPHI
RHOB .g/cm3               : RHOB
PEF .b/e                  : PEF
GR .gAPI                  : GR
DTC .us/ft                : DTC
DTS .us/ft                : DTS
RDEP .ohm.m               : RDEP
RMED .ohm.m               : RMED
~Parameter
#==================================================================
~Ascii
# ...
 2783.6347656  -999.250000 12.476100922 12.250000954 88.369422913 0.0423999988 0.3061921597 2.5355999470 5.8597002029 87.266700745 105.74890900 200.38339233 1.5643999577 1.6349999905
 2783.7871094  -999.250000 12.447899818 12.250000954 94.820861816 0.0031999999 0.2880291641 2.6048998833 6.9530000687 83.012100220 103.55970764 202.13827515 1.4957000017 1.5570000410
 2783.9394531  -999.250000 12.494999886 12.250000954 94.152229309 0.0034000000 0.2776332796 2.6644001007 6.7860999107 78.649902344 102.30731201 203.41320801 1.8753000498 1.8082000017
 2784.0920410  -999.250000 12.520298958 12.250000954 90.331039429 -0.014100000 0.2751039863 2.5513000488 6.5279998779 77.929000854 103.39355469 205.51342773 2.0208001137 1.9443999529
 2784.2443848  -999.250000 12.474699974 12.250000954 95.795600891 0.0161000006 0.2897764444 2.4802000523 5.6757998466 81.131103516 102.83580017 207.36083984 1.6746000051 1.7215000391
 2784.3967285  -999.250000 12.442500114 12.250000954 69.760498047 0.0209999997 0.2939932644 2.4321999550 6.3712000847 86.551498413 104.49593353 208.81587219 1.6385999918 1.7048000097
 2784.5490723  -999.250000 12.502699852 12.250000954 62.074806213 0.0152000003 0.3041836619 2.3921000957 7.4844999313 89.106796265 105.78295135 210.19248962 1.6402000189 1.7233999968
 2784.7014160  -999.250000 12.506899834 12.250000954 62.899932861 0.0258000009 0.3037016094 2.3949999809 8.6506996155 90.647102356 105.89175415 211.89613342 1.7381000519 1.7454999685
 2784.8540039  -999.250000 12.536399841 12.250000954 64.490814209 0.0296999998 0.3137838244 2.3942000866 9.3954000473 91.986099243 107.47086334 212.11315918 1.7925000191 1.7432999611
 2785.0063477  -999.250000 12.492899895 12.250000954 67.679786682 0.0230999999 0.3112041652 2.4008998871 8.0738000870 92.385200500 108.29657745 211.95935059 1.7189999819 1.7115999460
 2785.1586914  -999.250000 12.418700218 12.250000954 67.321525574 0.0185000002 0.3048102558 2.4040999413 6.8572998047 93.254203796 107.32315826 211.16926575 1.6993000507 1.7086999416
 2785.3110352  -999.250000 12.471599579 12.250000954 64.516075134 0.0120000001 0.3012115359 2.4061999321 5.7251000404 92.860900879 107.24813843 210.10003662 1.7688000202 1.7523000240
 2785.4636230  -999.250000 12.500598907 12.250000954 60.075130463 0.0175000001 0.2991033792 2.4148001671 6.2954001427 92.015998840 105.56829071 208.80677795 1.7611000538 1.7517999411
 2785.6159668  -999.250000 12.454499245 12.250000954 62.356304169 0.0243999995 0.3058890998 2.4086999893 7.7723999023 89.449600220 105.00370026 209.17680359 1.7240999937 1.7265000343
 2785.7683105  -999.250000 12.558699608 12.250000954 57.092842102 0.0305000003 0.3079966307 2.3979001045 9.3545999527 85.883796692 104.39637756 208.50837708 1.7236000299 1.7258000374
 2785.9206543  -999.250000 12.546699524 12.250000954 75.291007996 0.0285999998 0.3081993759 2.3747999668 9.8337001801 85.953903198 105.86737823 209.53948975 1.7380000353 1.7395000458
 2786.0732422  -999.250000 12.514699936 12.250000954 87.835304260 0.0236000009 0.3098972738 2.3806002140 8.6358995438 88.004798889 104.18081665 209.70603943 1.7692999840 1.7531000376
 2786.2255859  -999.250000 12.527299881 12.250000954 73.865486145 0.0232999995 0.3083025515 2.3843998909 8.1457996368 89.059997559 106.05857849 211.19061279 1.7525999546 1.7526999712
 2786.3779297  -999.250000 12.535200119 12.250000954 68.695861816 0.0288999993 0.3118942082 2.4080998898 8.3614997864 89.210601807 107.38008881 211.25979614 1.7216000557 1.7416000366
 2786.5302734  -999.250000 12.557600021 12.250000954 64.350067139 0.0252000000 0.3083057702 2.4117000103 7.8179998398 88.567199707 105.71458435 210.05685425 1.7640999556 1.7697999477
 2786.6826172  -999.250000 12.577199936 12.250000954 54.964569092 0.0256999992 0.3041134477 2.4275999069 7.2413001060 88.510398865 104.44297791 209.26254272 1.7632000446 1.7726000547
 2786.8352051  -999.250000 12.530099869 12.250000954 52.420276642 0.0188999996 0.3028020859 2.4131000042 6.5391998291 89.545799255 103.88938141 209.47474670 1.7346999645 1.7538000345
 2786.9875488  -999.250000 12.562999725 12.250000954 55.230316162 0.0201999992 0.2987065613 2.4061000347 6.9306001663 89.803298950 104.70468903 209.92558289 1.7180999517 1.7359000444
 2787.1398926  -999.250000 12.554800034 12.250000954 48.540355682 0.0119000003 0.3014954925 2.3847999573 6.9524998665 90.797401428 105.56082153 210.43321228 1.7007000446 1.7369999886
 2787.2922363  -999.250000 12.626000404 12.250000954 40.913055420 0.0120000001 0.3063843250 2.3940000534 6.5974001884 91.634696960 105.61831665 211.19816589 1.7182999849 1.7480000257
 2787.4448242  -999.250000 12.621801376 12.250000954 35.775917053 0.0096000005 0.3044032156 2.3905000687 6.1373000145 91.566001892 105.35083771 210.53897095 1.7407000065 1.7604999542
 2787.5971680  -999.250000 12.614100456 12.250000954 32.589237213 0.0109000001 0.2990086377 2.4040000439 5.7623000145 91.866500854 104.03870392 210.15391541 1.7800999880 1.7973999977
 2787.7495117  -999.250000 12.566499710 12.250000954 31.754920959 0.0137999998 0.2933091521 2.4177999496 5.7497000694 90.110397339 104.02001190 209.69282532 1.7515000105 1.7878999710
 2787.9018555  -999.250000 12.626199722 12.250000954 26.771654129 0.0184000004 0.2955926359 2.4586000443 5.2301998138 88.578102112 102.99090576 209.22669983 1.7474000454 1.8109999895
 2788.0544434  -999.250000 12.580200195 12.250000954 26.838582993 0.0241000000 0.3015903831 2.5118000507 5.0703001022 87.952796936 100.36880493 208.52871704 1.7546999454 1.8361999989
 2788.2067871  -999.250000 12.619700432 12.250000954 27.252298355 0.0151000004 0.2956096232 2.5132000446 4.6256999969 84.319801331 98.857818604 208.28778076 1.9332000017 1.9581999779
 2788.3591309  -999.250000 12.603599548 12.250000954 24.515420914 0.0138999997 0.2811232507 2.4881999493 4.5569000244 81.884597778 98.506156921 208.34190369 2.0387001038 2.0241000652
 2788.5114746  -999.250000 12.519599915 12.250000954 22.520998001 0.0099999998 0.2689195573 2.4468998909 4.3814001083 86.888496399 99.088958740 206.74085999 2.1349000931 2.0996999741
 2788.6638184  -999.250000 12.508299828 12.250000954 21.192913055 0.0126999998 0.2731862366 2.4384000301 4.6250000000 92.721496582 99.740310669 205.00875854 2.0590999126 2.0573999882
 2788.8164063  -999.250000 12.560899734 12.250000954 23.045932770 0.0035000001 0.2862790227 2.4196999073 4.7315998077 93.175498962 100.46473694 204.67013550 1.9689999819 2.0044000149
 2788.9687500  -999.250000 12.566499710 12.250000954 24.207677841 0.0014000000 0.3027735651 2.3975000381 4.5704002380 90.331901550 101.12194824 204.58062744 1.9355000257 1.9743000269
 2789.1210938  -999.250000 12.538701057 12.250000954 24.720800400 0.0060000001 0.3017017543 2.3866999149 4.5187997818 86.637603760 101.14665985 206.61793518 1.9802000523 1.9943000078
 2789.2734375  -999.250000 12.585700035 12.250000954 24.855970383 0.0082999999 0.3047900796 2.3819000721 4.4931998253 85.294601440 101.47852325 206.05601501 1.9803999662 1.9588999748
 2789.4260254  -999.250000 12.608699799 12.250000954 28.294618607 0.0138999997 0.3020044863 2.3947000504 4.5605001450 86.950599670 101.65002441 205.05239868 1.9526000023 1.9261000156
 2789.5783691  -999.250000 12.596799850 12.250000954 27.468833923 0.0111999996 0.3028985560 2.3970000744 4.6368999481 87.901603699 102.70051575 206.55279541 1.9320000410 1.9177000523
 2789.7307129  -999.250000 12.623700142 12.250000954 27.020998001 0.0162000004 0.3034990430 2.4105000496 5.0760002136 87.539199829 102.56472015 207.62988281 1.8745000362 1.8959000111
 2789.8830566  -999.250000 12.713500977 12.250000954 30.021326065 0.0135000004 0.3041999936 2.3972001076 5.4842000008 88.276000977 101.34999847 206.64306641 1.8710999489 1.8882999420
 2790.0356445  -999.250000 12.638099670 12.250000954 29.165679932 0.0153999999 0.3043000102 2.3880000114 5.7427000999 88.849502563 101.07442474 207.03137207 1.9133000374 1.9050999880
 2790.1879883  -999.250000 12.640700340 12.250000954 30.646324158 0.0142999999 0.3050000072 2.3793001175 5.4334998131 89.287597656 101.11523438 207.73979187 1.9012000561 1.8975000381
