# LAS format log file from PETREL
# Project units are specified as depth units
#==================================================================
~Version information
VERS.   2.0:
WRAP.   NO:
#==================================================================
~Well
STRT .m      3771.1865234 :
STOP .m      4146.8525391 :
STEP .m     0.00000000 :
NULL .        -999.250000 :
COMP.           : COMPANY
WELL.  34/3-1 A   : WELL
FLD.            : FIELD
LOC.            : LOCATION
SRVC.           : SERVICE COMPANY
DATE.  2018-09-11 14:48:49   : Log Export Date {yyyy-MM-dd HH:mm:ss}
PROV.           : PROVINCE
UWI.   34/3-1 A   : UNIQUE WELL ID
API.            : API NUMBER
#==================================================================
~Curve
DEPT .m                   : DEPTH
Lithology_geolink ._      : Lithology_geolink
CALI .in                  : CALI
BS .in                    : BS
ROP .m/h                  : ROP
DRHO .g/cm3               : DRHO
NPHI .m3/m3               : NPHI
RHOB .g/cm3               : RHOB
PEF .b/e                  : PEF
GR .gAPI                  : GR
DTC .us/ft                : DTC
DTS .us/ft                : DTS
RDEP .ohm.m               : RDEP
RMIC .ohm.m               : RMIC
RMED .ohm.m               : RMED
~Parameter
#==================================================================
~Ascii
# ...
 3896.1545410 7.0000000000 8.6000995636 8.5000000000 50.332702637 -0.001204327 0.3489862382 2.6016778946 9.0066909790 135.78739929 90.801101685 160.83544922 2.3912999630  -999.250000 1.9195529222
 3896.3068848 7.0000000000 8.5911998749 8.5000000000 40.425464630 -0.009174400 0.3489003181 2.5925292969 9.5744791031 142.09280396 90.426200867 164.56222534 2.3275001049  -999.250000 1.8184244633
 3896.4594727 7.0000000000 8.5824003220 8.5000000000 37.424709320 -0.004208012 0.3499982357 2.5982906818 9.7769775391 154.01100159 89.520103455 164.59825134 2.2878999710  -999.250000 1.7751688957
 3896.6118164 7.0000000000 8.5824003220 8.5000000000 35.384826660 -0.003900481 0.3430112004 2.6068861485 9.6203517914 152.36300659 88.958099365 161.59501648 2.2853000164  -999.250000 1.7712061405
 3896.7641602 7.0000000000 8.6138000488 8.5000000000 32.524597168 -0.006895192 0.3360112011 2.6141884327 8.6576452255 145.47689819 88.195594788 155.94245911 2.2913999557  -999.250000 1.7886719704
 3896.9165039 7.0000000000 8.6138000488 8.5000000000 33.439960480 0.0047625601 0.3343054652 2.6373257637 7.1327905655 134.12730408 88.962196350 153.65052795 2.2941999435  -999.250000 1.7858092785
 3897.0690918 7.0000000000 8.6098003387 8.5000000000 33.846794128 -0.002987500 0.3449828625 2.6143999100 7.2983999252 142.24969482 90.429702759 153.97596741 2.3087000847  -999.250000 1.8011753559
 3897.2214355 7.0000000000 8.6013002396 8.5000000000 36.016529083 -0.011785897 0.3492931128 2.5789000988 8.2030000687 142.75390625 91.625297546 155.44366455 2.3087000847  -999.250000 1.8164753914
 3897.3737793 7.0000000000 8.6131000519 8.5000000000 39.002429962 -0.006708173 0.3602823615 2.5911002159 8.7344999313 142.84260559 91.060699463 161.96432495 2.3148000240  -999.250000 1.8318753242
 3897.5261230 7.0000000000 8.6289997101 8.5000000000 37.942653656 -0.006700000 0.3626961410 2.5943999290 8.8634996414 141.24879456 90.442001343 160.22711182 2.3208999634  -999.250000 1.8471754789
 3897.6784668 7.0000000000 8.5952997208 8.5000000000 39.065288544 -0.003410560 0.3589121699 2.5950000286 8.7434997559 136.78239441 93.305900574 163.52230835 2.3269999027  -999.250000 1.8624509573
 3897.8310547 7.0000000000 8.5860004425 8.5000000000 44.304588318 -0.004598077 0.3683847785 2.5973000526 8.5640001297 140.53990173 93.651496887 157.91520691 2.3331000805  -999.250000 1.8687899113
 3897.9833984 7.0000000000 8.5708999634 8.5000000000 54.542961121 -0.006996154 0.3654047847 2.5982999802 8.8582000732 136.97399902 92.222198486 156.49876404 2.3324000835  -999.250000 1.8578176498
 3898.1357422 7.0000000000 8.5708999634 8.5000000000 65.808387756 -0.007998398 0.3680956662 2.6013000011 9.0089998245 126.69259644 90.061096191 157.46424866 2.3315999508  -999.250000 1.8539061546
 3898.2880859 7.0000000000 8.6190996170 8.5000000000 61.318931580 -0.009196160 0.3570355177 2.6092000008 8.8145999908 131.97929382 88.246597290 159.76899719 2.3180999756  -999.250000 1.8364560604
 3898.4406738 7.0000000000 8.6190996170 8.5000000000 51.462646484 -0.004807052 0.3500111997 2.6119999886 9.3290996552 131.56129456 87.438598633 161.39030457 2.3310000896  -999.250000 1.8808287382
 3898.5930176 7.0000000000 8.6055002213 8.5000000000 47.191867828 -0.001505289 0.3444089592 2.6066999435 9.3625001907 133.56610107 86.378311157 160.55624390 2.3861999512  -999.250000 1.9680600166
 3898.7453613 7.0000000000 8.5918998718 8.5000000000 44.919647217 -0.005194071 0.3221357465 2.5934998989 8.2517995834 133.80250549 86.489097595 160.73211670 2.4124000072  -999.250000 2.0304000378
 3898.8977051 7.0000000000 8.5703001022 8.5000000000 41.195014954 -0.011679200 0.3138265610 2.5873999596 8.0504999161 133.29170227 84.585197449 159.34355164 2.4558000565  -999.250000 2.0648896694
 3899.0502930 7.0000000000 8.6985998154 8.5000000000 40.845687866 -0.024080127 0.3033168316 2.5769999027 7.3755998611 140.86439514 87.222503662 159.47299194 2.4574000835  -999.250000 2.0862658024
 3899.2026367 7.0000000000 8.6956996918 8.5000000000 38.566322327 -0.008425160 0.3087911904 2.5945999622 7.5964999199 133.33520508 92.497398376 159.03390503 2.4839999676  -999.250000 2.1624777317
 3899.3549805 7.0000000000 8.6870002747 8.5000000000 39.269535065 -0.022078045 0.3159884810 2.5761001110 7.0355000496 129.15660095 98.376899719 158.03430176 2.5283000469  -999.250000 2.2393767834
 3899.5073242 7.0000000000 8.6451997757 8.5000000000 44.530597687 -0.025794072 0.3193945587 2.5720000267 7.0871000290 129.12210083 94.241096497 157.95570374 2.5322999954  -999.250000 2.2879223824
 3899.6596680 7.0000000000 8.6332998276 8.5000000000 49.642734528 -0.006561760 0.3166089654 2.5964999199 8.5755996704 133.41349792 90.228401184 157.61877441 2.5352001190  -999.250000 2.2933828831
 3899.8122559 7.0000000000 8.6639995575 8.5000000000 52.337238312 -0.005301923 0.3014243543 2.5927000046 8.3641004562 134.66740417 85.659599304 157.70936584 2.5271999836  -999.250000 2.2672419548
 3899.9645996 7.0000000000 8.6463003159 8.5000000000 56.772743225 -0.001605929 0.3059926331 2.5978999138 7.7003002167 141.70239258 85.497604370 159.78387451 2.5441999435  -999.250000 2.2424397469
 3900.1169434 7.0000000000 8.5720996857 8.5000000000 64.280281067 0.0043903845 0.3117907047 2.6133000851 8.3636999130 135.62330627 85.658805847 158.22502136 2.5436999798  -999.250000 2.1965737343
 3900.2692871 7.0000000000 8.5916004181 8.5000000000 68.495689392 -0.003375040 0.3155878484 2.6038999557 8.7632999420 136.48390198 86.204902649 158.71449280 2.5285999775  -999.250000 2.0940289497
 3900.4218750 7.0000000000 8.6068000793 8.5000000000 66.872375488 -0.008192307 0.3240863681 2.5966000557 8.8755998611 134.46899414 85.386100769 159.57720947 2.4892001152  -999.250000 2.0277059078
 3900.5742188 7.0000000000 8.6171998978 8.5000000000 64.130050659 -0.006003526 0.3250983953 2.5950000286 9.4968004227 132.14089966 86.136100769 160.99792480 2.4396998882  -999.250000 1.9662983418
 3900.7265625 7.0000000000 8.6174001694 8.5000000000 63.360813141 -0.001607051 0.3195089698 2.6022000313 9.1329002380 141.85839844 87.250701904 160.59355164 2.4679000378  -999.250000 1.9380451441
 3900.8789063 7.0000000000 8.6143999100 8.5000000000 67.560653687 -0.003792960 0.3217926323 2.5941998959 8.0401000977 142.59260559 88.903099060 160.44805908 2.4981000423  -999.250000 1.9708943367
 3901.0314941 7.0000000000 8.6143999100 8.5000000000 72.320465088 0.0013916666 0.3291881382 2.5938000679 8.2426996231 135.36340332 90.502799988 161.31301880 2.5002000332  -999.250000 1.9893705845
 3901.1838379 7.0000000000 8.7215995789 8.5000000000 77.632568359 -0.005089583 0.3216121793 2.5861999989 8.6681003571 137.85279846 92.018798828 162.40664673 2.4993000031  -999.250000 2.0133616924
 3901.3361816 7.0000000000 8.7215995789 8.5000000000 66.810363770 -0.010091987 0.3201024234 2.5789999962 8.2767000198 140.34210205 90.346496582 160.71052551 2.5420999527  -999.250000 2.0582280159
 3901.4885254 7.0000000000 8.6869001389 8.5000000000 51.065601349 -0.007304487 0.3238939345 2.5769999027 8.5403995514 140.34210205 90.726997375 160.15669250 2.5813000202  -999.250000 2.1187028885
 3901.6408691 7.0000000000 8.6820001602 8.5000000000 41.621772766 -0.003113440 0.3263920248 2.5859999657 8.6147003174 140.34210205 92.075599670 159.73970032 2.5627999306  -999.250000 2.1467103958
 3901.7934570 7.0000000000 8.6715002060 8.5000000000 39.768344879 -0.005895513 0.3266995251 2.5868000984 8.9589996338 140.90040588 87.925003052 161.04200745 2.5387001038  -999.250000 2.1538884640
 3901.9458008 7.0000000000 8.6715002060 8.5000000000 41.414020538 -0.002904808 0.3281975985 2.6038999557 8.9381999969 141.45860291 85.374099731 160.33509827 2.5494000912  -999.250000 2.1539998055
 3902.0981445 7.0000000000 8.6710996628 8.5000000000 44.710922241 -0.007592468 0.3353884518 2.6027998924 8.7788000107 141.68750000 84.781806946 162.12429810 2.5487999916  -999.250000 2.1538002491
 3902.2504883 7.0000000000 8.6707000732 8.5000000000 45.385971069 0.0014708800 0.3343035281 2.6147999763 9.0705003738 136.91549683 86.347702026 163.15190125 2.5325999260  -999.250000 2.1470217705
