# LAS format log file from PETREL
# Project units are specified as depth units
#==================================================================
~Version information
VERS.   2.0:
WRAP.   NO:
#==================================================================
~Well
STRT .m      2233.7756348 :
STOP .m      5007.4555664 :
STEP .m     0.00000000 :
NULL .        -999.250000 :
COMP.           : COMPANY
WELL.  34/3-3 A   : WELL
FLD.            : FIELD
LOC.            : LOCATION
SRVC.           : SERVICE COMPANY
DATE.  2018-09-11 14:48:49   : Log Export Date {yyyy-MM-dd HH:mm:ss}
PROV.           : PROVINCE
UWI.   34/3-3 A   : UNIQUE WELL ID
API.            : API NUMBER
#==================================================================
~Curve
DEPT .m                   : DEPTH
Lithology_geolink ._      : Lithology_geolink
CALI .in                  : CALI
BS .in                    : BS
ROP .m/h                  : ROP
DRHO .g/cm3               : DRHO
NPHI .m3/m3               : NPHI
RHOB .g/cm3               : RHOB
PEF .b/e                  : PEF
GR .gAPI                  : GR
DTC .us/ft                : DTC
DTS .us/ft                : DTS
RDEP .ohm.m               : RDEP
RMED .ohm.m               : RMED
~Parameter
#==================================================================
~Ascii
# ...
 3152.4428711  -999.250000 12.663100243 12.250000954 142.27656555 0.0315999985 0.3310000002 2.4714999199 6.0975999832 96.408218384 103.07990265 219.86979675 1.4183000326 1.3899999857
 3152.5952148  -999.250000 12.587800980 12.250000954 137.08825684 0.0286999997 0.3323999941 2.4662001133 5.9320001602 99.662590027 103.09829712 219.19528198 1.4677000046 1.4304000139
 3152.7475586  -999.250000 12.710700035 12.250000954 136.26902771 0.0291000009 0.3337000012 2.4628000259 5.9208002090 102.33490753 103.08619690 222.58149719 1.4713000059 1.4332000017
 3152.9001465  -999.250000 12.707900047 12.250000954 140.96160889 0.0306000002 0.3273999989 2.4616000652 5.9713997841 102.65053558 103.79229736 223.19200134 1.4937000275 1.4499000311
 3153.0524902  -999.250000 12.671500206 12.250000954 144.37138367 0.0288999993 0.3319000006 2.4600999355 5.8913002014 102.03778076 103.23480225 220.29240417 1.5015000105 1.4562000036
 3153.2048340  -999.250000 12.621000290 12.250000954 147.84185791 0.0236000009 0.3427999914 2.4597001076 5.6223998070 100.27400208 102.06860352 216.86950684 1.4743000269 1.4354000092
 3153.3571777  -999.250000 12.597599983 12.250000954 125.56364441 0.0187999997 0.3429999948 2.4579000473 5.2775998116 97.534729004 101.24000549 216.90589905 1.4486999512 1.4120999575
 3153.5097656  -999.250000 12.562999725 12.250000954 129.99934387 0.0166999996 0.3508999944 2.4623999596 4.9260997772 96.117164612 102.21829987 217.05099487 1.4214999676 1.3878999949
 3153.6621094  -999.250000 12.554600716 12.250000954 129.00294495 0.0181000009 0.3454000056 2.4667999744 4.9081001282 96.041137695 102.29620361 217.40969849 1.3920999765 1.3641999960
 3153.8144531  -999.250000 12.595199585 12.250000954 135.10366821 0.0168999992 0.3562999964 2.4642999172 5.0380001068 94.258262634 102.32959747 219.39289856 1.3550000191 1.3357000351
 3153.9667969  -999.250000 12.615599632 12.250000954 137.43864441 0.0164999999 0.3438999951 2.4526998997 5.7965998650 94.929222107 103.65360260 221.45460510 1.3443000317 1.3253999949
 3154.1193848  -999.250000 12.640000343 12.250000954 138.48162842 0.0165999997 0.3490999937 2.4418001175 6.9432001114 101.86653900 104.32869720 221.33039856 1.3492000103 1.3266999722
 3154.2717285  -999.250000 12.729599953 12.250000954 133.14993286 0.0205000006 0.3637000024 2.4396998882 8.1078996658 104.79942322 104.55470276 220.17019653 1.3415000439 1.3235000372
 3154.4240723  -999.250000 12.861300468 12.250000954 131.01936340 0.0267999992 0.3671000004 2.4377999306 8.8332996368 100.44772339 103.80850220 217.75700378 1.3319000006 1.3126000166
 3154.5764160  -999.250000 13.010499954 12.250000954 127.61352539 0.0217000004 0.3635999858 2.4274001122 8.5826997757 96.660621643 103.24680328 217.94560242 1.3510999680 1.3325999975
 3154.7287598  -999.250000 12.975399971 12.250000954 124.10367584 0.0187999997 0.3461000025 2.4172999859 8.5647001266 94.491607666 103.71800232 219.58729553 1.3898999691 1.3612999916
 3154.8813477  -999.250000 12.960800171 12.250000954 139.32022095 0.0149999997 0.3468999863 2.4073998928 8.4540996552 93.064514160 103.70040131 222.27359009 1.4013999701 1.3709000349
 3155.0336914  -999.250000 12.979299545 12.250000954 136.82676697 0.0205000006 0.3424000144 2.4233999252 8.7229003906 93.195411682 104.16960144 224.55459595 1.4069000483 1.3755999804
 3155.1860352  -999.250000 12.997900009 12.250000954 122.91174316 0.0238000005 0.3242000043 2.4446001053 8.7573995590 94.951576233 104.39070892 226.28919983 1.4459999800 1.4110000134
 3155.3383789  -999.250000 12.987999916 12.250000954 122.01870728 0.0285000000 0.3260000050 2.4453999996 9.0274000168 96.735183716 103.82070160 224.91709900 1.4556000233 1.4235999584
 3155.4909668  -999.250000 12.614100456 12.250000954 119.69158936 0.0259000007 0.3070999980 2.4196999073 9.3371000290 92.712501526 102.70089722 221.27560425 1.4821000099 1.4421999454
 3155.6433105  -999.250000 12.618301392 12.250000954 117.71850586 0.0326000005 0.3230000138 2.4193000793 9.7839002609 84.206565857 102.67810059 218.83760071 1.4852000475 1.4407000542
 3155.7956543  -999.250000 12.710000992 12.250000954 124.05577087 0.0384999998 0.3098999858 2.4303998947 9.9287004471 82.199462891 101.64820099 219.76319885 1.4932999611 1.4452999830
 3155.9479980  -999.250000 12.732600212 12.250000954 115.90419006 0.0454999991 0.3291999996 2.4423000813 10.245400429 87.730041504 101.75990295 220.19940186 1.5073000193 1.4587999582
 3156.1005859  -999.250000 12.717399597 12.250000954 109.72999573 0.0353000015 0.3161000013 2.4247000217 10.754400253 92.623428345 101.83329010 218.60169983 1.4773000479 1.4406000376
 3156.2529297  -999.250000 12.662400246 12.250000954 111.96685791 0.0305000003 0.3203000128 2.4270999432 11.293399811 94.501060486 101.83399963 220.27040100 1.5745999813 1.5104000568
 3156.4052734  -999.250000 12.656399727 12.250000954 116.48130798 0.0372000001 0.3181999922 2.4481999874 11.548899651 93.917579651 101.12419891 221.10169983 1.5340000391 1.4782999754
 3156.5576172  -999.250000 12.642800331 12.250000954 116.31101990 0.0436000004 0.3228000104 2.4560999870 11.445899963 95.785079956 101.52850342 226.20768738 1.4936000109 1.4478000402
 3156.7099609  -999.250000 12.630900383 12.250000954 125.33332062 0.0513999984 0.3323999941 2.4539000988 11.357000351 102.19396973 101.34019470 227.25019836 1.4577000141 1.4163000584
 3156.8625488  -999.250000 12.614600182 12.250000954 121.03707886 0.0454999991 0.3409000039 2.4323000908 11.192399979 106.22233582 100.47810364 220.24780273 1.4213999510 1.3938000202
 3157.0148926  -999.250000 12.598699570 12.250000954 123.18798828 0.0417999998 0.3585000038 2.4161000252 11.028100014 105.04237366 101.26039886 221.04159546 1.3912999630 1.3703000546
 3157.1672363  -999.250000 12.635100365 12.250000954 127.60926056 0.0392999984 0.3578000069 2.4105999470 10.879799843 99.534332275 102.35710144 216.07389832 1.3676999807 1.3485000134
 3157.3195801  -999.250000 12.643900871 12.250000954 78.339561462 0.0463999994 0.3580000103 2.4305999279 10.840200424 93.447463989 102.47750092 215.80479431 1.3638999462 1.3380000591
 3157.4721680  -999.250000 12.663100243 12.250000954 82.267387390 0.0522999987 0.3402000070 2.4449000359 10.845299721 92.186203003 103.34510040 215.80479431 1.3889000416 1.3595000505
 3157.6245117  -999.250000 12.731699944 12.250000954 72.870407104 0.0535999984 0.3370000124 2.4591999054 10.669899940 95.118049622 104.14839935 215.17990112 1.4285999537 1.3882000446
 3157.7768555  -999.250000 12.740199089 12.250000954 67.599411011 0.0443999991 0.3334999979 2.4433999062 10.424599648 97.699897766 104.29959869 213.54049683 1.4364000559 1.4127000570
 3157.9291992  -999.250000 12.715999603 12.250000954 61.917327881 0.0339000002 0.3400999904 2.4152998924 10.251799583 96.195854187 104.01730347  -999.250000 1.4457000494 1.4306999445
 3158.0817871  -999.250000 12.758299828 12.250000954 59.191932678 0.0288999993 0.3393000066 2.4089999199 9.8076000214 91.682159424 103.67000580  -999.250000 1.5024000406 1.4730000496
 3158.2341309  -999.250000 12.735900879 12.250000954 53.512138367 0.0284000002 0.3395000100 2.4151000977 9.4703998566 91.986297607 103.77770233  -999.250000 1.5239000320 1.4815000296
 3158.3864746  -999.250000 12.737001419 12.250000954 51.472110748 0.0284000002 0.3400000036 2.4316999912 8.7426996231 95.282752991 103.59030151  -999.250000 1.5594999790 1.5089000463
 3158.5388184  -999.250000 12.733499527 12.250000954 50.920604706 0.0289999992 0.3361999989 2.4386000633 8.3760004044 93.692222595 103.37709808  -999.250000 1.5932999849 1.5403000116
 3158.6911621  -999.250000 12.732799530 12.250000954 49.566928864 0.0297999997 0.3468999863 2.4456000328 8.0324001312 92.397964478 102.62449646  -999.250000 1.5937999487 1.5465999842
 3158.8437500  -999.250000 12.727499008 12.250000954 63.375320435 0.0320000015 0.3512000144 2.4470999241 7.8975000381 92.932029724 102.64749146  -999.250000 1.5946999788 1.5503000021
 3158.9960938  -999.250000 12.663100243 12.250000954 62.600399017 0.0258000009 0.3443999887 2.4488000870 7.2128000259 90.766319275 102.05269623  -999.250000 1.6169999838 1.5585999489
