# LAS format log file from PETREL
# Project units are specified as depth units
#==================================================================
~Version information
VERS.   2.0:
WRAP.   NO:
#==================================================================
~Well
STRT .m      437.13198853 :
STOP .m      2196.1328125 :
STEP .m     0.00000000 :
NULL .        -999.250000 :
COMP.           : COMPANY
WELL.  34/3-1 S   : WELL
FLD.            : FIELD
LOC.            : LOCATION
SRVC.           : SERVICE COMPANY
DATE.  2018-09-11 14:48:49   : Log Export Date {yyyy-MM-dd HH:mm:ss}
PROV.           : PROVINCE
UWI.   34/3-1 S   : UNIQUE WELL ID
API.            : API NUMBER
#==================================================================
~Curve
DEPT .m                   : DEPTH
Lithology_geolink ._      : Lithology_geolink
BS .in                    : BS
ROP .m/h                  : ROP
GR .gAPI                  : GR
RDEP .ohm.m               : RDEP
RMED .ohm.m               : RMED
~Parameter
#==================================================================
~Ascii
# ...
 901.18994141  -999.250000 9.8750000000 226.76293945 91.520103455 2.6382999420 2.6545000076
 901.34234619  -999.250000 9.8750000000 225.06729126 85.927696228 2.6382999420 2.6644999981
 901.49475098  -999.250000 9.8750000000 220.59298706 85.927696228 2.6382999420 2.6644999981
 901.64715576  -999.250000 9.8750000000 211.34426880 93.311500549 2.6651000977 2.6644999981
 901.79956055  -999.250000 9.8750000000 208.30468750 93.311500549 2.6651000977 2.7095000744
 901.95196533  -999.250000 9.8750000000 203.50914001 93.311500549 2.6686000824 2.7095000744
 902.10437012  -999.250000 9.8750000000 197.69656372 86.981796265 2.6686000824 2.6240000725
 902.25677490  -999.250000 9.8750000000 204.21589661 86.981796265 2.6149001122 2.6240000725
 902.40917969  -999.250000 9.8750000000 196.64115906 86.981796265 2.5583000183 2.6240000725
 902.56158447  -999.250000 9.8750000000 187.72863770 90.263099670 2.5583000183 2.5416998863
 902.71398926  -999.250000 9.8750000000 170.38751221 90.263099670 2.5564999580 2.5416998863
 902.86633301  -999.250000 9.8750000000 174.03446960 83.917098999 2.5548000336 2.5416998863
 903.01873779  -999.250000 9.8750000000 206.39630127 83.917098999 2.5548000336 2.5747001171
 903.17114258  -999.250000 9.8750000000 221.27713013 88.289703369 2.5689001083 2.5747001171
 903.32354736  -999.250000 9.8750000000 224.60398865 88.289703369 2.5689001083 2.6059999466
 903.47595215  -999.250000 9.8750000000 216.66819763 88.289703369 2.5689001083 2.6059999466
 903.62835693  -999.250000 9.8750000000 217.34388733 84.466499329 2.6080999374 2.6045999527
 903.78076172  -999.250000 9.8750000000 229.51220703 84.466499329 2.6080999374 2.6029999256
 903.93316650  -999.250000 9.8750000000 228.09043884 84.466499329 2.5771999359 2.6029999256
 904.08557129  -999.250000 9.8750000000 229.52105713 92.612602234 2.5771999359 2.5571999550
 904.23797607  -999.250000 9.8750000000 235.55139160 92.612602234 2.5520000458 2.5571999550
 904.39038086  -999.250000 9.8750000000 236.23168945 89.707298279 2.5267999172 2.5376999378
 904.54278564  -999.250000 9.8750000000 234.01824951 89.707298279 2.5267999172 2.5199000835
 904.69519043  -999.250000 9.8750000000 243.13447571 89.707298279 2.5065999031 2.5116999149
 904.84759521  -999.250000 9.8750000000 255.53701782 90.108596802 2.4983000755 2.5069000721
 904.99993896  -999.250000 9.8750000000 251.09510803 90.108596802 2.4990000725 2.5069000721
 905.15234375  -999.250000 9.8750000000 248.16410828 92.266899109 2.5092000961 2.5111999512
 905.30474854  -999.250000 9.8750000000 247.70837402 94.425201416 2.5215001106 2.5281999111
 905.45715332  -999.250000 9.8750000000 245.68783569 94.425201416 2.5132000446 2.5201001167
 905.60955811  -999.250000 9.8750000000 241.81686401 86.655403137 2.5116999149 2.5186998844
 905.76196289  -999.250000 9.8750000000 223.65031433 86.655403137 2.5116999149 2.5197999477
 905.91436768  -999.250000 9.8750000000 227.59948730 86.655403137 2.5092000961 2.5197999477
 906.06677246  -999.250000 9.8750000000 234.92094421 84.085403442 2.5092000961 2.5164999962
 906.21917725  -999.250000 9.8750000000 240.88998413 84.085403442 2.5092000961 2.5132000446
 906.37158203  -999.250000 9.8750000000 251.79779053 87.174797058 2.5439999104 2.5132000446
 906.52398682  -999.250000 9.8750000000 256.01080322 87.174797058 2.5439999104 2.6417000294
 906.67639160  -999.250000 9.8750000000 255.99737549 90.615600586 2.6505999565 2.6417000294
 906.82879639  -999.250000 9.8750000000 234.91690063 94.056503296 2.6505999565 2.6417000294
 906.98114014  -999.250000 9.8750000000 230.47761536 94.056503296 2.6505999565 2.6489000320
 907.13354492  -999.250000 9.8750000000 240.06382751 93.722602844 2.6184999943 2.6489000320
 907.28594971  -999.250000 9.8750000000 240.08297729 94.599800110 2.6184999943 2.6080000401
 907.43835449  -999.250000 9.8750000000 276.10531616 95.592399597 2.6084001064 2.6080000401
 907.59075928  -999.250000 9.8750000000 293.36514282 91.674201965 2.6084001064 2.6080000401
 907.74316406  -999.250000 9.8750000000 289.70159912 91.340599060 2.6084001064 2.6175000668
 907.89556885  -999.250000 9.8750000000 290.26815796 92.027099609 2.6459999084 2.6175000668
 908.04797363  -999.250000 9.8750000000 258.29431152 90.547203064 2.6459999084 2.6696000099
 908.20037842  -999.250000 9.8750000000 251.69981384 84.294403076 2.6459999084 2.6696000099
 908.35278320  -999.250000 9.8750000000 248.34388733 84.294403076 2.6310999393 2.6696000099
 908.50518799  -999.250000 9.8750000000 240.57629395 88.618598938 2.6310999393 2.6394999027
 908.65759277  -999.250000 9.8750000000 230.34825134 88.618598938 2.6238000393 2.6394999027
 908.80999756  -999.250000 9.8750000000 220.62167358 98.598396301 2.6238000393 2.6098001003
 908.96240234  -999.250000 9.8750000000 227.77931213 98.598396301 2.6159999371 2.6098001003
 909.11474609  -999.250000 9.8750000000 238.42749023 98.598396301 2.6082000732 2.6098001003
 909.26715088  -999.250000 9.8750000000 245.46777344 92.431999207 2.6082000732 2.6142001152
 909.41955566  -999.250000 9.8750000000 242.90266418 92.431999207 2.5729000568 2.6142001152
 909.57196045  -999.250000 9.8750000000 225.21913147 92.441902161 2.5729000568 2.5343999863
 909.72436523  -999.250000 9.8750000000 201.48622131 92.441902161 2.4623999596 2.5129001141
 909.87677002  -999.250000 9.8750000000 169.23950195 92.441902161 2.4623999596 2.3947999477
 910.02917480  -999.250000 9.8750000000 141.43077087 92.257499695 2.2943999767 2.3494999409
 910.18157959  -999.250000 9.8750000000 127.02657318 92.257499695 2.2613000870 2.2427999973
 910.33398438  -999.250000 9.8750000000 131.52133179 94.799499512 2.4203999043 2.3289999962
 910.48638916  -999.250000 9.8750000000 137.26083374 97.341499329 2.4203999043 2.4830000401
 910.63879395  -999.250000 9.8750000000 133.60563660 97.341499329 2.5381999016 2.5055999756
 910.79119873  -999.250000 9.8750000000 138.42945862 96.952903748 2.5381999016 2.5450999737
 910.94360352  -999.250000 9.8750000000 156.36253357 96.952903748 2.4788000584 2.5086998940
 911.09594727  -999.250000 9.8750000000 188.10925293 97.886703491 2.4667999744 2.4776999950
 911.24835205  -999.250000 9.8750000000 213.12104797 99.130302429 2.4124999046 2.4583001137
 911.40075684  -999.250000 9.8750000000 233.46716309 99.130302429 2.4124999046 2.4388000965
 911.55316162  -999.250000 9.8750000000 255.29002380 100.20310211 2.4904000759 2.4388000965
 911.70556641  -999.250000 9.8750000000 268.65585327 100.20310211 2.4904000759 2.4856998920
 911.85797119  -999.250000 9.8750000000 260.00195313 98.665100098 2.4904000759 2.5327000618
 912.01037598  -999.250000 9.8750000000 258.92880249 97.160896301 2.5399000645 2.5327000618
 912.16278076  -999.250000 9.8750000000 253.04855347 97.160896301 2.5399000645 2.5327000618
 912.31518555  -999.250000 9.8750000000 253.66702271 86.617897034 2.5399000645 2.6156001091
 912.46759033  -999.250000 9.8750000000 249.19621277 89.734802246 2.5739998817 2.6156001091
 912.61999512  -999.250000 9.8750000000 239.10925293 93.328903198 2.5739998817 2.5494000912
 912.77239990  -999.250000 9.8750000000 228.02000427 86.459800720 2.5492000580 2.5494000912
 912.92480469  -999.250000 9.8750000000 235.38125610 86.459800720 2.5046999454 2.5494000912
 913.07720947  -999.250000 9.8750000000 238.57710266 89.821998596 2.5046999454 2.5044999123
 913.22955322  -999.250000 9.8750000000 248.45864868 90.798797607 2.4902999401 2.5044999123
 913.38195801  -999.250000 9.8750000000 256.72933960 87.889999390 2.4902999401 2.5009999275
 913.53436279  -999.250000 9.8750000000 251.06463623 87.889999390 2.5162000656 2.5009999275
 913.68676758  -999.250000 9.8750000000 235.21095276 93.407997131 2.5162000656 2.5374000072
 913.83917236  -999.250000 9.8750000000 231.09680176 95.147796631 2.5713999271 2.5374000072
 913.99157715  -999.250000 9.8750000000 242.02066040 91.987197876 2.5713999271 2.5374000072
 914.14398193  -999.250000 9.8750000000 230.23457336 88.826698303 2.5713999271 2.6006999016
 914.29638672  -999.250000 9.8750000000 228.13059998 88.826698303 2.6291999817 2.6006999016
