# LAS format log file from PETREL
# Project units are specified as depth units
#==================================================================
~Version information
VERS.   2.0:
WRAP.   NO:
#==================================================================
~Well
STRT .m      2233.7756348 :
STOP .m      5007.4555664 :
STEP .m     0.00000000 :
NULL .        -999.250000 :
COMP.           : COMPANY
WELL.  34/3-3 A   : WELL
FLD.            : FIELD
LOC.            : LOCATION
SRVC.           : SERVICE COMPANY
DATE.  2018-09-11 14:48:49   : Log Export Date {yyyy-MM-dd HH:mm:ss}
PROV.           : PROVINCE
UWI.   34/3-3 A   : UNIQUE WELL ID
API.            : API NUMBER
#==================================================================
~Curve
DEPT .m                   : DEPTH
Lithology_geolink ._      : Lithology_geolink
CALI .in                  : CALI
BS .in                    : BS
ROP .m/h                  : ROP
DRHO .g/cm3               : DRHO
NPHI .m3/m3               : NPHI
RHOB .g/cm3               : RHOB
PEF .b/e                  : PEF
GR .gAPI                  : GR
DTC .us/ft                : DTC
DTS .us/ft                : DTS
RDEP .ohm.m               : RDEP
RMED .ohm.m               : RMED
~Parameter
#==================================================================
~Ascii
# ...
 3514.5451660  -999.250000 12.421799660 12.250000954 54.419948578 0.0125000002 0.2480040044 2.4561998844 6.5089998245 90.043296814 95.833908081 191.87075806 1.8745000362 1.8646999598
 3514.6975098  -999.250000 12.432000160 12.250000954 63.016078949 0.0164999999 0.2553881407 2.4400999546 7.2508997917 91.238502502 94.754829407 190.52246094 1.8902000189 1.8752000332
 3514.8498535  -999.250000 12.436100006 12.250000954 69.438652039 0.0163000003 0.2425206751 2.4384000301 7.4601998329 94.049201965 94.707077026 188.32302856 1.9979000092 1.9535000324
 3515.0021973  -999.250000 12.434100151 12.250000954 71.268043518 0.0218000002 0.2388118505 2.4526000023 7.3789000511 92.462303162 92.961898804 185.93406677 1.9979000092 1.9535000324
 3515.1547852  -999.250000 12.416600227 12.250000954 74.406173706 0.0282000005 0.2394988835 2.4772000313 6.8712000847 87.510002136 93.748725891 187.49748230 1.8945000172 1.8861999512
 3515.3071289  -999.250000 12.379499435 12.250000954 73.336616516 0.0287999995 0.2482859045 2.4762001038 6.4755001068 87.444801331 94.527748108 189.56401062 1.8415999413 1.8349000216
 3515.4594727  -999.250000 12.360600471 12.250000954 76.095146179 0.0296999998 0.2526929379 2.4674999714 6.3586997986 91.815803528 96.292266846 192.50416565 1.8301000595 1.8278000355
 3515.6118164  -999.250000 12.378800392 12.250000954 72.102691650 0.0214000009 0.2424329668 2.4581000805 6.2593002319 95.689102173 96.781036377 194.24044800 1.8332999945 1.8176000118
 3515.7644043  -999.250000 12.392800331 12.250000954 61.528545380 0.0231999997 0.2394048125 2.4560000896 6.2898998260 94.834503174 96.959518433 195.14825439 1.8280999660 1.7960000038
 3515.9167480  -999.250000 12.385899544 12.250000954 72.736221313 0.0156999994 0.2470876575 2.4607000351 5.8819999695 93.735099792 97.607460022 195.58470154 1.7302000523 1.7066999674
 3516.0690918  -999.250000 12.377400398 12.250000954 83.985565186 0.0119000003 0.2535895705 2.4484999180 5.7809000015 98.499801636 98.024131775 198.72535706 1.6270999908 1.6272000074
 3516.2214355  -999.250000 12.374600410 12.250000954 86.383201599 0.0155999996 0.2560920119 2.4633998871 5.8913002014 102.38330078 98.861412048 201.40771484 1.6022000313 1.5986000299
 3516.3740234  -999.250000 12.441499710 12.250000954 86.616142273 0.0252000000 0.2531048059 2.4676001072 6.2877001762 100.20490265 98.541618347 201.69914246 1.5774999857 1.5786999464
 3516.5263672  -999.250000 12.384400368 12.250000954 87.501312256 0.0232999995 0.2526008189 2.4667999744 6.3657999039 95.162902832 98.108993530 201.67643738 1.5549000502 1.5460000038
 3516.6787109  -999.250000 12.366200447 12.250000954 87.049537659 0.0219000001 0.2576918304 2.4544999599 6.4166998863 91.662803650 98.700645447 200.62109375 1.5533000231 1.5361000299
 3516.8310547  -999.250000 12.331200600 12.250000954 92.173889160 0.0220999997 0.2559028864 2.4646999836 6.3562998772 90.610298157 98.764198303 200.27925110 1.5590000153 1.5328999758
 3516.9833984  -999.250000 12.334700584 12.250000954 93.212928772 0.0217000004 0.2569964826 2.4697000980 6.3498997688 90.769401550 98.683357239 199.62330627 1.5480999947 1.5283999443
 3517.1359863  -999.250000 12.375999451 12.250000954 108.04364014 0.0131000001 0.2615926266 2.4655001163 6.1217999458 93.057899475 99.547309875 198.68719482 1.5170999765 1.5067000389
 3517.2883301  -999.250000 12.364100456 12.250000954 154.68830872 0.0109999999 0.2661926448 2.4470000267 6.2695999146 94.742698669 100.68297577 199.76585388 1.4701000452 1.4816000462
 3517.4406738  -999.250000 12.366200447 12.250000954 135.06692505 0.0198999997 0.2630051374 2.4612998962 6.4390997887 93.759597778 100.41074371 201.24832153 1.4684000015 1.4733999968
 3517.5930176  -999.250000 12.373900414 12.250000954 131.23327637 0.0269000009 0.2568198442 2.4581999779 6.8109998703 93.482200623 99.039611816 201.67642212 1.5334999561 1.5109000206
 3517.7456055  -999.250000 12.373100281 12.250000954 128.71226501 0.0252999999 0.2575987279 2.4644999504 6.6958999634 94.632598877 100.38085175 201.20576477 1.5444999933 1.5262000561
 3517.8979492  -999.250000 12.362001419 12.250000954 129.23130798 0.0194000024 0.2559027076 2.4509000778 6.2997999191 94.469398499 100.43741608 199.79226685 1.5286999941 1.5151000023
 3518.0502930  -999.250000 12.419400215 12.250000954 127.73326874 0.0114000002 0.2669821978 2.4523999691 5.7223000526 91.279296875 99.366317749 201.00524902 1.5220999718 1.5128999949
 3518.2026367  -999.250000 12.425700188 12.250000954 133.11744690 0.0132999998 0.2616172731 2.4579000473 5.5338997841 88.766502380 98.873184204 200.53222656 1.5284999609 1.5176000595
 3518.3552246  -999.250000 12.406100273 12.250000954 126.08531189 0.0099999998 0.2617996633 2.4570000172 5.6163997650 92.246101379 98.889167786 199.19914246 1.5264999866 1.5226000547
 3518.5075684  -999.250000 12.425099373 12.250000954 118.33793640 0.0173000004 0.2558096349 2.4623999596 5.6712999344 97.798103333 98.632614136 199.16752625 1.5195000172 1.5099999905
 3518.6599121  -999.250000 12.448100090 12.250000954 109.97933960 0.0156999994 0.2561993301 2.4635000229 5.6591000557 99.213699341 99.063507080 199.45094299 1.4946000576 1.4882999659
 3518.8122559  -999.250000 12.515700340 12.250000954 105.27690887 0.0176999997 0.2636879981 2.4697999954 5.6967000961 98.968902588 99.768272400 201.59246826 1.4898999929 1.4888999462
 3518.9645996  -999.250000 12.565100670 12.250000954 116.52427673 0.0144999996 0.2632016242 2.4649999142 5.8583002090 97.696098328 99.354728699 204.59915161 1.5010000467 1.5017000437
 3519.1171875  -999.250000 12.562299728 12.250000954 118.62728882 0.0237000007 0.2675929368 2.4885001183 6.0374999046 95.725799561 99.374572754 201.94009399 1.5159000158 1.5163999796
 3519.2695313  -999.250000 12.501500130 12.250000954 110.81167603 0.0264999997 0.2674003243 2.4923000336 5.8649997711 98.675201416 99.110725403 199.95259094 1.5812000036 1.5672999620
 3519.4218750  -999.250000 12.445400238 12.250000954 105.37630463 0.0233999994 0.2604112029 2.4972999096 5.4361000061 101.63269806 99.177192688 197.20640564 1.6028000116 1.5986000299
 3519.5742188  -999.250000 12.436499596 12.250000954 101.74737549 0.0131999999 0.2547182441 2.4786999226 4.8719000816 95.986900330 97.279685974 193.90269470 1.5992000103 1.6054999828
 3519.7268066  -999.250000 12.428500175 12.250000954 95.962272644 0.0116999997 0.2515051365 2.4907999039 4.4043998718 88.305496216 97.488754272 194.80114746 1.7153999805 1.7032999992
 3519.8791504  -999.250000 12.378800392 12.250000954 104.44029236 0.0110999998 0.2572906911 2.4807999134 4.2533998489 87.257102966 96.553611755 192.06478882 1.8877999783 1.8562999964
 3520.0314941  -999.250000 12.358799934 12.250000954 99.277557373 0.0091000004 0.2594964802 2.4702000618 4.2267999649 91.430297852 94.586059570 189.25410461 1.9608000517 1.9131000042
 3520.1838379  -999.250000 12.354299545 12.250000954 103.31069183 0.0114000002 0.2524227202 2.4665999413 4.3421998024 96.203102112 93.281974792 184.30436707 1.9987000227 1.9586999416
 3520.3364258  -999.250000 12.373499870 12.250000954 104.27329254 0.0103000002 0.2476076931 2.4676001072 4.5398001671 96.031799316 92.701721191 182.49797058 1.9946999550 1.9864000082
 3520.4887695  -999.250000 12.411000252 12.250000954 94.583335876 0.0149999997 0.2385145873 2.4825997353 4.8698000908 89.178497314 92.740036011 181.53733826 2.0466001034 2.0260999203
 3520.6411133  -999.250000 12.417301178 12.250000954 92.868766785 0.0135000004 0.2375016063 2.4756999016 5.1581997871 83.096199036 91.528343201 181.65519714 2.0687000751 2.0545001030
 3520.7934570  -999.250000 12.397399902 12.250000954 90.410438538 0.0146000003 0.2318091393 2.4741001129 5.6733999252 82.973800659 91.485466003 183.40379333 2.0796000957 2.0583000183
 3520.9458008  -999.250000 12.420200348 12.250000954 94.291671753 0.0153000001 0.2320990413 2.4618999958 6.0622000694 86.278099060 91.557266235 183.03410339 2.0811998844 2.0638999939
 3521.0983887  -999.250000 12.414899826 12.250000954 101.26869965 0.0127999997 0.2314011157 2.4544000626 6.4219999313 90.218696594 92.655136108 182.89570618 2.0929999352 2.0727999210
