# LAS format log file from PETREL
# Project units are specified as depth units
#==================================================================
~Version information
VERS.   2.0:
WRAP.   NO:
#==================================================================
~Well
STRT .m      3771.1865234 :
STOP .m      4146.8525391 :
STEP .m     0.00000000 :
NULL .        -999.250000 :
COMP.           : COMPANY
WELL.  34/3-1 A   : WELL
FLD.            : FIELD
LOC.            : LOCATION
SRVC.           : SERVICE COMPANY
DATE.  2018-09-11 14:48:49   : Log Export Date {yyyy-MM-dd HH:mm:ss}
PROV.           : PROVINCE
UWI.   34/3-1 A   : UNIQUE WELL ID
API.            : API NUMBER
#==================================================================
~Curve
DEPT .m                   : DEPTH
Lithology_geolink ._      : Lithology_geolink
CALI .in                  : CALI
BS .in                    : BS
ROP .m/h                  : ROP
DRHO .g/cm3               : DRHO
NPHI .m3/m3               : NPHI
RHOB .g/cm3               : RHOB
PEF .b/e                  : PEF
GR .gAPI                  : GR
DTC .us/ft                : DTC
DTS .us/ft                : DTS
RDEP .ohm.m               : RDEP
RMIC .ohm.m               : RMIC
RMED .ohm.m               : RMED
~Parameter
#==================================================================
~Ascii
# ...
 3989.8808594 5.0000000000 9.4869003296 8.5000000000 37.312335968 0.0114000002 0.1510999948 2.6589999199 11.132499695 72.567100525 76.096199036 145.80050659 5.4349999428  -999.250000 5.3715000153
 3990.0332031 5.0000000000 9.7419004440 8.5000000000 29.657804489 0.0073000002 0.1357000023 2.6756999493 10.720499992 71.986198425 74.321899414 143.10650635 5.7239999771  -999.250000 6.7273001671
 3990.1855469 5.0000000000 8.8704004288 8.5000000000 21.194225311 0.0038999999 0.1387999952 2.6777999401 10.375800133 74.430702209 69.522201538 140.33410645 5.8147001266  -999.250000 6.9674000740
 3990.3378906 16.000000000 8.8704004288 8.5000000000 12.499671936 -0.000900000 0.1510999948 2.6679999828 9.9583997726 77.469596863 70.954597473 137.12150574 5.8481001854  -999.250000 6.9720001221
 3990.4904785 4.0000000000 8.7983999252 8.5000000000 17.007873535 -0.003900000 0.1712999940 2.6452999115 10.440999985 85.817703247 70.147499084 133.37809753 5.7005000114  -999.250000 6.1937999725
 3990.6428223 4.0000000000 8.7264003754 8.5000000000 25.259843826 -0.005600000 0.1965000033 2.6280999184 10.228400230 86.111503601 70.752998352 131.79269409 5.4284000397  -999.250000 5.0899000168
 3990.7951660 6.0000000000 8.7264003754 8.5000000000 35.456039429 -0.006000000 0.2212000042 2.6136999130 9.8234996796 106.42220306 69.218597412 132.08439636 5.0198001862  -999.250000 3.8643000126
 3990.9475098 6.0000000000 9.2995004654 8.5000000000 44.497703552 -0.006700000 0.2531999946 2.6136999130 9.5974998474 112.19159698 68.698997498 132.90049744 4.6287999153  -999.250000 3.2197999954
 3991.0998535 6.0000000000 9.3118000031 8.5000000000 52.722770691 -0.003500000 0.2515000105 2.6166000366 9.1901998520 126.29199982 71.531700134 137.61380005 4.4345998764  -999.250000 2.9152998924
 3991.2524414 6.0000000000 9.3885002136 8.5000000000 56.699806213 0.0018000000 0.2518999875 2.6184999943 9.2861995697 117.66220093 73.996498108 141.60769653 4.4970002174  -999.250000 2.8768999577
 3991.4047852 6.0000000000 9.1033000946 8.5000000000 51.870735168 0.0017000000 0.2624999881 2.6191999912 9.6473999023 119.97380066 81.662597656 146.25959778 4.4980998039  -999.250000 2.9335999489
 3991.5571289 6.0000000000 8.8866996765 8.5000000000 42.938320160 0.0004000000 0.2651000023 2.6157999039 9.9024000168 117.87779999 80.684303284 145.60180664 4.4671998024  -999.250000 2.9909999371
 3991.7094727 6.0000000000 8.7206001282 8.5000000000 43.956363678 -0.002600000 0.2705000043 2.6206998825 9.3326997757 120.70600128 81.799301147 147.78529358 4.5195999146  -999.250000 3.0706000328
 3991.8620605 6.0000000000 8.6294002533 8.5000000000 52.671588898 0.0015000000 0.2745000124 2.5559000969 8.8688001633 112.85250092 82.521896362 147.98339844 4.4285001755  -999.250000 3.1171000004
 3992.0144043 6.0000000000 8.6294002533 8.5000000000 58.363849640 -0.009700001 0.2802999914 2.4798998833 9.0106000900 94.948303223 77.366996765 143.77540588 4.3674001694  -999.250000 3.2281000614
 3992.1667480 6.0000000000 8.4738998413 8.5000000000 58.034454346 -0.021700000 0.2894000113 2.3710999489 8.9244003296 81.603500366 75.891502380 144.33509827 4.4288001060  -999.250000 3.6514000893
 3992.3190918 6.0000000000 8.5143003464 8.5000000000 71.513450623 -0.021800000 0.2811999917 2.2837998867 7.6433000565 62.901599884 74.415901184 144.89469910 4.5819997787  -999.250000 3.9779999256
 3992.4716797 2.0000000000 8.6373996735 8.5000000000 109.44618988 -0.019500000 0.2660999894 2.2548999786 7.3562998772 60.033401489 73.581596375 147.40109253 4.6504998207  -999.250000 4.3951997757
 3992.6240234 2.0000000000 8.6373996735 8.5000000000 136.23950195 -0.018400000 0.2335000038 2.2583999634 6.9060001373 60.225898743 78.245796204 149.64430237 4.6722998619  -999.250000 4.8755998611
 3992.7763672 2.0000000000 8.7409000397 8.5000000000 108.84349823 -0.028300000 0.2070000023 2.2548999786 7.1726999283 58.248401642 78.455902100 148.53860474 4.7940998077  -999.250000 5.8123002052
 3992.9287109 16.000000000 8.8444995880 8.5000000000 64.114830017 -0.038500000 0.1685000062 2.2543001175 6.9576997757 56.541900635 78.497993469 145.14059448 4.9155998230  -999.250000 7.1543998718
 3993.0810547 16.000000000 8.8227996826 8.5000000000 45.036743164 -0.017200001 0.1150999963 2.4038999081 8.2637996674 50.545299530 77.287300110 141.66270447 5.0977997780  -999.250000 9.4828996658
 3993.2336426 16.000000000 8.7565002441 8.5000000000 33.051506042 -0.006900000 0.0804999992 2.5841000080 8.9444999695 49.361400604 78.962600708 141.65379333 5.2639999390  -999.250000 11.533800125
 3993.3859863 16.000000000 8.7138996124 8.5000000000 20.299213409 -0.005800000 0.0700000003 2.6512999535 9.3292999268 47.765998840 84.154098511 144.90029907 5.3576002121  -999.250000 12.374799728
 3993.5383301 16.000000000 8.6787004471 8.5000000000 14.970799446 -0.006800000 0.0700000003 2.6549000740 9.2006998062 48.612400055 87.511001587 147.02380371 5.3317999840  -999.250000 13.315500259
 3993.6906738 16.000000000 9.0503997803 8.5000000000 14.123687744 0.0003000000 0.0729999989 2.6582999229 8.3915996552 51.468200684 86.122703552 149.23268127 5.2000999451  -999.250000 12.623100281
 3993.8432617 16.000000000 9.1286001205 8.5000000000 15.824475288 0.0102000004 0.0847999975 2.6716001034 8.6378002167 49.844898224 85.392799377 148.13810730 5.1690998077  -999.250000 11.303400040
 3993.9956055 16.000000000 8.6560001373 8.5000000000 17.774278641 0.0126000000 0.1023999974 2.6651999950 9.0097999573 49.135700226 87.186203003 147.60479736 5.0383000374  -999.250000 9.3912000656
 3994.1479492 16.000000000 8.6560001373 8.5000000000 20.161745071 0.0152000003 0.1340000033 2.6135001183 9.8865995407 54.808998108 87.333602905 144.98359680 4.8949999809  -999.250000 7.1835999489
 3994.3002930 2.0000000000 8.5115003586 8.5000000000 23.927165985 -0.007000000 0.1832000017 2.4288001060 9.6863002777 55.845901489 90.521209717 151.40010071 4.8158001900  -999.250000 5.4565000534
 3994.4528809 2.0000000000 8.5115003586 8.5000000000 28.794292450 -0.016700000 0.2569999993 2.2950997353 8.1189002991 55.715400696 95.207305908 156.19740295 4.7578001022  -999.250000 5.5500998497
 3994.6052246 2.0000000000 8.5169000626 8.5000000000 36.749671936 -0.025400000 0.2874000072 2.2451000214 7.5862998962 55.731201172 96.551803589 156.54710388 4.5279002190  -999.250000 4.9373002052
 3994.7575684 2.0000000000 8.5221996307 8.5000000000 65.126968384 -0.009700001 0.2975000143 2.2281000614 7.6712999344 55.111198425 96.936096191 156.07382202 4.4618000984  -999.250000 4.3969998360
 3994.9099121 2.0000000000 8.5221996307 8.5000000000 93.091537476 -0.013500000 0.3007999957 2.2063999176 7.2709999084 53.134601593 96.469802856 155.62620544 4.4148998260  -999.250000 3.8366999626
 3995.0622559 2.0000000000 8.5496997833 8.5000000000 99.908790588 -0.016899999 0.3009999990 2.1956000328 6.9242000580 52.928798676 96.537200928 152.93330383 4.3568000793  -999.250000 3.7042000294
 3995.2148438 2.0000000000 8.5771999359 8.5000000000 82.935371399 -0.021700000 0.3097999990 2.1951000690 6.3083000183 61.121101379 96.655403137 150.99850464 4.3442997932  -999.250000 3.6958000660
 3995.3671875 2.0000000000 8.5771999359 8.5000000000 87.109252930 -0.022700001 0.3043000102 2.1982998848 6.0433001518 60.587001801 96.366699219 151.65159607 4.3053998947  -999.250000 3.6754999161
 3995.5195313 2.0000000000 8.5086002350 8.5000000000 95.718833923 -0.022900000 0.3046999872 2.1940999031 5.9938001633 57.808898926 97.489097595 155.30520630 4.1890001297  -999.250000 3.5933001041
 3995.6718750 2.0000000000 8.5086002350 8.5000000000 97.528221130 -0.020000000 0.3048999906 2.1974000931 6.4580998421 62.764701843 90.369903564 155.73660278 4.0539999008  -999.250000 3.4721999168
 3995.8244629 2.0000000000 8.5680999756 8.5000000000 83.679794312 -0.024200000 0.3046999872 2.1912999153 6.2719998360 61.479198456 90.981201172 159.32040405 3.9839000702  -999.250000 3.3642001152
 3995.9768066 2.0000000000 8.6275997162 8.5000000000 84.108596802 -0.027799999 0.3073999882 2.1793999672 6.2933998108 55.972099304 89.189201355 160.31649780 3.8907001019  -999.250000 3.3234000206
