# LAS format log file from PETREL
# Project units are specified as depth units
#==================================================================
~Version information
VERS.   2.0:
WRAP.   NO:
#==================================================================
~Well
STRT .m      437.13198853 :
STOP .m      2196.1328125 :
STEP .m     0.00000000 :
NULL .        -999.250000 :
COMP.           : COMPANY
WELL.  34/3-1 S   : WELL
FLD.            : FIELD
LOC.            : LOCATION
SRVC.           : SERVICE COMPANY
DATE.  2018-09-11 14:48:49   : Log Export Date {yyyy-MM-dd HH:mm:ss}
PROV.           : PROVINCE
UWI.   34/3-1 S   : UNIQUE WELL ID
API.            : API NUMBER
#==================================================================
~Curve
DEPT .m                   : DEPTH
Lithology_geolink ._      : Lithology_geolink
BS .in                    : BS
ROP .m/h                  : ROP
GR .gAPI                  : GR
RDEP .ohm.m               : RDEP
RMED .ohm.m               : RMED
~Parameter
#==================================================================
~Ascii
# ...
 1484.5771484  -999.250000 17.500000000 29.983924866 114.71099854 2.3752000332 1.9138000011
 1484.7296143  -999.250000 17.500000000 29.983924866 113.31150055 2.4173998833 1.9756000042
 1484.8819580  -999.250000 17.500000000 29.983924866 108.21749878 2.4521000385 2.0120000839
 1485.0344238  -999.250000 17.500000000 29.983924866 117.86509705 2.4188001156 2.0650999546
 1485.1867676  -999.250000 17.500000000 29.983924866 109.03780365 2.4472999573 2.0525999069
 1485.3392334  -999.250000 17.500000000 29.983924866 107.28970337 2.4625000954 2.0360999107
 1485.4915771  -999.250000 17.500000000 29.983924866 98.327201843 2.4625000954 2.1222999096
 1485.6440430  -999.250000 17.500000000 32.981628418 102.17279816 2.4625000954 2.0685000420
 1485.7963867  -999.250000 17.500000000 32.981628418 108.26029968 2.4479999542 2.0199000835
 1485.9488525  -999.250000 17.500000000 32.981628418 92.983200073 2.4054000378 2.0636000633
 1486.1011963  -999.250000 17.500000000 32.981628418 89.807899475 2.4005000591 2.0039000511
 1486.2536621  -999.250000 17.500000000 32.981628418 108.66410065 2.3684000969 1.8839000463
 1486.4060059  -999.250000 17.500000000 32.981628418 110.24369812 2.2664000988 1.7457000017
 1486.5584717  -999.250000 17.500000000 32.708988190 119.01650238 2.2098000050 1.6225999594
 1486.7108154  -999.250000 17.500000000 32.708988190 116.17949677 2.1324000359 1.5494999886
 1486.8631592  -999.250000 17.500000000 32.708988190 97.888000488 1.9829000235 1.4409999847
 1487.0156250  -999.250000 17.500000000 32.708988190 94.224403381 1.9217000008 1.4519000053
 1487.1679688  -999.250000 17.500000000 32.708988190 94.520401001 1.9126000404 1.4912999868
 1487.3204346  -999.250000 17.500000000 32.708988190 93.560203552 1.9126000404 1.6057000160
 1487.4727783  -999.250000 17.500000000 32.708988190 92.861198425 1.9316999912 1.5902999640
 1487.6252441  -999.250000 17.500000000 48.980972290 88.309799194 1.9566999674 1.5084999800
 1487.7775879  -999.250000 17.500000000 48.980972290 87.100898743 1.9077999592 1.4710999727
 1487.9300537  -999.250000 17.500000000 48.980972290 89.195297241 1.8603999615 1.5360000134
 1488.0823975  -999.250000 17.500000000 48.980972290 91.735198975 1.8916000128 1.4744000435
 1488.2348633  -999.250000 17.500000000 48.980972290 97.101600647 1.8798999786 1.4163000584
 1488.3872070  -999.250000 17.500000000 48.980972290 95.118698120 1.7792999744 1.3514000177
 1488.5396729  -999.250000 17.500000000 48.980972290 90.500198364 1.7611999512 1.4218000174
 1488.6920166  -999.250000 17.500000000 45.565944672 84.029098511 1.7326999903 1.4033000469
 1488.8443604  -999.250000 17.500000000 45.565944672 80.221496582 1.7161999941 1.3898999691
 1488.9968262  -999.250000 17.500000000 45.565944672 83.775398254 1.7338999510 1.2885999680
 1489.1491699  -999.250000 17.500000000 45.565944672 92.985099792 1.6935000420 1.2473000288
 1489.3016357  -999.250000 17.500000000 45.565944672 98.378898621 1.6553000212 1.2731000185
 1489.4539795  -999.250000 17.500000000 45.565944672 99.255798340 1.6553000212 1.2855999470
 1489.6064453  -999.250000 17.500000000 68.676506042 101.46360016 1.6484999657 1.2131999731
 1489.7587891  -999.250000 17.500000000 68.676506042 97.889701843 1.5994000435 1.2288000584
 1489.9112549  -999.250000 17.500000000 68.676506042 91.269897461 1.5966000557 1.2417999506
 1490.0635986  -999.250000 17.500000000 68.676506042 93.758201599 1.6562000513 1.2937999964
 1490.2160645  -999.250000 17.500000000 68.676506042 97.712898254 1.7013000250 1.3257999420
 1490.3684082  -999.250000 17.500000000 68.676506042 99.620399475 1.7161999941 1.3032000065
 1490.5208740  -999.250000 17.500000000 68.676506042 89.449600220 1.7161999941 1.4285999537
 1490.6732178  -999.250000 17.500000000 30.730316162 93.240798950 1.7365000248 1.4888999462
 1490.8255615  -999.250000 17.500000000 30.730316162 92.335403442 1.7831000090 1.4938999414
 1490.9780273  -999.250000 17.500000000 30.730316162 92.285499573 1.8072999716 1.4938999414
 1491.1303711  -999.250000 17.500000000 30.730316162 79.898399353 1.7792999744 1.4938999414
 1491.2828369  -999.250000 17.500000000 30.730316162 84.393898010 1.7792999744 1.4837000370
 1491.4351807  -999.250000 17.500000000 30.730316162 93.013198853 1.7739000320 1.4368000031
 1491.5876465  -999.250000 17.500000000 48.752624512 98.378898621 1.7161999941 1.3404999971
 1491.7399902  -999.250000 17.500000000 48.752624512 92.897796631 1.7161999941 1.2739000320
 1491.8924561  -999.250000 17.500000000 48.752624512 84.663902283 1.7161999941 1.2239999771
 1492.0447998  -999.250000 17.500000000 48.752624512 89.807899475 1.6626000404 1.1900999546
 1492.1972656  -999.250000 17.500000000 48.752624512 94.312400818 1.6110999584 1.1926000118
 1492.3496094  -999.250000 17.500000000 48.752624512 92.430297852 1.5966000557 1.2030999660
 1492.5020752  -999.250000 17.500000000 48.752624512 97.609802246 1.6007000208 1.3898999691
 1492.6544189  -999.250000 17.500000000 45.182086945 94.205497742 1.6439000368 1.3898999691
 1492.8068848  -999.250000 17.500000000 45.182086945 87.134201050 1.6835000515 1.3992999792
 1492.9592285  -999.250000 17.500000000 45.182086945 87.878799438 1.7138999701 1.4677000046
 1493.1115723  -999.250000 17.500000000 45.182086945 95.341400146 1.7161999941 1.4776999950
 1493.2640381  -999.250000 17.500000000 45.182086945 93.204597473 1.7161999941 1.5406999588
 1493.4163818  -999.250000 17.500000000 45.182086945 88.379699707 1.7161999941 1.5437999964
 1493.5688477  -999.250000 17.500000000 55.653873444 92.755897522 1.7161999941 1.4572999477
 1493.7211914  -999.250000 17.500000000 55.653873444 88.523101807 1.7056000233 1.3329999447
 1493.8736572  -999.250000 17.500000000 55.653873444 77.808502197 1.6540999413 1.2824000120
 1494.0260010  -999.250000 17.500000000 55.653873444 79.319099426 1.6107000113 1.3293999434
 1494.1784668  -999.250000 17.500000000 55.653873444 83.795700073 1.5966000557 1.3739000559
 1494.3308105  -999.250000 17.500000000 55.653873444 86.985198975 1.5966000557 1.2899999619
 1494.4832764  -999.250000 17.500000000 55.653873444 80.380798340 1.5773999691 1.2439999580
 1494.6356201  -999.250000 17.500000000 61.481620789 87.109901428 1.5398999453 1.2139999866
 1494.7880859  -999.250000 17.500000000 61.481620789 96.011299133 1.5118000507 1.2030999660
 1494.9404297  -999.250000 17.500000000 61.481620789 94.197402954 1.4912999868 1.2056000233
 1495.0927734  -999.250000 17.500000000 61.481620789 93.762901306 1.4887000322 1.2405999899
 1495.2452393  -999.250000 17.500000000 61.481620789 92.397102356 1.5068999529 1.2127000093
 1495.3975830  -999.250000 17.500000000 61.481620789 90.650497437 1.4889999628 1.1663000584
 1495.5500488  -999.250000 17.500000000 56.888454437 100.95790100 1.4852999449 1.1604000330
 1495.7023926  -999.250000 17.500000000 56.888454437 87.086502075 1.4589999914 1.1200000048
 1495.8548584  -999.250000 17.500000000 56.888454437 92.648200989 1.4326000214 1.0795999765
 1496.0072021  -999.250000 17.500000000 56.888454437 101.09470367 1.4154000282 1.0930000544
 1496.1596680  -999.250000 17.500000000 56.888454437 101.20249939 1.3818000555 1.1193000078
 1496.3120117  -999.250000 17.500000000 56.888454437 84.646797180 1.3918000460 1.1114000082
 1496.4644775  -999.250000 17.500000000 56.888454437 85.407997131 1.4294999838 1.0821000338
 1496.6168213  -999.250000 17.500000000 65.602363586 85.206901550 1.3921999931 1.0795999765
 1496.7692871  -999.250000 17.500000000 65.602363586 82.677001953 1.3818000555 1.0795999765
 1496.9216309  -999.250000 17.500000000 65.602363586 87.698799133 1.3818000555 1.0795999765
 1497.0739746  -999.250000 17.500000000 65.602363586 91.533897400 1.3818000555 1.0795999765
 1497.2264404  -999.250000 17.500000000 65.602363586 92.243698120 1.3818000555 1.0795999765
 1497.3787842  -999.250000 17.500000000 65.602363586 93.067497253 1.3818000555 1.1193000078
 1497.5312500  -999.250000 17.500000000 65.602363586 84.365997314 1.4026000500 1.1822999716
 1497.6835938  -999.250000 17.500000000 37.010826111 84.752502441 1.4573999643 1.2030999660
