# LAS format log file from PETREL
# Project units are specified as depth units
#==================================================================
~Version information
VERS.   2.0:
WRAP.   NO:
#==================================================================
~Well
STRT .m      2233.7756348 :
STOP .m      5007.4555664 :
STEP .m     0.00000000 :
NULL .        -999.250000 :
COMP.           : COMPANY
WELL.  34/3-3 A   : WELL
FLD.            : FIELD
LOC.            : LOCATION
SRVC.           : SERVICE COMPANY
DATE.  2018-09-11 14:48:49   : Log Export Date {yyyy-MM-dd HH:mm:ss}
PROV.           : PROVINCE
UWI.   34/3-3 A   : UNIQUE WELL ID
API.            : API NUMBER
#==================================================================
~Curve
DEPT .m                   : DEPTH
Lithology_geolink ._      : Lithology_geolink
CALI .in                  : CALI
BS .in                    : BS
ROP .m/h                  : ROP
DRHO .g/cm3               : DRHO
NPHI .m3/m3               : NPHI
RHOB .g/cm3               : RHOB
PEF .b/e                  : PEF
GR .gAPI                  : GR
DTC .us/ft                : DTC
DTS .us/ft                : DTS
RDEP .ohm.m               : RDEP
RMED .ohm.m               : RMED
~Parameter
#==================================================================
~Ascii
# ...
 4614.2636719  -999.250000 12.357100487 12.250000954 68.973098755 -0.011300000 0.2942000031 2.5804998875 4.7379999161 113.77645111 92.752296448  -999.250000 2.1703999043 1.9822000265
 4614.4160156  -999.250000 12.370400429 12.250000954 61.416992188 -0.013000000 0.2971903980 2.5622999668 4.7154002190 116.06518555 93.377593994  -999.250000 2.2177000046 2.0060000420
 4614.5683594  -999.250000 12.364199638 12.250000954 63.662406921 0.0001000000 0.3111551106 2.5678000450 4.3689999580 116.68440247 94.448066711  -999.250000 2.1698999405 2.0065000057
 4614.7207031  -999.250000 12.386400223 12.250000954 63.494094849 -0.003100000 0.3139910400 2.5450000763 4.2323999405 114.90419769 93.946426392  -999.250000 2.0494000912 1.9323999882
 4614.8730469  -999.250000 12.389699936 12.250000954 54.269687653 -0.004200000 0.3108102381 2.5634000301 4.1715998650 113.62580109 94.789581299  -999.250000 1.9697999954 1.8719999790
 4615.0253906  -999.250000 12.383199692 12.250000954 55.846454620 -0.007800000 0.3129929304 2.5653998852 4.2870001793 116.88760376 94.618553162  -999.250000 1.9752000570 1.8803999424
 4615.1782227  -999.250000 12.365501404 12.250000954 55.536090851 -0.003400000 0.3050999939 2.5808000565 4.4467000961 120.36112976 93.760803223  -999.250000 1.9543999434 1.8492000103
 4615.3305664  -999.250000 12.364800453 12.250000954 55.668304443 -0.006500000 0.3043000102 2.5460000038 4.5784001350 119.30365753 93.452705383  -999.250000 1.9194999933 1.8200999498
 4615.4829102  -999.250000 12.317500114 12.250000954 62.551509857 -0.003600000 0.2996999919 2.5525999069 4.5942997932 116.39435577 93.815902710  -999.250000 1.8916000128 1.8272999525
 4615.6352539  -999.250000 12.289199829 12.250000954 58.401245117 -0.006000000 0.3073754013 2.5388998985 4.4724998474 115.35861969 90.858085632  -999.250000 1.9086999893 1.8385000229
 4615.7875977  -999.250000 12.303899765 12.250000954 58.678478241 -0.003100000 0.3152746558 2.5566000938 4.5988998413 116.73153687 90.637977600  -999.250000 1.9256999493 1.8416999578
 4615.9399414  -999.250000 12.318599701 12.250000954 59.568569183 -0.005400000 0.3048336506 2.5216999054 4.8751001358 116.49330139 90.341049194  -999.250000 1.9377000332 1.8358999491
 4616.0922852  -999.250000 12.340600014 12.250000954 55.986545563 0.0086000003 0.3031054437 2.5841000080 5.2277998924 113.92839813 90.406883240  -999.250000 1.9416999817 1.8523999453
 4616.2446289  -999.250000 12.322500229 12.250000954 54.871391296 -0.005600000 0.2935307622 2.6301000118 6.0012998581 111.18039703 91.066780090  -999.250000 1.8504999876 1.8150000572
 4616.3974609  -999.250000 12.321200371 12.250000954 61.456363678 0.0020000001 0.2901000082 2.7406001091 5.8439002037 108.36596680 91.957710266  -999.250000 1.8428000212 1.8209999800
 4616.5498047  -999.250000 12.360099792 12.250000954 64.413383484 -0.013600000 0.2766999900 2.6751000881 5.7870998383 108.80081177 91.176902771  -999.250000 3.0866000652 2.6607999802
 4616.7021484  -999.250000 12.387200356 12.250000954 58.749343872 -0.000700000 0.2809999883 2.6080999374 5.0264000893 111.91215515 88.827903748  -999.250000 3.9323000908 3.2490000725
 4616.8544922  -999.250000 12.317199707 12.250000954 62.324802399 0.0038000001 0.2847999930 2.5780000687 4.7355999947 111.58034515 86.635398865  -999.250000 3.7004001141 3.1751999855
 4617.0068359  -999.250000 12.313699722 12.250000954 59.930767059 0.0040000002 0.2832051218 2.5824000835 4.6609001160 109.64122772 87.770858765  -999.250000 3.5294001102 3.0659999847
 4617.1591797  -999.250000 12.340999603 12.250000954 60.779525757 0.0071000000 0.2864894271 2.5915999413 4.4313998222 111.55847931 91.081764221  -999.250000 2.2265999317 2.2244000435
 4617.3115234  -999.250000 12.358698845 12.250000954 60.105640411 -0.001700000 0.2929791808 2.5566999912 4.6258001328 115.20290375 92.990097046  -999.250000 1.8552999496 1.7757999897
 4617.4638672  -999.250000 12.388600349 12.250000954 59.927165985 0.0038999999 0.3179198503 2.5764999390 4.8323998451 117.83149719 93.945648193  -999.250000 1.8364000320 1.6995999813
 4617.6162109  -999.250000 12.395098686 12.250000954 62.711936951 -0.006700000 0.3146108985 2.6140999794 5.7091999054 119.27719879 94.129913330  -999.250000 1.7246999741 1.6491999626
 4617.7690430  -999.250000 12.424301147 12.250000954 66.272636414 -0.007800000 0.3093000054 2.6103000641 5.5260000229 119.39120483 93.438789368  -999.250000 1.6727000475 1.6211999655
 4617.9213867  -999.250000 12.443200111 12.250000954 62.440620422 -0.011500000 0.2980999947 2.5831000805 5.1328001022 121.41544342 93.719299316  -999.250000 2.1201999187 1.8677999973
 4618.0737305  -999.250000 12.504599571 12.250000954 62.245407104 -0.006700000 0.3046999872 2.5423998833 4.3740000725 121.25687408 94.345405579  -999.250000 2.1201999187 1.8677999973
 4618.2260742  -999.250000 12.451199532 12.250000954 64.899276733 -0.006800000 0.3154654801 2.5222001076 4.6294999123 116.39716339 92.900733948  -999.250000 2.0388000011 1.9155999422
 4618.3784180  -999.250000 12.428899765 12.250000954 61.705707550 -0.007500000 0.3147025704 2.5253000259 4.6816000938 116.24488831 92.290443420  -999.250000 1.9365999699 1.8773000240
 4618.5307617  -999.250000 12.464099884 12.250000954 64.480644226 -0.007300000 0.3144009411 2.5218000412 4.3095998764 120.76589966 91.283737183  -999.250000 1.9570000172 1.8910000324
 4618.6831055  -999.250000 12.487999916 12.250000954 61.537734985 -0.009900000 0.2940653861 2.5385000706 3.8722000122 121.63729858 91.414962769  -999.250000 1.8992999792 1.7856999636
 4618.8354492  -999.250000 12.499199867 12.250000954 61.727695465 -0.007600000 0.2928038538 2.5413000584 3.9186999798 116.56819916 92.355575562  -999.250000 1.9313999414 1.7855999470
 4618.9877930  -999.250000 12.443200111 12.250000954 64.122375488 -0.002900000 0.2848256230 2.5511999130 4.4412999153 114.04789734 94.215736389  -999.250000 1.9537999630 1.8062000275
 4619.1406250  -999.250000 12.421199799 12.250000954 62.089893341 -0.001800000 0.3037000000 2.5594999790 4.9362998009 119.39614105 96.000900269  -999.250000 1.9737000465 1.8293999434
 4619.2929688  -999.250000 12.278699875 12.250000954 65.259841919 -0.000200000 0.2924999893 2.5346000195 4.6598000526 124.81782532 95.194198608  -999.250000 1.9675999880 1.8195999861
 4619.4453125  -999.250000 12.285901070 12.250000954 65.582023621 0.0024000001 0.2930999994 2.5441999435 4.2225999832 123.78460693 94.983299255  -999.250000 1.9965000153 1.8565000296
 4619.5976563  -999.250000 12.290999413 12.250000954 70.320869446 0.0040000002 0.2796431184 2.5645000935 3.9958999157 119.14399719 94.850326538  -999.250000 2.0109999180 1.8808000088
 4619.7500000  -999.250000 12.324199677 12.250000954 75.724739075 -0.002700000 0.2930567265 2.5460000038 3.9628000259 116.11312866 94.789001465  -999.250000 2.0120999813 1.8835999966
 4619.9023438  -999.250000 12.343000412 12.250000954 84.952102661 -0.005400000 0.3038653731 2.5416998863 4.0514998436 111.81759644 94.164810181  -999.250000 1.9871000051 1.8739000559
 4620.0546875  -999.250000 12.344799995 12.250000954 84.616798401 -0.006400000 0.3132698834 2.5480999947 4.0784001350 108.97799683 93.281234741  -999.250000 1.9650000334 1.8594000340
 4620.2070313  -999.250000 12.336099625 12.250000954 78.188980103 -0.003300000 0.3098112047 2.5701999664 4.4138998985 113.35099792 93.114425659  -999.250000 1.9357000589 1.8198000193
 4620.3598633  -999.250000 12.331200600 12.250000954 79.826110840 -0.004402244 0.3113000095 2.5720999241 4.6152000427 117.89416504 93.551803589  -999.250000 1.9523999691 1.8215999603
 4620.5122070  -999.250000 12.392800331 12.250000954 75.492782593 -0.005097757 0.3172999918 2.5543999672 4.7258000374 118.80917358 94.523300171  -999.250000 1.9905999899 1.8386000395
 4620.6645508  -999.250000 12.425200462 12.250000954 72.388122559 -0.004398077 0.3165000081 2.5546998978 4.5450000763 116.31481171 94.653602600  -999.250000 1.9428999424 1.8131999969
 4620.8168945  -999.250000 12.431799889 12.250000954 63.304466248 -0.003812500 0.3100999892 2.5518000126 4.6813001633 116.55817413 94.610496521  -999.250000 1.7705999613 1.6948000193
