# LAS format log file from PETREL
# Project units are specified as depth units
#==================================================================
~Version information
VERS.   2.0:
WRAP.   NO:
#==================================================================
~Well
STRT .m      2233.7756348 :
STOP .m      5007.4555664 :
STEP .m     0.00000000 :
NULL .        -999.250000 :
COMP.           : COMPANY
WELL.  34/3-3 A   : WELL
FLD.            : FIELD
LOC.            : LOCATION
SRVC.           : SERVICE COMPANY
DATE.  2018-09-11 14:48:49   : Log Export Date {yyyy-MM-dd HH:mm:ss}
PROV.           : PROVINCE
UWI.   34/3-3 A   : UNIQUE WELL ID
API.            : API NUMBER
#==================================================================
~Curve
DEPT .m                   : DEPTH
Lithology_geolink ._      : Lithology_geolink
CALI .in                  : CALI
BS .in                    : BS
ROP .m/h                  : ROP
DRHO .g/cm3               : DRHO
NPHI .m3/m3               : NPHI
RHOB .g/cm3               : RHOB
PEF .b/e                  : PEF
GR .gAPI                  : GR
DTC .us/ft                : DTC
DTS .us/ft                : DTS
RDEP .ohm.m               : RDEP
RMED .ohm.m               : RMED
~Parameter
#==================================================================
~Ascii
# ...
 3333.4941406  -999.250000 12.410599709 12.250000954 92.589584351 0.0200011209 0.2124000043 2.4381170273 6.6050477028 88.210151672 94.636901855 194.75799561 2.0318000317 1.9888999462
 3333.6464844  -999.250000 12.384400368 12.250000954 100.58235931 0.0206990391 0.2107000053 2.4486894608 6.6974558830 87.245201111 95.359298706 195.60061646 1.9069000483 1.8826999664
 3333.7988281  -999.250000 12.384400368 12.250000954 107.31035614 0.0201017614 0.2158000022 2.4422054291 6.9816594124 87.432556152 96.297798157 197.62469482 1.8134000301 1.8105000257
 3333.9514160  -999.250000 12.400500298 12.250000954 93.200393677 0.0211961586 0.2136999965 2.4455671310 7.1435174942 90.029792786 96.638801575 198.63670349 1.8165999651 1.7992000580
 3334.1037598  -999.250000 12.455800056 12.250000954 93.081085205 0.0200153850 0.2076999992 2.4353337288 7.2113542557 92.176765442 95.833900452 198.02960205 1.8574999571 1.8163000345
 3334.2561035  -999.250000 12.450499535 12.250000954 96.169380188 0.0296100955 0.2075999975 2.4562969208 7.2455372810 92.150726318 94.921997070 193.62629700 1.8704999685 1.8289999962
 3334.4084473  -999.250000 12.441799164 12.250000954 92.344818115 0.0358943902 0.2128999978 2.4543933868 7.4558568001 91.169769287 94.800506592 193.18089294 1.8451999426 1.8342000246
 3334.5610352  -999.250000 12.338200569 12.250000954 95.833427429 0.0323865600 0.2195000052 2.4501595497 7.5531873703 88.961235046 95.838302612 192.77207947 1.8016999960 1.8212000132
 3334.7133789  -999.250000 12.308800697 12.250000954 100.68473816 0.0281907059 0.2256000042 2.4375014305 7.4552311897 86.104148865 95.617996216 196.24569702 1.8011000156 1.8260999918
 3334.8657227  -999.250000 12.332900047 12.250000954 111.72953033 0.0224100947 0.2173999995 2.4384267330 7.1633410454 84.512306213 95.295600891 196.48301697 1.8743000031 1.8609999418
 3335.0180664  -999.250000 12.378199577 12.250000954 104.48705292 0.0287001599 0.2189999968 2.4551134109 7.2514266968 82.337715149 95.200096130 194.71119690 1.9546999931 1.9131000042
 3335.1706543  -999.250000 12.403300285 12.250000954 99.284637451 0.0288121589 0.2122000009 2.4635071754 7.3937234879 82.542808533 95.035598755 191.02189636 1.9795000553 1.9423999786
 3335.3229980  -999.250000 12.361300468 12.250000954 99.470748901 0.0326088145 0.2079000026 2.4657025337 7.8065538406 85.538002014 93.443397522 187.70469666 2.0057001114 1.9651000500
 3335.4753418  -999.250000 12.428500175 12.250000954 116.57975769 0.0381014422 0.2021999955 2.4672770500 8.1521615982 88.038543701 93.880897522 186.72860718 2.0195000172 1.9884999990
 3335.6276855  -999.250000 12.333999634 12.250000954 100.04538727 0.0390153863 0.2055999935 2.4530289173 8.6275539398 91.494079590 95.251098633 187.54490662 2.0037999153 1.9737000465
 3335.7800293  -999.250000 12.368300438 12.250000954 99.704467773 0.0485943891 0.2116000056 2.4709968567 8.9728164673 91.601554871 95.051300049 188.61700439 1.9307999611 1.9244999886
 3335.9326172  -999.250000 12.333999634 12.250000954 98.935729980 0.0450907201 0.2171999961 2.4689767361 8.9201021194 86.462661743 95.069999695 191.36759949 1.9182000160 1.9128999710
 3336.0849609  -999.250000 12.354299545 12.250000954 100.79095459 0.0421967953 0.2201000005 2.4616777897 8.7963171005 85.525085449 94.087799072 191.55000305 1.9329999685 1.9184000492
 3336.2373047  -999.250000 12.358499527 12.250000954 103.40676880 0.0402052887 0.2213000059 2.4478149414 8.8069992065 90.128150940 94.803802490 190.95199585 1.9697999954 1.9350999594
 3336.3896484  -999.250000 12.317199707 12.250000954 101.12138367 0.0435044877 0.2192000002 2.4572188854 8.6821527481 91.649894714 93.610298157 190.86019897 1.9995000362 1.9601999521
 3336.5422363  -999.250000 12.340999603 12.250000954 102.55548096 0.0462929606 0.2221000046 2.4689886570 8.9650516510 89.717041016 92.532402039 189.86360168 2.0088000298 1.9726999998
 3336.6945801  -999.250000 12.426400185 12.250000954 105.32463074 0.0441107377 0.2239000052 2.4654085636 9.2620868683 89.733474731 93.121200562 188.92930603 2.0037000179 1.9775999784
 3336.8469238  -999.250000 12.354299545 12.250000954 104.98999786 0.0508126579 0.2249000072 2.4708201885 9.6897306442 92.400382996 93.373298645 189.27000427 1.9794000387 1.9523999691
 3336.9992676  -999.250000 12.400500298 12.250000954 91.838111877 0.0586875007 0.2210000008 2.4834816456 9.7711009979 94.443649292 94.242401123 190.47529602 1.9723000526 1.9242999554
 3337.1518555  -999.250000 12.336799622 12.250000954 108.51244354 0.0508843213 0.2136999965 2.4719533920 9.7101411819 93.660400391 96.140403748 193.42590332 1.8664000034 1.8538999557
 3337.3041992  -999.250000 12.377600670 12.250000954 110.54164886 0.0460009612 0.2181999981 2.4574990273 9.8785314560 92.011665344 96.684898376 195.72251892 1.7749999762 1.7929999828
 3337.4565430  -999.250000 12.415200233 12.250000954 106.65518188 0.0466064103 0.2335000038 2.4569010735 9.8355321884 93.367347717 97.478996277 197.77389526 1.7771999836 1.7922999859
 3337.6088867  -999.250000 12.407500267 12.250000954 109.31398773 0.0506003201 0.2398999929 2.4576022625 9.8552589417 95.516090393 96.945198059 198.08909607 1.8321000338 1.8229000568
 3337.7612305  -999.250000 12.481699944 12.250000954 111.77524567 0.0508035235 0.2391999960 2.4590196609 9.7044935226 94.449119568 96.185798645 194.30038452 1.9200999737 1.8823000193
 3337.9138184  -999.250000 12.359900475 12.250000954 110.12594604 0.0529827178 0.2281000018 2.4711973667 9.4499273300 91.957069397 93.361099243 191.06809998 1.9750000238 1.9298000336
 3338.0661621  -999.250000 12.350299835 12.250000954 110.40866089 0.0475902259 0.2249000072 2.4703941345 9.0839138031 88.327239990 93.066497803 190.38839722 1.9799000025 1.9582999945
 3338.2185059  -999.250000 12.342399597 12.250000954 104.80372620 0.0414915048 0.2247000039 2.4666638374 8.7810058594 84.053398132 94.112899780 190.94720459 1.9881000519 1.9839999676
 3338.3708496  -999.250000 12.328399658 12.250000954 103.55429077 0.0362024046 0.2334000021 2.4441084862 8.8470487595 83.181777954 93.857200623 190.34352112 2.0151998997 2.0058999062
 3338.5234375  -999.250000 12.336000443 12.250000954 118.15678406 0.0377128012 0.2370000035 2.4494061470 8.8144578934 85.667915344 93.988403320 189.69819641 2.0411999226 2.0167999268
 3338.6757813  -999.250000 12.340999603 12.250000954 114.85573578 0.0416886248 0.2269999981 2.4512937069 8.7079019547 88.763374329 93.611198425 187.46119690 2.0381999016 2.0141000748
 3338.8281250  -999.250000 12.354299545 12.250000954 103.48757172 0.0346038453 0.2185000032 2.4474422932 8.7088661194 91.927490234 93.979003906 188.55239868 2.0429000854 2.0079998970
 3338.9804688  -999.250000 12.403300285 12.250000954 112.09733582 0.0370049700 0.2222000062 2.4737024307 8.4393110275 94.168022156 94.663200378 190.48190308 2.0064001083 1.9752000570
 3339.1330566  -999.250000 12.433400154 12.250000954 111.97029877 0.0401156805 0.2337999940 2.4752149582 8.8836030960 94.487625122 96.733299255 192.78970337 1.9445999861 1.9272999763
 3339.2854004  -999.250000 12.407500267 12.250000954 92.810661316 0.0450032055 0.2377000004 2.4798593521 9.1657056808 93.059280396 97.143997192 195.57069397 1.8594000340 1.8703999519
 3339.4377441  -999.250000 12.347299576 12.250000954 97.290504456 0.0469775610 0.2407000065 2.4545378685 9.6052761078 90.871658325 95.814903259 196.16540527 1.8293000460 1.8430999517
 3339.5900879  -999.250000 12.396300316 12.250000954 102.89688110 0.0329940692 0.2489999980 2.4156954288 9.4642810822 92.037231445 96.631401062 195.63139343 1.8452999592 1.8461999893
 3339.7424316  -999.250000 12.375900269 12.250000954 98.749549866 0.0292879809 0.2467000037 2.4128115177 8.7043008804 96.608207703 95.183700562 191.86340332 1.8956999779 1.8675999641
 3339.8950195  -999.250000 12.382999420 12.250000954 100.11110687 0.0218185596 0.2498999983 2.4199891090 8.2059135437 97.344337463 94.585800171 190.66560364 1.9493999481 1.9084999561
 3340.0473633  -999.250000 12.519900322 12.250000954 102.83081818 0.0276033655 0.2460999936 2.4478001595 7.9918093681 93.207244873 93.407402039 190.47819519 1.9788000584 1.9543000460
