# LAS format log file from PETREL
# Project units are specified as depth units
#==================================================================
~Version information
VERS.   2.0:
WRAP.   NO:
#==================================================================
~Well
STRT .m      437.13198853 :
STOP .m      2196.1328125 :
STEP .m     0.00000000 :
NULL .        -999.250000 :
COMP.           : COMPANY
WELL.  34/3-1 S   : WELL
FLD.            : FIELD
LOC.            : LOCATION
SRVC.           : SERVICE COMPANY
DATE.  2018-09-11 14:48:49   : Log Export Date {yyyy-MM-dd HH:mm:ss}
PROV.           : PROVINCE
UWI.   34/3-1 S   : UNIQUE WELL ID
API.            : API NUMBER
#==================================================================
~Curve
DEPT .m                   : DEPTH
Lithology_geolink ._      : Lithology_geolink
BS .in                    : BS
ROP .m/h                  : ROP
GR .gAPI                  : GR
RDEP .ohm.m               : RDEP
RMED .ohm.m               : RMED
~Parameter
#==================================================================
~Ascii
# ...
 2067.9643555  -999.250000 17.500000000 32.660102844 83.024002075 0.6320999861 0.5414000154
 2068.1166992  -999.250000 17.500000000 32.660102844 78.366600037 0.6291999817 0.5480999947
 2068.2692871  -999.250000 17.500000000 32.660102844 73.709297180 0.6266000271 0.5442000031
 2068.4216309  -999.250000 17.500000000 32.660102844 84.115600586 0.6331999898 0.5415999889
 2068.5739746  -999.250000 17.500000000 31.984676361 80.018898010 0.6463999748 0.5455999970
 2068.7263184  -999.250000 17.500000000 31.983594894 67.508697510 0.6474000216 0.5694000125
 2068.8789063  -999.250000 17.500000000 31.983594894 70.358001709 0.6675000191 0.6013000011
 2069.0312500  -999.250000 17.500000000 31.983594894 73.709297180 0.6751999855 0.6219999790
 2069.1835938  -999.250000 17.500000000 31.983594894 66.723297119 0.6919999719 0.6492000222
 2069.3359375  -999.250000 17.500000000 31.983594894 59.737300873 0.7160999775 0.6825000048
 2069.4882813  -999.250000 17.500000000 31.983594894 52.751300812 0.7286999822 0.6822999716
 2069.6408691  -999.250000 17.500000000 34.498359680 52.751300812 0.7444000244 0.6478000283
 2069.7932129  -999.250000 17.500000000 34.498359680 52.751300812 0.7376999855 0.6322000027
 2069.9455566  -999.250000 17.500000000 34.498359680 58.386600494 0.7243000269 0.6341000199
 2070.0979004  -999.250000 17.500000000 34.498359680 64.021896362 0.7268000245 0.6391999722
 2070.2504883  -999.250000 17.500000000 34.498359680 69.657203674 0.7297999859 0.6251999736
 2070.4028320  -999.250000 17.500000000 34.498359680 75.292503357 0.7160000205 0.5594000220
 2070.5551758  -999.250000 17.500000000 33.733924866 80.927902222 0.6873999834 0.5419999957
 2070.7075195  -999.250000 17.500000000 33.733924866 82.755699158 0.6493999958 0.5892999768
 2070.8601074  -999.250000 17.500000000 33.733924866 72.336601257 0.6503999829 0.6385999918
 2071.0124512  -999.250000 17.500000000 33.733924866 75.667098999 0.6656000018 0.6583999991
 2071.1647949  -999.250000 17.500000000 33.733924866 74.578598022 0.6866999865 0.6894999743
 2071.3171387  -999.250000 17.500000000 33.733924866 81.507598877 0.6976000071 0.6474999785
 2071.4694824  -999.250000 17.500000000 33.733924866 74.997299194 0.6976000071 0.6438000202
 2071.6220703  -999.250000 17.500000000 72.076118469 66.522399902 0.6959999800 0.6093999743
 2071.7744141  -999.250000 17.500000000 72.076118469 77.587501526 0.6856999993 0.6064000130
 2071.9267578  -999.250000 17.500000000 72.076118469 80.492103577 0.6787999868 0.5946999788
 2072.0791016  -999.250000 17.500000000 72.076118469 84.484397888 0.6730999947 0.5878000259
 2072.2316895  -999.250000 17.500000000 72.076118469 81.258201599 0.6758999825 0.6280999780
 2072.3840332  -999.250000 17.500000000 72.076118469 81.375801086 0.6837000251 0.6273999810
 2072.5363770  -999.250000 17.500000000 72.076118469 85.572898865 0.6976000071 0.5956000090
 2072.6887207  -999.250000 17.500000000 39.370079041 72.649497986 0.6976000071 0.5861999989
 2072.8413086  -999.250000 17.500000000 39.370079041 80.124397278 0.6933000088 0.5606999993
 2072.9936523  -999.250000 17.500000000 39.370079041 77.776901245 0.6657999754 0.5174000263
 2073.1459961  -999.250000 17.500000000 39.370079041 74.655998230 0.6399999857 0.5109000206
 2073.2983398  -999.250000 17.500000000 39.370079041 79.595901489 0.6419000030 0.5160999894
 2073.4506836  -999.250000 17.500000000 39.370079041 85.568901062 0.6478000283 0.5254999995
 2073.6032715  -999.250000 17.500000000 26.317913055 85.103202820 0.6628999710 0.5304999948
 2073.7556152  -999.250000 17.500000000 26.317913055 85.591102600 0.7174000144 0.5813999772
 2073.9079590  -999.250000 17.500000000 26.317913055 79.003601074 0.7229999900 0.5953999758
 2074.0603027  -999.250000 17.500000000 26.317913055 71.531799316 0.7494000196 0.5849000216
 2074.2128906  -999.250000 17.500000000 26.317913055 65.872703552 0.7324000001 0.5849000216
 2074.3652344  -999.250000 17.500000000 26.317913055 77.831596375 0.7214999795 0.5849000216
 2074.5175781  -999.250000 17.500000000 26.317913055 76.079696655 0.7048000097 0.5828999877
 2074.6699219  -999.250000 17.500000000 28.459970474 70.224296570 0.6976000071 0.5702999830
 2074.8225098  -999.250000 17.500000000 28.459970474 78.293098450 0.6976000071 0.5945000052
 2074.9748535  -999.250000 17.500000000 28.459970474 73.296203613 0.6976000071 0.6064000130
 2075.1271973  -999.250000 17.500000000 28.459970474 74.920997620 0.6976000071 0.6064000130
 2075.2795410  -999.250000 17.500000000 28.459970474 64.215698242 0.6976000071 0.6123999953
 2075.4318848  -999.250000 17.500000000 28.459970474 74.340202332 0.6976000071 0.6236000061
 2075.5844727  -999.250000 17.500000000 24.506233215 78.232696533 0.7008000016 0.6208999753
 2075.7368164  -999.250000 17.500000000 24.506233215 87.810897827 0.7096999884 0.6286000013
 2075.8891602  -999.250000 17.500000000 24.506233215 84.119400024 0.7003999949 0.6003000140
 2076.0415039  -999.250000 17.500000000 24.506233215 77.806701660 0.6976000071 0.5748999715
 2076.1940918  -999.250000 17.500000000 24.506233215 83.209701538 0.6948000193 0.5831999779
 2076.3464355  -999.250000 17.500000000 24.506233215 73.318901062 0.6730999947 0.5849000216
 2076.4987793  -999.250000 17.500000000 24.506233215 71.564201355 0.6730999947 0.5780000091
 2076.6511230  -999.250000 17.500000000 38.409450531 68.569198608 0.6730999947 0.5766999722
 2076.8037109  -999.250000 17.500000000 38.409450531 67.342796326 0.6730999947 0.5663999915
 2076.9560547  -999.250000 17.500000000 38.409450531 70.662300110 0.6730999947 0.5778999925
 2077.1083984  -999.250000 17.500000000 38.409450531 75.453796387 0.6730999947 0.6064000130
 2077.2607422  -999.250000 17.500000000 38.409450531 74.061302185 0.6730999947 0.6064000130
 2077.4130859  -999.250000 17.500000000 38.409450531 75.878601074 0.6796000004 0.5918999910
 2077.5656738  -999.250000 17.500000000 42.982612610 69.774101257 0.6959999800 0.5419999957
 2077.7180176  -999.250000 17.500000000 42.982612610 70.467796326 0.6470999718 0.5138000250
 2077.8703613  -999.250000 17.500000000 42.982612610 76.102500916 0.6301000118 0.5121999979
 2078.0227051  -999.250000 17.500000000 42.982612610 73.866096497 0.6186000109 0.5013999939
 2078.1752930  -999.250000 17.500000000 42.982612610 64.702201843 0.6044999957 0.4997000098
 2078.3276367  -999.250000 17.500000000 42.982612610 71.519302368 0.5928000212 0.4900999963
 2078.4799805  -999.250000 17.500000000 42.982612610 70.564002991 0.5855000019 0.4884999990
 2078.6323242  -999.250000 17.500000000 36.319881439 68.017799377 0.5832999945 0.5008999705
 2078.7849121  -999.250000 17.500000000 36.319881439 71.225502014 0.5832999945 0.5257999897
 2078.9372559  -999.250000 17.500000000 36.319881439 71.709503174 0.5870000124 0.5442000031
 2079.0895996  -999.250000 17.500000000 36.319881439 66.151298523 0.6098999977 0.5396000147
 2079.2419434  -999.250000 17.500000000 36.319881439 68.141899109 0.6216999888 0.5292999744
 2079.3942871  -999.250000 17.500000000 36.319881439 80.989196777 0.6266000271 0.5461999774
 2079.5468750  -999.250000 17.500000000 36.319881439 77.911003113 0.6409000158 0.5525000095
 2079.6992188  -999.250000 17.500000000 24.668636322 79.448898315 0.6493999958 0.5558999777
 2079.8515625  -999.250000 17.500000000 24.668636322 73.957603455 0.6474999785 0.5626999736
 2080.0039063  -999.250000 17.500000000 24.668636322 74.664596558 0.6467999816 0.5584999919
 2080.1564941  -999.250000 17.500000000 24.668636322 75.347900391 0.6493999958 0.5551999807
 2080.3088379  -999.250000 17.500000000 24.668636322 68.904098511 0.6493999958 0.5442000031
 2080.4611816  -999.250000 17.500000000 24.668636322 70.330802917 0.6607000232 0.5606999993
 2080.6135254  -999.250000 17.500000000 45.462600708 85.051803589 0.6516000032 0.5688999891
 2080.7661133  -999.250000 17.500000000 45.462600708 84.303199768 0.6484000087 0.5687000155
 2080.9184570  -999.250000 17.500000000 45.462600708 72.762298584 0.6401000023 0.5641000271
 2081.0708008  -999.250000 17.500000000 45.462600708 73.845703125 0.6578000188 0.5828999877
