# LAS format log file from PETREL
# Project units are specified as depth units
#==================================================================
~Version information
VERS.   2.0:
WRAP.   NO:
#==================================================================
~Well
STRT .m      3771.1865234 :
STOP .m      4146.8525391 :
STEP .m     0.00000000 :
NULL .        -999.250000 :
COMP.           : COMPANY
WELL.  34/3-1 A   : WELL
FLD.            : FIELD
LOC.            : LOCATION
SRVC.           : SERVICE COMPANY
DATE.  2018-09-11 14:48:49   : Log Export Date {yyyy-MM-dd HH:mm:ss}
PROV.           : PROVINCE
UWI.   34/3-1 A   : UNIQUE WELL ID
API.            : API NUMBER
#==================================================================
~Curve
DEPT .m                   : DEPTH
Lithology_geolink ._      : Lithology_geolink
CALI .in                  : CALI
BS .in                    : BS
ROP .m/h                  : ROP
DRHO .g/cm3               : DRHO
NPHI .m3/m3               : NPHI
RHOB .g/cm3               : RHOB
PEF .b/e                  : PEF
GR .gAPI                  : GR
DTC .us/ft                : DTC
DTS .us/ft                : DTS
RDEP .ohm.m               : RDEP
RMIC .ohm.m               : RMIC
RMED .ohm.m               : RMED
~Parameter
#==================================================================
~Ascii
# ...
 4114.8486328 6.0000000000 8.6702003479 8.5000000000 78.945533752 -0.007400000 0.2570999861 2.5195000172 9.2334995270 93.484001160 75.749496460 136.27459717 6.6394000053  -999.250000 5.5041999817
 4115.0009766 6.0000000000 8.6885995865 8.5000000000 72.565940857 -0.009200000 0.2556000054 2.5155999660 9.1501998901 92.753303528 75.636299133 135.90440369 6.6788997650  -999.250000 5.5567002296
 4115.1533203 5.0000000000 8.7069997787 8.5000000000 68.349739075 -0.011100000 0.2536000013 2.5116999149 9.0488996506 94.648101807 75.514297485 134.61470032 6.6371998787  -999.250000 5.5339999199
 4115.3056641 5.0000000000 8.7253999710 8.5000000000 69.424697876 -0.001131949 0.2520051301 2.5166840553 9.6321306229 96.773788452 75.369964600 135.90078735 6.5459923744  -999.250000 5.5969982147
 4115.4580078 5.0000000000 8.7253999710 8.5000000000 62.046699524 0.0013919871 0.2504051328 2.5243752003 9.6452636719 94.951980591 76.267311096 136.00367737 6.5131049156  -999.250000 5.8655371666
 4115.6103516 5.0000000000 8.7253999710 8.5000000000 57.543273926 0.0014000000 0.2498019189 2.5290849209 9.4965782166 92.862602234 79.735260010 136.03569031 6.7023911476  -999.250000 5.7236590385
 4115.7626953 5.0000000000 8.7188997269 8.5000000000 53.986454010 -0.002886218 0.2569769323 2.5263090134 9.0999736786 92.985191345 81.039031982 136.39385986 6.5931534767  -999.250000 5.7110390663
 4115.9150391 5.0000000000 8.7124004364 8.5000000000 50.407142639 -0.000906410 0.2654727697 2.5370655060 9.0523490906 99.149475098 79.682968140 136.45449829 6.4391942024  -999.250000 5.7066144943
 4116.0673828 5.0000000000 8.7059001923 8.5000000000 47.859859467 -0.006681410 0.2718794942 2.5508556366 9.2509613037 104.97653198 77.984649658 135.66184998 6.4582371712  -999.250000 5.6615447998
 4116.2202148 6.0000000000 8.6992998123 8.5000000000 48.678150177 -0.010600000 0.2782999873 2.5703001022 9.4690999985 107.01599884 77.431602478 134.29910278 6.4196000099  -999.250000 5.5710000992
 4116.3725586 6.0000000000 8.6927995682 8.5000000000 52.266407013 -0.005300000 0.2885999978 2.6015999317 9.5846004486 110.92859650 77.681396484 134.79899597 6.2835001945  -999.250000 5.5241999626
 4116.5249023 6.0000000000 8.6927995682 8.5000000000 56.418964386 -0.004900000 0.2860000134 2.6198000908 9.6166000366 114.90380096 78.852996826 136.04949951 6.2835998535  -999.250000 5.3730998039
 4116.6772461 7.0000000000 8.5728998184 8.5000000000 62.882175446 -0.006195847 0.2696523964 2.6218934059 9.5542001724 115.79075623 80.786705017 137.24775696 6.2351555824  -999.250000 5.2768087387
 4116.8295898 7.0000000000 8.5859003067 8.5000000000 73.590309143 -0.008991025 0.2514583170 2.5635874271 8.3589420319 116.78790283 81.197303772 138.63523865 6.1421985626  -999.250000 5.1391415596
 4116.9819336 7.0000000000 8.6274003983 8.5000000000 81.810951233 -0.002819872 0.2377439141 2.5512390137 8.2650890350 106.62578583 80.343345642 139.06204224 6.0870766640  -999.250000 4.9422316551
 4117.1342773 7.0000000000 8.6055002213 8.5000000000 81.549484253 0.0003897436 0.2260375023 2.5536918640 8.2743692398 101.76482391 80.098777771 137.78590393 5.8816599846  -999.250000 4.4578552246
 4117.2866211 7.0000000000 8.6055002213 8.5000000000 80.373527527 -0.002789743 0.2213150710 2.5635683537 8.4274082184 94.587226868 76.070945740 136.64804077 5.6805448532  -999.250000 4.2384004593
 4117.4394531 6.0000000000 8.6017999649 8.5000000000 73.709648132 -0.004500000 0.2261999995 2.5506999493 8.2325000763 98.009498596 73.195098877 136.15859985 5.6304001808  -999.250000 4.0940999985
 4117.5917969 6.0000000000 8.5980997086 8.5000000000 81.071525574 0.0003000000 0.2187999934 2.5513999462 8.0268001556 101.87750244 73.422302246 135.18429565 5.6048998833  -999.250000 4.0673999786
 4117.7441406 6.0000000000 8.5944995880 8.5000000000 93.161087036 -0.001100000 0.2210000008 2.5439000130 8.1351995468 87.117897034 74.419601440 134.86169434 5.5770001411  -999.250000 4.0640001297
 4117.8964844 6.0000000000 8.5908002853 8.5000000000 87.904853821 -0.000800000 0.2238000035 2.5413999557 8.1356000900 95.223098755 74.973800659 133.46440125 5.4320998192  -999.250000 4.0862998962
 4118.0488281 6.0000000000 8.5908002853 8.5000000000 68.001449585 0.0025891373 0.2262920141 2.5496735573 8.4137086868 101.55760193 75.179733276 133.94625854 5.5438418388  -999.250000 4.0946731567
 4118.2011719 6.0000000000 8.5908002853 8.5000000000 58.575050354 -0.002583333 0.2249044925 2.5428221226 8.2962808609 96.279335022 75.529670715 135.30972290 5.6286287308  -999.250000 4.1873025894
 4118.3535156 6.0000000000 8.7743997574 8.5000000000 49.174163818 -0.003995513 0.2263951898 2.5452919006 8.1239528656 95.646080017 75.491027832 136.49131775 5.6409611702  -999.250000 4.2304620743
 4118.5058594 6.0000000000 8.7743997574 8.5000000000 40.297145844 -0.002006410 0.2127439082 2.5533740520 8.1001739502 98.137084961 74.316276550 136.97753906 5.6438908577  -999.250000 4.3436365128
 4118.6582031 6.0000000000 8.6639995575 8.5000000000 35.437126160 -0.002000000 0.2110054493 2.5534000397 8.1000995636 96.861427307 73.225395203 137.09213257 5.6989231110  -999.250000 4.4716892242
 4118.8110352 6.0000000000 8.6223001480 8.5000000000 35.318897247 -0.005600000 0.1951999962 2.5650999546 8.0874996185 91.913299561 71.505401611 135.41619873 5.7397999763  -999.250000 4.5736999512
 4118.9633789 6.0000000000 8.6211004257 8.5000000000 35.624343872 -0.005600000 0.1996999979 2.5650999546 8.0874996185 89.524002075 70.986396790 133.08200073 5.8250999451  -999.250000 5.2042999268
 4119.1157227 16.000000000 8.6198997498 8.5000000000 33.935039520 0.0024000001 0.1755000055 2.6163001060 8.0190000534 84.198402405 70.108497620 126.46269226 5.9878001213  -999.250000 5.6216998100
 4119.2680664 16.000000000 8.6084003448 8.5000000000 35.777561188 -0.002185303 0.1753006428 2.6249721050 8.1273527145 82.932655334 67.758529663 125.08522034 6.0662488937  -999.250000 6.0907964706
 4119.4204102 16.000000000 8.5846004486 8.5000000000 44.568210602 -0.007483013 0.1780910343 2.6172249317 8.4969129562 85.201988220 67.822570801 126.27804565 6.1104588509  -999.250000 6.3685116768
 4119.5727539 5.0000000000 8.6578998566 8.5000000000 49.659900665 0.0033650640 0.1876692325 2.6130132675 8.5338850021 93.118865967 67.873336792 125.06271362 6.1277446747  -999.250000 6.3795671463
 4119.7250977 5.0000000000 8.7312002182 8.5000000000 56.788810730 0.0001105769 0.2037483901 2.6009387970 8.4484748840 93.334091187 69.803199768 126.90416718 6.0204453468  -999.250000 6.2562961578
 4119.8774414 6.0000000000 8.7312002182 8.5000000000 74.095344543 -0.003986859 0.2198483944 2.5817615986 8.1218490601 99.224861145 70.533676147 129.58351135 5.9653759003  -999.250000 5.9633407593
 4120.0297852 6.0000000000 8.7930002213 8.5000000000 82.293701172 -0.002803846 0.2268775553 2.5814008713 8.3910312653 105.26015472 71.980155945 128.92543030 5.7380304337  -999.250000 5.7715134621
 4120.1826172 6.0000000000 8.8972997665 8.5000000000 84.674217224 -0.011200000 0.2333000004 2.5743000507 8.1015996933 108.76300049 71.781097412 130.21789551 5.7438998222  -999.250000 5.2810001373
 4120.3349609 6.0000000000 8.8972997665 8.5000000000 93.634513855 -0.012600000 0.2344000041 2.5796000957 7.7838997841 108.72750092 73.519699097 131.33779907 5.5349998474  -999.250000 5.0489001274
 4120.4873047 6.0000000000 8.6291999817 8.5000000000 115.57087708 -0.013700000 0.2441000044 2.5813999176 7.2667999268 113.14279938 76.545799255 134.81219482 5.3467998505  -999.250000 4.8213000298
 4120.6396484 6.0000000000 8.6291999817 8.5000000000 124.78378296 -0.007818850 0.2429038286 2.5921654701 8.0936498642 118.03501892 77.600715637 137.11682129 5.1653814316  -999.250000 4.5080041885
 4120.7919922 7.0000000000 8.6246995926 8.5000000000 116.16265106 -0.005806410 0.2462891042 2.5949909687 8.4401950836 116.90428162 77.189834595 137.85664368 5.1220374107  -999.250000 4.1721768379
 4120.9443359 7.0000000000 8.6246995926 8.5000000000 115.14425659 -0.005800000 0.2531778812 2.5862281322 8.4042196274 111.40387726 78.058502197 137.70170593 5.0790376663  -999.250000 3.9611749649
