# LAS format log file from PETREL
# Project units are specified as depth units
#==================================================================
~Version information
VERS.   2.0:
WRAP.   NO:
#==================================================================
~Well
STRT .m      3771.1865234 :
STOP .m      4146.8525391 :
STEP .m     0.00000000 :
NULL .        -999.250000 :
COMP.           : COMPANY
WELL.  34/3-1 A   : WELL
FLD.            : FIELD
LOC.            : LOCATION
SRVC.           : SERVICE COMPANY
DATE.  2018-09-11 14:48:49   : Log Export Date {yyyy-MM-dd HH:mm:ss}
PROV.           : PROVINCE
UWI.   34/3-1 A   : UNIQUE WELL ID
API.            : API NUMBER
#==================================================================
~Curve
DEPT .m                   : DEPTH
Lithology_geolink ._      : Lithology_geolink
CALI .in                  : CALI
BS .in                    : BS
ROP .m/h                  : ROP
DRHO .g/cm3               : DRHO
NPHI .m3/m3               : NPHI
RHOB .g/cm3               : RHOB
PEF .b/e                  : PEF
GR .gAPI                  : GR
DTC .us/ft                : DTC
DTS .us/ft                : DTS
RDEP .ohm.m               : RDEP
RMIC .ohm.m               : RMIC
RMED .ohm.m               : RMED
~Parameter
#==================================================================
~Ascii
 3771.1865234 13.000000000 8.6217002869 12.250000954 48.654586792  -999.250000  -999.250000  -999.250000  -999.250000 76.853996277  -999.250000  -999.250000  -999.250000  -999.250000  -999.250000
 3771.3391113 13.000000000 8.6550998688 12.250000954 42.316879272  -999.250000  -999.250000  -999.250000  -999.250000 71.692001343  -999.250000  -999.250000  -999.250000  -999.250000  -999.250000
 3771.4914551 13.000000000 8.6486997604 12.250000954 37.949253082  -999.250000  -999.250000  -999.250000  -999.250000 68.282699585  -999.250000  -999.250000  -999.250000  -999.250000  -999.250000
 3771.6437988 13.000000000 8.6632003784 12.250000954 40.894538879  -999.250000  -999.250000  -999.250000  -999.250000 68.863998413  -999.250000 169.57189941  -999.250000  -999.250000  -999.250000
 3771.7961426 13.000000000 8.7243003845 12.250000954 44.978374481  -999.250000  -999.250000  -999.250000  -999.250000 66.429801941  -999.250000 175.90190125  -999.250000  -999.250000  -999.250000
 3771.9487305 13.000000000 8.7170000076 12.250000954 44.155544281  -999.250000  -999.250000  -999.250000  -999.250000 69.959197998  -999.250000 176.62399292  -999.250000  -999.250000  -999.250000
 3772.1010742 13.000000000 8.6682996750 12.250000954 39.525478363  -999.250000  -999.250000  -999.250000  -999.250000 84.754203796  -999.250000 179.90049744  -999.250000  -999.250000  -999.250000
 3772.2534180 13.000000000 8.8156995773 12.250000954 35.460582733  -999.250000  -999.250000  -999.250000  -999.250000 100.10269928  -999.250000 177.55848694  -999.250000  -999.250000  -999.250000
 3772.4057617 13.000000000 8.1139001846 12.250000954 34.599140167  -999.250000  -999.250000  -999.250000  -999.250000 121.05130005  -999.250000 174.58140564  -999.250000  -999.250000  -999.250000
 3772.5581055 13.000000000 8.1139001846 12.250000954 35.722442627  -999.250000  -999.250000  -999.250000  -999.250000 120.91940308  -999.250000 173.42860413  -999.250000  -999.250000  -999.250000
 3772.7106934 13.000000000 7.9805006981 12.250000954 31.698396683  -999.250000  -999.250000  -999.250000  -999.250000 109.61900330  -999.250000 172.00000000  -999.250000  -999.250000  -999.250000
 3772.8630371 13.000000000 8.3893003464 12.250000954 26.220724106  -999.250000  -999.250000  -999.250000  -999.250000 113.71440125  -999.250000 174.62500000  -999.250000  -999.250000  -999.250000
 3773.0153809 13.000000000 10.953599930 12.250000954 20.943496704  -999.250000  -999.250000  -999.250000  -999.250000 119.26869965  -999.250000 177.25000000  -999.250000  -999.250000 1.4464000463
 3773.1677246 13.000000000 9.9253997803 12.250000954 16.111940384 -0.107547522  -999.250000  -999.250000  -999.250000 106.17949677 90.963302612 177.25000000  -999.250000  -999.250000 1.3887000084
 3773.3203125 13.000000000 10.004800797 12.250000954 10.461800575 -0.119381092  -999.250000  -999.250000  -999.250000 107.66619873 94.894699097 177.25000000  -999.250000  -999.250000 1.3783999681
 3773.4726563 13.000000000 10.343999863 12.250000954 6.2518215179 -0.119499832  -999.250000  -999.250000  -999.250000 109.27120209 94.633003235 177.25000000  -999.250000  -999.250000 1.4366999865
 3773.6250000 13.000000000 10.592599869 12.250000954 11.103749275 -0.114208497  -999.250000  -999.250000  -999.250000 107.76309967 94.899002075 175.02169800  -999.250000  -999.250000 1.4450999498
 3773.7773438 13.000000000 10.723299980 12.250000954 27.521467209 -0.105328485  -999.250000  -999.250000  -999.250000 115.31569672 93.376602173 173.24220276 1.5693000555  -999.250000 1.4644000530
 3773.9299316 13.000000000 11.170599937 12.250000954 36.650459290 -0.108994067  -999.250000  -999.250000  -999.250000 114.83489990 90.816398621 173.68640137 1.5786000490  -999.250000 1.6239000559
 3774.0822754 13.000000000 11.170599937 12.250000954 53.596839905 -0.111695670  -999.250000  -999.250000  -999.250000 109.60019684 90.227897644 174.13340759 1.4246000051  -999.250000 1.4882999659
 3774.2346191 13.000000000 11.084198952 12.250000954 84.173408508 -0.108904488  -999.250000  -999.250000  -999.250000 113.44879913 90.999000549 176.82200623 1.4878000021  -999.250000 1.4738999605
 3774.3869629 13.000000000 11.125900269 12.250000954 74.446136475 -0.108300962  -999.250000  -999.250000  -999.250000 109.48229980 93.321601868 180.15509033 1.5635999441  -999.250000 1.4694999456
 3774.5393066 13.000000000 11.119601250 12.250000954 62.210487366 -0.107402883  -999.250000  -999.250000  -999.250000 121.57589722 91.860900879 177.38369751 1.5924999714  -999.250000 1.4961999655
 3774.6918945 13.000000000 11.159899712 12.250000954 56.689903259 -0.107100487  -999.250000  -999.250000  -999.250000 111.01059723 91.632301331 176.00349426 1.6006000042  -999.250000 1.5347000360
 3774.8442383 13.000000000 11.138200760 12.250000954 52.494255066 -0.103006572  -999.250000  -999.250000  -999.250000 116.90910339 94.219596863 175.24040222 1.6002000570  -999.250000 1.5630999804
 3774.9965820 13.000000000 11.313699722 12.250000954 40.568241119 -0.104597434  -999.250000  -999.250000  -999.250000 124.09190369 91.408302307 173.64059448 1.6119999886  -999.250000 1.5279999971
 3775.1489258 13.000000000 11.475999832 12.250000954 34.960632324 -0.106693283  -999.250000  -999.250000  -999.250000 117.46600342 88.009201050 170.72039795 1.5176999569  -999.250000 1.5257999897
 3775.3015137 13.000000000 10.406900406 12.250000954 31.562665939 -0.103305444  -999.250000  -999.250000  -999.250000 127.21130371 92.864501953 169.38220215 1.5987999439  -999.250000 1.4608000517
 3775.4538574 13.000000000 9.5818004608 12.250000954 34.100391388 -0.104797594  -999.250000  -999.250000  -999.250000 123.74230194 95.967193604 174.72038269 1.6312999725  -999.250000 1.4055999517
 3775.6062012 13.000000000 9.5818004608 12.250000954 35.364173889 -0.130458817  -999.250000  -999.250000  -999.250000 114.87850189 98.240310669 174.92149353 1.6407999992  -999.250000 1.3540999889
 3775.7585449 13.000000000 10.287400246 12.250000954 34.560367584 -0.117142878  -999.250000  -999.250000  -999.250000 97.730300903 97.040802002 175.30870056 1.6928999424  -999.250000 1.3193999529
 3775.9111328 13.000000000 10.489399910 12.250000954 33.645011902 -0.096732691  -999.250000  -999.250000  -999.250000 87.272796631 93.777801514 174.08419800 1.7834000587  -999.250000 1.3623000383
 3776.0634766 13.000000000 11.305899620 12.250000954 30.914369583 -0.090010740  -999.250000  -999.250000  -999.250000 78.759300232 87.118698120 171.89270020 1.9072999954  -999.250000 1.4950000048
 3776.2158203 13.000000000 11.225799561 12.250000954 27.549541473 -0.092795514  -999.250000  -999.250000  -999.250000 80.724601746 84.104400635 167.42520142 2.0687000751  -999.250000 1.7617000341
 3776.3681641 13.000000000 11.132399559 12.250000954 25.226379395 -0.092799999  -999.250000  -999.250000  -999.250000 69.649803162 81.867599487 167.76550293 2.1198000908  -999.250000 1.9220000505
 3776.5205078 13.000000000 11.031399727 12.250000954 27.539041519 -0.087118238  -999.250000  -999.250000  -999.250000 64.993797302 80.356407166 169.13070679 2.5276000500  -999.250000 2.3887999058
 3776.6730957 13.000000000 11.008299828 12.250000954 44.310039520 -0.080909938  -999.250000  -999.250000  -999.250000 64.625701904 80.314399719 165.19799805 2.5590000153  -999.250000 2.6015999317
 3776.8254395 13.000000000 10.991999626 12.250000954 52.369094849 -0.078903206  -999.250000  -999.250000  -999.250000 59.716800690 79.884696960 165.93600464 2.8859000206  -999.250000 2.9809999466
 3776.9777832 13.000000000 10.957900047 12.250000954 45.592517853 -0.076903202  -999.250000  -999.250000  -999.250000 59.656299591 80.625701904 170.86819458 3.0875999928  -999.250000 3.3018000126
 3777.1301270 13.000000000 10.572899818 12.250000954 35.484909058 -0.083379202  -999.250000  -999.250000  -999.250000 80.140502930 81.418998718 174.48031616 3.2184998989  -999.250000 3.5680000782
 3777.2827148 13.000000000 10.253800392 12.250000954 32.168964386 -0.076610900  -999.250000  -999.250000  -999.250000 77.816001892 81.222702026 175.30361938 3.2750999928  -999.250000 3.5438001156
