# LAS format log file from PETREL
# Project units are specified as depth units
#==================================================================
~Version information
VERS.   2.0:
WRAP.   NO:
#==================================================================
~Well
STRT .m      2233.7756348 :
STOP .m      5007.4555664 :
STEP .m     0.00000000 :
NULL .        -999.250000 :
COMP.           : COMPANY
WELL.  34/3-3 A   : WELL
FLD.            : FIELD
LOC.            : LOCATION
SRVC.           : SERVICE COMPANY
DATE.  2018-09-11 14:48:49   : Log Export Date {yyyy-MM-dd HH:mm:ss}
PROV.           : PROVINCE
UWI.   34/3-3 A   : UNIQUE WELL ID
API.            : API NUMBER
#==================================================================
~Curve
DEPT .m                   : DEPTH
Lithology_geolink ._      : Lithology_geolink
CALI .in                  : CALI
BS .in                    : BS
ROP .m/h                  : ROP
DRHO .g/cm3               : DRHO
NPHI .m3/m3               : NPHI
RHOB .g/cm3               : RHOB
PEF .b/e                  : PEF
GR .gAPI                  : GR
DTC .us/ft                : DTC
DTS .us/ft                : DTS
RDEP .ohm.m               : RDEP
RMED .ohm.m               : RMED
~Parameter
#==================================================================
~Ascii
 2233.7756348  -999.250000 12.138999939 17.500000000 158.00852966 0.0144999996  -999.250000  -999.250000  -999.250000 86.975242615  -999.250000  -999.250000 0.9459000230 0.9146999717
 2233.9279785  -999.250000 12.091900826 17.500000000 159.62138367 -0.002300000  -999.250000  -999.250000  -999.250000 86.443298340  -999.250000  -999.250000 0.8838000298 0.8794999719
 2234.0803223  -999.250000 12.191300392 17.500000000 160.68930054 0.0085000005  -999.250000  -999.250000  -999.250000 85.910598755  -999.250000  -999.250000 0.8233000040 0.8030999899
 2234.2329102  -999.250000 12.229700089 17.500000000 159.06037903 0.0131999999  -999.250000  -999.250000  -999.250000 85.910598755  -999.250000  -999.250000 0.8907999992 0.8932999969
 2234.3852539  -999.250000 12.184599876 17.500000000 157.67289734 0.0074999998  -999.250000  -999.250000  -999.250000 85.913169861  -999.250000  -999.250000 0.9144999981 0.9347000122
 2234.5375977  -999.250000 12.153900146 17.500000000 154.18864441 0.0006000000  -999.250000  -999.250000  -999.250000 87.518768311  -999.250000  -999.250000 0.8981000185 0.9296000004
 2234.6899414  -999.250000 12.203200340 17.500000000 156.23687744 -0.006300000  -999.250000  -999.250000  -999.250000 89.121902466  -999.250000  -999.250000 0.9086999893 0.9235000014
 2234.8425293  -999.250000 12.381401062 17.500000000 156.85760498 -0.016200000  -999.250000  -999.250000  -999.250000 88.318664551  -999.250000  -999.250000 0.9314000010 0.9373000264
 2234.9948730  -999.250000 12.305100441 17.500000000 152.77165222 -0.017500000  -999.250000  -999.250000  -999.250000 90.357063293  -999.250000  -999.250000 0.9132000208 0.9394999743
 2235.1472168  -999.250000 12.325900078 17.500000000 143.59547424 -0.027000001  -999.250000  -999.250000  -999.250000 92.381828308  -999.250000  -999.250000 0.8851000071 0.9172000289
 2235.2995605  -999.250000 12.328200340 17.500000000 145.13977051 -0.027799999  -999.250000  -999.250000  -999.250000 85.910598755  -999.250000  -999.250000 0.8582000136 0.9143999815
 2235.4519043  -999.250000 12.466600418 17.500000000 147.23425293 -0.033300005  -999.250000  -999.250000  -999.250000 84.327003479  -999.250000  -999.250000 0.9232000113 0.9484999776
 2235.6044922  -999.250000 12.746199608 17.500000000 145.27033997 -0.032699998  -999.250000  -999.250000  -999.250000 87.554000854  -999.250000  -999.250000 0.9063000083 0.9627000093
 2235.7568359  -999.250000 12.690699577 17.500000000 140.90649414 -0.029899999  -999.250000  -999.250000  -999.250000 97.330139160  -999.250000  -999.250000 0.9060999751 0.9552000165
 2235.9091797  -999.250000 12.482199669 17.500000000 140.23753357 -0.023000000  -999.250000  -999.250000  -999.250000 95.166702271  -999.250000  -999.250000 0.9165999889 0.9634000063
 2236.0615234  -999.250000 12.193200111 17.500000000 144.72441101 -0.016000001  -999.250000  -999.250000  -999.250000 87.707702637  -999.250000  -999.250000 0.9502999783 1.0183999538
 2236.2141113  -999.250000 12.134000778 17.500000000 142.85760498 -0.015900001  -999.250000  -999.250000  -999.250000 89.790908813  -999.250000  -999.250000 0.9488999844 1.0175000429
 2236.3664551  -999.250000 12.176699638 17.500000000 139.05545044 -0.019900000  -999.250000  -999.250000  -999.250000 100.77315521  -999.250000  -999.250000 0.9379000068 1.0123000145
 2236.5187988  -999.250000 12.269599915 17.500000000 138.22538757 -0.023300000  -999.250000  -999.250000  -999.250000 107.27550507  -999.250000  -999.250000 0.8930000067 0.9866999984
 2236.6711426  -999.250000 12.208600044 17.500000000 142.47473145 -0.023499999  -999.250000  -999.250000  -999.250000 102.28829956  -999.250000  -999.250000 0.9783999920 1.0772000551
 2236.8237305  -999.250000 12.348099709 17.500000000 140.56300354 -0.025100000  -999.250000  -999.250000  -999.250000 93.452560425  -999.250000  -999.250000 1.0023000240 1.0923000574
 2236.9760742  -999.250000 12.395699501 17.500000000 141.17388916 -0.028999999  -999.250000  -999.250000  -999.250000 91.185134888  -999.250000  -999.250000 0.9717000127 1.0557999611
 2237.1284180  -999.250000 12.318300247 17.500000000 141.07579041 -0.018600000  -999.250000  -999.250000  -999.250000 91.016532898  -999.250000  -999.250000 0.9415000081 1.0338000059
 2237.2807617  -999.250000 12.177398682 17.500000000 141.95932007 -0.011400000  -999.250000  -999.250000  -999.250000 88.417800903  -999.250000  -999.250000 0.9361000061 1.0420999527
 2237.4331055  -999.250000 12.215700150 17.500000000 140.80117798 -0.014100000  -999.250000  -999.250000  -999.250000 86.724197388  -999.250000  -999.250000 0.9718000293 1.0697000027
 2237.5856934  -999.250000 12.321100235 17.500000000 139.05578613 -0.026000001  -999.250000  -999.250000  -999.250000 86.656379700  -999.250000  -999.250000 1.0243999958 1.1265000105
 2237.7380371  -999.250000 12.401000023 17.500000000 135.33628845 -0.031800002  -999.250000  -999.250000  -999.250000 88.576545715  -999.250000  -999.250000 1.0470000505 1.1514999866
 2237.8903809  -999.250000 12.315699577 17.500000000 131.43209839 -0.020700000  -999.250000  -999.250000  -999.250000 89.476303101  -999.250000  -999.250000 1.0480999947 1.1367000341
 2238.0427246  -999.250000 12.454400063 17.500000000 112.74147797 -0.025699999  -999.250000  -999.250000  -999.250000 86.134902954  -999.250000  -999.250000 1.0504000187 1.1424000263
 2238.1953125  -999.250000 12.475399971 17.500000000 100.52296448 -0.028600000  -999.250000  -999.250000  -999.250000 83.564788818  -999.250000  -999.250000 1.0345000029 1.1344000101
 2238.3476563  -999.250000 12.556900024 17.500000000 144.57513428 -0.026200000  -999.250000  -999.250000  -999.250000 84.677062988  -999.250000  -999.250000 1.0283999443 1.1289000511
 2238.5000000  -999.250000 12.199700356 17.500000000 137.86056519 -0.007300000  -999.250000  -999.250000  -999.250000 84.838798523  -999.250000  -999.250000 0.9890000224 1.1074999571
 2238.6523438  -999.250000 12.233798981 17.500000000 138.13385010 0.0020000001  -999.250000  -999.250000  -999.250000 84.170501709  -999.250000  -999.250000 1.0306999683 1.1227999926
 2238.8049316  -999.250000 12.182499886 17.500000000 139.60827637 -0.005000000  -999.250000  -999.250000  -999.250000 86.610626221  -999.250000  -999.250000 1.0678000450 1.1554000378
 2238.9572754  -999.250000 12.197799683 17.500000000 136.89501953 -0.015200000  -999.250000  -999.250000  -999.250000 88.621414185  -999.250000  -999.250000 1.0597000122 1.1576000452
 2239.1096191  -999.250000 12.146499634 17.500000000 188.00656128 -0.021500001  -999.250000  -999.250000  -999.250000 90.131759644  -999.250000  -999.250000 1.0558999777 1.1507999897
 2239.2619629  -999.250000 12.282401085 17.500000000 173.56332397 -0.014300000  -999.250000  -999.250000  -999.250000 94.788696289  -999.250000  -999.250000 1.0722999573 1.1769000292
 2239.4145508  -999.250000 12.187898636 17.500000000 155.01214600 -0.007200000  -999.250000  -999.250000  -999.250000 96.600090027  -999.250000  -999.250000 1.0752999783 1.1852999926
 2239.5668945  -999.250000 12.267600060 17.500000000 152.83563232 0.0015000000  -999.250000  -999.250000  -999.250000 93.790168762  -999.250000  -999.250000 1.0484000444 1.1483000517
 2239.7192383  -999.250000 12.369400024 17.500000000 172.31069946 0.0005000000  -999.250000  -999.250000  -999.250000 91.964721680  -999.250000  -999.250000 1.0388000011 1.1287000179
 2239.8715820  -999.250000 12.407199860 17.500000000 167.25033569 -0.004000000  -999.250000  -999.250000  -999.250000 92.605003357  -999.250000  -999.250000 1.0266000032 1.1203999519
 2240.0239258  -999.250000 12.303699493 12.250000954 116.07839966 -0.006600000  -999.250000  -999.250000  -999.250000 93.091003418  -999.250000  -999.250000 1.0096999407 1.1066000462
 2240.1765137  -999.250000 12.239399910 12.250000954 116.81594086 -0.010800000  -999.250000  -999.250000  -999.250000 93.531219482  -999.250000  -999.250000 1.0458999872 1.1396000385
 2240.3288574  -999.250000 12.367199898 12.250000954 118.52428436 -0.000900000  -999.250000  -999.250000  -999.250000 91.433105469  -999.250000  -999.250000 1.0621000528 1.1677999496
