# LAS format log file from PETREL
# Project units are specified as depth units
#==================================================================
~Version information
VERS.   2.0:
WRAP.   NO:
#==================================================================
~Well
STRT .m      437.13198853 :
STOP .m      2196.1328125 :
STEP .m     0.00000000 :
NULL .        -999.250000 :
COMP.           : COMPANY
WELL.  34/3-1 S   : WELL
FLD.            : FIELD
LOC.            : LOCATION
SRVC.           : SERVICE COMPANY
DATE.  2018-09-11 14:48:49   : Log Export Date {yyyy-MM-dd HH:mm:ss}
PROV.           : PROVINCE
UWI.   34/3-1 S   : UNIQUE WELL ID
API.            : API NUMBER
#==================================================================
~Curve
DEPT .m                   : DEPTH
Lithology_geolink ._      : Lithology_geolink
BS .in                    : BS
ROP .m/h                  : ROP
GR .gAPI                  : GR
RDEP .ohm.m               : RDEP
RMED .ohm.m               : RMED
~Parameter
#==================================================================
~Ascii
 437.13198853  -999.250000 9.8750000000 347.28314209  -999.250000  -999.250000  -999.250000
 437.28439331  -999.250000 9.8750000000 537.28216553  -999.250000  -999.250000  -999.250000
 437.43679810  -999.250000 9.8750000000 1035.5600586  -999.250000  -999.250000  -999.250000
 437.58920288  -999.250000 9.8750000000 1536.4156494  -999.250000  -999.250000  -999.250000
 437.74160767  -999.250000 9.8750000000 1485.7933350  -999.250000  -999.250000  -999.250000
 437.89401245  -999.250000 9.8750000000 1385.8116455  -999.250000  -999.250000  -999.250000
 438.04638672  -999.250000 9.8750000000 1261.1959229  -999.250000 0.2829000056 0.2809999883
 438.19879150  -999.250000 9.8750000000 1249.7235107  -999.250000 0.2829000056 0.2809999883
 438.35119629  -999.250000 9.8750000000 1122.0065918  -999.250000 0.2829000056 0.3443000019
 438.50360107  -999.250000 9.8750000000 1035.1075439  -999.250000 0.3350000083 0.4075999856
 438.65600586  -999.250000 9.8750000000 937.69842529  -999.250000 0.3871999979 0.4708000124
 438.80841064  -999.250000 9.8750000000 832.54949951  -999.250000 0.4393000007 0.4699999988
 438.96081543  -999.250000 9.8750000000 973.74108887  -999.250000 0.4914000034 0.4573999941
 439.11318970  -999.250000 9.8750000000 1300.1798096  -999.250000 0.4826999903 0.4598999918
 439.26559448  -999.250000 9.8750000000 1542.2342529  -999.250000 0.5810999870 0.4621999860
 439.41799927  -999.250000 9.8750000000 1618.0880127  -999.250000 0.6237999797 0.5939999819
 439.57040405  -999.250000 9.8750000000 1618.0880127  -999.250000 0.6359000206 0.5939999819
 439.72280884  -999.250000 9.8750000000 892.17907715  -999.250000 0.6607999802 0.6516000032
 439.87521362  -999.250000 9.8750000000 0.0000000000  -999.250000 0.7092000246 0.6516000032
 440.02758789  -999.250000 9.8750000000 573.90386963 2.8915998936 0.7092000246 0.6779000163
 440.17999268  -999.250000 9.8750000000 916.99371338 2.8915998936 0.7082999945 0.6779000163
 440.33239746  -999.250000 9.8750000000 2631.8359375 2.8915998936 0.7069000006 0.6779000163
 440.48480225  -999.250000 9.8750000000 3524.3242188 11.046400070 0.7069000006 0.7063000202
 440.63720703  -999.250000 9.8750000000 4098.2285156 19.201099396 0.7253000140 0.7063000202
 440.78961182  -999.250000 9.8750000000 3468.3203125 27.355899811 0.7253000140 0.7423999906
 440.94201660  -999.250000 9.8750000000 2469.0402832 35.510601044 0.8086000085 0.7423999906
 441.09439087  -999.250000 9.8750000000 2469.0402832 43.665298462 0.8086000085 0.7423999906
 441.24679565  -999.250000 9.8750000000 2469.0402832 51.820098877 0.8086000085 0.7991999984
 441.39920044  -999.250000 9.8750000000 2469.0402832 59.974800110 0.8140000105 0.7992076278
 441.55160522  -999.250000 9.8750000000 2469.0402832 59.974800110 0.8140143752 0.8373000026
 441.70401001  -999.250000 9.8750000000 2469.0402832 63.976200104 0.8855999708 0.8373084664
 441.85641479  -999.250000 9.8750000000 3270.6372070 62.312599182 0.8855994344 0.8795999885
 442.00881958  -999.250000 9.8750000000 4072.2343750 61.941875458 0.8828989863 0.8795999885
 442.16119385  -999.250000 9.8750000000 4873.8286133 65.629402161 0.8802999854 0.8795991540
 442.31356812  -999.250000 9.8750000000 5675.2661133 65.629402161 0.8802999854 0.8752999902
 442.46597290  -999.250000 9.8750000000 5675.4267578 63.823898315 0.8438000083 0.8752999902
 442.61837769  -999.250000 9.8750000000 5675.4267578 62.157501221 0.8438000083 0.7856000066
 442.77078247  -999.250000 9.8750000000 4510.2563477 62.157501221 0.7936000228 0.7856000066
 442.92315674  -999.250000 9.8750000000 2385.5588379 56.379600525 0.7936000228 0.7856000066
 443.07556152  -999.250000 9.8750000000 1022.1961060 56.379600525 0.7936000228 0.6455000043
 443.22796631  -999.250000 9.8750000000 611.52508545 69.414001465 0.6057999730 0.3729000092
 443.38037109  -999.250000 9.8750000000 764.14501953 69.414001465 0.4234000146 0.4293999970
 443.53277588  -999.250000 9.8750000000 1020.2313232 69.414001465 0.3398999870 0.5217000246
 443.68518066  -999.250000 9.8750000000 720.97540283 67.236503601 0.5953000188 0.7820000052
 443.83758545  -999.250000 9.8750000000 196.05839539 67.236503601 0.6679999828 0.7524999976
 443.98995972  -999.250000 9.8750000000 26.657810211 63.986301422 0.7673000097 0.7141000032
 444.14236450  -999.250000 9.8750000000 0.0000000000 63.986301422 0.6464999914 0.7875999808
 444.29476929  -999.250000 9.8750000000 0.0000000000 62.724998474 0.7682999969 0.7344999909
 444.44717407  -999.250000 9.8750000000 0.0000000000 61.627799988 0.7620999813 0.7055000067
 444.59957886  -999.250000 9.8750000000 0.0000000000 61.627799988 0.6140000224 0.7888000011
 444.75198364  -999.250000 9.8750000000 0.0000000000 70.867797852 0.7598000169 0.7254999876
 444.90438843  -999.250000 9.8750000000 0.0000000000 70.867797852 0.7509999871 0.7186999917
 445.05676270  -999.250000 9.8750000000 0.0000000000 68.498397827 0.7066000104 0.8044000268
 445.20916748  -999.250000 9.8750000000 0.0000000000 68.498397827 0.8217999935 0.7261999846
 445.36157227  -999.250000 9.8750000000 0.0000000000 68.498397827 0.8101999760 0.7888000011
 445.51397705  -999.250000 9.8750000000 12.795931816 76.299301147 0.7660999894 0.8176000118
 445.66638184  -999.250000 9.8750000000 43.402889252 76.299301147 0.8769000173 0.4841000140
 445.81878662  -999.250000 9.8750000000 115.78313446 55.816898346 0.5340999961 0.7889999747
 445.97119141  -999.250000 9.8750000000 195.28805542 20.103799820 0.7677000165 0.5295000076
 446.12356567  -999.250000 9.8750000000 226.27001953 1.8041000366 0.5246999860 0.6057000160
 446.27597046  -999.250000 9.8750000000 235.78607178 43.972000122 0.5540000200 0.8482000232
 446.42837524  -999.250000 9.8750000000 238.12498474 39.470100403 0.6053000093 0.5049999952
 446.58078003  -999.250000 9.8750000000 237.23524475 74.807800293 0.4979999959 0.5983999968
 446.73318481  -999.250000 9.8750000000 235.77459717 61.796501160 0.5943999887 0.5960999727
 446.88558960  -999.250000 9.8750000000 235.24769592 59.831001282 0.6018999815 0.5960999727
 447.03799438  -999.250000 9.8750000000 234.44097900 70.938201904 0.6093999743 0.6510000229
 447.19036865  -999.250000 9.8750000000 233.13420105 58.917598724 0.6241999865 0.8628000021
 447.34277344  -999.250000 9.8750000000 232.11056519 64.455101013 1.0077999830 0.9131000042
 447.49517822  -999.250000 9.8750000000 231.06594849 69.180198669 0.9122999907 1.2875000238
 447.64758301  -999.250000 9.8750000000 230.32185364 61.986598969 1.2218999863 0.8808000088
 447.79998779  -999.250000 9.8750000000 229.56367493 71.083503723 0.9180999994 0.9308999777
 447.95239258  -999.250000 9.8750000000 228.32972717 68.183197021 0.9814000130 1.3580000401
 448.10476685  -999.250000 9.8750000000 198.11941528 65.269302368 1.5120999813 1.0032000542
 448.25717163  -999.250000 9.8750000000 161.53543091 73.737998962 1.2891999483 0.5350000262
 448.40957642  -999.250000 9.8750000000 114.94487000 50.661598206 0.7408000231 1.1552000046
 448.56198120  -999.250000 9.8750000000 80.103347778 55.851699829 0.7960000038 1.5436999798
 448.71438599  -999.250000 9.8750000000 129.33694458 69.572700500 1.5506000519 1.5200999975
 448.86679077  -999.250000 9.8750000000 159.43502808 50.909400940 1.5512000322 1.5319000483
 449.01919556  -999.250000 9.8750000000 145.84350586 68.364601135 1.5444999933 1.5325000286
 449.17156982  -999.250000 9.8750000000 116.48360443 64.622497559 1.5546000004 1.5360000134
 449.32397461  -999.250000 9.8750000000 95.544296265 64.280601501 1.5979000330 1.5701999664
 449.47637939  -999.250000 9.8750000000 85.906494141 70.739898682 1.5924999714 1.5712000132
 449.62878418  -999.250000 9.8750000000 80.594161987 63.747699738 1.5636999607 1.5314999819
 449.78118896  -999.250000 9.8750000000 81.550201416 61.541099548 1.5406999588 1.5283999443
 449.93359375  -999.250000 9.8750000000 74.469161987 62.799098969 1.5673999786 1.5340000391
 450.08599854  -999.250000 9.8750000000 65.155845642 63.195800781 1.5714000463 1.5652999878
 450.23837280  -999.250000 9.8750000000 64.915351868 69.625602722 1.5628999472 1.5386999846
