# LAS format log file from PETREL
# Project units are specified as depth units
#==================================================================
~Version information
VERS.   2.0:
WRAP.   NO:
#==================================================================
~Well
STRT .m      437.13198853 :
STOP .m      2196.1328125 :
STEP .m     0.00000000 :
NULL .        -999.250000 :
COMP.           : COMPANY
WELL.  34/3-1 S   : WELL
FLD.            : FIELD
LOC.            : LOCATION
SRVC.           : SERVICE COMPANY
DATE.  2018-09-11 14:48:49   : Log Export Date {yyyy-MM-dd HH:mm:ss}
PROV.           : PROVINCE
UWI.   34/3-1 S   : UNIQUE WELL ID
API.            : API NUMBER
#==================================================================
~Curve
DEPT .m                   : DEPTH
Lithology_geolink ._      : Lithology_geolink
BS .in                    : BS
ROP .m/h                  : ROP
GR .gAPI                  : GR
RDEP .ohm.m               : RDEP
RMED .ohm.m               : RMED
~Parameter
#==================================================================
~Ascii
# ...
 1259.1776123  -999.250000 17.500000000 89.794616699 105.91190338 2.6466999054 2.1788001060
 1259.3299561  -999.250000 17.500000000 89.794616699 109.17800140 2.6466999054 2.1431000233
 1259.4824219  -999.250000 17.500000000 89.794616699 110.78469849 2.6466999054 2.1540000439
 1259.6347656  -999.250000 17.500000000 129.48556519 99.992401123 2.6466999054 2.2109999657
 1259.7872314  -999.250000 17.500000000 129.48556519 85.786399841 2.6466999054 2.2218999863
 1259.9395752  -999.250000 17.500000000 129.48556519 92.027099609 2.5529000759 2.2218999863
 1260.0920410  -999.250000 17.500000000 129.48556519 101.63520050 2.5529000759 2.2218999863
 1260.2443848  -999.250000 17.500000000 129.48556519 105.91190338 2.6164999008 2.1684999466
 1260.3968506  -999.250000 17.500000000 129.48556519 96.332901001 2.5766999722 2.2019000053
 1260.5491943  -999.250000 17.500000000 88.885826111 96.476196289 2.5664000511 2.2105998993
 1260.7016602  -999.250000 17.500000000 88.885826111 94.171997070 2.6391999722 2.1431000233
 1260.8540039  -999.250000 17.500000000 88.885826111 89.140701294 2.5711998940 2.1526000500
 1261.0063477  -999.250000 17.500000000 88.885826111 92.419998169 2.6356999874 2.2049000263
 1261.1588135  -999.250000 17.500000000 88.885826111 97.210700989 2.6466999054 2.1431000233
 1261.3111572  -999.250000 17.500000000 88.885826111 87.463500977 2.6466999054 2.2088999748
 1261.4636230  -999.250000 17.500000000 88.885826111 91.621696472 2.6119000912 2.1926000118
 1261.6159668  -999.250000 17.500000000 87.233268738 96.421997070 2.5529000759 2.1431000233
 1261.7684326  -999.250000 17.500000000 87.233268738 99.811203003 2.5529000759 2.1431000233
 1261.9207764  -999.250000 17.500000000 87.233268738 93.175003052 2.5529000759 2.2067999840
 1262.0732422  -999.250000 17.500000000 87.233268738 92.494903564 2.5896999836 2.2188000679
 1262.2255859  -999.250000 17.500000000 87.233268738 85.786399841 2.6277000904 2.1789999008
 1262.3780518  -999.250000 17.500000000 87.233268738 100.04830170 2.6036000252 2.2165999413
 1262.5303955  -999.250000 17.500000000 87.233268738 101.41539764 2.5639998913 2.2218999863
 1262.6828613  -999.250000 17.500000000 108.81857300 94.642097473 2.5529000759 2.2309999466
 1262.8352051  -999.250000 17.500000000 108.81857300 98.104698181 2.5529000759 2.2852001190
 1262.9876709  -999.250000 17.500000000 108.81857300 83.617599487 2.5757999420 2.2263998985
 1263.1400146  -999.250000 17.500000000 108.81857300 95.849197388 2.6122999191 2.2218999863
 1263.2923584  -999.250000 17.500000000 108.81857300 89.897102356 2.6466999054 2.2218999863
 1263.4448242  -999.250000 17.500000000 108.81857300 94.608596802 2.6466999054 2.2218999863
 1263.5971680  -999.250000 17.500000000 87.304458618 91.218902588 2.5817999840 2.2325999737
 1263.7496338  -999.250000 17.500000000 87.304458618 92.124702454 2.5643000603 2.2867999077
 1263.9019775  -999.250000 17.500000000 87.304458618 94.171997070 2.6324000359 2.3034999371
 1264.0544434  -999.250000 17.500000000 87.304458618 96.962898254 2.5926001072 2.2232999802
 1264.2067871  -999.250000 17.500000000 87.304458618 89.704002380 2.5529000759 2.1431000233
 1264.3592529  -999.250000 17.500000000 87.304458618 94.171997070 2.5529000759 2.1277000904
 1264.5115967  -999.250000 17.500000000 87.304458618 93.742897034 2.5529000759 2.0755999088
 1264.6640625  -999.250000 17.500000000 91.675201416 91.478302002 2.5529000759 2.2218999863
 1264.8164063  -999.250000 17.500000000 91.675201416 93.445701599 2.5529000759 2.2218999863
 1264.9688721  -999.250000 17.500000000 91.675201416 87.610801697 2.5529000759 2.2218999863
 1265.1212158  -999.250000 17.500000000 91.675201416 90.765197754 2.5529000759 2.2218999863
 1265.2735596  -999.250000 17.500000000 91.675201416 100.41069794 2.6466999054 2.1431000233
 1265.4260254  -999.250000 17.500000000 91.675201416 105.91190338 2.6277999878 2.1589000225
 1265.5783691  -999.250000 17.500000000 92.146980286 92.791099548 2.5529000759 2.1756999493
 1265.7308350  -999.250000 17.500000000 92.146980286 95.191902161 2.5529000759 2.1782000065
 1265.8831787  -999.250000 17.500000000 92.146980286 95.303901672 2.5529000759 2.2218999863
 1266.0356445  -999.250000 17.500000000 92.146980286 89.178497314 2.5529000759 2.1431000233
 1266.1879883  -999.250000 17.500000000 92.146980286 95.984802246 2.5529000759 2.1747000217
 1266.3404541  -999.250000 17.500000000 92.146980286 90.817802429 2.5529000759 2.2028000355
 1266.4927979  -999.250000 17.500000000 92.146980286 89.528999329 2.5529000759 2.2218999863
 1266.6452637  -999.250000 17.500000000 86.248359680 93.438301086 2.5529000759 2.2218999863
 1266.7976074  -999.250000 17.500000000 86.248359680 96.824897766 2.5529000759 2.2218999863
 1266.9500732  -999.250000 17.500000000 86.248359680 94.562797546 2.5529000759 2.2218999863
 1267.1024170  -999.250000 17.500000000 86.248359680 98.829498291 2.5529000759 2.2218999863
 1267.2547607  -999.250000 17.500000000 86.248359680 99.203399658 2.5529000759 2.2218999863
 1267.4072266  -999.250000 17.500000000 86.248359680 105.91190338 2.5529000759 2.2218999863
 1267.5595703  -999.250000 17.500000000 101.87992096 103.78179932 2.5529000759 2.2218999863
 1267.7120361  -999.250000 17.500000000 101.87992096 102.55770111 2.5529000759 2.1431000233
 1267.8643799  -999.250000 17.500000000 101.87992096 90.091598511 2.5529000759 2.1431000233
 1268.0168457  -999.250000 17.500000000 101.87992096 89.866897583 2.5739998817 2.1431000233
 1268.1691895  -999.250000 17.500000000 101.87992096 94.467796326 2.6157999039 2.1431000233
 1268.3216553  -999.250000 17.500000000 101.87992096 97.858901978 2.5948998928 2.1431000233
 1268.4739990  -999.250000 17.500000000 101.87992096 99.203399658 2.5738999844 2.1431000233
 1268.6264648  -999.250000 17.500000000 84.215553284 95.010597229 2.5529000759 2.1431000233
 1268.7788086  -999.250000 17.500000000 84.215553284 90.817802429 2.5529000759 2.1431000233
 1268.9312744  -999.250000 17.500000000 84.215553284 94.357498169 2.5529000759 2.1673998833
 1269.0836182  -999.250000 17.500000000 84.215553284 100.88050079 2.5529000759 2.2093000412
 1269.2360840  -999.250000 17.500000000 84.215553284 75.723701477 2.5529000759 2.1431000233
 1269.3884277  -999.250000 17.500000000 84.215553284 80.915100098 2.6182000637 2.1431000233
 1269.5407715  -999.250000 17.500000000 84.215553284 93.244499207 2.6466999054 2.1431000233
 1269.6932373  -999.250000 17.500000000 77.619750977 96.770301819 2.6466999054 2.1431000233
 1269.8455811  -999.250000 17.500000000 77.619750977 99.203399658 2.5950999260 2.1431000233
 1269.9980469  -999.250000 17.500000000 77.619750977 100.55930328 2.5529000759 2.1431000233
 1270.1503906  -999.250000 17.500000000 77.619750977 110.83719635 2.5529000759 2.1050999165
 1270.3028564  -999.250000 17.500000000 77.619750977 111.88549805 2.5529000759 2.0671000481
 1270.4552002  -999.250000 17.500000000 77.619750977 105.91190338 2.5529000759 2.0671000481
 1270.6076660  -999.250000 17.500000000 38.712272644 92.374198914 2.5529000759 2.0671000481
 1270.7600098  -999.250000 17.500000000 38.712272644 100.93319702 2.5529000759 2.0671000481
 1270.9124756  -999.250000 17.500000000 38.712272644 94.289703369 2.5529000759 2.0671000481
 1271.0648193  -999.250000 17.500000000 38.712272644 93.477699280 2.4746000767 2.1328999996
 1271.2172852  -999.250000 17.500000000 38.712272644 100.88050079 2.4625000954 2.1431000233
 1271.3696289  -999.250000 17.500000000 38.712272644 90.817802429 2.4928998947 2.1431000233
 1271.5219727  -999.250000 17.500000000 38.712272644 90.817802429 2.5316998959 2.1431000233
 1271.6744385  -999.250000 17.500000000 54.012466431 97.087997437 2.5529000759 2.1431000233
 1271.8267822  -999.250000 17.500000000 54.012466431 99.203399658 2.5529000759 2.1431000233
 1271.9792480  -999.250000 17.500000000 54.012466431 99.203399658 2.5529000759 2.1333000660
 1272.1315918  -999.250000 17.500000000 54.012466431 100.88050079 2.5529000759 2.0727999210
 1272.2840576  -999.250000 17.500000000 54.012466431 95.028602600 2.5529000759 2.0671000481
