# LAS format log file from PETREL
# Project units are specified as depth units
#==================================================================
~Version information
VERS.   2.0:
WRAP.   NO:
#==================================================================
~Well
STRT .m      437.13198853 :
STOP .m      2196.1328125 :
STEP .m     0.00000000 :
NULL .        -999.250000 :
COMP.           : COMPANY
WELL.  34/3-1 S   : WELL
FLD.            : FIELD
LOC.            : LOCATION
SRVC.           : SERVICE COMPANY
DATE.  2018-09-11 14:48:49   : Log Export Date {yyyy-MM-dd HH:mm:ss}
PROV.           : PROVINCE
UWI.   34/3-1 S   : UNIQUE WELL ID
API.            : API NUMBER
#==================================================================
~Curve
DEPT .m                   : DEPTH
Lithology_geolink ._      : Lithology_geolink
BS .in                    : BS
ROP .m/h                  : ROP
GR .gAPI                  : GR
RDEP .ohm.m               : RDEP
RMED .ohm.m               : RMED
~Parameter
#==================================================================
~Ascii
# ...
 1603.9063721  -999.250000 17.500000000 166.22212219 75.577003479 1.0733000040 0.9345999956
 1604.0587158  -999.250000 17.500000000 166.22212219 80.708000183 1.0983999968 0.9563999772
 1604.2111816  -999.250000 17.500000000 166.22212219 90.199798584 1.1126999855 0.9689000249
 1604.3635254  -999.250000 17.500000000 166.22212219 91.174301147 1.1542999744 0.9689000249
 1604.5159912  -999.250000 17.500000000 166.22212219 73.709297180 1.1959999800 0.9689000249
 1604.6683350  -999.250000 17.500000000 171.88325500 73.709297180 1.1959999800 0.9689000249
 1604.8208008  -999.250000 17.500000000 171.88780212 80.008598328 1.1126999855 0.8386999965
 1604.9731445  -999.250000 17.500000000 171.88780212 80.695297241 1.1126999855 0.8407999873
 1605.1256104  -999.250000 17.500000000 171.88780212 64.976799011 1.1126999855 0.8669000268
 1605.2779541  -999.250000 17.500000000 171.88780212 64.976799011 1.0899000168 0.8517000079
 1605.4302979  -999.250000 17.500000000 171.88780212 57.990798950 1.0733000040 0.8386999965
 1605.5827637  -999.250000 17.500000000 126.99663544 57.990798950 1.0733000040 0.8386999965
 1605.7351074  -999.250000 17.500000000 126.96063232 73.709297180 1.0733000040 0.8386999965
 1605.8875732  -999.250000 17.500000000 126.96063232 74.109397888 1.0733000040 0.8386999965
 1606.0399170  -999.250000 17.500000000 126.96063232 75.455802917 1.0733000040 0.8386999965
 1606.1923828  -999.250000 17.500000000 126.96063232 69.827796936 1.0733000040 0.8694999814
 1606.3447266  -999.250000 17.500000000 126.96063232 72.137702942 1.0733000040 0.8694999814
 1606.4971924  -999.250000 17.500000000 126.96063232 96.413803101 1.0733000040 0.8694999814
 1606.6495361  -999.250000 17.500000000 145.62380981 96.413803101 1.0951999426 0.8694999814
 1606.8020020  -999.250000 17.500000000 145.63877869 73.709297180 1.1126999855 0.8694999814
 1606.9543457  -999.250000 17.500000000 145.63877869 73.709297180 1.0733000040 0.8694999814
 1607.1068115  -999.250000 17.500000000 145.63877869 68.469802856 1.0963000059 0.8694999814
 1607.2591553  -999.250000 17.500000000 145.63877869 63.230300903 1.1201000214 0.8752999902
 1607.4114990  -999.250000 17.500000000 145.63877869 67.807197571 1.1483000517 0.9014999866
 1607.5639648  -999.250000 17.500000000 132.73901367 80.695297241 1.1180000305 0.9014999866
 1607.7163086  -999.250000 17.500000000 132.72866821 80.695297241 1.1126999855 0.9014999866
 1607.8687744  -999.250000 17.500000000 132.72866821 69.474998474 1.1260000467 0.9121999741
 1608.0211182  -999.250000 17.500000000 132.72866821 67.464599609 1.1398999691 0.9143000245
 1608.1735840  -999.250000 17.500000000 132.72866821 70.459999084 1.1535999775 0.9014999866
 1608.3259277  -999.250000 17.500000000 132.72866821 73.709297180 1.1535999775 0.9014999866
 1608.4783936  -999.250000 17.500000000 132.72866821 73.709297180 1.1535999775 0.9014999866
 1608.6307373  -999.250000 17.500000000 130.56900024 82.441802979 1.1535999775 0.9345999956
 1608.7832031  -999.250000 17.500000000 130.56726074 82.441802979 1.1535999775 0.9345999956
 1608.9355469  -999.250000 17.500000000 130.56726074 82.178298950 1.1433999538 0.9345999956
 1609.0880127  -999.250000 17.500000000 130.56726074 80.695297241 1.1331000328 0.9345999956
 1609.2403564  -999.250000 17.500000000 130.56726074 80.695297241 1.1229000092 0.9345999956
 1609.3927002  -999.250000 17.500000000 130.56726074 75.455802917 1.1126999855 0.9345999956
 1609.5451660  -999.250000 17.500000000 130.56726074 75.455802917 1.1126999855 0.9345999956
 1609.6975098  -999.250000 17.500000000 162.40203857 68.469802856 1.1535999775 1.0045000315
 1609.8499756  -999.250000 17.500000000 162.45309448 71.207000732 1.1627000570 1.0045000315
 1610.0023193  -999.250000 17.500000000 162.45309448 79.498703003 1.2352999449 1.0045000315
 1610.1547852  -999.250000 17.500000000 162.45309448 70.216300964 1.2398999929 0.9743000269
 1610.3071289  -999.250000 17.500000000 162.45309448 96.756301880 1.2398999929 0.9689000249
 1610.4595947  -999.250000 17.500000000 162.45309448 94.124702454 1.2398999929 0.9689000249
 1610.6119385  -999.250000 17.500000000 119.19872284 87.681297302 1.2398999929 0.9689000249
 1610.7644043  -999.250000 17.500000000 119.16403961 93.584396362 1.2398999929 0.9866999984
 1610.9167480  -999.250000 17.500000000 119.16403961 86.880096436 1.2398999929 1.0045000315
 1611.0692139  -999.250000 17.500000000 119.16403961 84.188301086 1.2589000463 1.0197999477
 1611.2215576  -999.250000 17.500000000 119.16403961 82.005203247 1.2928999662 1.0473999977
 1611.3740234  -999.250000 17.500000000 119.16403961 79.822097778 1.3327000141 1.0795999765
 1611.5263672  -999.250000 17.500000000 119.16403961 77.638900757 1.3327000141 1.0795999765
 1611.6787109  -999.250000 17.500000000 123.68565369 75.455802917 1.2855000496 0.9689000249
 1611.8311768  -999.250000 17.500000000 123.69290924 75.455802917 1.2855000496 0.9689000249
 1611.9835205  -999.250000 17.500000000 123.69290924 74.920997620 1.2398999929 0.9689000249
 1612.1359863  -999.250000 17.500000000 123.69290924 73.709297180 1.2398999929 0.9689000249
 1612.2883301  -999.250000 17.500000000 123.69290924 82.960098267 1.2398999929 0.9689000249
 1612.4407959  -999.250000 17.500000000 123.69290924 89.427803040 1.2398999929 0.9689000249
 1612.5931396  -999.250000 17.500000000 112.30900574 85.934799194 1.2251000404 0.9573000073
 1612.7456055  -999.250000 17.500000000 112.29987335 85.934799194 1.1959999800 0.9345999956
 1612.8979492  -999.250000 17.500000000 112.29987335 91.174301147 1.1663000584 0.8889999986
 1613.0504150  -999.250000 17.500000000 112.29987335 91.174301147 1.1469999552 0.8644999862
 1613.2027588  -999.250000 17.500000000 112.29987335 70.216300964 1.1126999855 0.8386999965
 1613.3552246  -999.250000 17.500000000 112.29987335 70.216300964 1.0921000242 0.8386999965
 1613.5075684  -999.250000 17.500000000 112.29987335 76.051696777 1.0733000040 0.8386999965
 1613.6599121  -999.250000 17.500000000 67.708007813 82.795898438 1.0733000040 0.8542000055
 1613.8123779  -999.250000 17.500000000 67.708007813 85.706802368 1.0733000040 0.8694999814
 1613.9647217  -999.250000 17.500000000 67.708007813 81.340103149 1.0733000040 0.8694999814
 1614.1171875  -999.250000 17.500000000 67.708007813 80.695297241 1.1126999855 0.9014999866
 1614.2695313  -999.250000 17.500000000 67.708007813 85.934799194 1.1126999855 0.9014999866
 1614.4219971  -999.250000 17.500000000 67.708007813 91.174301147 1.1126999855 0.9014999866
 1614.5743408  -999.250000 17.500000000 101.25229645 91.174301147 1.1535999775 0.9689000249
 1614.7268066  -999.250000 17.500000000 101.25229645 79.769203186 1.1535999775 0.9689000249
 1614.8791504  -999.250000 17.500000000 101.25229645 78.540901184 1.1959999800 0.9689000249
 1615.0316162  -999.250000 17.500000000 101.25229645 84.188301086 1.1959999800 0.9689000249
 1615.1839600  -999.250000 17.500000000 101.25229645 82.441802979 1.1959999800 0.9445999861
 1615.3364258  -999.250000 17.500000000 101.25229645 76.751502991 1.1924999952 0.9291999936
 1615.4887695  -999.250000 17.500000000 101.25229645 66.723297119 1.1565999985 0.8741000295
 1615.6411133  -999.250000 17.500000000 136.45045471 68.167800903 1.1201000214 0.9228000045
 1615.7935791  -999.250000 17.500000000 136.45045471 72.565498352 1.1126999855 0.9345999956
 1615.9459229  -999.250000 17.500000000 136.45045471 84.188301086 1.2398999929 1.0413999557
 1616.0983887  -999.250000 17.500000000 136.45045471 79.555801392 1.2398999929 1.0413999557
 1616.2507324  -999.250000 17.500000000 136.45045471 75.455802917 1.2589999437 1.0110000372
 1616.4031982  -999.250000 17.500000000 136.45045471 75.455802917 1.2855000496 0.9689000249
 1616.5555420  -999.250000 17.500000000 135.20079041 106.89279938 1.2398999929 0.9689000249
 1616.7080078  -999.250000 17.500000000 135.20079041 104.19229889 1.2398999929 0.9689000249
 1616.8603516  -999.250000 17.500000000 135.20079041 98.160301208 1.2398999929 1.0413999557
 1617.0128174  -999.250000 17.500000000 135.20079041 94.623901367 1.2398999929 1.0413999557
