# LAS format log file from PETREL
# Project units are specified as depth units
#==================================================================
~Version information
VERS.   2.0:
WRAP.   NO:
#==================================================================
~Well
STRT .m      437.13198853 :
STOP .m      2196.1328125 :
STEP .m     0.00000000 :
NULL .        -999.250000 :
COMP.           : COMPANY
WELL.  34/3-1 S   : WELL
FLD.            : FIELD
LOC.            : LOCATION
SRVC.           : SERVICE COMPANY
DATE.  2018-09-11 14:48:49   : Log Export Date {yyyy-MM-dd HH:mm:ss}
PROV.           : PROVINCE
UWI.   34/3-1 S   : UNIQUE WELL ID
API.            : API NUMBER
#==================================================================
~Curve
DEPT .m                   : DEPTH
Lithology_geolink ._      : Lithology_geolink
BS .in                    : BS
ROP .m/h                  : ROP
GR .gAPI                  : GR
RDEP .ohm.m               : RDEP
RMED .ohm.m               : RMED
~Parameter
#==================================================================
~Ascii
# ...
 675.79040527  -999.250000 9.8750000000 70.615158081 93.137420654 3.0406970978 3.0606935024
 675.94281006  -999.250000 9.8750000000 68.216537476 91.940734863 3.0334055424 3.0445003510
 676.09521484  -999.250000 9.8750000000 72.015747070 93.030136108 3.0471980572 3.0447967052
 676.24761963  -999.250000 9.8750000000 81.320213318 87.860427856 3.0423929691 3.0366711617
 676.40002441  -999.250000 9.8750000000 93.037078857 87.695747375 3.0250885487 2.9643924236
 676.55236816  -999.250000 9.8750000000 102.14891815 89.817901611 2.9964001179 2.9454998970
 676.70477295  -999.250000 9.8750000000 100.26912689 87.063697815 2.9419999123 2.9428999424
 676.85717773  -999.250000 9.8750000000 95.300552368 92.885200500 2.9386000633 2.9381000996
 677.00958252  -999.250000 9.8750000000 86.509757996 90.885803223 2.9295001030 2.9319999218
 677.16192627  -999.250000 9.8750000000 77.004661560 95.733901978 2.9065999985 2.8993999958
 677.31433105  -999.250000 9.8750000000 73.936180115 97.512199402 2.8798000813 2.8763999939
 677.46673584  -999.250000 9.8750000000 74.167465210 87.822799683 2.8584001064 2.8691999912
 677.61914063  -999.250000 9.8750000000 78.387413025 85.288497925 2.8455998898 2.8408000469
 677.77154541  -999.250000 9.8750000000 81.887710571 88.105903625 2.8296000957 2.8343999386
 677.92395020  -999.250000 9.8750000000 82.458106995 88.689903259 2.8313000202 2.8345999718
 678.07635498  -999.250000 9.8750000000 81.205558777 90.483802795 2.8392999172 2.8397998810
 678.22875977  -999.250000 9.8750000000 77.313240051 89.906799316 2.8426001072 2.8445999622
 678.38116455  -999.250000 9.8750000000 70.977607727 92.920196533 2.8336000443 2.8405001163
 678.53356934  -999.250000 9.8750000000 65.523506165 92.567703247 2.8152999878 2.8169000149
 678.68597412  -999.250000 9.8750000000 66.572090149 86.081901550 2.7988998890 2.7967000008
 678.83837891  -999.250000 9.8750000000 75.441329956 89.857696533 2.7934000492 2.7915999889
 678.99078369  -999.250000 9.8750000000 90.192588806 91.273101807 2.7862000465 2.7855000496
 679.14318848  -999.250000 9.8750000000 96.014404297 89.234596252 2.7734000683 2.7781000137
 679.29553223  -999.250000 9.8750000000 100.63704681 90.247901917 2.7641999722 2.7702000141
 679.44793701  -999.250000 9.8750000000 97.312385559 96.813201904 2.7669999599 2.7632999420
 679.60034180  -999.250000 9.8750000000 92.832000732 101.43440247 2.7692000866 2.7618999481
 679.75274658  -999.250000 9.8750000000 92.048873901 94.768997192 2.7679998875 2.7632000446
 679.90515137  -999.250000 9.8750000000 97.722137451 89.105300903 2.7797000408 2.7683999538
 680.05755615  -999.250000 9.8750000000 98.235359192 87.549797058 2.7790999413 2.7809998989
 680.20996094  -999.250000 9.8750000000 96.881118774 88.354896545 2.7695000172 2.7734000683
 680.36236572  -999.250000 9.8750000000 99.386131287 89.952003479 2.7474000454 2.7492001057
 680.51477051  -999.250000 9.8750000000 103.58918762 86.376403809 2.7174999714 2.7149999142
 680.66717529  -999.250000 9.8750000000 102.06098175 87.983200073 2.6926000118 2.7061998844
 680.81958008  -999.250000 9.8750000000 87.338905334 94.536003113 2.6698000431 2.6565999985
 680.97198486  -999.250000 9.8750000000 72.650566101 96.570701599 2.6340999603 2.6366999149
 681.12438965  -999.250000 9.8750000000 65.404144287 89.201599121 2.6203999519 2.6098999977
 681.27679443  -999.250000 9.8750000000 61.897640228 92.260902405 2.5941998959 2.5999999046
 681.42913818  -999.250000 9.8750000000 58.360561371 86.149101257 2.5940001011 2.5903000832
 681.58154297  -999.250000 9.8750000000 53.382545471 82.783798218 2.5857000351 2.5875999928
 681.73394775  -999.250000 9.8750000000 55.565288544 92.009498596 2.5831000805 2.5813000202
 681.88635254  -999.250000 9.8750000000 74.411750793 92.930198669 2.5764999390 2.5748000145
 682.03875732  -999.250000 9.8750000000 104.58464813 90.908203125 2.5810000896 2.5785999298
 682.19116211  -999.250000 9.8750000000 119.78412628 91.872497559 2.5811998844 2.5861999989
 682.34356689  -999.250000 9.8750000000 119.51313019 90.388603210 2.5764999390 2.5857999325
 682.49597168  -999.250000 9.8750000000 121.07743835 96.544097900 2.5683000088 2.5799999237
 682.64837646  -999.250000 9.8750000000 127.39631653 94.467102051 2.5576000214 2.5715000629
 682.80078125  -999.250000 9.8750000000 129.86416626 91.349800110 2.5485999584 2.5562000275
 682.95318604  -999.250000 9.8750000000 123.69849396 90.374000549 2.5271000862 2.5408000946
 683.10559082  -999.250000 9.8750000000 120.72966003 90.327301025 2.5013000965 2.5109999180
 683.25799561  -999.250000 9.8750000000 107.49507904 88.269699097 2.4704999924 2.4832999706
 683.41033936  -999.250000 9.8750000000 88.004920959 87.227600098 2.4626998901 2.4621000290
 683.56274414  -999.250000 9.8750000000 78.803482056 86.992996216 2.4793000221 2.4672999382
 683.71514893  -999.250000 9.8750000000 72.290687561 87.010200500 2.4930999279 2.4844000340
 683.86755371  -999.250000 9.8750000000 67.345146179 89.627799988 2.4969999790 2.4899001122
 684.01995850  -999.250000 9.8750000000 68.837928772 85.431999207 2.5097000599 2.5069000721
 684.17236328  -999.250000 9.8750000000 71.430442810 93.533897400 2.5269000530 2.5318000317
 684.32476807  -999.250000 9.8750000000 73.339897156 89.946098328 2.5395998955 2.5383000374
 684.47717285  -999.250000 9.8750000000 79.587272644 91.461502075 2.5369000435 2.5367000103
 684.62957764  -999.250000 9.8750000000 87.339241028 88.056900024 2.5304999352 2.5313999653
 684.78198242  -999.250000 9.8750000000 94.600067139 92.001502991 2.5427000523 2.5515000820
 684.93438721  -999.250000 9.8750000000 104.98786926 91.285202026 2.5511000156 2.5580999851
 685.08679199  -999.250000 9.8750000000 112.21324921 98.106796265 2.5578999519 2.5666000843
 685.23919678  -999.250000 9.8750000000 112.87860870 95.826202393 2.5606000423 2.5657999516
 685.39160156  -999.250000 9.8750000000 116.39927673 89.332397461 2.5480000973 2.5441999435
 685.54394531  -999.250000 9.8750000000 118.91470337 88.397499084 2.5039999485 2.5002999306
 685.69635010  -999.250000 9.8750000000 117.84351349 82.434303284 2.4567999840 2.4579000473
 685.84875488  -999.250000 9.8750000000 108.52230835 87.549598694 2.4223001003 2.4200000763
 686.00115967  -999.250000 9.8750000000 110.68897247 84.150100708 2.4070000648 2.4003000259
 686.15356445  -999.250000 9.8750000000 110.47473145 94.850097656 2.3947999477 2.3889000416
 686.30596924  -999.250000 9.8750000000 104.73261261 88.474296570 2.3789000511 2.3729000092
 686.45837402  -999.250000 9.8750000000 103.43963623 90.284698486 2.3698000908 2.3705999851
 686.61077881  -999.250000 9.8750000000 98.473426819 86.065101624 2.3691000938 2.3733999729
 686.76318359  -999.250000 9.8750000000 84.836288452 85.968597412 2.3759999275 2.3743999004
 686.91558838  -999.250000 9.8750000000 77.560043335 90.593803406 2.3673000336 2.3620998859
 687.06799316  -999.250000 9.8750000000 79.696846008 90.970100403 2.3571999073 2.3527998924
 687.22039795  -999.250000 9.8750000000 85.637794495 91.191497803 2.3566999435 2.3703000546
 687.37280273  -999.250000 9.8750000000 97.007545471 93.228996277 2.3724000454 2.3770000935
 687.52514648  -999.250000 9.8750000000 99.624343872 93.540702820 2.4040999413 2.3805999756
 687.67755127  -999.250000 9.8750000000 94.221458435 90.295303345 2.4010999203 2.4014000893
 687.82995605  -999.250000 9.8750000000 88.787406921 85.001296997 2.4156999588 2.4254000187
 687.98236084  -999.250000 9.8750000000 83.182418823 86.436500549 2.4254000187 2.4314000607
 688.13476563  -999.250000 9.8750000000 76.699478149 91.974899292 2.4110000134 2.3970000744
 688.28717041  -999.250000 9.8750000000 74.933723450 89.995796204 2.3789000511 2.3431000710
 688.43957520  -999.250000 9.8750000000 78.460960388 91.927696228 2.3308999538 2.3199000359
 688.59197998  -999.250000 9.8750000000 89.326774597 86.987396240 2.3213999271 2.3099999428
 688.74438477  -999.250000 9.8750000000 107.68536377 80.221702576 2.3250000477 2.3064000607
 688.89678955  -999.250000 9.8750000000 103.64435577 86.748199463 2.3220000267 2.3071000576
