# LAS format log file from PETREL
# Project units are specified as depth units
#==================================================================
~Version information
VERS.   2.0:
WRAP.   NO:
#==================================================================
~Well
STRT .m      2233.7756348 :
STOP .m      5007.4555664 :
STEP .m     0.00000000 :
NULL .        -999.250000 :
COMP.           : COMPANY
WELL.  34/3-3 A   : WELL
FLD.            : FIELD
LOC.            : LOCATION
SRVC.           : SERVICE COMPANY
DATE.  2018-09-11 14:48:49   : Log Export Date {yyyy-MM-dd HH:mm:ss}
PROV.           : PROVINCE
UWI.   34/3-3 A   : UNIQUE WELL ID
API.            : API NUMBER
#==================================================================
~Curve
DEPT .m                   : DEPTH
Lithology_geolink ._      : Lithology_geolink
CALI .in                  : CALI
BS .in                    : BS
ROP .m/h                  : ROP
DRHO .g/cm3               : DRHO
NPHI .m3/m3               : NPHI
RHOB .g/cm3               : RHOB
PEF .b/e                  : PEF
GR .gAPI                  : GR
DTC .us/ft                : DTC
DTS .us/ft                : DTS
RDEP .ohm.m               : RDEP
RMED .ohm.m               : RMED
~Parameter
#==================================================================
~Ascii
# ...
 4433.2124023  -999.250000 12.407199860 12.250000954 70.084640503 -0.013200000 0.2827888131 2.5278000832 7.0510997772 96.874603271 92.151824951 198.33139038 2.2713000774 2.1761000156
 4433.3647461  -999.250000 12.441799164 12.250000954 73.418304443 -0.019700000 0.2857903838 2.5534000397 5.3284997940 100.21209717 92.177124023 197.58947754 2.3053998947 2.2077000141
 4433.5170898  -999.250000 12.483100891 12.250000954 70.774604797 -0.012100000 0.2811150551 2.5699999332 4.7802000046 99.630599976 91.393615723 197.86280823 2.3571000099 2.2416000366
 4433.6694336  -999.250000 12.294799805 12.250000954 63.764106750 0.0060999999 0.2868814170 2.5766999722 4.5227999687 96.524101257 90.840766907 197.69644165 2.5431001186 2.3589000702
 4433.8217773  -999.250000 12.267799377 12.250000954 58.340225220 -0.001600000 0.2727455199 2.5576000214 4.3337998390 95.878997803 90.859741211 198.63658142 3.0555000305 2.6291999817
 4433.9741211  -999.250000 12.309499741 12.250000954 59.230972290 -0.004000000 0.2645262778 2.5483000278 4.1199002266 96.149803162 90.951110840 198.73249817 2.8594999313 2.5499999523
 4434.1269531  -999.250000 12.277299881 12.250000954 57.298229218 -0.005800000 0.2633999884 2.5337998867 4.0225000381 98.989402771 90.131698608 198.84519958 2.6470000744 2.4525001049
 4434.2792969  -999.250000 12.300399780 12.250000954 53.813644409 0.0002000000 0.2646000087 2.5543999672 3.9344000816 99.311996460 89.655197144 199.16900635 2.7551000118 2.5283999443
 4434.4316406  -999.250000 12.293699265 12.250000954 56.936679840 -0.000100000 0.2775000036 2.5552000999 3.9456999302 95.978500366 89.188507080 199.13180542 3.0023999214 2.6066999435
 4434.5839844  -999.250000 12.293398857 12.250000954 58.967521667 -0.0000000000 0.2766028643 2.5683999062 3.8529999256 95.823196411 90.218490601 197.57289124 2.8308000565 2.5306999683
 4434.7363281  -999.250000 12.288700104 12.250000954 51.846130371 -0.009500000 0.2764006555 2.5518000126 4.0735998154 94.341598511 90.936103821 196.96423340 2.5148000717 2.3074998856
 4434.8886719  -999.250000 12.309499741 12.250000954 56.352687836 -0.014500000 0.2717150450 2.5524001122 4.1767001152 93.254402161 92.132659912 195.90589905 2.2667999268 2.1645998955
 4435.0410156  -999.250000 12.330499649 12.250000954 54.479660034 -0.016300000 0.2668156922 2.5367999077 4.3309998512 97.543701172 91.725425720 197.50105286 2.1131999493 2.0422999859
 4435.1933594  -999.250000 12.326999664 12.250000954 62.711936951 -0.003900000 0.2826490402 2.5673000813 4.2216000557 102.11979675 91.843223572 197.50520325 2.1726000309 2.0818998814
 4435.3461914  -999.250000 12.293398857 12.250000954 62.029529572 0.0109999999 0.2833000124 2.6159999371 4.7635998726 103.93589783 92.439201355 198.84809875 2.1777000427 2.0834999084
 4435.4985352  -999.250000 12.276800156 12.250000954 65.354988098 0.0006000000 0.2824000120 2.6240999699 4.8189997673 104.21070099 90.768501282 199.71290588 2.3640000820 2.1807000637
 4435.6508789  -999.250000 12.256899834 12.250000954 57.985233307 -0.006400000 0.2725000083 2.6138000488 4.5309000015 103.32659912 91.476898193 197.70320129 2.3910000324 2.2523999214
 4435.8032227  -999.250000 12.338399887 12.250000954 60.747375488 -0.011600000 0.2752000093 2.5645000935 3.9635000229 101.31929779 92.231201172 195.26669312 2.3847999573 2.2604000568
 4435.9555664  -999.250000 12.395600319 12.250000954 59.671585083 -0.004400000 0.2765955329 2.5557999611 3.9553999901 100.01689911 92.002334595 197.45339966 2.3936998844 2.3062999249
 4436.1079102  -999.250000 12.488400459 12.250000954 60.615810394 -0.007700000 0.2892592847 2.5309000015 4.2042999268 100.10060120 90.392982483 198.64379883 2.8050999641 2.5513000488
 4436.2602539  -999.250000 12.504099846 12.250000954 67.400917053 -0.005200000 0.2866086364 2.5364999771 4.3085999489 100.36340332 89.557670593 198.69485474 2.8027999401 2.5376000404
 4436.4125977  -999.250000 12.541999817 12.250000954 66.487205505 -0.007500000 0.2781272531 2.5299000740 4.1897997856 100.36340332 90.057685852 197.67796326 2.8127000332 2.5427999496
 4436.5649414  -999.250000 12.487999916 12.250000954 67.731300354 -0.007000000 0.2675339878 2.5409998894 4.2224998474 101.29540253 90.725059509 197.65873718 2.7743999958 2.5320000648
 4436.7177734  -999.250000 12.423600197 12.250000954 65.157806396 -0.014400000 0.2556000054 2.5355999470 4.2733001709 102.20349884 91.000503540 197.23741150 2.5978999138 2.4079000950
 4436.8701172  -999.250000 12.407899857 12.250000954 72.854988098 -0.012500000 0.2601000071 2.5213000774 4.5732002258 99.407600403 91.595596313 197.25650024 2.6287000179 2.3817000389
 4437.0224609  -999.250000 12.420399666 12.250000954 65.996391296 -0.012800000 0.2612000108 2.5011000633 4.4204998016 96.731201172 91.477500916 196.99948120 2.5671999454 2.3533000946
 4437.1748047  -999.250000 12.479300499 12.250000954 77.443565369 -0.006400000 0.2790428102 2.5000000000 4.3558001518 98.738502502 90.505622864 198.01106262 2.5148000717 2.3175001144
 4437.3271484  -999.250000 12.459300041 12.250000954 73.665687561 -0.002300000 0.2778041661 2.5239999294 4.2692999840 102.96810150 91.539657593 197.46995544 2.6572000980 2.3998999596
 4437.4794922  -999.250000 12.547599792 12.250000954 79.477035522 -0.006500000 0.2776006460 2.5081999302 4.3783998489 107.60399628 93.174255371 198.64451599 2.4700999260 2.2932999134
 4437.6318359  -999.250000 12.484299660 12.250000954 76.844818115 -0.003500000 0.2717189193 2.5255000591 4.2937002182 108.66130066 93.087295532 200.36787415 2.3368999958 2.2211999893
 4437.7841797  -999.250000 12.515399933 12.250000954 81.299865723 -0.006000000 0.2734942138 2.5376999378 4.3685002327 105.72810364 91.713218689 201.25445557 2.2953999043 2.1828999519
 4437.9365234  -999.250000 12.461400032 12.250000954 69.844161987 -0.008000000 0.2692137659 2.5625000000 4.2101998329 102.35279846 90.597969055 200.62402344 2.2871000767 2.1695001125
 4438.0893555  -999.250000 12.450201035 12.250000954 75.098754883 -0.011700000 0.2790000141 2.5469999313 4.1876997948 98.415901184 91.309799194 199.25830078 2.3189001083 2.1763999462
 4438.2416992  -999.250000 12.521699905 12.250000954 71.704071045 -0.010800000 0.2754000127 2.5348999500 3.9791998863 94.755798340 90.873588562 199.15660095 2.3420000076 2.1754999161
 4438.3940430  -999.250000 12.482600212 12.250000954 74.671585083 -0.004500000 0.2845000029 2.5427000523 3.9568998814 95.556396484 92.083396912 199.46890259 2.2959001064 2.1779000759
 4438.5463867  -999.250000 12.508299828 12.250000954 73.623031616 -0.001000000 0.2762265205 2.5464999676 4.1409001350 101.16799927 92.969764709 199.06660461 2.4014000893 2.2560000420
 4438.6987305  -999.250000 12.522000313 12.250000954 75.264762878 -0.005400000 0.2747047842 2.5427999496 4.2775998116 105.42150116 92.555541992 200.33590698 2.4809000492 2.3055000305
 4438.8510742  -999.250000 12.513999939 12.250000954 70.503280640 -0.010800000 0.2752980590 2.5329999924 4.5114998817 106.48079681 93.003555298 201.12846375 2.5106999874 2.3164999485
 4439.0034180  -999.250000 12.570699692 12.250000954 73.118110657 -0.016500000 0.2854672968 2.5237998962 4.4770998955 103.63240051 93.694190979 201.52174377 2.3831999302 2.2490999699
 4439.1557617  -999.250000 12.467699051 12.250000954 79.938980103 -0.013700000 0.2892878056 2.5174002647 4.3013000488 99.242698669 92.530845642 199.01206970 2.3231000900 2.1858000755
 4439.3085938  -999.250000 12.449900627 12.250000954 84.203086853 -0.005800000 0.2815000117 2.5213999748 4.3864998817 99.498397827 91.390304565 200.25959778 2.1849000454 2.1117999554
 4439.4609375  -999.250000 12.453200340 12.250000954 95.437660217 -0.004200000 0.2757000029 2.5415000916 4.2719998360 101.02059937 90.635398865 200.33059692 2.1849000454 2.1117999554
 4439.6132813  -999.250000 12.515099525 12.250000954 95.849403381 -0.003300000 0.2761999965 2.5645000935 4.3014998436 99.264198303 90.970298767 199.38360596 2.2948000431 2.1508998871
 4439.7656250  -999.250000 12.441100121 12.250000954 121.34284210 -0.009400000 0.2763999999 2.5585000515 3.9958000183 97.316703796 91.049598694 200.45339966 2.3575999737 2.1939001083
