# LAS format log file from PETREL
# Project units are specified as depth units
#==================================================================
~Version information
VERS.   2.0:
WRAP.   NO:
#==================================================================
~Well
STRT .m      437.13198853 :
STOP .m      2196.1328125 :
STEP .m     0.00000000 :
NULL .        -999.250000 :
COMP.           : COMPANY
WELL.  34/3-1 S   : WELL
FLD.            : FIELD
LOC.            : LOCATION
SRVC.           : SERVICE COMPANY
DATE.  2018-09-11 14:48:49   : Log Export Date {yyyy-MM-dd HH:mm:ss}
PROV.           : PROVINCE
UWI.   34/3-1 S   : UNIQUE WELL ID
API.            : API NUMBER
#==================================================================
~Curve
DEPT .m                   : DEPTH
Lithology_geolink ._      : Lithology_geolink
BS .in                    : BS
ROP .m/h                  : ROP
GR .gAPI                  : GR
RDEP .ohm.m               : RDEP
RMED .ohm.m               : RMED
~Parameter
#==================================================================
~Ascii
# ...
 1723.2355957  -999.250000 17.500000000 158.86875916 65.368598938 0.9987000227 0.7930999994
 1723.3880615  -999.250000 17.500000000 158.86875916 65.368598938 0.9987000227 0.7867000103
 1723.5404053  -999.250000 17.500000000 158.86875916 65.368598938 0.9987000227 0.7803999782
 1723.6928711  -999.250000 17.500000000 204.20964050 67.974601746 0.9987000227 0.7803999782
 1723.8452148  -999.250000 17.500000000 204.20964050 70.580497742 0.9987000227 0.7526999712
 1723.9976807  -999.250000 17.500000000 204.20964050 70.580497742 0.9987000227 0.7526999712
 1724.1500244  -999.250000 17.500000000 204.20964050 66.237297058  -999.250000  -999.250000
 1724.3024902  -999.250000 17.500000000 204.20964050 61.894100189  -999.250000  -999.250000
 1724.4548340  -999.250000 17.500000000 204.20964050 61.894100189  -999.250000  -999.250000
 1724.6072998  -999.250000 17.500000000 203.01411438 64.673698425  -999.250000  -999.250000
 1724.7596436  -999.250000 17.500000000 203.01411438 67.453399658  -999.250000  -999.250000
 1724.9119873  -999.250000 17.500000000 203.01411438 70.233001709  -999.250000  -999.250000
 1725.0644531  -999.250000 17.500000000 203.01411438 73.012702942  -999.250000  -999.250000
 1725.2167969  -999.250000 17.500000000 203.01411438 75.792297363  -999.250000  -999.250000
 1725.3692627  -999.250000 17.500000000 203.01411438 74.860900879  -999.250000  -999.250000
 1725.5216064  -999.250000 17.500000000 203.01411438 72.317802429  -999.250000  -999.250000
 1725.6740723  -999.250000 17.500000000 178.90846252 79.321899414  -999.250000  -999.250000
 1725.8264160  -999.250000 17.500000000 178.90846252 81.061401367  -999.250000  -999.250000
 1725.9788818  -999.250000 17.500000000 178.90846252 82.324897766  -999.250000  -999.250000
 1726.1312256  -999.250000 17.500000000 178.90846252 80.269699097  -999.250000  -999.250000
 1726.2836914  -999.250000 17.500000000 178.90846252 70.580497742 1.0353000164 0.8386999965
 1726.4360352  -999.250000 17.500000000 178.90846252 71.815803528 1.0353000164 0.8386999965
 1726.5885010  -999.250000 17.500000000 215.49507141 76.294296265 1.0317000151 0.8357999921
 1726.7408447  -999.250000 17.500000000 215.49507141  -999.250000 1.0279999971 0.8327999711
 1726.8931885  -999.250000 17.500000000 215.49507141  -999.250000 1.0243999958 0.8298000097
 1727.0456543  -999.250000 17.500000000 215.49507141  -999.250000 1.0206999779 0.8267999887
 1727.1979980  -999.250000 17.500000000 215.49507141  -999.250000 1.0169999599 0.8238999844
 1727.3504639  -999.250000 17.500000000 215.49507141  -999.250000 1.0133999586 0.8209000230
 1727.5028076  -999.250000 17.500000000 215.49507141  -999.250000 1.0096999407 0.8179000020
 1727.6552734  -999.250000 17.500000000 168.21456909  -999.250000 1.0060000420 0.8149999976
 1727.8076172  -999.250000 17.500000000 168.21456909  -999.250000 1.0024000406 0.8119999766
 1727.9600830  -999.250000 17.500000000 168.21456909  -999.250000 0.9987000227 0.8090000153
 1728.1124268  -999.250000 17.500000000 168.21456909  -999.250000 0.9987000227 0.8090000153
 1728.2648926  -999.250000 17.500000000 168.21456909  -999.250000 0.9987000227 0.7994999886
 1728.4172363  -999.250000 17.500000000 168.21456909  -999.250000 0.9987000227 0.7899000049
 1728.5697021  -999.250000 17.500000000 83.864830017  -999.250000 0.9987000227 0.7803999782
 1728.7220459  -999.250000 17.500000000 83.864830017  -999.250000 0.9987000227 0.7803999782
 1728.8743896  -999.250000 17.500000000 83.864830017  -999.250000 0.9987000227 0.7803999782
 1729.0268555  -999.250000 17.500000000 83.864830017  -999.250000 0.9987000227 0.7803999782
 1729.1791992  -999.250000 17.500000000 83.864830017  -999.250000 0.9987000227 0.7803999782
 1729.3316650  -999.250000 17.500000000 83.864830017  -999.250000 0.9987000227 0.7803999782
 1729.4840088  -999.250000 17.500000000 83.864830017  -999.250000 0.9987000227 0.7803999782
 1729.6364746  -999.250000 17.500000000 230.43898010  -999.250000 0.9986777306 0.7803825140
 1729.7888184  -999.250000 17.500000000 230.43898010  -999.250000 0.9708939791 0.7585952878
 1729.9412842  -999.250000 17.500000000 230.43898010  -999.250000 0.9634283185 0.7527221441
 1730.0936279  -999.250000 17.500000000 230.43898010  -999.250000 0.9987000227 0.7803999782
 1730.2460938  -999.250000 17.500000000 230.43898010 61.894100189 0.9986435175 0.7803556323
 1730.3984375  -999.250000 17.500000000 230.43898010 61.894100189 0.9634000063 0.7526999712
 1730.5509033  -999.250000 17.500000000 187.53904724 67.684997559 0.9634000063 0.7526999712
 1730.7032471  -999.250000 17.500000000 187.53904724 73.475997925 0.9634000063 0.7526999712
 1730.8557129  -999.250000 17.500000000 187.53904724 79.266899109 0.9634371400 0.7527291179
 1731.0080566  -999.250000 17.500000000 187.53904724 79.266899109 0.9866096973 0.7709076405
 1731.1604004  -999.250000 17.500000000 187.53904724 82.741500854 0.9987000227 0.7803999782
 1731.3128662  -999.250000 17.500000000 187.53904724 86.216102600 0.9987000227 0.7803999782
 1731.4652100  -999.250000 17.500000000 187.53904724 86.216102600 0.9987000227 0.7803999782
 1731.6176758  -999.250000 17.500000000 189.79626465 86.216102600 0.9987000227 0.7804228663
 1731.7700195  -999.250000 17.500000000 189.79626465 85.637001038 0.9987165332 0.8090133667
 1731.9224854  -999.250000 17.500000000 189.79626465 85.057899475 1.0193186998 0.8257104158
 1732.0748291  -999.250000 17.500000000 189.79626465 84.478797913 1.0427246094 0.8386999965
 1732.2272949  -999.250000 17.500000000 189.79626465 84.478797913 1.0733000040 0.8386999965
 1732.3796387  -999.250000 17.500000000 189.79626465 84.478797913 1.0733000040 0.8386828303
 1732.5321045  -999.250000 17.500000000 189.79626465 77.529602051 1.0732799768 0.8172941208
 1732.6844482  -999.250000 17.500000000 220.85694885 78.991996765 1.0607808828 0.8136079311
 1732.8369141  -999.250000 17.500000000 220.85694885 82.601898193 1.0369971991 0.8234767318
 1732.9892578  -999.250000 17.500000000 220.85694885 77.529602051 1.0353000164 0.8090063334
 1733.1416016  -999.250000 17.500000000 220.85694885 77.529602051 1.0353000164 0.8169109225
 1733.2940674  -999.250000 17.500000000 220.85694885 70.580497742 1.0353000164 0.8305065632
 1733.4464111  -999.250000 17.500000000 220.85694885 70.580497742 1.0353000164 0.8386999965
 1733.5988770  -999.250000 17.500000000 324.62500000 68.843200684 1.0353000164 0.8386999965
 1733.7512207  -999.250000 17.500000000 324.62500000 68.843200684 1.0353000164 0.8386999965
 1733.9036865  -999.250000 17.500000000 324.62500000 63.631401062 1.0353000164 0.8386979103
 1734.0560303  -999.250000 17.500000000 324.62500000 50.195899963 1.0353000164 0.8360782862
 1734.2084961  -999.250000 17.500000000 324.62500000 44.521198273 1.0353000164 0.8090000153
 1734.3608398  -999.250000 17.500000000 324.62500000 61.894100189 1.0353000164 0.8090000153
 1734.5133057  -999.250000 17.500000000 324.62500000 61.894100189 1.0353000164 0.8090000153
 1734.6656494  -999.250000 17.500000000 129.92355347 67.528396606 1.0353000164 0.8090000153
 1734.8181152  -999.250000 17.500000000 129.92355347 64.513702393 1.0353000164 0.8090000153
 1734.9704590  -999.250000 17.500000000 129.92355347 81.441703796 1.0353000164 0.8090000153
 1735.1228027  -999.250000 17.500000000 129.92355347 86.779899597 1.0353000164 0.8090000153
 1735.2752686  -999.250000 17.500000000 129.92355347 87.953300476 1.0352907181 0.8089927435
 1735.4276123  -999.250000 17.500000000 129.92355347 80.987297058 1.0236799717 0.7998843789
 1735.5800781  -999.250000 17.500000000 114.60400391 82.442199707 0.9987000227 0.7803809643
 1735.7324219  -999.250000 17.500000000 114.60400391 80.693397522 0.9987000227 0.7566967607
 1735.8848877  -999.250000 17.500000000 114.60400391 74.566497803 0.9986906648 0.7526929379
 1736.0372314  -999.250000 17.500000000 114.60400391 78.390296936 0.9869905114 0.7438928485
 1736.1896973  -999.250000 17.500000000 114.60400391 79.607803345 0.9751905203 0.7349928617
 1736.3420410  -999.250000 17.500000000 114.60400391 77.989303589 0.9634000063 0.7261000276
