# LAS format log file from PETREL
# Project units are specified as depth units
#==================================================================
~Version information
VERS.   2.0:
WRAP.   NO:
#==================================================================
~Well
STRT .m      3771.1865234 :
STOP .m      4146.8525391 :
STEP .m     0.00000000 :
NULL .        -999.250000 :
COMP.           : COMPANY
WELL.  34/3-1 A   : WELL
FLD.            : FIELD
LOC.            : LOCATION
SRVC.           : SERVICE COMPANY
DATE.  2018-09-11 14:48:49   : Log Export Date {yyyy-MM-dd HH:mm:ss}
PROV.           : PROVINCE
UWI.   34/3-1 A   : UNIQUE WELL ID
API.            : API NUMBER
#==================================================================
~Curve
DEPT .m                   : DEPTH
Lithology_geolink ._      : Lithology_geolink
CALI .in                  : CALI
BS .in                    : BS
ROP .m/h                  : ROP
DRHO .g/cm3               : DRHO
NPHI .m3/m3               : NPHI
RHOB .g/cm3               : RHOB
PEF .b/e                  : PEF
GR .gAPI                  : GR
DTC .us/ft                : DTC
DTS .us/ft                : DTS
RDEP .ohm.m               : RDEP
RMIC .ohm.m               : RMIC
RMED .ohm.m               : RMED
~Parameter
#==================================================================
~Ascii
# ...
 4089.8549805 6.0000000000 8.6993999481 8.5000000000 57.175849915 -0.005900000 0.2526000142 2.5501000881 8.6279001236 104.89600372 76.899200439 138.89309692 4.8481001854  -999.250000 4.0543999672
 4090.0075684 6.0000000000 8.7019996643 8.5000000000 62.480316162 -0.006200000 0.2536000013 2.5445001125 8.5648002625 102.20330048 78.055801392 140.27969360 4.8220000267  -999.250000 3.9625999928
 4090.1599121 6.0000000000 8.7080001831 8.5000000000 75.401245117 -0.002300000 0.2542999983 2.5422999859 8.0749998093 100.57399750 78.789901733 141.56680298 4.7729997635  -999.250000 3.8954000473
 4090.3122559 6.0000000000 8.7288999557 8.5000000000 76.221458435 -0.003600000 0.2556999922 2.5401999950 8.2826995850 104.17079926 78.369796753 143.18600464 4.7480001450  -999.250000 3.8313000202
 4090.4645996 6.0000000000 8.6899995804 8.5000000000 65.917984009 -0.008700000 0.2581999898 2.5401999950 8.0368995667 102.64720154 76.877700806 141.41510010 4.7427000999  -999.250000 3.8043999672
 4090.6169434 6.0000000000 8.6279001236 8.5000000000 54.499015808 -0.011500000 0.2560000122 2.5374999046 8.0352001190 102.31009674 78.420799255 139.15559387 4.8420000076  -999.250000 3.8234000206
 4090.7695313 6.0000000000 8.6279001236 8.5000000000 48.931102753 -0.006200000 0.2551999986 2.5415999889 8.6308002472 103.52459717 79.944999695 138.42320251 4.7315001488  -999.250000 3.9033999443
 4090.9218750 6.0000000000 8.7149000168 8.5000000000 52.089565277 -0.005000000 0.2506999969 2.5364000797 8.2108001709 105.34580231 80.167297363 137.46400452 4.8421001434  -999.250000 3.9533998966
 4091.0742188 6.0000000000 8.7149000168 8.5000000000 56.412071228 -0.002800000 0.2529999912 2.5364999771 8.2798995972 102.68379974 80.365196228 138.20640564 4.8937997818  -999.250000 3.9997999668
 4091.2265625 6.0000000000 8.7189998627 8.5000000000 57.403873444 -0.001200000 0.2522999942 2.5431001186 8.2388000488 107.51869965 79.982208252 139.46429443 4.8359999657  -999.250000 4.0079002380
 4091.3791504 6.0000000000 8.7231998444 8.5000000000 63.684059143 -0.004700000 0.2614000142 2.5469000340 7.9482998848 109.76210022 79.311203003 141.05909729 4.8206000328  -999.250000 4.0194001198
 4091.5314941 6.0000000000 8.7273998260 8.5000000000 70.943244934 -0.005400000 0.2624999881 2.5459001064 7.8512001038 102.84230042 81.030998230 140.40100098 4.8562998772  -999.250000 4.0173997879
 4091.6838379 5.0000000000 8.7273998260 8.5000000000 73.942916870 -0.010200000 0.2696000040 2.5494000912 7.9520001411 96.225601196 86.359504700 139.72749329 4.8791999817  -999.250000 4.0356998444
 4091.8361816 5.0000000000 8.7714996338 8.5000000000 69.524932861 -0.007300000 0.2712999880 2.5555999279 8.3344001770 98.327003479 89.502502441 139.34660339 4.8727998734  -999.250000 4.0511999130
 4091.9887695 5.0000000000 8.7686996460 8.5000000000 62.382213593 -0.008400000 0.2721000016 2.5490000248 7.8310999870 108.21839905 84.161499023 141.83169556 4.9148998260  -999.250000 4.0878000259
 4092.1411133 5.0000000000 8.7369003296 8.5000000000 56.978019714 -0.002500000 0.2736000121 2.5580000877 8.1325998306 103.05290222 82.019897461 143.16510010 4.9439997673  -999.250000 4.1353001595
 4092.2934570 6.0000000000 8.7341003418 8.5000000000 54.337272644 -0.005000000 0.2709999979 2.5581998825 8.0940999985 106.77400208 80.253303528 143.26719666 4.9885001183  -999.250000 4.1617999077
 4092.4458008 6.0000000000 8.7461004257 8.5000000000 48.109252930 -0.008900000 0.2730000019 2.5566000938 7.9539999962 106.80349731 79.301803589 142.18260193 4.9883999825  -999.250000 4.1742000580
 4092.5981445 6.0000000000 8.7580995560 8.5000000000 46.345146179 -0.009000000 0.2725999951 2.5597000122 7.9127001762 106.04830170 77.796997070 142.84399414 4.9756999016  -999.250000 4.1782999039
 4092.7507324 6.0000000000 8.7898998260 8.5000000000 46.124671936 -0.010200000 0.2743999958 2.5559999943 7.9071002007 109.25370026 73.083000183 142.61199951 4.9512000084  -999.250000 4.1736998558
 4092.9030762 6.0000000000 8.8339004517 8.5000000000 49.970142365 -0.003300000 0.2707000077 2.5611000061 8.0114002228 110.82859802 73.052803040 143.90660095 4.9738998413  -999.250000 4.1607999802
 4093.0554199 6.0000000000 8.7504997253 8.5000000000 56.061351776 -0.009400000 0.2637999952 2.5525000095 7.7418999672 111.52069855 73.256599426 143.89500427 4.9798998833  -999.250000 4.1202998161
 4093.2077637 6.0000000000 8.7119998932 8.5000000000 55.495410919 -0.010400000 0.2648000121 2.5525000095 7.9197998047 110.06839752 73.876502991 143.68069458 4.9388999939  -999.250000 4.0795998573
 4093.3603516 6.0000000000 8.8732995987 8.5000000000 51.840225220 -0.002200000 0.2628000081 2.5525999069 8.2435998917 112.75959778 74.472900391 143.30929565 5.0100002289  -999.250000 4.0496997833
 4093.5126953 6.0000000000 8.8732995987 8.5000000000 40.462928772 -0.004000000 0.2644999921 2.5525000095 8.1181001663 111.85659790 76.575202942 142.87480164 5.0265998840  -999.250000 4.0163002014
 4093.6650391 6.0000000000 8.8402996063 8.5000000000 32.845802307 -0.003000000 0.2662000060 2.5550000668 8.0614995956 114.99819946 77.234901428 142.62649536 5.0564999580  -999.250000 4.0363998413
 4093.8173828 6.0000000000 8.7888002396 8.5000000000 31.738843918 -0.005300000 0.2599999905 2.5652000904 8.1589002609 108.29129791 79.945701599 141.12699890 4.9967999458  -999.250000 4.0058999062
 4093.9699707 6.0000000000 8.6953001022 8.5000000000 37.558399200 -0.010100000 0.2535000145 2.5624001026 8.1953001022 115.02380371 79.338088989 138.11070251 4.8217000961  -999.250000 3.8694000244
 4094.1223145 6.0000000000 8.6229000092 8.5000000000 44.384185791 0.0038999999 0.2529000044 2.5757999420 8.4212999344 113.44680023 77.051498413 133.56359863 4.8853001595  -999.250000 3.8822999001
 4094.2746582 6.0000000000 8.6229000092 8.5000000000 51.378280640 -0.003500000 0.2569999993 2.5613999367 8.3332004547 117.08709717 75.870796204 131.90370178 4.9562997818  -999.250000 3.9656999111
 4094.4270020 7.0000000000 8.9923000336 8.5000000000 55.532482147 -0.006500000 0.2427999973 2.5504999161 8.3690004349 114.08709717 75.547691345 131.53120422 4.9857997894  -999.250000 4.0236001015
 4094.5795898 7.0000000000 9.0149002075 8.5000000000 56.935371399 -0.006900000 0.2372999936 2.5243000984 8.3688001633 116.37640381 75.127197266 129.67849731 4.9478001595  -999.250000 4.0606999397
 4094.7319336 7.0000000000 9.1017999649 8.5000000000 60.045936584 -0.013200000 0.2330999970 2.4907000065 8.2175998688 118.44779968 74.646301270 128.49040222 4.8586001396  -999.250000 4.0784001350
 4094.8842773 7.0000000000 9.1017999649 8.5000000000 59.213581085 -0.001200000 0.2275999933 2.4876999855 8.7171001434 121.39309692 75.162200928 129.62289429 4.7624001503  -999.250000 4.0813999176
 4095.0366211 7.0000000000 9.0221004486 8.5000000000 67.002952576 0.0017000000 0.2298000008 2.4781000614 8.4513998032 113.31510162 75.940589905 130.66189575 4.7270002365  -999.250000 4.0892000198
 4095.1889648 7.0000000000 8.9423999786 8.5000000000 62.850395203 -0.005200000 0.2377000004 2.4477000237 8.1884002686 109.91159821 78.243103027 131.35139465 4.6096000671  -999.250000 4.1325001717
 4095.3415527 6.0000000000 8.9427003860 8.5000000000 53.065944672 -0.001000000 0.2437999994 2.4305000305 8.0409002304 116.09420013 82.800003052 131.83340454 4.3120999336  -999.250000 4.1473999023
 4095.4938965 6.0000000000 8.9442996979 8.5000000000 42.586944580 -0.003000000 0.2461999953 2.4037001133 7.9271001816 103.42919922 80.224296570 132.34970093 4.4945001602  -999.250000 4.1226000786
 4095.6462402 6.0000000000 8.9442996979 8.5000000000 40.779853821 -0.006200000 0.2513999939 2.3914999962 7.8681001663 94.345298767 79.439300537 130.76530457 4.2933998108  -999.250000 4.0496001244
 4095.7985840 6.0000000000 9.0047998428 8.5000000000 41.247047424 -0.010200000 0.2535000145 2.3847000599 7.4746999741 81.119300842 77.186897278 130.41200256 4.1675000191  -999.250000 3.6321001053
 4095.9511719 5.0000000000 8.9401998520 8.5000000000 45.226379395 -0.007700000 0.2515000105 2.3887999058 7.5781998634 74.582702637 77.274902344 130.11759949 3.8673999310  -999.250000 3.2857000828
