# LAS format log file from PETREL
# Project units are specified as depth units
#==================================================================
~Version information
VERS.   2.0:
WRAP.   NO:
#==================================================================
~Well
STRT .m      3771.1865234 :
STOP .m      4146.8525391 :
STEP .m     0.00000000 :
NULL .        -999.250000 :
COMP.           : COMPANY
WELL.  34/3-1 A   : WELL
FLD.            : FIELD
LOC.            : LOCATION
SRVC.           : SERVICE COMPANY
DATE.  2018-09-11 14:48:49   : Log Export Date {yyyy-MM-dd HH:mm:ss}
PROV.           : PROVINCE
UWI.   34/3-1 A   : UNIQUE WELL ID
API.            : API NUMBER
#==================================================================
~Curve
DEPT .m                   : DEPTH
Lithology_geolink ._      : Lithology_geolink
CALI .in                  : CALI
BS .in                    : BS
ROP .m/h                  : ROP
DRHO .g/cm3               : DRHO
NPHI .m3/m3               : NPHI
RHOB .g/cm3               : RHOB
PEF .b/e                  : PEF
GR .gAPI                  : GR
DTC .us/ft                : DTC
DTS .us/ft                : DTS
RDEP .ohm.m               : RDEP
RMIC .ohm.m               : RMIC
RMED .ohm.m               : RMED
~Parameter
#==================================================================
~Ascii
# ...
 4039.8676758 5.0000000000 8.6947002411 8.5000000000 25.258810043 -0.005700960 0.2816993594 2.5104000568 8.9856004715 88.723899841 81.951126099 136.00317383 3.8265233040  -999.250000 3.2820959091
 4040.0202637 5.0000000000 8.6947002411 8.5000000000 24.442590714 -0.004002725 0.2717160285 2.5134999752 9.1035003662 83.983901978 84.165153503 135.28704834 3.8145194054  -999.250000 3.1970355511
 4040.1726074 6.0000000000 8.6892004013 8.5000000000 21.183052063 -0.002003205 0.2637128234 2.5181999207 9.2237997055 92.370903015 82.273643494 135.51033020 3.8301746845  -999.250000 3.1710414886
 4040.3249512 6.0000000000 8.6836996078 8.5000000000 18.663484573 -0.007591026 0.2570107281 2.5209000111 8.5073995590 96.073402405 78.671173096 135.93611145 3.8194174767  -999.250000 3.1744942665
 4040.4772949 6.0000000000 8.6836996078 8.5000000000 17.849723816 -0.005104007 0.2418243587 2.5320000648 8.4246997833 93.283798218 77.770133972 136.38896179 3.8797032833  -999.250000 3.1789927483
 4040.6298828 6.0000000000 8.5475997925 8.5000000000 18.605085373 -0.001006560 0.2357097566 2.5592999458 8.5971002579 90.867103577 77.451713562 136.29225159 3.8769044876  -999.250000 3.1904816628
 4040.7822266 5.0000000000 8.4114999771 8.5000000000 20.423919678 -0.007689263 0.2417902201 2.5697000027 8.6282997131 89.349098206 79.716758728 136.17358398 3.8764007092  -999.250000 3.2313344479
 4040.9345703 5.0000000000 8.4848003387 8.5000000000 22.766586304 -0.005004327 0.2509852350 2.5710999966 8.8283004761 90.056396484 80.077629089 137.24678040 3.8904774189  -999.250000 3.3045823574
 4041.0869141 5.0000000000 8.7908000946 8.5000000000 24.838542938 -0.003402564 0.2584879994 2.5631999969 8.9778003693 86.737998962 81.252716064 138.34564209 3.9467098713  -999.250000 3.3793799877
 4041.2392578 5.0000000000 8.7479000092 8.5000000000 26.823364258 -0.000309920 0.2594968081 2.5631000996 9.2194004059 92.506698608 80.804939270 138.39923096 3.9780995846  -999.250000 3.3964457512
 4041.3918457 5.0000000000 8.7378997803 8.5000000000 29.225812912 -0.004193750 0.2554065585 2.5564999580 8.9444999695 93.396598816 80.787124634 139.01820374 3.9002251625  -999.250000 3.2119960785
 4041.5441895 6.0000000000 8.6773996353 8.5000000000 30.013177872 -0.004799039 0.2442179620 2.5569999218 8.5911998749 92.602203369 80.264228821 138.50721741 3.9306509495  -999.250000 3.1607818604
 4041.6965332 6.0000000000 8.8856000900 8.5000000000 30.423557281 -0.004600320 0.2250307649 2.5987999439 8.7646999359 97.136802673 78.946105957 137.49812317 3.9581558704  -999.250000 3.2327842712
 4041.8488770 6.0000000000 8.9558000565 8.5000000000 30.875844955 -0.003005120 0.1997809559 2.6322999001 8.9271001816 98.196296692 78.777030945 137.18649292 4.0345549583  -999.250000 3.4042499065
 4042.0014648 16.000000000 8.8971996307 8.5000000000 30.818664551 -0.004896955 0.1700475961 2.6333999634 8.9203996658 101.43759918 77.612365723 138.09483337 4.1502146721  -999.250000 3.8509838581
 4042.1538086 16.000000000 8.9411001205 8.5000000000 30.101543427 -0.004999840 0.1615136266 2.6368000507 8.6927003860 99.807899475 76.249679565 138.33261108 4.2764978409  -999.250000 4.2743215561
 4042.3061523 16.000000000 8.8325996399 8.5000000000 30.050275803 -0.002803526 0.1657931209 2.6345999241 8.8962001801 96.428298950 76.346542358 136.57272339 4.4069905281  -999.250000 4.7208843231
 4042.4584961 5.0000000000 8.7552003860 8.5000000000 31.584316254 -0.001105440 0.1752696037 2.6217000484 9.2137002945 97.557502747 76.690101624 137.86923218 4.4636001587  -999.250000 4.8880653381
 4042.6110840 5.0000000000 9.0317001343 8.5000000000 35.323734283 0.0007969551 0.1953677833 2.6173999310 9.2581996918 90.942001343 80.256698608 137.09085083 4.5588002205  -999.250000 5.0348653793
 4042.7634277 5.0000000000 9.0317001343 8.5000000000 38.578117371 -0.002993910 0.2117737085 2.5963997841 9.2094001770 87.567001343 79.154403687 138.70510864 4.5494999886  -999.250000 5.0955033302
 4042.9157715 5.0000000000 9.0642004013 8.5000000000 42.976543427 0.0010934295 0.2432495207 2.5880000591 9.3086996078 81.328697205 78.083801270 139.26989746 4.4756999016  -999.250000 4.7286887169
 4043.0681152 5.0000000000 9.0893001556 8.5000000000 47.270351410 -0.003292949 0.2556801140 2.5748999119 9.1499996185 88.043800354 77.361099243 138.57661438 4.3516001701  -999.250000 4.4194955826
 4043.2204590 5.0000000000 8.8156003952 8.5000000000 54.581539154 0.0013849599 0.2645715177 2.5838999748 9.3219995499 95.053100586 75.885597229 138.25334167 4.3105998039  -999.250000 4.0881619453
 4043.3730469 6.0000000000 8.7623996735 8.5000000000 58.146553040 0.0000022436 0.2646998465 2.5831999779 9.1883001328 94.754096985 75.753196716 136.49072266 4.3246002197  -999.250000 4.0126194954
 4043.5253906 6.0000000000 8.7204999924 8.5000000000 58.862705231 -0.004093430 0.2698916495 2.5769999027 8.6890001297 105.62950134 72.849197388 137.19845581 4.3776998520  -999.250000 3.8597450256
 4043.6777344 6.0000000000 8.7204999924 8.5000000000 59.424629211 -0.003401122 0.2682027221 2.5917999744 8.9142999649 117.17330170 71.618103027 137.21058655 4.2779002190  -999.250000 3.4289908409
 4043.8300781 6.0000000000 8.8016996384 8.5000000000 64.390235901 -0.002403200 0.2703929543 2.5887000561 8.7439002991 114.64409637 71.750701904 139.63322449 4.1887998581  -999.250000 3.5005679131
 4043.9826660 6.0000000000 8.8829002380 8.5000000000 69.408638000 0.0032908653 0.2809830010 2.5954000950 9.1066999435 114.52809906 72.543296814 139.34877014 4.1276998520  -999.250000 3.5162751675
 4044.1350098 6.0000000000 8.8829002380 8.5000000000 71.476028442 0.0050971154 0.2904847562 2.6124000549 9.6609001160 118.54340363 74.690589905 140.03019714 4.1602997780  -999.250000 3.5132050514
 4044.2873535 6.0000000000 8.9040002823 8.5000000000 75.588874817 0.0025041667 0.3006836772 2.6252999306 9.7688999176 118.01509857 77.219497681 138.14053345 4.0809998512  -999.250000 3.4767584801
 4044.4396973 7.0000000000 8.9251003265 8.5000000000 74.269683838 0.0050916802 0.3102692664 2.6419000626 9.5950002670 130.27059937 78.553901672 136.59974670 3.9618999958  -999.250000 3.3644602299
 4044.5922852 7.0000000000 8.9337997437 8.5000000000 64.709892273 0.0004075320 0.3186865151 2.6256999969 9.0053997040 145.69110107 78.654403687 137.83929443 3.7890000343  -999.250000 3.1208903790
 4044.7446289 7.0000000000 8.9778995514 8.5000000000 59.528957367 -0.001796474 0.3222942054 2.6103000641 8.7877998352 146.20109558 77.209602356 139.30685425 3.6247000694  -999.250000 2.8533289433
 4044.8969727 7.0000000000 8.9778995514 8.5000000000 50.652683258 -0.002199359 0.3180068731 2.6070001125 8.7481002808 128.25860596 76.473800659 138.81948853 3.5866000652  -999.250000 2.7704322338
 4045.0493164 7.0000000000 8.8245000839 8.5000000000 45.277309418 -0.000702404 0.3165024221 2.6075997353 8.9583997726 132.00700378 77.949203491 140.21479797 3.5673999786  -999.250000 2.7051045895
 4045.2016602 7.0000000000 8.6710996628 8.5000000000 48.835010529 -0.003889760 0.3129115403 2.6150999069 9.0074996948 133.61160278 77.407997131 140.72019958 3.5030000210  -999.250000 2.6759932041
 4045.3542480 7.0000000000 8.6710996628 8.5000000000 50.675216675 0.0010919871 0.3182913661 2.6238000393 8.7382001877 138.04499817 80.074798584 142.81559753 3.5283999443  -999.250000 2.6874814034
 4045.5065918 7.0000000000 8.7018995285 8.5000000000 49.534973145 0.0007006410 0.3194980621 2.6177000999 8.6807003021 142.50489807 76.260200500 144.26330566 3.4205999374  -999.250000 2.7162537575
 4045.6589355 7.0000000000 8.7327003479 8.5000000000 53.443527222 -0.003293590 0.3250910342 2.6156001091 8.8285999298 147.67070007 76.901702881 146.21159363 3.3887999058  -999.250000 2.7339715958
 4045.8112793 7.0000000000 8.7636003494 8.5000000000 58.111347198 -0.004695520 0.3280903995 2.6175999641 8.9259004593 145.33740234 74.472602844 148.38470459 3.3749001026  -999.250000 2.7300128937
 4045.9638672 7.0000000000 8.7944002151 8.5000000000 54.877590179 -0.003202404 0.3246056139 2.6143000126 8.6979999542 137.46170044 73.749900818 148.38310242 3.3991999626  -999.250000 2.7026438713
