# LAS format log file from PETREL
# Project units are specified as depth units
#==================================================================
~Version information
VERS.   2.0:
WRAP.   NO:
#==================================================================
~Well
STRT .m      3771.1865234 :
STOP .m      4146.8525391 :
STEP .m     0.00000000 :
NULL .        -999.250000 :
COMP.           : COMPANY
WELL.  34/3-1 A   : WELL
FLD.            : FIELD
LOC.            : LOCATION
SRVC.           : SERVICE COMPANY
DATE.  2018-09-11 14:48:49   : Log Export Date {yyyy-MM-dd HH:mm:ss}
PROV.           : PROVINCE
UWI.   34/3-1 A   : UNIQUE WELL ID
API.            : API NUMBER
#==================================================================
~Curve
DEPT .m                   : DEPTH
Lithology_geolink ._      : Lithology_geolink
CALI .in                  : CALI
BS .in                    : BS
ROP .m/h                  : ROP
DRHO .g/cm3               : DRHO
NPHI .m3/m3               : NPHI
RHOB .g/cm3               : RHOB
PEF .b/e                  : PEF
GR .gAPI                  : GR
DTC .us/ft                : DTC
DTS .us/ft                : DTS
RDEP .ohm.m               : RDEP
RMIC .ohm.m               : RMIC
RMED .ohm.m               : RMED
~Parameter
#==================================================================
~Ascii
# ...
 3821.1738281 7.0000000000 8.6693000793 8.5000000000 9.2299861908 -0.006400000 0.3885999918 2.6693000793 10.317500114 119.80249786 83.703193665 172.49821472 2.2348001003  -999.250000 2.0429999828
 3821.3264160 7.0000000000 8.6466999054 8.5000000000 11.641732216 -0.021500001 0.3898999989 2.6465001106 9.8330001831 127.39520264 84.843902588 175.49139404 2.3510999680  -999.250000 2.0782999992
 3821.4787598 7.0000000000 8.6999998093 8.5000000000 15.160760880 -0.000100000 0.3889999986 2.6568999290 9.2335996628 130.64489746 85.205398560 179.42919922 2.3001999855  -999.250000 2.0927000046
 3821.6311035 7.0000000000 8.7244997025 8.5000000000 14.992782593 -0.004400000 0.4036000073 2.6403000355 9.5457000732 125.36049652 85.333511353 177.65809631 2.1868000031  -999.250000 1.9901000261
 3821.7834473 7.0000000000 8.6831998825 8.5000000000 14.258857727 -0.016899999 0.4007999897 2.6247000694 9.0631999969 131.48240662 83.192802429 177.12249756 2.1616001129  -999.250000 1.9041999578
 3821.9360352 7.0000000000 8.6831998825 8.5000000000 14.819553375 -0.010400000 0.3970000148 2.5926001072 7.9453001022 141.75599670 86.832603455 176.16679382 2.1463000774  -999.250000 1.8240000010
 3822.0883789 7.0000000000 8.6937999725 8.5000000000 17.703411102 -0.007100000 0.3993999958 2.5422000885 8.7817001343 151.35409546 87.365898132 170.22018433 2.1140000820  -999.250000 1.7634999752
 3822.2407227 7.0000000000 8.7033996582 8.5000000000 21.795932770 -0.012400000 0.3978999853 2.5441999435 8.6857004166 148.51139832 88.951202393 171.55209351 2.0899999142  -999.250000 1.6943999529
 3822.3930664 7.0000000000 8.7125997543 8.5000000000 22.134185791 -0.012500000 0.3934000134 2.5499000549 8.8457002640 137.07420349 85.713302612 178.30880737 2.0734000206  -999.250000 1.6489000320
 3822.5454102 7.0000000000 8.6042995453 8.5000000000 19.700460434 -0.019099999 0.3883999884 2.6270999908 9.3945999146 128.41900635 85.578399658 180.89639282 2.0039999485  -999.250000 1.6073999405
 3822.6979980 16.000000000 8.6237001419 8.5000000000 16.531496048 -0.022299999 0.3786999881 2.7065999508 10.136300087 121.77919769 86.647796631 181.10868835 1.9289000034  -999.250000 1.5375000238
 3822.8503418 16.000000000 8.7115001678 8.5000000000 14.715550423 -0.017600000 0.3907999992 2.6826000214 9.7173004150 127.31109619 87.658096313 178.71929932 1.9153000116  -999.250000 1.5490000248
 3823.0026855 16.000000000 8.8694000244 8.5000000000 16.723754883 0.0033000000 0.3973000050 2.6027998924 9.1147003174 144.87089539 86.052597046 176.29750061 1.9751000404  -999.250000 1.5871000290
 3823.1550293 16.000000000 8.7860002518 8.5000000000 22.496063232 -0.003700000 0.4061000049 2.5555000305 8.8226995468 142.10960388 84.549201965 174.55920410 1.9878000021  -999.250000 1.5734000206
 3823.3076172 16.000000000 8.7571001053 8.5000000000 28.377294540 -0.005200000 0.4336000085 2.5559000969 8.8025999069 142.48069763 88.440002441 171.36900330 1.9217000008  -999.250000 1.5106999874
 3823.4599609 16.000000000 8.7888002396 8.5000000000 35.484577179 -0.006700000 0.4318999946 2.5645000935 8.7840995789 144.28979492 89.256500244 172.71730042 1.8623000383  -999.250000 1.4191999435
 3823.6123047 16.000000000 8.7888002396 8.5000000000 44.383529663 -0.009500000 0.4273999929 2.5603001118 9.0768003464 139.19889832 87.354698181 176.67050171 1.8071000576  -999.250000 1.3102999926
 3823.7646484 16.000000000 8.5665998459 8.5000000000 52.931102753 -0.008800000 0.4296999872 2.5603001118 8.7259998322 140.65010071 86.817802429 173.58680725 1.7731000185  -999.250000 1.2778999805
 3823.9172363 16.000000000 8.7442998886 8.5000000000 56.058727264 -0.005900000 0.4102999866 2.5655000210 8.7559003830 141.17959595 88.202102661 174.84060669 1.8555999994  -999.250000 1.3701000214
 3824.0695801 16.000000000 8.9231996536 8.5000000000 51.147636414 -0.002100000 0.4077999890 2.5690000057 9.5088996887 133.18519592 89.589103699 174.43931580 1.9411000013  -999.250000 1.4982999563
 3824.2219238 16.000000000 8.8858003616 8.5000000000 43.760173798 -0.003300000 0.4140000045 2.5706999302 8.9993000031 133.05020142 90.355300903 174.50759888 1.9902000427  -999.250000 1.6914999485
 3824.3742676 16.000000000 8.8482999802 8.5000000000 35.651245117 0.0014000000 0.4111999869 2.5803000927 8.8452997208 134.15840149 91.212501526 177.93881226 2.0376999378  -999.250000 1.8660000563
 3824.5266113 16.000000000 8.8482999802 8.5000000000 30.950458527 -0.003600000 0.3966000080 2.5745000839 8.2325000763 142.01350403 90.077796936 178.57150269 2.0747001171  -999.250000 1.9128999710
 3824.6791992 16.000000000 8.7802000046 8.5000000000 28.864830017 -0.010400000 0.3995999992 2.5618999004 8.0923004150 146.90390015 89.341102600 177.51751709 2.0741000175  -999.250000 1.8975000381
 3824.8315430 16.000000000 8.7138996124 8.5000000000 28.208003998 -0.008600000 0.4142999947 2.5513000488 8.9930000305 142.02070618 88.521301270 176.65539551 2.0710000992  -999.250000 1.8763999939
 3824.9838867 16.000000000 8.6422996521 8.5000000000 28.084316254 -0.005600000 0.4189000130 2.5473999977 9.4834995270 147.74569702 87.971900940 182.21780396 2.0813999176  -999.250000 1.8716000319
 3825.1362305 16.000000000 8.5920000076 8.5000000000 33.749343872 -0.003900000 0.4237999916 2.5668001175 9.4092998505 147.54319763 87.652496338 184.09460449 2.1170001030  -999.250000 1.8817000389
 3825.2888184 16.000000000 8.6676998138 8.5000000000 41.505905151 -0.014000000 0.4146000147 2.5857999325 9.7597999573 137.82969666 90.937110901 183.87350464 2.1135001183  -999.250000 1.8840999603
 3825.4411621 7.0000000000 8.6676998138 8.5000000000 42.189960480 -0.006300000 0.4092999995 2.6108000278 9.9291000366 136.51280212 93.561096191 183.07620239 2.1723999977  -999.250000 1.9552999735
 3825.5935059 7.0000000000 8.7061996460 8.5000000000 38.399932861 -0.007900000 0.4124999940 2.5926001072 9.3115997314 131.04229736 89.777801514 182.08099365 2.1925001144  -999.250000 1.9506000280
 3825.7458496 7.0000000000 8.7061996460 8.5000000000 36.359909058 -0.013600000 0.4176999927 2.5759000778 9.3394002914 134.41270447 85.523300171 179.35969543 2.1575999260  -999.250000 1.9247000217
 3825.8984375 7.0000000000 8.6176004410 8.5000000000 37.283466339 -0.013300000 0.4081999958 2.5543000698 8.8316001892 135.84269714 81.348999023 178.95489502 2.0966999531  -999.250000 1.9221999645
 3826.0507813 7.0000000000 8.5984001160 8.5000000000 42.691272736 -0.014900000 0.4131999910 2.5492000580 8.8327999115 132.85040283 83.970100403 181.21470642 2.1377999783  -999.250000 1.9404000044
 3826.2031250 7.0000000000 8.5833997726 8.5000000000 54.279201508 -0.015799999 0.4034000039 2.5492999554 9.4399003983 126.91040039 85.129898071 182.44320679 2.1842000484  -999.250000 1.9811999798
 3826.3554688 7.0000000000 8.5743999481 8.5000000000 67.729003906 -0.010500000 0.4178999960 2.5599999428 8.9539003372 137.26579285 86.009498596 181.01719666 2.2018001080  -999.250000 1.9972000122
 3826.5078125 7.0000000000 8.5450000763 8.5000000000 58.355640411 -0.009200000 0.4156999886 2.5625000000 8.6527996063 125.68879700 86.984191895 180.45230103 2.1888999939  -999.250000 2.0023000240
 3826.6604004 7.0000000000 8.5008001328 8.5000000000 48.592849731 -0.004100000 0.4104000032 2.5741000175 8.7653999329 132.82409668 89.874900818 179.07580566 2.1721000671  -999.250000 1.9335999489
 3826.8127441 7.0000000000 8.4638004303 8.5000000000 44.006889343 -0.004200000 0.4032000005 2.5834999084 8.8810997009 137.60240173 87.612800598 176.54289246 2.1807999611  -999.250000 1.8530000448
 3826.9650879 7.0000000000 8.4638004303 8.5000000000 40.828739166 -0.008400000 0.3986999989 2.5855998993 8.7448997498 136.73869324 87.845802307 175.48580933 2.1352000237  -999.250000 1.7536000013
 3827.1174316 7.0000000000 8.4854001999 8.5000000000 36.233596802 -0.010500000 0.4007000029 2.6019999981 8.1493997574 134.08039856 91.713203430 176.73800659 2.0824999809  -999.250000 1.6667000055
 3827.2700195 7.0000000000 8.4854001999 8.5000000000 32.209648132 -0.008700000 0.4083000124 2.6096999645 7.6484999657 134.89860535 91.070503235 177.41749573 2.0954999924  -999.250000 1.6428999901
