# LAS format log file from PETREL
# Project units are specified as depth units
#==================================================================
~Version information
VERS.   2.0:
WRAP.   NO:
#==================================================================
~Well
STRT .m      1948.1618652 :
STOP .m      3612.0659180 :
STEP .m     0.00000000 :
NULL .        -999.250000 :
COMP.           : COMPANY
WELL.  34/4-2   : WELL
FLD.            : FIELD
LOC.            : LOCATION
SRVC.           : SERVICE COMPANY
DATE.  2018-09-11 14:48:50   : Log Export Date {yyyy-MM-dd HH:mm:ss}
PROV.           : PROVINCE
UWI.   34/4-2   : UNIQUE WELL ID
API.            : API NUMBER
#==================================================================
~Curve
DEPT .m                   : DEPTH
Lithology_geolink ._      : Lithology_geolink
CALI .in                  : CALI
BS .in                    : BS
DRHO .g/cm3               : DRHO
NPHI .m3/m3               : NPHI
RHOB .g/cm3               : RHOB
GR .gAPI                  : GR
DTC .us/ft                : DTC
RDEP .ohm.m               : RDEP
SP .mV                    : SP
RSHA .ohm.m               : RSHA
RMED .ohm.m               : RMED
~Parameter
#==================================================================
~Ascii
# ...
 3601.3977051  -999.250000 8.0489997864  -999.250000 -0.010000000 0.1834300011 2.6110000610 63.483001709 83.813400269 4.1939997673 90.142997742 4.6180000305 4.6180000305
 3601.5502930  -999.250000 8.0469999313  -999.250000 -0.011000000 0.1800300032 2.6129999161 63.145000458 83.999702454 4.1939997673 90.021003723 4.6199998856 4.6199998856
 3601.7026367  -999.250000 8.0430002213  -999.250000 -0.007000000 0.1794499904 2.6089999676 67.672996521 84.000000000 4.2010002136 92.551002502 4.6170001030 4.6170001030
 3601.8549805  -999.250000 8.0369997025  -999.250000 -0.007000000 0.1809099913 2.6010000706 69.175003052 83.937095642 4.1960000992 94.240997314 4.6160001755 4.6160001755
 3602.0073242  -999.250000 8.0310001373  -999.250000 -0.009000000 0.1849900037 2.5929999352 69.127998352 83.813400269 4.1989998817 96.587997437 4.6129999161 4.6129999161
 3602.1599121  -999.250000 8.0270004272  -999.250000 -0.010000000 0.1900200099 2.5920000076 65.234001160 83.999702454 4.1989998817 98.581001282 4.6149997711 4.6149997711
 3602.3122559  -999.250000 8.0270004272  -999.250000 -0.009000000 0.1941599995 2.5940001011 65.578002930 84.046920776 4.1970000267 98.613998413 4.6199998856 4.6199998856
 3602.4645996  -999.250000 8.0270004272  -999.250000 -0.008000000 0.1930699944 2.5950000286 67.484001160 84.140846252 4.1929998398 97.216003418 4.6170001030 4.6170001030
 3602.6169434  -999.250000 8.0270004272  -999.250000 -0.007000000 0.1883700043 2.5989999771 68.955001831 84.000228882 4.1979999542 93.099998474 4.6180000305 4.6180000305
 3602.7692871  -999.250000 8.0279998779  -999.250000 -0.007000000 0.1837000102 2.6029999256 65.033996582 84.000000000 4.1960000992 91.543998718 4.6209998131 4.6209998131
 3602.9218750  -999.250000 8.0279998779  -999.250000 -0.005000000 0.1797199994 2.6059999466 59.992000580 84.000000000 4.1989998817 91.011001587 4.6240000725 4.6240000725
 3603.0742188  -999.250000 8.0279998779  -999.250000 -0.004000000 0.1802099943 2.6010000706 61.645000458 84.000000000 4.1999998093 90.802001953 4.6300001144 4.6300001144
 3603.2265625  -999.250000 8.0279998779  -999.250000 -0.004000000 0.1854000092 2.5950000286 66.755996704 84.000000000 4.2020001411 90.747001648 4.6209998131 4.6209998131
 3603.3789063  -999.250000 8.0279998779  -999.250000 -0.006000000 0.1921999902 2.5820000172 69.231002808 84.046844482 4.1999998093 90.694000244 4.6209998131 4.6209998131
 3603.5314941  -999.250000 8.0290002823  -999.250000 -0.010000000 0.1906200051 2.5739998817 67.101997375 84.077949524 4.2020001411 91.043998718 4.6230001450 4.6230001450
 3603.6838379  -999.250000 8.0290002823  -999.250000 -0.011000000 0.1844100058 2.5769999027 62.397998810 83.813430786 4.1979999542 90.918998718 4.6269998550 4.6269998550
 3603.8361816  -999.250000 8.0290002823  -999.250000 -0.009000000 0.1796599925 2.5959999561 58.969001770 83.999702454 4.1960000992 90.872001648 4.6209998131 4.6209998131
 3603.9885254  -999.250000 8.0290002823  -999.250000 -0.005000000 0.1796400100 2.6050000191 60.895999908 84.000000000 4.1999998093 90.973999023 4.6230001450 4.6230001450
 3604.1411133  -999.250000 8.0299997330  -999.250000 -0.001000000 0.1801199913 2.6059999466 64.652000427 84.000000000 4.2020001411 90.699996948 4.6290001869 4.6290001869
 3604.2934570  -999.250000 8.0299997330  -999.250000 0.0030000000 0.1804800034 2.6089999676 67.639999390 84.000000000 4.1999998093 90.572998047 4.6290001869 4.6290001869
 3604.4458008  -999.250000 8.0299997330  -999.250000 0.0030000000 0.1804800034 2.6110000610 66.592002869 84.000000000 4.2030000687 90.206001282 4.6290001869 4.6290001869
 3604.5981445  -999.250000 8.0299997330  -999.250000 0.0000000000 0.1809499860 2.6050000191 64.552001953 84.000000000 4.2030000687 90.302001953 4.6269998550 4.6269998550
 3604.7504883  -999.250000 8.0299997330  -999.250000 -0.003000000 0.1820299923 2.5899999142 63.265998840 84.000000000 4.2020001411 90.403999329 4.6230001450 4.6230001450
 3604.9030762  -999.250000 8.0310001373  -999.250000 -0.006000000 0.1822699904 2.5840001106 63.210998535 84.000000000 4.1989998817 90.723999023 4.6290001869 4.6290001869
 3605.0554199  -999.250000 8.0310001373  -999.250000 -0.006000000 0.1830100119 2.5850000381 62.437999725 84.000000000 4.1989998817 90.668998718 4.6290001869 4.6290001869
 3605.2077637  -999.250000 8.0310001373  -999.250000 -0.006000000 0.1846199930 2.5850000381 61.952999115 84.000000000 4.1999998093 90.105003357 4.6269998550 4.6269998550
 3605.3601074  -999.250000 8.0310001373  -999.250000 -0.008000000 0.1867200136 2.5840001106 62.305000305 84.000000000 4.2020001411 90.740997314 4.6209998131 4.6209998131
 3605.5126953  -999.250000 8.0310001373  -999.250000 -0.011000000 0.1888299882 2.5799999237 62.953998566 84.000000000 4.1999998093 93.392997742 4.6209998131 4.6209998131
 3605.6650391  -999.250000 8.0319995880  -999.250000 -0.013000000 0.1893600076 2.5799999237 63.467998505 84.000000000 4.2010002136 92.516998291 4.6230001450 4.6230001450
 3605.8173828  -999.250000 8.0340003967  -999.250000 -0.013000000 0.1894700080 2.5810000896 62.139999390 84.000000000 4.1960000992 91.236999512 4.6269998550 4.6269998550
 3605.9697266  -999.250000 8.0349998474  -999.250000 -0.013000000 0.1895000041 2.5840001106 61.530998230 84.000000000 4.1989998817 90.986999512 4.6209998131 4.6209998131
 3606.1223145  -999.250000 8.0369997025  -999.250000 -0.013000000 0.1895299852 2.5859999657 61.530998230 84.000000000 4.1999998093 90.611999512 4.6209998131 4.6209998131
 3606.2746582  -999.250000 8.0380001068  -999.250000 -0.013000000 0.1895700097 2.5820000172 61.530998230 84.000000000 4.2010002136 90.425003052 4.6230001450 4.6230001450
 3606.4270020  -999.250000 8.0399999619  -999.250000 -0.015000000 0.1895999908 2.5739998817 61.530998230 84.000000000 4.1960000992 91.706001282 4.6290001869 4.6290001869
 3606.5793457  -999.250000 8.0419998169  -999.250000 -0.013000000 0.1896299869 2.5710000992 61.530998230 84.000000000 4.1989998817 92.363998413 4.6269998550 4.6269998550
 3606.7316895  -999.250000 8.0430002213  -999.250000 -0.008000000 0.1896599978 2.5759999752 61.530998230 84.000000000 4.1999998093 92.902999878 4.6209998131 4.6209998131
 3606.8842773  -999.250000 8.0450000763  -999.250000 -0.002000000 0.1896999925 2.5899999142 61.530998230 84.000000000 4.2020001411 92.285003662 4.6209998131 4.6209998131
 3607.0366211  -999.250000 8.0459995270  -999.250000 0.0030000000 0.1897299886 2.6019999981 61.530998230 84.000000000 4.1999998093 90.825996399 4.6240000725 4.6240000725
 3607.1889648  -999.250000 8.0480003357  -999.250000 0.0020000001 0.1897599995 2.6059999466 61.530998230 84.000000000 4.2030000687 91.051002502 4.6319999695 4.6319999695
 3607.3413086  -999.250000 8.0489997864  -999.250000 -0.001000000 0.1897899956 2.5959999561 61.530998230 84.000000000 4.2020001411 90.623001099 4.6269998550 4.6269998550
 3607.4938965  -999.250000 8.0509996414  -999.250000 -0.005000000 0.1898200065 2.5789999962 61.530998230 84.000000000 4.1989998817 90.536003113 4.6209998131 4.6209998131
 3607.6462402  -999.250000 8.0530004501  -999.250000 -0.008000000 0.1898600012 2.5769999027 61.530998230 84.000000000 4.1979999542 90.138000488 4.6240000725 4.6240000725
 3607.7985840  -999.250000 8.0539999008  -999.250000 -0.006000000 0.1898899972 2.5950000286 61.530998230 84.000000000 4.1970000267 90.679000854 4.6319999695 4.6319999695
 3607.9509277  -999.250000 8.0530004501  -999.250000 -0.003000000 0.1899200082 2.6129999161 61.530998230 84.000000000 4.2010002136 90.902999878 4.6290001869 4.6290001869
 3608.1035156  -999.250000 8.0509996414  -999.250000 -0.001000000 0.1899500042 2.6159999371 61.530998230 84.000000000 4.1970000267 90.984001160 4.6269998550 4.6269998550
 3608.2558594  -999.250000 8.0500001907  -999.250000 0.0000000000 0.1899899989 2.6080000401 61.530998230 84.000000000 4.2020001411 91.272003174 4.6230001450 4.6230001450
 3608.4082031  -999.250000 8.0480003357  -999.250000 -0.002000000 0.1900200099 2.5989999771 61.530998230 84.000000000 4.1989998817 92.004997253 4.6269998550 4.6269998550
 3608.5605469  -999.250000 8.0469999313  -999.250000 -0.006000000 0.1900399923 2.5989999771 61.530998230 84.000000000 4.1989998817 91.637001038 4.6230001450 4.6230001450
