# LAS format log file from PETREL
# Project units are specified as depth units
#==================================================================
~Version information
VERS.   2.0:
WRAP.   NO:
#==================================================================
~Well
STRT .m      3631.9968262 :
STOP .m      4250.8930664 :
STEP .m     0.00000000 :
NULL .        -999.250000 :
COMP.           : COMPANY
WELL.  34/4-10 R   : WELL
FLD.            : FIELD
LOC.            : LOCATION
SRVC.           : SERVICE COMPANY
DATE.  2018-09-11 14:48:50   : Log Export Date {yyyy-MM-dd HH:mm:ss}
PROV.           : PROVINCE
UWI.   34/4-10 R   : UNIQUE WELL ID
API.            : API NUMBER
#==================================================================
~Curve
DEPT .m                   : DEPTH
Lithology_geolink ._      : Lithology_geolink
CALI .in                  : CALI
BS .in                    : BS
ROP .m/h                  : ROP
DRHO .g/cm3               : DRHO
NPHI .m3/m3               : NPHI
RHOB .g/cm3               : RHOB
PEF .b/e                  : PEF
GR .gAPI                  : GR
DTC .us/ft                : DTC
DTS .us/ft                : DTS
RDEP .ohm.m               : RDEP
RMED .ohm.m               : RMED
~Parameter
#==================================================================
~Ascii
# ...
 4161.7392578 5.0000000000 8.2866907120 8.5000000000 23.928321838 -0.027244139 0.2276573032 2.6875700951 5.7064552307 98.785102844 82.974906921 160.89018250 2.9996330738 3.3082799911
 4161.8916016 5.0000000000 8.2901201248 8.5000000000 24.301319122 -0.021041030 0.2162156999 2.7188773155 6.0971260071 100.06189728 83.071670532 160.87962341 2.7999629974 3.4820489883
 4162.0439453 5.0000000000 8.2987508774 8.5000000000 25.317937851 -0.027098861 0.2140049040 2.6699519157 6.0542750359 95.836647034 82.830772400 161.07705688 2.8547170162 3.4992089272
 4162.1962891 5.0000000000 8.3082637787 8.5000000000 24.221343994 -0.025746910 0.2090131938 2.6215810776 5.4841942787 93.276123047 82.835716248 160.03393555 2.9817628860 3.5366330147
 4162.3486328 5.0000000000 8.3089275360 8.5000000000 22.398059845 -0.012513120 0.1994017065 2.6144390106 5.1482973099 91.697036743 82.655982971 159.20455933 3.1142330170 3.5215890408
 4162.5009766 5.0000000000 8.3082637787 8.5000000000 20.952777863 -0.006149060 0.2020408958 2.6152920723 5.0690369606 94.434997559 82.765098572 158.14607239 3.0990099907 3.4353320599
 4162.6538086 5.0000000000 8.3085422516 8.5000000000 19.853649139 -0.004955628 0.2099359035 2.6157050133 5.1004738808 97.379249573 82.731117249 157.75270081 3.0461180210 3.4499580860
 4162.8061523 5.0000000000 8.3085422516 8.5000000000 18.578035355 -0.008328139 0.2112372071 2.6070981026 5.1163921356 98.368499756 82.989738464 157.25210571 2.9747550488 3.3727900982
 4162.9584961 5.0000000000 8.3116970062 8.5000000000 18.245544434 -0.021308521 0.2158807963 2.5951299667 5.0005459785 99.022560120 84.470932007 157.13551331 2.9347391129 3.2348680496
 4163.1108398 5.0000000000 8.3082637787 8.5000000000 17.674230576 -0.018166540 0.2270148993 2.6059288979 5.0239152908 102.64279938 84.568801880 157.23559570 2.8098990917 3.1135110855
 4163.2631836 6.0000000000 8.3085422516 8.5000000000 17.049102783 -0.027167350 0.2412800938 2.5996088982 5.1210517883 104.64810181 85.910293579 157.65097046 2.4915161133 3.0156769753
 4163.4155273 6.0000000000 8.3108625412 8.5000000000 16.485149384 -0.031391211 0.2448147982 2.5965030193 5.2642874718 107.69300079 87.442344666 158.65864563 2.2074790001 2.9582049847
 4163.5678711 6.0000000000 8.3099803925 8.5000000000 16.390930176 -0.030175120 0.2460650057 2.5890150070 5.3266191483 110.69429779 88.733177185 160.60804749 2.1682209969 2.8613379002
 4163.7202148 6.0000000000 8.3120231628 8.5000000000 16.305000305 -0.034776341 0.2545849979 2.5745570660 5.5197296143 112.11479950 88.072486877 162.50889587 2.2575700283 2.8115050793
 4163.8725586 6.0000000000 8.3102579117 8.5000000000 16.274095535 -0.037689868 0.2552173138 2.5666429996 5.6612563133 112.19349670 86.364692688 165.47117615 2.3034648895 2.7035338879
 4164.0253906 6.0000000000 8.3085412979 8.5000000000 16.681110382 -0.038221531 0.2415156066 2.5711979866 5.8576970100 108.75009918 85.957092285 169.62609863 2.2912139893 2.6669189930
 4164.1777344 6.0000000000 8.3097019196 8.5000000000 17.026102066 -0.035263821 0.2319425941 2.5842130184 5.8693671227 105.51670074 86.414672852 171.05940247 2.3447411060 2.6507709026
 4164.3300781 6.0000000000 8.3097019196 8.5000000000 16.889728546 -0.032419018 0.2213480026 2.6031711102 5.9875507355 105.10520172 87.134941101 170.80120850 2.5436120033 2.4373290539
 4164.4824219 6.0000000000 8.3085422516 8.5000000000 15.574065208 -0.032071721 0.2317893058 2.6005430222 6.0145316124 107.66410065 87.839370728 171.71078491 2.3298740387 2.2923460007
 4164.6347656 6.0000000000 8.3088197708 8.5000000000 15.141556740 -0.036465790 0.2456377000 2.5884830952 5.6924037933 113.58699799 88.751533508 170.38804626 1.8484740257 2.1491339207
 4164.7871094 6.0000000000 8.3099803925 8.5000000000 15.067278862 -0.031155640 0.2668324113 2.5823988914 5.4287276268 115.46250153 89.050666809 169.68504333 1.6447939873 2.0901179314
 4164.9394531 6.0000000000 8.3102579117 8.5000000000 14.549042702 -0.016845251 0.2644458115 2.6016891003 5.1721501350 115.51609802 89.848632813 170.00038147 1.5513759851 2.0006120205
 4165.0917969 6.0000000000 8.3108453751 8.5000000000 14.335901260 -0.021592030 0.2618744075 2.6009969711 5.2028141022 115.72329712 89.647399902 171.09129333 1.5663030148 1.9570139647
 4165.2446289 6.0000000000 8.3128557205 8.5000000000 15.827378273 -0.016256830 0.2664645016 2.6039481163 5.2722864151 115.35970306 89.854949951 173.82080078 1.5731129646 1.9497280121
 4165.3969727 6.0000000000 8.3180074692 8.5000000000 15.059679031 -0.013822350 0.2578223944 2.5983500481 5.5078449249 114.54129791 90.050636292 176.38059998 1.5992020369 1.9838140011
 4165.5493164 6.0000000000 8.3165674210 8.5000000000 14.173284531 -0.017499790 0.2472949028 2.5952539444 5.7604818344 113.89060211 90.379638672 177.99150085 1.6373250484 2.0119929314
 4165.7016602 6.0000000000 8.3252410889 8.5000000000 13.633771896 -0.033890940 0.2466219962 2.5769860744 5.7256278992 113.72319794 90.037803650 180.45289612 1.7315230370 2.0888099670
 4165.8540039 6.0000000000 8.3341484070 8.5000000000 13.876505852 -0.008918900 0.2503927946 2.6071441174 5.4012365341 112.20839691 89.500022888 181.17767334 1.8955780268 2.2088799477
 4166.0063477 5.0000000000 8.3341484070 8.5000000000 14.543556213 -0.022544920 0.2501451969 2.5951468945 4.8998503685 108.49780273 88.249801636 180.67112732 2.0465590954 2.3105399609
 4166.1586914 5.0000000000 8.3344278336 8.5000000000 14.495489120 -0.025794530 0.2497238070 2.5996999741 4.8548765182 104.66819763 87.148269653 180.14427185 2.1646010876 2.4545180798
 4166.3110352 5.0000000000 8.3361454010 8.5000000000 14.296205521 -0.016328041 0.2329206020 2.6059710979 5.1000566483 104.72109985 84.891906738 178.54632568 2.2744519711 2.5947420597
 4166.4633789 5.0000000000 8.3364238739 8.5000000000 14.439748764 -0.022057010 0.2201046944 2.5966219902 5.2631988525 104.47899628 84.662658691 175.53846741 2.4222979546 2.6868538857
 4166.6162109 5.0000000000 8.3357734680 8.5000000000 14.960507393 -0.022706229 0.2226700038 2.6027669907 5.1283268929 103.23259735 84.390502930 173.39309692 2.5597848892 2.7447490692
 4166.7685547 5.0000000000 8.3370237350 8.5000000000 13.552808762 -0.006900554 0.2302888930 2.6189360619 5.0801310539 99.110496521 83.871582031 171.57337952 2.6925098896 2.8739418983
 4166.9208984 5.0000000000 8.3370237350 8.5000000000 11.920554161 -0.009244865 0.2286369950 2.6125180721 5.2191228867 97.895889282 85.255073547 170.68168640 2.6189820766 2.8404350281
 4167.0732422 5.0000000000 8.3387413025 8.5000000000 12.278239250 -0.027454400 0.2246643007 2.5819180012 5.1892738342 96.622802734 86.397209167 169.50248718 2.4981551170 2.8947710991
 4167.2255859 5.0000000000 8.3390207291 8.5000000000 12.472998619 -0.022949150 0.2330970019 2.5897309780 4.9614419937 99.694129944 85.876380920 168.59669495 2.4673750401 2.8789210320
 4167.3779297 5.0000000000 8.3407392502 8.5000000000 11.826359749 -0.040283900 0.2352620959 2.5750870705 4.9184608459 101.20500183 85.832168579 167.95304871 2.4858319759 2.8470261097
 4167.5302734 5.0000000000 8.3404598236 8.5000000000 11.649003983 -0.049341291 0.2291260958 2.5661673546 4.6197409630 104.40409851 85.445266724 167.92897034 2.4775359631 2.8442618847
 4167.6826172 5.0000000000 8.3384618759 8.5000000000 12.150389671 -0.046211690 0.2251179963 2.5697989464 4.5204691887 104.49680328 86.038261414 168.22436523 2.5453600883 2.8810119629
 4167.8349609 5.0000000000 8.3370237350 8.5000000000 12.366596222 -0.039979670 0.2309173942 2.5767099857 4.6369066238 102.03600311 87.114662170 168.14625549 2.5141220093 2.7925589085
 4167.9877930 5.0000000000 8.3165969849 8.5000000000 11.952885628 -0.033732940 0.2487659007 2.5880270004 5.1945352554 103.80609894 87.335922241 168.45079041 2.5132479668 2.7523128986
 4168.1401367 5.0000000000 8.2955980301 8.5000000000 11.758700371 -0.035941161 0.2637549043 2.5825579166 5.4868865013 104.62380219 88.967926025 168.76318359 2.4141969681 2.6512160301
 4168.2924805 6.0000000000 8.2932739258 8.5000000000 12.153617859 -0.024905769 0.2697510123 2.5902559757 5.4294357300 108.52030182 90.134895325 169.18910217 2.2714700699 2.4665069580
