# LAS format log file from PETREL
# Project units are specified as depth units
#==================================================================
~Version information
VERS.   2.0:
WRAP.   NO:
#==================================================================
~Well
STRT .m      1948.1618652 :
STOP .m      3612.0659180 :
STEP .m     0.00000000 :
NULL .        -999.250000 :
COMP.           : COMPANY
WELL.  34/4-2   : WELL
FLD.            : FIELD
LOC.            : LOCATION
SRVC.           : SERVICE COMPANY
DATE.  2018-09-11 14:48:50   : Log Export Date {yyyy-MM-dd HH:mm:ss}
PROV.           : PROVINCE
UWI.   34/4-2   : UNIQUE WELL ID
API.            : API NUMBER
#==================================================================
~Curve
DEPT .m                   : DEPTH
Lithology_geolink ._      : Lithology_geolink
CALI .in                  : CALI
BS .in                    : BS
DRHO .g/cm3               : DRHO
NPHI .m3/m3               : NPHI
RHOB .g/cm3               : RHOB
GR .gAPI                  : GR
DTC .us/ft                : DTC
RDEP .ohm.m               : RDEP
SP .mV                    : SP
RSHA .ohm.m               : RSHA
RMED .ohm.m               : RMED
~Parameter
#==================================================================
~Ascii
# ...
 2943.0297852 3.0000000000 10.508001328 8.5000000000 0.0080000004 0.1574099958 2.4230000973 46.660919189 85.297966003 1.9859054089 61.472126007 2.2990095615 2.2990095615
 2943.1821289 3.0000000000 10.498999596 8.5000000000 0.0060000001 0.1610099971 2.4240000248 49.264827728 86.576950073 2.0319263935 61.112575531 2.2700464725 2.2700464725
 2943.3344727 3.0000000000 10.493000031 8.5000000000 0.0049999999 0.1673800051 2.4400000572 52.175334930 87.404670715 2.0459775925 60.777538300 2.2430431843 2.2430431843
 2943.4868164 3.0000000000 10.472999573 8.5000000000 0.0109999999 0.1733200103 2.4609999657 50.253093719 86.220901489 2.0539870262 61.338100433 2.2110512257 2.2110512257
 2943.6391602 3.0000000000 10.447999954 8.5000000000 0.0189999994 0.1750099957 2.4719998837 49.112651825 85.953857422 2.0829071999 62.327827454 2.2129936218 2.2129936218
 2943.7917480 3.0000000000 10.414999962 8.5000000000 0.0179999992 0.1734700054 2.4639999866 46.909526825 86.110748291 2.1478958130 61.239749908 2.1900370121 2.1900370121
 2943.9440918 3.0000000000 10.373000145 8.5000000000 0.0140000004 0.1720499992 2.4479999542 47.335308075 84.815086365 2.2698044777 61.402736664 2.1480672359 2.1480672359
 2944.0964355 3.0000000000 10.319000244 8.5000000000 0.0099999998 0.1746699959 2.4419999123 47.381927490 84.186004639 2.4427227974 62.141815186 2.1759552956 2.1759552956
 2944.2487793 3.0000000000 10.263999939 8.5000000000 0.0060000001 0.1761199981 2.4440000057 45.355503082 80.570602417 2.6274080276 60.904975891 2.4112446308 2.4112446308
 2944.4013672 3.0000000000 10.201000214 8.5000000000 0.0000000000 0.1669000089 2.4609999657 41.395347595 76.095161438 2.7957308292 60.020416260 2.9711024761 2.9711024761
 2944.5537109 16.000000000 10.029000282 8.5000000000 -0.009000000 0.1468600035 2.4939999580 37.305553436 72.465812683 2.9637308121 60.041961670 3.8635690212 3.8635690212
 2944.7060547 16.000000000 9.8929996490 8.5000000000 -0.012000000 0.1210400015 2.5320000648 37.522640228 69.363967896 3.0997819901 59.784412384 4.6048126221 4.6048126221
 2944.8583984 3.0000000000 9.8039999008 8.5000000000 -0.009000000 0.1114099994 2.5510001183 36.519222260 68.736000061 3.1717696190 59.550746918 4.6269326210 4.6269326210
 2945.0109863 3.0000000000 9.7449998856 8.5000000000 -0.001000000 0.1128600016 2.5460000038 37.950695038 70.715820313 3.1690046787 59.269451141 4.2545981407 4.2545981407
 2945.1633301 3.0000000000 9.7180004120 8.5000000000 0.0089999996 0.1223200038 2.5299999714 39.657264709 72.852577209 3.0561811924 59.152187347 3.8067178726 3.8067178726
 2945.3156738 3.0000000000 9.6899995804 8.5000000000 0.0240000002 0.1363999993 2.5169999599 43.236259460 76.823631287 2.8573191166 58.957313538 3.3058030605 3.3058030605
 2945.4680176 3.0000000000 9.6490001678 8.5000000000 0.0219999999 0.1455399990 2.4979999065 42.546115875 79.858139038 2.6413462162 59.134712219 2.7668638229 2.7668638229
 2945.6203613 3.0000000000 9.6099996567 8.5000000000 0.0089999996 0.1577900052 2.4719998837 39.741001129 83.973800659 2.4536015987 58.357494354 2.3274080753 2.3274080753
 2945.7729492 3.0000000000 9.5340003967 8.5000000000 -0.004000000 0.1764399856 2.4409999847 37.206054688 87.124961853 2.3072338104 58.462829590 2.0584294796 2.0584294796
 2945.9252930 3.0000000000 9.2950000763 8.5000000000 -0.015000000 0.1965099871 2.4110000134 36.277484894 89.623001099 2.1901874542 58.098583221 1.9651490450 1.9651490450
 2946.0776367 3.0000000000 8.9110002518 8.5000000000 -0.023000000 0.2170500010 2.3849999905 34.604682922 90.218055725 2.1041378975 58.073043823 2.0458703041 2.0458703041
 2946.2299805 3.0000000000 8.5850000381 8.5000000000 -0.032000002 0.2257500142 2.3670001030 34.071701050 89.455451965 2.0621345043 57.208774567 2.2902159691 2.2902159691
 2946.3825684 3.0000000000 8.4309997559 8.5000000000 -0.039000001 0.2267099917 2.3650000095 34.754901886 88.967788696 2.0779743195 56.816627502 2.5206313133 2.5206313133
 2946.5349121 3.0000000000 8.3959999084 8.5000000000 -0.041000001 0.2265900075 2.3759999275 38.382179260 89.778701782 2.1708509922 57.004699707 2.5439629555 2.5439629555
 2946.6872559 3.0000000000 8.3769998550 8.5000000000 -0.039000001 0.2304299921 2.3870000839 44.314487457 88.924369812 2.3497130871 58.320888519 2.4122114182 2.4122114182
 2946.8395996 3.0000000000 8.3680000305 8.5000000000 -0.039000001 0.2332299948 2.3919999599 47.544662476 89.636711121 2.5932192802 57.458774567 2.3511953354 2.3511953354
 2946.9921875 3.0000000000 8.3590002060 8.5000000000 -0.039999999 0.2291600108 2.3980000019 46.200176239 87.719085693 2.8296217918 56.847976685 2.5566697121 2.5566697121
 2947.1445313 3.0000000000 8.3870000839 8.5000000000 -0.035999998 0.2182200104 2.4219999313 40.201625824 84.033912659 3.0346715450 56.862972260 3.1230914593 3.1230914593
 2947.2968750 16.000000000 8.4350004196 8.5000000000 -0.026000001 0.2036499977 2.4749999046 37.199802399 79.523231506 3.1937451363 57.837436676 4.1413669586 4.1413669586
 2947.4492188 16.000000000 8.5740003586 8.5000000000 -0.008000000 0.1848800033 2.5460000038 37.562408447 76.036582947 3.2519071102 58.946224213 5.2941522598 5.2941522598
 2947.6015625 3.0000000000 8.8929996490 8.5000000000 0.0089999996 0.1667300016 2.5899999142 41.238201141 75.501693726 3.2210991383 57.897373199 5.5741071701 5.5741071701
 2947.7541504 3.0000000000 9.1579999924 8.5000000000 0.0189999994 0.1565700024 2.5899999142 41.994804382 77.884170532 3.1011924744 58.074710846 4.7373447418 4.7373447418
 2947.9064941 3.0000000000 9.2060003281 8.5000000000 0.0120000001 0.1670199931 2.5450000763 45.321662903 82.013374329 2.9023189545 56.918853760 3.5499038696 3.5499038696
 2948.0588379 3.0000000000 9.1990003586 8.5000000000 0.0000000000 0.1915399879 2.4849998951 45.777278900 87.322486877 2.6444134712 56.800186157 2.6823894978 2.6823894978
 2948.2111816 3.0000000000 9.1330003738 8.5000000000 -0.015000000 0.2136899978 2.4260001183 48.986701965 90.631401062 2.3768575191 56.519901276 2.1497056484 2.1497056484
 2948.3637695 3.0000000000 8.9219999313 8.5000000000 -0.029999999 0.2293300033 2.3710000515 45.369819641 92.296348572 2.1353862286 56.440124512 1.8574663401 1.8574663401
 2948.5161133 3.0000000000 8.5590000153 8.5000000000 -0.043000001 0.2368199974 2.3280000687 43.387172699 93.327346802 1.9582835436 56.427017212 1.7192211151 1.7192211151
 2948.6684570 3.0000000000 8.3389997482 8.5000000000 -0.050000001 0.2422999889 2.3050000668 41.339279175 93.905082703 1.8611553907 57.650035858 1.7289839983 1.7289839983
 2948.8208008 3.0000000000 8.2600002289 8.5000000000 -0.052999999 0.2461300045 2.2960000038 41.328025818 94.326652527 1.8191343546 60.104125977 1.8456255198 1.8456255198
 2948.9733887 3.0000000000 8.2290000916 8.5000000000 -0.048000000 0.2441099882 2.3020000458 42.755706787 93.891700745 1.8100143671 63.294891357 2.0177242756 2.0177242756
 2949.1257324 3.0000000000 8.2390003204 8.5000000000 -0.044000000 0.2356200069 2.3180000782 45.186100006 92.752822876 1.8249759674 66.472900391 2.1727516651 2.1727516651
 2949.2780762 3.0000000000 8.2690000534 8.5000000000 -0.039999999 0.2291099876 2.3389999866 50.359703064 91.891380310 1.8499599695 67.219810486 2.2798285484 2.2798285484
 2949.4304199 5.0000000000 8.3280000687 8.5000000000 -0.037000000 0.2230300009 2.3640000820 51.312484741 91.563537598 1.8669726849 65.191261292 2.3019647598 2.3019647598
 2949.5827637 5.0000000000 8.3870000839 8.5000000000 -0.028000001 0.2194700092 2.3929998875 52.441379547 91.812202454 1.8600224257 61.246654510 2.2810671329 2.2810671329
 2949.7353516 5.0000000000 8.4460000992 8.5000000000 -0.017999999 0.2178799957 2.4219999313 51.748119354 92.718551636 1.8330432177 57.765563965 2.2350735664 2.2350735664
 2949.8876953 5.0000000000 8.5059995651 8.5000000000 -0.008000000 0.2240999937 2.4340000153 49.336868286 93.533699036 1.7930641174 57.058124542 2.1082036495 2.1082036495
 2950.0400391 5.0000000000 8.5649995804 8.5000000000 -0.011000000 0.2433400005 2.4059998989 45.014930725 94.764022827 1.7570576668 56.503887177 1.8603974581 1.8603974581
 2950.1923828 5.0000000000 8.6049995422 8.5000000000 -0.018999999 0.2614800036 2.3650000095 41.347747803 95.622261047 1.7290896177 55.786300659 1.6108000278 1.6108000278
