# LAS format log file from PETREL
# Project units are specified as depth units
#==================================================================
~Version information
VERS.   2.0:
WRAP.   NO:
#==================================================================
~Well
STRT .m      3631.9968262 :
STOP .m      4250.8930664 :
STEP .m     0.00000000 :
NULL .        -999.250000 :
COMP.           : COMPANY
WELL.  34/4-10 R   : WELL
FLD.            : FIELD
LOC.            : LOCATION
SRVC.           : SERVICE COMPANY
DATE.  2018-09-11 14:48:50   : Log Export Date {yyyy-MM-dd HH:mm:ss}
PROV.           : PROVINCE
UWI.   34/4-10 R   : UNIQUE WELL ID
API.            : API NUMBER
#==================================================================
~Curve
DEPT .m                   : DEPTH
Lithology_geolink ._      : Lithology_geolink
CALI .in                  : CALI
BS .in                    : BS
ROP .m/h                  : ROP
DRHO .g/cm3               : DRHO
NPHI .m3/m3               : NPHI
RHOB .g/cm3               : RHOB
PEF .b/e                  : PEF
GR .gAPI                  : GR
DTC .us/ft                : DTC
DTS .us/ft                : DTS
RDEP .ohm.m               : RDEP
RMED .ohm.m               : RMED
~Parameter
#==================================================================
~Ascii
# ...
 3833.1647949 7.0000000000 8.4671993256 8.5000000000 4.7825441360 -0.027864270 0.2387824059 2.4347319603 4.6579413414 165.44430542 102.30289459 194.80450439 3.4411621094 4.3818211555
 3833.3171387 7.0000000000 8.4700756073 8.5000000000 4.6911411285 -0.026595101 0.2395806015 2.4475150108 4.6890854836 156.49270630 102.54579926 193.74859619 3.4410960674 4.3910222054
 3833.4694824 7.0000000000 8.4677696228 8.5000000000 4.5373396873 -0.028583830 0.2503316104 2.4511198997 4.6582832336 149.44239807 103.05500793 192.15179443 3.4587900639 4.5116500854
 3833.6218262 7.0000000000 8.4361896515 8.5000000000 4.5933642387 -0.032565631 0.2601610124 2.4406900406 4.7289781570 150.31770325 103.13110352 191.77189636 3.3658781052 4.5839772224
 3833.7744141 7.0000000000 8.4327459335 8.5000000000 4.6783881187 -0.043900989 0.2775523067 2.4166300297 4.8517689705 159.48240662 103.05699921 191.47869873 3.4623200893 4.5246791840
 3833.9267578 7.0000000000 8.4321718216 8.5000000000 4.5219707489 -0.037310541 0.2776119113 2.4231030941 5.1975412369 166.73539734 103.25289154 191.77290344 3.5000190735 4.5868701935
 3834.0791016 7.0000000000 8.4390621185 8.5000000000 4.4501166344 -0.034483779 0.2665865123 2.4355530739 5.6075077057 163.43640137 103.71530914 192.21359253 3.4371659756 4.7303972244
 3834.2314453 7.0000000000 8.4247064590 8.5000000000 4.6233487129 -0.034154821 0.2494817972 2.4476950169 6.0123815536 159.22450256 104.01651001 192.83329773 3.4544310570 4.7185268402
 3834.3840332 7.0000000000 8.4175271988 8.5000000000 4.7558040619 -0.019413991 0.2469301969 2.4698998928 6.0587000847 161.13580322 104.62770081 193.38858032 3.5339169502 4.6394767761
 3834.5363770 7.0000000000 8.4235572815 8.5000000000 4.9409914017 -0.021830991 0.2509042919 2.4546821117 6.0118751526 161.48779297 105.45929718 193.72401428 3.5848050117 4.5935778618
 3834.6887207 7.0000000000 8.4218349457 8.5000000000 4.9857511520 -0.018407950 0.2643851042 2.4497799873 5.8616571426 164.63960266 105.79760742 194.05039978 3.5749540329 4.6203899384
 3834.8410645 7.0000000000 8.4235563278 8.5000000000 5.2458486557 -0.012115100 0.2782686949 2.4442648888 5.7480163574 168.58000183 105.73880005 195.86819458 3.5208609104 4.6228599548
 3834.9936523 7.0000000000 8.4218349457 8.5000000000 5.4822630882 -0.011714270 0.2795261145 2.4530880451 5.4562444687 175.67439270 105.68730164 198.74929810 3.4946959019 4.5931730270
 3835.1459961 7.0000000000 8.4232702255 8.5000000000 5.3795042038 -0.023797520 0.2716822922 2.4383790493 5.1924958229 173.79150391 105.91760254 201.22431946 3.4729790688 4.5762238503
 3835.2983398 7.0000000000 8.4290122986 8.5000000000 5.4603486061 -0.023326591 0.2686634064 2.4357979298 5.1149044037 170.01879883 105.92880249 202.11999512 3.4438610077 4.6589369774
 3835.4506836 7.0000000000 8.4390621185 8.5000000000 5.5324001312 -0.031975579 0.2733691037 2.4158599377 5.2890205383 166.59469604 105.60630798 203.06159973 3.4989008904 4.5245571136
 3835.6030273 7.0000000000 8.4379138947 8.5000000000 5.6617741585 -0.034894601 0.2791332006 2.4113020897 5.4168853760 169.11419678 105.44619751 202.09262085 3.4091720581 4.5755839348
 3835.7556152 7.0000000000 8.4393501282 8.5000000000 5.6354880333 -0.023106040 0.2796942890 2.4247100353 5.2770404816 165.50740051 105.50389862 201.64630127 3.4734990597 4.6273097992
 3835.9079590 7.0000000000 8.4407854080 8.5000000000 5.4925446510 -0.025677400 0.2829852104 2.4272150993 4.8421015739 158.34240723 105.55919647 201.02709961 3.5435719490 4.4724831581
 3836.0603027 7.0000000000 8.4404973984 8.5000000000 5.5307946205 -0.023101719 0.2622492015 2.4384810925 4.5837960243 152.92840576 105.11180115 200.99150085 3.5078680515 4.4383797646
 3836.2126465 7.0000000000 8.4404973984 8.5000000000 5.6741704941 -0.024941260 0.2615875900 2.4334409237 4.6085829735 156.43600464 105.03820038 201.22450256 3.5119719505 4.4390611649
 3836.3652344 7.0000000000 8.4416446686 8.5000000000 5.6010160446 -0.028994059 0.2536039054 2.4284710884 4.9678654671 158.77459717 105.59089661 200.33419800 3.5191578865 4.6018671989
 3836.5175781 7.0000000000 8.4410724640 8.5000000000 5.6494603157 -0.035784971 0.2749863863 2.4089059830 5.0458688736 158.65429688 105.59479523 201.60510254 3.7751359940 4.5548028946
 3836.6699219 7.0000000000 8.4410724640 8.5000000000 5.7688112259 -0.031346060 0.2890538871 2.4169859886 4.9267811775 155.99719238 105.55570221 201.53729248 3.7830541134 4.6222720146
 3836.8222656 7.0000000000 8.4413604736 8.5000000000 5.8439998627 -0.033324059 0.2908422053 2.4138059616 4.7974643707 157.70320129 105.71790314 201.39469910 3.5429739952 4.6776847839
 3836.9748535 7.0000000000 8.4422216415 8.5000000000 5.8855223656 -0.031069759 0.2901526093 2.4180920124 4.8780117035 156.68479919 105.67031097 202.08790588 3.5204110146 4.7040538788
 3837.1271973 7.0000000000 8.4376268387 8.5000000000 5.9480280876 -0.036130771 0.2883382142 2.4069828987 5.1121587753 157.37629700 105.01409912 201.18249512 3.5904409885 4.7271919250
 3837.2795410 7.0000000000 8.4376268387 8.5000000000 5.9377064705 -0.038520459 0.2865245938 2.4023139477 5.0842852592 156.19430542 104.51270294 200.92329407 3.6764929295 4.9120831490
 3837.4318848 7.0000000000 8.4433689117 8.5000000000 5.9431471825 -0.032889910 0.2773650885 2.4165840149 4.7807965279 157.59629822 104.26569366 199.69140625 3.8164780140 4.7955760956
 3837.5842285 7.0000000000 8.4433689117 8.5000000000 5.9317564964 -0.023050910 0.2653731108 2.4379038811 4.6206407547 156.51780701 103.90350342 199.31509399 3.7337169647 4.9764990807
 3837.7368164 7.0000000000 8.4438457489 8.5000000000 5.8530921936 -0.026571820 0.2716287076 2.4449748993 4.6081366539 156.76249695 103.83260345 198.22480774 3.8729588985 4.9611039162
 3837.8891602 7.0000000000 8.4382019043 8.5000000000 5.7708215714 -0.020778431 0.2601889968 2.4569671154 4.8647141457 160.26440430 104.10500336 197.30920410 4.1204819679 5.2187290192
 3838.0415039 7.0000000000 8.4427976608 8.5000000000 5.5491976738 -0.026519321 0.2622183859 2.4423201084 5.0346264839 165.92480469 104.38449860 196.49090576 4.2111568451 5.4593529701
 3838.1938477 7.0000000000 8.4419336319 8.5000000000 5.4301834106 -0.036194839 0.2654711902 2.4229791164 4.9343647957 173.91180420 104.82980347 196.66589355 4.2800631523 5.2620840073
 3838.3464355 7.0000000000 8.4419336319 8.5000000000 5.3711800575 -0.046604089 0.2685034871 2.4108810425 4.9248442650 179.89680481 105.70500183 197.48371887 4.3424930573 5.4691548347
 3838.4987793 7.0000000000 8.4422216415 8.5000000000 5.4252028465 -0.037017498 0.2725754082 2.4269230366 5.2475404739 179.59750366 106.43229675 198.25759888 4.1586308479 5.5673999786
 3838.6511230 7.0000000000 8.4419336319 8.5000000000 5.5557527542 -0.036358058 0.2934915125 2.4277939796 5.8543148041 176.56210327 106.69609833 198.78131104 4.0886850357 5.7142210007
 3838.8034668 7.0000000000 8.4427976608 8.5000000000 5.7123117447 -0.040630620 0.3004528880 2.4153490067 6.1208167076 175.25169373 106.71079254 201.28730774 4.2260770798 5.5579848289
 3838.9560547 7.0000000000 8.4407854080 8.5000000000 5.7651000023 -0.039640810 0.2907756865 2.4085659981 5.9279789925 176.51690674 106.62409973 202.27668762 4.3082938194 5.7972540855
 3839.1083984 7.0000000000 8.4404973984 8.5000000000 6.2508916855 -0.034398470 0.2774944901 2.4157578945 5.4828672409 173.11860657 106.31230164 202.74960327 4.3798208237 5.5065050125
 3839.2607422 7.0000000000 8.4416465759 8.5000000000 6.6638450623 -0.042154569 0.2738589048 2.4083700180 5.1809997559 166.74890137 105.78510284 202.60949707 4.2895240784 5.6331481934
 3839.4130859 7.0000000000 8.4456720352 8.5000000000 6.9145565033 -0.038439780 0.2763786018 2.4261050224 4.9407453537 164.47990417 104.71080017 201.72668457 3.9711840153 5.6321721077
 3839.5654297 7.0000000000 8.4462490082 8.5000000000 7.5011439323 -0.027852811 0.2818647921 2.4414091110 5.1737275124 164.21299744 103.67971039 202.11579895 3.8342080116 5.4310407639
 3839.7180176 7.0000000000 8.4459609985 8.5000000000 7.8091959953 -0.017516190 0.2787949145 2.4575309753 5.1394038200 161.67999268 103.92849731 200.22450256 3.7405691147 5.6750679016
