# LAS format log file from PETREL
# Project units are specified as depth units
#==================================================================
~Version information
VERS.   2.0:
WRAP.   NO:
#==================================================================
~Well
STRT .m      3631.9968262 :
STOP .m      4250.8930664 :
STEP .m     0.00000000 :
NULL .        -999.250000 :
COMP.           : COMPANY
WELL.  34/4-10 R   : WELL
FLD.            : FIELD
LOC.            : LOCATION
SRVC.           : SERVICE COMPANY
DATE.  2018-09-11 14:48:50   : Log Export Date {yyyy-MM-dd HH:mm:ss}
PROV.           : PROVINCE
UWI.   34/4-10 R   : UNIQUE WELL ID
API.            : API NUMBER
#==================================================================
~Curve
DEPT .m                   : DEPTH
Lithology_geolink ._      : Lithology_geolink
CALI .in                  : CALI
BS .in                    : BS
ROP .m/h                  : ROP
DRHO .g/cm3               : DRHO
NPHI .m3/m3               : NPHI
RHOB .g/cm3               : RHOB
PEF .b/e                  : PEF
GR .gAPI                  : GR
DTC .us/ft                : DTC
DTS .us/ft                : DTS
RDEP .ohm.m               : RDEP
RMED .ohm.m               : RMED
~Parameter
#==================================================================
~Ascii
# ...
 3960.5710449 2.0000000000 8.2724390030 8.5000000000 39.903228760 -0.001742184 0.0849319473 2.6155519485 5.9888796806 48.788700104 64.786537170 300.39962769 27.940742493 32.746788025
 3960.7233887 2.0000000000 8.2695617676 8.5000000000 40.495887756 0.0021002290 0.0782446563 2.6563398838 6.6094241142 46.227859497 64.114181519 297.69573975 23.394308090 27.852972031
 3960.8759766 2.0000000000 8.2690124512 8.5000000000 41.047813416 -0.004108369 0.0736801922 2.6618990898 6.9635491371 45.198829651 64.065361023 303.28784180 23.027753830 27.362462997
 3961.0283203 2.0000000000 8.2699012756 8.5000000000 40.799373627 -0.002595007 0.0757772326 2.6430950165 6.5652861595 47.416599274 64.265228271 118.65357971 22.411237717 26.530782700
 3961.1806641 2.0000000000 8.2690124512 8.5000000000 40.637100220 -0.000056207 0.0926074833 2.6101899147 6.1813611984 49.551349640 66.593986511 118.35720062 22.580436707 25.486505508
 3961.3330078 2.0000000000 8.2704496384 8.5000000000 40.234844208 -0.001840651 0.0988633931 2.5714390278 5.9253835678 49.931331635 68.848503113 118.35720062 22.360715866 21.504068375
 3961.4855957 2.0000000000 8.2687387466 8.5000000000 39.655258179 -0.008781289 0.1241059974 2.5033960342 5.5375590324 48.717071533 73.996856689 118.35720062 20.869592667 17.281318665
 3961.6379395 2.0000000000 8.2658643723 8.5000000000 39.471801758 -0.012164430 0.1614774019 2.4279549122 4.9473481178 48.452739716 76.350326538 118.35720062 19.754167557 17.030641556
 3961.7902832 2.0000000000 8.2690124512 8.5000000000 39.471801758 -0.018925730 0.2107944041 2.3652589321 4.3648309708 51.230491638 81.291740417 120.58451080 15.719373703 15.878878593
 3961.9426270 2.0000000000 8.2675762177 8.5000000000 39.471801758 -0.023255400 0.2089665979 2.3431971073 4.3025479317 54.362461090 82.828796387 125.67524719 14.246025085 14.535443306
 3962.0949707 2.0000000000 8.2678499222 8.5000000000 39.471801758 -0.023081070 0.2006151974 2.3481540680 4.5540781021 58.224620819 83.543136597 129.10282898 13.838521004 14.139932632
 3962.2475586 2.0000000000 8.2661380768 8.5000000000 39.471801758 -0.016921891 0.1968300045 2.3849360943 5.2647633553 58.116218567 83.053359985 132.56556702 11.493651390 11.703847885
 3962.3999023 2.0000000000 8.2874145508 8.5000000000 39.471801758 -0.022321399 0.1998952031 2.4045209885 5.5091319084 60.652400970 82.410606384 133.77606201 10.515174866 9.6851606369
 3962.5522461 2.0000000000 8.3215522766 8.5000000000 39.471801758 -0.026494021 0.2071972042 2.4437570572 5.7533264160 63.644191742 81.991058350 134.57301331 10.212363243 9.5589275360
 3962.7045898 4.0000000000 8.3020610809 8.5000000000 39.471801758 -0.029262790 0.2084868997 2.4830179214 5.8814954758 67.572769165 81.913337708 134.68952942 6.5874171257 8.1080627441
 3962.8571777 4.0000000000 8.2845420837 8.5000000000 39.471801758 -0.033517089 0.2059136033 2.5176930428 5.8086404800 70.530227661 81.256126404 135.82817078 5.3613753319 8.1271781921
 3963.0095215 4.0000000000 8.2684650421 8.5000000000 39.471801758 -0.031348981 0.2058539987 2.5342719555 5.6694469452 73.430343628 80.526748657 135.99882507 4.6605219841 7.3097162247
 3963.1618652 4.0000000000 8.2701759338 8.5000000000 39.471801758 -0.042272240 0.2074511051 2.5131518841 5.4076552391 81.186302185 81.534706116 136.37400818 4.8798942566 6.8702793121
 3963.3142090 4.0000000000 8.2690124512 8.5000000000 157.38899231 -0.040177599 0.1994706988 2.5054190159 5.4742898941 87.892478943 83.447227478 136.94845581 4.8861160278 6.9522995949
 3963.4667969 4.0000000000 8.2727756500 8.5000000000 80.179504395 -0.042055041 0.2194519043 2.5147659779 5.8115544319 89.292358398 83.886543274 137.63439941 5.1964259148 7.6126003265
 3963.6191406 4.0000000000 8.2943258286 8.5000000000 17.670900345 -0.031837869 0.2114098966 2.5486700535 6.7496790886 82.728408813 83.007781982 140.22555542 6.8340702057 8.0583648682
 3963.7714844 4.0000000000 8.3015079498 8.5000000000 16.501502991 -0.030089300 0.1734669954 2.5927240849 8.2466115952 70.345191956 81.725524902 141.11965942 9.2704868317 8.7018013000
 3963.9238281 2.0000000000 8.3089685440 8.5000000000 15.528754234 -0.023491742 0.1361074001 2.5812170506 8.0747375488 60.690399170 79.691329956 141.87788391 11.567778587 9.6714830399
 3964.0761719 2.0000000000 8.3098497391 8.5000000000 14.523209572 -0.031077880 0.1437494010 2.5164771080 6.9174404144 54.524318695 78.799499512 141.47261047 12.434977531 10.214272499
 3964.2287598 2.0000000000 8.3104047775 8.5000000000 13.574731827 -0.037120551 0.1837053001 2.4352769852 6.1451191902 56.141311646 79.271362305 139.70753479 13.450084686 10.483052254
 3964.3811035 2.0000000000 8.3089685440 8.5000000000 13.418527603 -0.040960100 0.2066251040 2.3897590637 6.0754699707 58.483760834 79.998413086 139.36705017 13.451709747 10.483480453
 3964.5334473 2.0000000000 8.3089685440 8.5000000000 13.271130562 -0.033344820 0.2142910957 2.3673050404 6.1988086700 61.244060516 81.705039978 137.63038635 15.064870834 11.508665085
 3964.6857910 2.0000000000 8.3232870102 8.5000000000 12.400110245 -0.037397660 0.2151188999 2.3381950855 6.2767620087 60.006950378 82.532173157 136.38299561 15.013184547 12.609571457
 3964.8383789 2.0000000000 8.3115186691 8.5000000000 11.564703941 -0.036040381 0.2239430994 2.3091139793 6.0481858253 59.798519135 82.323783875 135.68650818 14.548345566 12.833965302
 3964.9907227 2.0000000000 8.3003835678 8.5000000000 11.484177589 -0.033907101 0.2274218053 2.2883579731 5.7510943413 70.685951233 83.110366821 135.56359863 13.462581635 13.052109718
 3965.1430664 4.0000000000 8.2905673981 8.5000000000 35.294910431 -0.020889601 0.2382743061 2.2943699360 5.3442444801 83.201629639 83.968238831 134.63778687 8.1118726730 14.105350494
 3965.2954102 4.0000000000 8.2905673981 8.5000000000 48.485961914 -0.017783159 0.2294683009 2.3014700413 5.2346739769 86.972427368 84.350517273 134.54478455 7.3760833740 14.250051498
 3965.4479980 4.0000000000 8.2773609161 8.5000000000 49.730792999 -0.016256612 0.2207946032 2.3355710506 5.0278239250 77.579566956 84.785743713 136.48828125 9.2603311539 12.898550034
 3965.6003418 4.0000000000 8.2529315948 8.5000000000 52.895427704 -0.010123280 0.2096596956 2.3940939903 5.0967125893 66.130661011 85.292526245 136.44677734 13.384175301 13.610054970
 3965.7526855 2.0000000000 8.2342472076 8.5000000000 55.841468811 0.0051633720 0.2207227945 2.4535319805 5.2098069191 61.556781769 85.379257202 138.32229614 14.983653069 14.086326599
 3965.9050293 2.0000000000 8.2342472076 8.5000000000 55.408695221 -0.005501914 0.2357885987 2.4167630672 5.3998084068 57.818088531 85.243057251 137.75901794 15.112347603 14.417758942
 3966.0576172 2.0000000000 8.2399950027 8.5000000000 55.242469788 -0.008312209 0.2474465966 2.3579380512 5.3895683289 56.889999390 84.851303101 139.12809753 17.951330185 16.144590378
 3966.2099609 2.0000000000 8.2718858719 8.5000000000 56.562049866 -0.015419450 0.2447776049 2.3179440498 5.5185337067 57.990058899 84.124763489 139.04763794 17.951330185 16.144590378
 3966.3623047 2.0000000000 8.3508987427 8.5000000000 59.721767426 -0.023111099 0.2324671000 2.2996129990 5.7777290344 58.957260132 83.460449219 139.12855530 19.883699417 17.927490234
 3966.5146484 2.0000000000 8.3879585266 8.5000000000 60.958404541 -0.029945750 0.2256214023 2.3212809563 6.1539602280 58.916671753 82.729316711 138.07308960 19.965389252 17.962749481
 3966.6669922 2.0000000000 8.3201808929 8.5000000000 57.576526642 -0.031966280 0.2280375957 2.3580200672 6.3195738792 54.957149506 82.102958679 138.86485291 22.627910614 18.387809753
 3966.8195801 2.0000000000 8.3132772446 8.5000000000 57.184562683 -0.038637970 0.2410686016 2.3821890354 6.2149624825 53.640781403 81.413803101 138.33605957 22.608999252 20.668249130
 3966.9719238 2.0000000000 8.3405361176 8.5000000000 57.750804901 -0.033429079 0.2383833975 2.3604450226 5.7412567139 52.838340759 81.324012756 136.24595642 21.568880081 18.323429108
 3967.1242676 2.0000000000 8.3411302567 8.5000000000 55.059761047 -0.028218091 0.2237268984 2.3224549294 5.1039133072 54.100978851 81.169395447 134.22332764 21.785449982 19.593059540
