# LAS format log file from PETREL
# Project units are specified as depth units
#==================================================================
~Version information
VERS.   2.0:
WRAP.   NO:
#==================================================================
~Well
STRT .m      1948.1618652 :
STOP .m      3612.0659180 :
STEP .m     0.00000000 :
NULL .        -999.250000 :
COMP.           : COMPANY
WELL.  34/4-2   : WELL
FLD.            : FIELD
LOC.            : LOCATION
SRVC.           : SERVICE COMPANY
DATE.  2018-09-11 14:48:50   : Log Export Date {yyyy-MM-dd HH:mm:ss}
PROV.           : PROVINCE
UWI.   34/4-2   : UNIQUE WELL ID
API.            : API NUMBER
#==================================================================
~Curve
DEPT .m                   : DEPTH
Lithology_geolink ._      : Lithology_geolink
CALI .in                  : CALI
BS .in                    : BS
DRHO .g/cm3               : DRHO
NPHI .m3/m3               : NPHI
RHOB .g/cm3               : RHOB
GR .gAPI                  : GR
DTC .us/ft                : DTC
RDEP .ohm.m               : RDEP
SP .mV                    : SP
RSHA .ohm.m               : RSHA
RMED .ohm.m               : RMED
~Parameter
#==================================================================
~Ascii
# ...
 2167.6179199  -999.250000 14.921998978  -999.250000 0.0070000002 0.3701200187 2.3180000782 42.914897919 125.57469940 0.9889568090 59.672599792 1.0289328098 1.0289328098
 2167.7702637  -999.250000 14.883000374  -999.250000 0.0109999999 0.3637699783 2.3239998817 45.550380707 120.58704376 0.9929807186 59.531677246 1.0747789145 1.0747789145
 2167.9228516  -999.250000 14.633000374  -999.250000 0.0010000000 0.3745099902 2.2829999924 45.562999725 121.99539185 1.0089486837 60.278594971 1.0899519920 1.0899519920
 2168.0751953  -999.250000 14.789000511  -999.250000 0.0080000004 0.3974599838 2.2850000858 42.354320526 122.56119537 1.0289359093 60.296951294 1.0840191841 1.0840191841
 2168.2275391  -999.250000 15.882999420  -999.250000 0.0099999998 0.3862300217 2.2750000954 36.590747833 121.19460297 1.0459183455 61.012546539 1.0710623264 1.0710623264
 2168.3798828  -999.250000 15.727000237  -999.250000 0.0089999996 0.3530300260 2.2709999084 36.531150818 123.73768616 1.0678942204 60.906528473 1.0590577126 1.0590577126
 2168.5324707  -999.250000 15.038999557  -999.250000 0.0160000008 0.3110400140 2.2750000954 37.029396057 122.37940979 1.0899294615 60.781398773 1.0899007320 1.0899007320
 2168.6848145  -999.250000 14.913999557  -999.250000 0.0340000018 0.3085899949 2.3090000153 40.768978119 121.19181061 1.1029583216 60.547752380 1.1099358797 1.1099358797
 2168.8371582  -999.250000 15.234000206  -999.250000 0.0590000004 0.3500999808 2.3340001106 39.722404480 120.00380707 1.1169551611 60.547000885 1.1458846331 1.1458846331
 2168.9895020  -999.250000 14.547000885  -999.250000 0.0359999985 0.3559600115 2.3050000668 40.278301239 120.18709564 1.1349135637 60.655475616 1.1559519768 1.1559519768
 2169.1418457  -999.250000 14.781000137  -999.250000 0.0209999997 0.3525400162 2.2750000954 36.922225952 119.75210571 1.1509231329 60.407199860 1.1759037971 1.1759037971
 2169.2944336  -999.250000 15.062999725  -999.250000 0.0049999999 0.3339799941 2.2660000324 35.286205292 119.00240326 1.1569807529 60.671150208 1.1859679222 1.1859679222
 2169.4467773  -999.250000 14.890999794  -999.250000 0.0209999997 0.3442400098 2.2890000343 33.630306244 122.73798370 1.1540096998 60.547401428 1.1929775476 1.1929775476
 2169.5991211  -999.250000 14.569999695  -999.250000 0.0179999992 0.3564499915 2.2909998894 35.397449493 119.39120483 1.1430528164 60.065322876 1.1840431690 1.1840431690
 2169.7514648  -999.250000 14.647999763  -999.250000 0.0149999997 0.3500999808 2.2969999313 35.997142792 121.36538696 1.1181201935 59.798278809 1.1461827755 1.1461827755
 2169.9040527  -999.250000 14.578000069  -999.250000 0.0099999998 0.3583999872 2.2969999313 37.744392395 122.99478149 1.0880962610 60.295398712 1.1041345596 1.1041345596
 2170.0563965  -999.250000 15.288999557  -999.250000 -0.002000000 0.3657199740 2.2790000439 33.950218201 121.19380951 1.0561025143 59.689952850 1.0621346235 1.0621346235
 2170.2087402  -999.250000 15.421999931  -999.250000 0.0060000001 0.3803699911 2.2809998989 34.994903564 123.73770142 1.0231584311 59.951728821 1.0470720530 1.0470720530
 2170.3610840  -999.250000 15.718999863  -999.250000 -0.003000000 0.3789099753 2.2769999504 34.347156525 123.56390381 0.9851827025 59.689273834 1.0848172903 1.0848172903
 2170.5136719  -999.250000 15.109001160  -999.250000 0.0109999999 0.3964799941 2.3069999218 41.664463043 125.36919403 0.9471217990 59.329151154 1.0630705357 1.0630705357
 2170.6660156  -999.250000 15.602000237  -999.250000 -0.002000000 0.3857400119 2.2990000248 44.272686005 127.99157715 0.9230769277 59.468551636 1.0450576544 1.0450576544
 2170.8183594  -999.250000 15.906000137  -999.250000 0.0010000000 0.3911100030 2.2890000343 44.748497009 127.37700653 0.9160224199 59.733150482 0.9931666255 0.9931666255
 2170.9707031  -999.250000 15.977000237  -999.250000 0.0000000000 0.3906300068 2.2709999084 41.235950470 130.36059570 0.9209759831 59.874324799 0.9880239964 0.9880239964
 2171.1230469  -999.250000 15.930000305  -999.250000 -0.010000000 0.3994100094 2.2730000019 37.082981110 130.37500000 0.9468750358 60.232276917 0.9641153812 0.9641153812
 2171.2756348  -999.250000 14.937999725  -999.250000 -0.015000000 0.3891600072 2.3550000191 35.505008698 131.37179565 0.9878685474 61.371341705 0.9659935832 0.9659935832
 2171.4279785  -999.250000 15.352000237  -999.250000 -0.020000000 0.3369100094 2.3929998875 32.354118347 124.58483887 0.9979679585 60.860656738 1.0497307777 1.0497307777
 2171.5803223  -999.250000 14.593999863  -999.250000 -0.018999999 0.3456999958 2.3440001011 33.370052338 117.40950012 1.0029760599 61.186420441 1.1445440054 1.1445440054
 2171.7326660  -999.250000 15.937998772  -999.250000 -0.020000000 0.3378900290 2.2560000420 31.835435867 116.75299835 1.0268845558 60.923278809 1.3420481682 1.3420481682
 2171.8852539  -999.250000 16.077999115  -999.250000 -0.015000000 0.3432599902 2.2290000916 35.457332611 118.55718994 1.0588974953 61.171199799 1.2343493700 1.2343493700
 2172.0375977  -999.250000 16.516000748  -999.250000 0.0089999996 0.3261699975 2.2750000954 37.025993347 121.98898315 1.0998686552 61.561744690 1.1791763306 1.1791763306
 2172.1899414  -999.250000 16.218999863  -999.250000 0.0189999994 0.3559600115 2.2850000858 39.021396637 129.09080505 1.1607072353 62.324325562 1.0924175978 1.0924175978
 2172.3422852  -999.250000 16.452999115  -999.250000 0.0160000008 0.3642599881 2.2909998894 39.093700409 126.57532501 1.1838893890 62.468322754 1.1427547932 1.1427547932
 2172.4948730  -999.250000 16.062999725  -999.250000 -0.006000000 0.3657199740 2.2500000000 36.414611816 121.20523071 1.1740320921 61.487159729 1.1778877974 1.1778877974
 2172.6472168  -999.250000 16.593999863  -999.250000 -0.003000000 0.3447299898 2.2500000000 39.147182465 120.00380707 1.1769903898 61.546798706 1.2437883615 1.2437883615
 2172.7995605  -999.250000 16.718999863  -999.250000 0.0020000001 0.3422900140 2.2460000515 37.131507874 119.19060516 1.1939455271 60.939952850 1.2559615374 1.2559615374
 2172.9519043  -999.250000 15.781000137  -999.250000 0.0140000004 0.3823199868 2.2709999084 38.648651123 118.56600189 1.1979807615 60.952926636 1.2908320427 1.2908320427
 2173.1044922  -999.250000 15.539000511  -999.250000 -0.001000000 0.3847700059 2.2679998875 38.095802307 119.74619293 1.2079678774 60.299102783 1.3149231672 1.3149231672
 2173.2568359  -999.250000 15.828000069  -999.250000 -0.001000000 0.3959999979 2.2829999924 37.471004486 118.56681061 1.2139807940 60.437549591 1.3169935942 1.3169935942
 2173.4091797  -999.250000 15.366999626  -999.250000 -0.003000000 0.3710900247 2.2809998989 41.829978943 118.74939728 1.2050288916 60.156902313 1.2621762753 1.2621762753
 2173.5615234  -999.250000 15.453000069  -999.250000 0.0020000001 0.3823199868 2.2709999084 38.640449524 120.98919678 1.1801199913 60.793922424 1.2211967707 1.2211967707
 2173.7138672  -999.250000 15.500000000  -999.250000  -999.250000 0.3984400034 2.2679998875 39.091747284 117.76562500 1.1312355995 60.921398163 1.1801971197 1.1801971197
 2173.8664551  -999.250000 15.718999863  -999.250000 0.0020000001 0.3828099966 2.2730000019 34.794822693 122.17378235 1.0901314020 60.065753937 1.1092275381 1.1092275381
 2174.0187988  -999.250000 15.477001190  -999.250000 0.0089999996 0.3828099966 2.2909998894 36.899188995 123.37119293 1.0551121235 60.202548981 1.0452051163 1.0452051163
 2174.1711426  -999.250000 16.516000748  -999.250000 -0.003000000 0.3764599860 2.2660000324 38.959098816 125.17929077 1.0201679468 60.188072205 1.0191248655 1.0191248655
 2174.3234863  -999.250000 17.108999252  -999.250000 -0.017999999 0.3872100115 2.2460000515 42.296924591 128.11088562 0.9971105456 60.918472290 0.9871538281 0.9871538281
 2174.4760742  -999.250000 15.258000374  -999.250000 -0.017999999 0.4086900055 2.2599999905 38.575019836 130.36778259 0.9790576696 61.295799255 0.9949743748 0.9949743748
 2174.6284180  -999.250000 14.336000443  -999.250000 -0.011000000 0.3881800175 2.2809998989 36.569408417 128.75520325 0.9570705295 61.935943604 0.9979904294 0.9979904294
 2174.7807617  -999.250000 15.468999863  -999.250000 0.0160000008 0.3745099902 2.3199999332 29.538587570 127.75320435 0.9420480728 61.703750610 0.9850416780 0.9850416780
