# LAS format log file from PETREL
# Project units are specified as depth units
#==================================================================
~Version information
VERS.   2.0:
WRAP.   NO:
#==================================================================
~Well
STRT .m      1948.1618652 :
STOP .m      3612.0659180 :
STEP .m     0.00000000 :
NULL .        -999.250000 :
COMP.           : COMPANY
WELL.  34/4-2   : WELL
FLD.            : FIELD
LOC.            : LOCATION
SRVC.           : SERVICE COMPANY
DATE.  2018-09-11 14:48:50   : Log Export Date {yyyy-MM-dd HH:mm:ss}
PROV.           : PROVINCE
UWI.   34/4-2   : UNIQUE WELL ID
API.            : API NUMBER
#==================================================================
~Curve
DEPT .m                   : DEPTH
Lithology_geolink ._      : Lithology_geolink
CALI .in                  : CALI
BS .in                    : BS
DRHO .g/cm3               : DRHO
NPHI .m3/m3               : NPHI
RHOB .g/cm3               : RHOB
GR .gAPI                  : GR
DTC .us/ft                : DTC
RDEP .ohm.m               : RDEP
SP .mV                    : SP
RSHA .ohm.m               : RSHA
RMED .ohm.m               : RMED
~Parameter
#==================================================================
~Ascii
# ...
 3272.2136230 3.0000000000 10.171999931 8.5000000000 0.0130000003 0.1457999945 2.5910000801 50.423427582 77.812362671 3.3058688641 69.566352844 3.5592432022 3.5592432022
 3272.3662109 3.0000000000 10.168999672 8.5000000000 0.0179999992 0.1449600011 2.5980000496 48.539020538 78.250297546 3.3119904995 69.050827026 3.5140719414 3.5140719414
 3272.5185547 3.0000000000 10.164999962 8.5000000000 0.0170000009 0.1495400071 2.5929999352 45.788410187 79.187500000 3.2910335064 68.501876831 3.4720671177 3.4720671177
 3272.6708984 3.0000000000 10.160999298 8.5000000000 0.0089999996 0.1518200040 2.5810000896 47.011032104 79.953765869 3.2520625591 67.510589600 3.3621761799 3.3621761799
 3272.8232422 3.0000000000 10.156999588 8.5000000000 0.0020000001 0.1489100009 2.5690000057 46.111892700 80.918899536 3.1852142811 66.490272522 3.2094898224 3.2094898224
 3272.9758301 3.0000000000 10.156000137 8.5000000000 0.0020000001 0.1445499957 2.5669999123 45.056690216 82.045204163 3.1230993271 65.130172729 3.0342803001 3.0342803001
 3273.1281738 3.0000000000 10.154999733 8.5000000000 0.0070000002 0.1386200041 2.5759999752 42.644866943 82.140846252 3.0441265106 64.832473755 2.9770913124 2.9770913124
 3273.2805176 3.0000000000 10.154999733 8.5000000000 0.0099999998 0.1352999955 2.5880000591 42.165763855 82.250831604 2.9761090279 64.715187073 2.9809935093 2.9809935093
 3273.4328613 3.0000000000 10.153999329 8.5000000000 -0.028000001 0.1347700059 2.6310000420 42.833850861 83.138153076 2.9311439991 65.726753235 3.0447952747 3.0447952747
 3273.5854492 3.0000000000 10.153999329 8.5000000000 -0.163000003 0.1361300051 2.6700000763 42.272903442 83.921745300 2.9020464420 65.503364563 3.0210382938 3.0210382938
 3273.7377930 3.0000000000 10.152999878 8.5000000000 -0.250000000 0.1394100040 2.6359999180 40.549766541 85.185966492 2.9000031948 65.144569397 2.9361362457 2.9361362457
 3273.8901367 3.0000000000 10.152000427 8.5000000000 -0.250000000 0.1431099921 2.6289999485 39.269050598 85.749099731 2.9269568920 64.798553467 2.9010560513 2.9010560513
 3274.0424805 3.0000000000 10.152000427 8.5000000000 -0.167999998 0.1471700072 2.6670000553 36.426559448 85.356636047 2.9859054089 64.067176819 2.9539151192 2.9539151192
 3274.1948242 3.0000000000 10.150999069 8.5000000000 -0.017000001 0.1512199938 2.6250000000 35.985401154 83.444137573 3.1046192646 64.143745422 3.0935521126 3.0935521126
 3274.3474121 3.0000000000 10.150999069 8.5000000000 0.0219999999 0.1519600004 2.6180000305 34.424503326 80.738334656 3.2807178497 64.097076416 3.3605720997 3.3605720997
 3274.4997559 3.0000000000 10.149999619 8.5000000000 0.0320000015 0.1475899965 2.6289999485 34.495880127 79.081657410 3.5006473064 63.862373352 3.7144327164 3.7144327164
 3274.6520996 3.0000000000 10.149999619 8.5000000000 0.0299999993 0.1442099959 2.6159999371 37.962432861 78.079605103 3.7505993843 64.408119202 4.1473059654 4.1473059654
 3274.8044434 3.0000000000 10.149000168 8.5000000000 0.0219999999 0.1401199996 2.6070001125 37.924140930 77.063255310 3.9862446785 64.315299988 4.6982336044 4.6982336044
 3274.9570313 3.0000000000 10.149000168 8.5000000000 0.0149999997 0.1315900087 2.6099998951 38.540012360 74.689804077 4.1547307968 64.144271851 5.4128556252 5.4128556252
 3275.1093750 3.0000000000 10.147999763 8.5000000000 0.0070000002 0.1222599968 2.6029999256 33.439189911 73.609725952 4.2648234367 63.893405914 6.1538128853 6.1538128853
 3275.2617188 3.0000000000 10.147999763 8.5000000000 -0.001000000 0.1165499985 2.5869998932 32.483520508 73.582038879 4.3109259605 63.299953461 6.3506855965 6.3506855965
 3275.4140625 3.0000000000 10.147999763 8.5000000000 0.0020000001 0.1181100011 2.5810000896 28.302417755 75.244659424 4.2900671959 62.793624878 5.7160387039 5.7160387039
 3275.5666504 3.0000000000 10.153999329 8.5000000000 0.0120000001 0.1192900017 2.5969998837 28.487682343 76.154548645 4.3449115753 62.284812927 4.8044600487 4.8044600487
 3275.7189941 3.0000000000 10.159000397 8.5000000000 0.0230000000 0.1136099994 2.6170001030 28.507966995 74.424766541 4.4897675514 62.424774170 4.0372290611 4.0372290611
 3275.8713379 3.0000000000 10.164999962 8.5000000000 0.0260000005 0.0993999988 2.6229999065 32.773151398 73.815971375 4.5998234749 63.937568665 3.6625993252 3.6625993252
 3276.0236816 3.0000000000 10.170999527 8.5000000000 0.0170000009 0.0790000036 2.6099998951 33.334110260 70.611145020 4.7287931442 63.946987152 3.7089247704 3.7089247704
 3276.1760254 3.0000000000 10.177000046 8.5000000000 0.0120000001 0.0571400039 2.5940001011 32.605342865 67.821937561 4.7758498192 63.451591492 4.2512588501 4.2512588501
 3276.3286133 3.0000000000 10.182999611 8.5000000000 0.0080000004 0.0487600006 2.5789999962 36.079418182 68.688598633 4.6402177811 65.110336304 5.2454071045 5.2454071045
 3276.4809570 6.0000000000 10.182999611 8.5000000000 0.0040000002 0.0673799962 2.5720000267 46.868690491 71.860908508 4.4682755470 66.324050903 6.9482693672 6.9482693672
 3276.6333008 6.0000000000 10.178999901 8.5000000000 0.0000000000 0.1068799943 2.5710000992 61.082214355 76.489578247 4.3681602478 67.864524841 7.9394135475 7.9394135475
 3276.7856445 6.0000000000 10.175999641 8.5000000000 -0.004000000 0.1592900008 2.5729999542 66.762832642 81.312545776 4.1935596466 69.536636353 6.1557312012 6.1557312012
 3276.9382324 6.0000000000 10.173000336 8.5000000000 -0.005000000 0.1934199929 2.5759999752 65.065757751 84.073593140 3.9483926296 70.914794922 3.9565207958 3.9565207958
 3277.0905762 6.0000000000 10.170000076 8.5000000000 -0.001000000 0.1910199970 2.5880000591 62.697795868 83.610748291 3.6634569168 72.144035339 3.0744102001 3.0744102001
 3277.2429199 6.0000000000 10.166999817 8.5000000000 0.0099999998 0.1850399971 2.6059999466 65.588356018 82.985000610 3.2796154022 73.634613037 2.8872981071 2.8872981071
 3277.3952637 6.0000000000 10.163000107 8.5000000000 0.0189999994 0.1949900091 2.6159999371 73.385986328 82.830497742 2.9091870785 73.746650696 2.9926607609 2.9926607609
 3277.5478516 6.0000000000 10.164999962 8.5000000000 0.0199999996 0.2155999988 2.6119999886 78.228271484 85.281066895 2.6893508434 71.740219116 3.0928397179 3.0928397179
 3277.7001953 6.0000000000 10.170999527 8.5000000000 0.0120000001 0.2365600020 2.5999999046 79.388153076 88.604675293 2.5791761875 71.475418091 2.9771859646 2.9771859646
 3277.8525391 6.0000000000 10.177999496 8.5000000000 0.0060000001 0.2553600073 2.5929999352 78.090080261 89.111198425 2.5670192242 70.670288086 2.6555159092 2.6555159092
 3278.0048828 6.0000000000 10.180000305 8.5000000000 0.0000000000 0.2659000158 2.5869998932 73.680068970 89.634162903 2.6328940392 70.108901978 2.5411825180 2.5411825180
 3278.1572266 6.0000000000 10.180000305 8.5000000000 -0.002000000 0.2588700056 2.5840001106 67.325378418 87.195831299 2.7067632675 71.300170898 2.5818688869 2.5818688869
 3278.3098145 6.0000000000 10.180000305 8.5000000000 0.0000000000 0.2451400012 2.5899999142 61.548240662 84.113937378 2.7479341030 72.212539673 2.7497308254 2.7497308254
 3278.4621582 6.0000000000 10.178999901 8.5000000000 0.0030000000 0.2255100012 2.5980000496 62.322742462 81.537124634 2.7969214916 72.649299622 2.9986009598 2.9986009598
 3278.6145020 6.0000000000 10.178999901 8.5000000000 0.0060000001 0.2066300064 2.6019999981 66.260681152 79.111885071 2.8579022884 70.685150146 3.3444454670 3.3444454670
 3278.7668457 6.0000000000 10.177999496 8.5000000000 0.0060000001 0.1934099942 2.6040000916 67.932655334 77.754348755 2.9128241539 69.903503418 3.7576751709 3.7576751709
 3278.9194336 6.0000000000 10.177999496 8.5000000000 0.0060000001 0.1885700077 2.6099998951 67.874099731 78.313102722 2.9649164677 69.745254517 4.0505323410 4.0505323410
 3279.0717773 6.0000000000 10.177999496 8.5000000000 0.0089999996 0.1983399987 2.6110000610 68.113616943 80.435600281 3.0089294910 69.573272705 3.9721264839 3.9721264839
 3279.2241211 6.0000000000 10.177000046 8.5000000000 0.0070000002 0.2103300095 2.5989999771 72.428070068 82.157249451 3.0040080547 69.477149963 3.5866186619 3.5866186619
 3279.3764648 6.0000000000 10.170000076 8.5000000000 0.0080000004 0.2255900055 2.5850000381 72.779891968 84.165557861 2.9352207184 70.920372009 3.1713311672 3.1713311672
