# LAS format log file from PETREL
# Project units are specified as depth units
#==================================================================
~Version information
VERS.   2.0:
WRAP.   NO:
#==================================================================
~Well
STRT .m      1948.1618652 :
STOP .m      3612.0659180 :
STEP .m     0.00000000 :
NULL .        -999.250000 :
COMP.           : COMPANY
WELL.  34/4-2   : WELL
FLD.            : FIELD
LOC.            : LOCATION
SRVC.           : SERVICE COMPANY
DATE.  2018-09-11 14:48:50   : Log Export Date {yyyy-MM-dd HH:mm:ss}
PROV.           : PROVINCE
UWI.   34/4-2   : UNIQUE WELL ID
API.            : API NUMBER
#==================================================================
~Curve
DEPT .m                   : DEPTH
Lithology_geolink ._      : Lithology_geolink
CALI .in                  : CALI
BS .in                    : BS
DRHO .g/cm3               : DRHO
NPHI .m3/m3               : NPHI
RHOB .g/cm3               : RHOB
GR .gAPI                  : GR
DTC .us/ft                : DTC
RDEP .ohm.m               : RDEP
SP .mV                    : SP
RSHA .ohm.m               : RSHA
RMED .ohm.m               : RMED
~Parameter
#==================================================================
~Ascii
# ...
 2716.2583008 6.0000000000 13.859000206 12.250000954 -0.008000000 0.3862300217 2.3480000496 65.056396484 114.74359131 1.2359902859 67.781234741 1.1441025734 1.1441025734
 2716.4106445 6.0000000000 13.468999863 12.250000954 -0.005000000 0.4038099945 2.3519999981 66.370803833 115.99600220 1.2409840822 68.785774231 1.1150927544 1.1150927544
 2716.5632324 6.0000000000 13.444999695 12.250000954 -0.010000000 0.4018599987 2.3380000591 65.127006531 113.75360870 1.2320144176 67.798583984 1.1100080013 1.1100080013
 2716.7155762 6.0000000000 13.444999695 12.250000954 -0.009000000 0.3979499936 2.3280000687 65.125000000 114.18730164 1.2240128517 68.428985596 1.1050080061 1.1050080061
 2716.8679199 6.0000000000 13.461000443 12.250000954 -0.010000000 0.3735400140 2.3259999752 59.072715759 113.37630463 1.2150144577 68.313194275 1.0990096331 1.0990096331
 2717.0202637 6.0000000000 13.461000443 12.250000954 -0.012000000 0.3925800025 2.3320000172 57.690204620 103.20433044 1.2020208836 68.327980042 1.0920112133 1.0920112133
 2717.1726074 6.0000000000 13.383000374 12.250000954 -0.004000000 0.3842800260 2.3550000191 58.777500153 111.34880066 1.1860511303 68.055877686 1.1059551239 1.1059551239
 2717.3251953 6.0000000000 13.336000443 12.250000954 -0.004000000 0.4145500064 2.3480000496 62.088691711 110.75099945 1.1690273285 67.314193726 1.1289631128 1.1289631128
 2717.4775391 6.0000000000 13.258000374 12.250000954 0.0040000002 0.4243199825 2.3420000076 63.497745514 110.56330109 1.1570191383 67.577575684 1.1319952011 1.1319952011
 2717.6298828 6.0000000000 13.242000580 12.250000954 -0.004000000 0.4394499958 2.3069999218 63.406147003 111.18700409 1.1480144262 67.055839539 1.1150273085 1.1150273085
 2717.7822266 6.0000000000 12.930000305 12.250000954 -0.001000000 0.4541000128 2.3090000153 67.113098145 112.99419403 1.1450096369 67.436775208 1.1010447741 1.1010447741
 2717.9348145 5.0000000000 12.859000206 12.250000954 -0.002000000 0.4394499958 2.3199999332 65.565505981 116.18289185 1.1459984779 67.952178955 1.1000015736 1.1000015736
 2718.0871582 5.0000000000 13.062999725 12.250000954 0.0189999994 0.4165000021 2.3810000420 64.814208984 116.37470245 1.1420063972 67.555641174 1.1059902906 1.1059902906
 2718.2395020 5.0000000000 12.867000580 12.250000954 0.0209999997 0.3730500042 2.4000000954 54.297878265 113.37980652 1.1390048265 67.687789917 1.1179808378 1.1179808378
 2718.3918457 5.0000000000 12.953000069 12.250000954 0.0280000009 0.3676800132 2.4079999924 53.720798492 109.01399994 1.1399967670 68.037879944 1.1359424591 1.1359424591
 2718.5444336 5.0000000000 13.031000137 12.250000954 0.0060000001 0.3789099753 2.3750000000 54.873146057 109.00000000 1.1509823799 67.797386169 1.1310080290 1.1310080290
 2718.6967773 5.0000000000 13.069999695 12.250000954 0.0060000001 0.3754900098 2.3710000515 60.460037231 109.56210327 1.1799534559 68.054588318 1.1090352535 1.1090352535
 2718.8491211 5.0000000000 12.890998840 12.250000954 -0.001000000 0.3632799983 2.3789999485 60.031700134 112.18379974 1.2269246578 67.688591003 1.0860368013 1.0860368013
 2719.0014648 5.0000000000 12.921999931 12.250000954 -0.010000000 0.3525400162 2.4040000439 58.502452850 113.18640137 1.2948909998 68.576576233 1.1059678793 1.1059678793
 2719.1538086 5.0000000000 12.937999725 12.250000954 -0.014000000 0.3344699740 2.4609999657 53.329597473 111.38079834 1.3627824783 67.932075500 1.2076735497 1.2076735497
 2719.3063965 5.0000000000 13.210999489 12.250000954 -0.008000000 0.2983399928 2.5079998970 50.285858154 102.76382446 1.4129198790 68.155639648 1.4246522188 1.4246522188
 2719.4587402 16.000000000 13.272999763 12.250000954 0.0120000001 0.2768599987 2.5369999409 46.287406921 90.394828796 1.4449487925 68.163986206 1.7814278603 1.7814278603
 2719.6110840 5.0000000000 13.227000237 12.250000954 0.0230000000 0.2866200209 2.5160000324 51.055335999 85.570716858 1.4709582329 69.170379639 2.0695383549 2.0695383549
 2719.7634277 5.0000000000 13.210999489 12.250000954 0.0170000009 0.3212900162 2.4839999676 54.987400055 87.743003845 1.5028976202 68.649681091 1.8806079626 1.8806079626
 2719.9160156 5.0000000000 13.227000237 12.250000954 0.0020000001 0.3403300047 2.4430000782 59.492790222 96.174484253 1.5309551954 68.531188965 1.5145865679 1.5145865679
 2720.0683594 5.0000000000 13.101999283 12.250000954 -0.003000000 0.3515599966 2.4260001183 58.906951904 103.36347961 1.5429807901 68.538986206 1.3173156977 1.3173156977
 2720.2207031 6.0000000000 13.171999931 12.250000954 -0.010000000 0.3574199975 2.4119999409 59.654796600 107.18189240 1.5260273218 67.517639160 1.2411218882 1.2411218882
 2720.3730469 6.0000000000 13.180001259 12.250000954 0.0060000001 0.3256800175 2.4549999237 54.111801147 104.38401031 1.4791504145 67.896781921 1.2320288420 1.2320288420
 2720.5256348 6.0000000000 13.156000137 12.250000954 0.0250000004 0.3208000064 2.4820001125 55.497745514 100.00701141 1.4141042233 67.531585693 1.2779263258 1.2779263258
 2720.6779785 6.0000000000 13.108999252 12.250000954 0.0520000011 0.3203099966 2.5120000839 58.495193481 96.380805969 1.3620833158 67.164588928 1.3538781404 1.3538781404
 2720.8303223 6.0000000000 13.101999283 12.250000954 0.0390000008 0.3632799983 2.4839999676 61.558090210 93.005401611 1.3190689087 67.296783447 1.3959326744 1.3959326744
 2720.9826660 6.0000000000 13.046999931 12.250000954 0.0130000003 0.3833000064 2.4140000343 60.689403534 91.003204346 1.2890480757 67.522644043 1.3510720730 1.3510720730
 2721.1350098 6.0000000000 13.242000580 12.250000954 0.0080000004 0.3964799941 2.3870000839 56.233303070 97.977592468 1.2700607777 67.157173157 1.2832175493 1.2832175493
 2721.2875977 5.0000000000 12.859000206 12.250000954 0.0010000000 0.4135699868 2.3340001106 54.752353668 99.560501099 1.2550240755 67.873847961 1.2220977545 1.2220977545
 2721.4399414 5.0000000000 12.296999931 12.250000954 0.0010000000 0.3950199783 2.3359999657 55.218250275 103.99288940 1.2370288372 68.007789612 1.1680865288 1.1680865288
 2721.5922852 5.0000000000 12.265999794 12.250000954 0.0020000001 0.4047900140 2.3320000172 56.622745514 111.36318207 1.2180304527 68.639984131 1.1250689030 1.1250689030
 2721.7446289 5.0000000000 12.477000237 12.250000954 0.0010000000 0.3881800175 2.3519999981 55.036098480 114.73919678 1.1950736046 68.523376465 1.1070575714 1.1070575714
 2721.8972168 5.0000000000 12.522998810 12.250000954 0.0010000000 0.4262699783 2.3689999580 53.970703125 114.00120544 1.1760303974 69.030181885 1.1179823875 1.1179823875
 2722.0495605 5.0000000000 12.444999695 12.250000954 -0.004000000 0.4121099710 2.3689999580 53.875148773 115.18608856 1.1660159826 69.163787842 1.1499487162 1.1499487162
 2722.2019043 6.0000000000 12.508000374 12.250000954 -0.004000000 0.4199199975 2.3650000095 57.494190216 111.38111115 1.1669985056 69.171981812 1.1789535284 1.1789535284
 2722.3542480 6.0000000000 12.593999863 12.250000954 0.0000000000 0.4145500064 2.3670001030 61.113399506 111.00119781 1.1789616346 68.432373047 1.1859775782 1.1859775782
 2722.5068359 6.0000000000 12.616999626 12.250000954 -0.002000000 0.4023400247 2.3710000515 61.155948639 113.37119293 1.1979695559 69.311592102 1.1879967451 1.1879967451
 2722.6591797 6.0000000000 12.640999794 12.250000954 0.0080000004 0.4243199825 2.3870000839 62.029594421 113.00059509 1.2209631205 69.078376770 1.2019776106 1.2019776106
 2722.8115234 6.0000000000 12.687999725 12.250000954 0.0070000002 0.4062500000 2.3849999905 58.849109650 111.75199890 1.2399696112 68.969177246 1.2279583216 1.2279583216
 2722.9638672 6.0000000000 12.647999763 12.250000954 0.0080000004 0.4272499979 2.3770000935 58.438652039 110.56490326 1.2629631758 68.734375000 1.2799166441 1.2799166441
 2723.1162109 6.0000000000 12.671999931 12.250000954 -0.006000000 0.3935500085 2.3519999981 57.565799713 108.56940460 1.2859264612 68.384124756 1.3138911724 1.3138911724
 2723.2687988 6.0000000000 12.663999557 12.250000954 0.0099999998 0.3925800025 2.3849999905 57.219554901 108.37529755 1.3119583130 68.117424011 1.3100063801 1.3100063801
 2723.4211426 5.0000000000 12.772999763 12.250000954 0.0140000004 0.3671900034 2.3910000324 53.006759644 109.74779510 1.3359614611 67.641761780 1.2720608711 1.2720608711
