# LAS format log file from PETREL
# Project units are specified as depth units
#==================================================================
~Version information
VERS.   2.0:
WRAP.   NO:
#==================================================================
~Well
STRT .m      3631.9968262 :
STOP .m      4250.8930664 :
STEP .m     0.00000000 :
NULL .        -999.250000 :
COMP.           : COMPANY
WELL.  34/4-10 R   : WELL
FLD.            : FIELD
LOC.            : LOCATION
SRVC.           : SERVICE COMPANY
DATE.  2018-09-11 14:48:50   : Log Export Date {yyyy-MM-dd HH:mm:ss}
PROV.           : PROVINCE
UWI.   34/4-10 R   : UNIQUE WELL ID
API.            : API NUMBER
#==================================================================
~Curve
DEPT .m                   : DEPTH
Lithology_geolink ._      : Lithology_geolink
CALI .in                  : CALI
BS .in                    : BS
ROP .m/h                  : ROP
DRHO .g/cm3               : DRHO
NPHI .m3/m3               : NPHI
RHOB .g/cm3               : RHOB
PEF .b/e                  : PEF
GR .gAPI                  : GR
DTC .us/ft                : DTC
DTS .us/ft                : DTS
RDEP .ohm.m               : RDEP
RMED .ohm.m               : RMED
~Parameter
#==================================================================
~Ascii
# ...
 3873.3984375 7.0000000000 8.3373756409 8.5000000000 3.1155629158 -0.030649800 0.1780938059 2.5572149754 5.7467927933 100.82659912 85.288360596 168.28070068 3.6707010269 4.1583609581
 3873.5507813 7.0000000000 8.3669834137 8.5000000000 3.0504691601 -0.027668400 0.1895359010 2.5508489609 5.5856556892 100.47899628 85.994377136 167.63200378 3.6911249161 4.1234660149
 3873.7031250 7.0000000000 8.3411293030 8.5000000000 3.0618565083 -0.026256161 0.2021353990 2.5284860134 5.8507890701 112.37409973 89.783309937 167.54420471 3.2464609146 4.0664958954
 3873.8557129 7.0000000000 8.3842163086 8.5000000000 3.0758719444 -0.027876610 0.2261705995 2.4987390041 5.9984712601 122.33920288 91.481353760 169.47740173 2.9802761078 4.0787611008
 3874.0080566 7.0000000000 8.3885250092 8.5000000000 3.1125655174 -0.036044501 0.2536242902 2.4795699120 6.2805314064 134.33729553 94.147842407 171.00219727 2.8937089443 4.1480259895
 3874.1604004 7.0000000000 8.3801908493 8.5000000000 3.1172268391 -0.023561230 0.2396246046 2.4961919785 5.8765840530 134.94889832 94.673553467 176.28659058 2.7791569233 3.9348299503
 3874.3127441 7.0000000000 8.3750133514 8.5000000000 3.1044204235 -0.017284250 0.2291858047 2.5238730907 5.6310977936 132.33290100 94.970001221 180.67031860 2.6854889393 3.9886159897
 3874.4650879 7.0000000000 8.3799085617 8.5000000000 3.1857886314 -0.018983459 0.2359459996 2.5185050964 5.5438237190 131.00259399 93.772224426 182.02368164 2.7955880165 3.8784310818
 3874.6176758 7.0000000000 8.3727273941 8.5000000000 3.2878561020 -0.018880179 0.2398156971 2.5154829025 5.5343008041 126.20420074 91.319351196 182.01319885 2.9104518890 3.8729200363
 3874.7700195 7.0000000000 8.3764705658 8.5000000000 3.2955923080 -0.011650410 0.2041679025 2.5181229115 5.7175145149 120.46810150 88.424583435 180.88970947 3.0572240353 4.1438670158
 3874.9223633 7.0000000000 8.3689842224 8.5000000000 3.2602589130 -0.007246912 0.1803935021 2.5439689159 5.5986881256 113.13880157 85.304153442 177.94200134 3.4704370499 4.0200018883
 3875.0747070 7.0000000000 8.3583660126 8.5000000000 3.2924308777 0.0044824481 0.1939371973 2.5642669201 5.7153263092 119.58580017 85.089157104 174.47868347 3.8116700649 4.0412077904
 3875.2272949 7.0000000000 8.4152317047 8.5000000000 3.2218759060 0.0138653498 0.2308961004 2.5685400963 5.5162973404 125.29660034 87.445068359 173.43081665 3.3401598930 4.2287030220
 3875.3796387 7.0000000000 8.4192495346 8.5000000000 3.1205320358 0.0236231405 0.2409514934 2.5608530045 5.3609876633 134.95159912 87.739349365 171.90139771 3.0954799652 4.2811961174
 3875.5319824 7.0000000000 8.4135112762 8.5000000000 3.1168498993 0.0031039710 0.2306344062 2.5326120853 5.3490176201 135.27020264 90.561660767 172.96078491 3.2745449543 4.1115379333
 3875.6843262 7.0000000000 8.4189634323 8.5000000000 3.3473026752 0.0017312770 0.2409932017 2.5215890408 5.5394034386 138.03700256 90.539733887 175.54750061 3.3755180836 4.2646570206
 3875.8369141 7.0000000000 8.4183912277 8.5000000000 3.1874721050 -0.013249790 0.2430167943 2.4972679615 5.6251673698 138.56640625 90.967933655 178.25860596 3.2016630173 4.3667111397
 3875.9892578 7.0000000000 8.4182767868 8.5000000000 3.1295101643 -0.023829300 0.2409076989 2.4818789959 5.4311933517 140.15080261 93.214904785 181.14340210 3.1583430767 4.3075881004
 3876.1416016 7.0000000000 8.4189634323 8.5000000000 3.3444011211 -0.029383609 0.2535567880 2.4804570675 5.3562116623 145.49510193 95.110458374 184.16439819 3.0461471081 4.4037690163
 3876.2939453 7.0000000000 8.4224109650 8.5000000000 3.3770127296 -0.020874500 0.2679539919 2.4838120937 5.4201750755 152.26820374 96.301696777 185.13949585 2.9214990139 4.5685839653
 3876.4465332 7.0000000000 8.4381999969 8.5000000000 3.3294327259 -0.019066170 0.2610029876 2.4841239452 5.5734028816 152.50950623 97.719909668 185.36380005 2.9320549965 4.6853418350
 3876.5988770 7.0000000000 8.4402103424 8.5000000000 3.3245398998 -0.016159359 0.2422716022 2.4826359749 5.6823778152 148.45219421 97.886306763 183.74220276 3.2603349686 4.8140091896
 3876.7512207 7.0000000000 8.4402103424 8.5000000000 3.4080269337 -0.011075550 0.2427421063 2.4925739765 5.9793624878 138.25819397 97.557502747 181.36239624 3.8687028885 4.6111450195
 3876.9035645 7.0000000000 8.4373359680 8.5000000000 3.3929960728 0.0078363419 0.2513692081 2.5053958893 5.9679851532 135.80610657 93.770713806 181.38137817 3.8084421158 4.5137410164
 3877.0559082 7.0000000000 8.4046039581 8.5000000000 3.4094166756 0.0099958181 0.2535257041 2.5118360519 5.7996149063 136.40930176 91.846786499 179.53419495 3.3625190258 4.5712051392
 3877.2084961 7.0000000000 8.3799037933 8.5000000000 3.5057039261 0.0081891427 0.2518428862 2.5284490585 5.7649536133 139.08489990 90.866821289 178.89608765 3.2243390083 4.3644537926
 3877.3608398 7.0000000000 8.3692913055 8.5000000000 3.8942501545 0.0008759499 0.2482818961 2.5379168987 6.0409412384 139.99450684 90.854507446 179.38290405 3.2074570656 4.2839579582
 3877.5131836 7.0000000000 8.3718557358 8.5000000000 4.0503077507 -0.003764697 0.2582311928 2.5385780334 6.1947565079 136.74530029 89.314765930 179.86369324 3.1443800926 4.2892360687
 3877.6655273 7.0000000000 8.3882408142 8.5000000000 3.9899179935 -0.035037018 0.2397966981 2.4979510307 6.1708850861 137.71839905 88.549278259 179.00180054 3.0663421154 4.2647271156
 3877.8181152 7.0000000000 8.3873720169 8.5000000000 4.0709357262 -0.016286690 0.2244531959 2.5154540539 5.7687664032 134.72619629 88.828109741 176.20680237 3.1657691002 4.1707501411
 3877.9704590 7.0000000000 8.3902454376 8.5000000000 4.2420091629 -0.006542200 0.2165874988 2.5338330269 5.7547788620 135.28689575 87.798576355 172.48640442 3.0014910698 4.3716030121
 3878.1228027 7.0000000000 8.3942680359 8.5000000000 4.3934168816 -0.002071348 0.2353979051 2.5413200855 5.7521123886 132.29330444 90.835968018 172.30349731 3.1212089062 4.2323279381
 3878.2751465 7.0000000000 8.3732929230 8.5000000000 4.7380614281 -0.004200879 0.1996908933 2.5494918823 6.0089626312 124.86000061 84.898330688 169.58058167 3.3374969959 4.4291720390
 3878.4277344 16.000000000 8.3385362625 8.5000000000 4.7932376862 -0.005344607 0.1153191030 2.5842609406 5.9225721359 102.75679779 79.216079712 167.02548218 4.0285019875 4.4528269768
 3878.5800781 16.000000000 8.3083639145 8.5000000000 4.7141079903 -0.021862520 0.0876282305 2.6237139702 5.5974125862 79.253852844 77.185478210 161.81399536 5.8149251938 4.1532611847
 3878.7324219 16.000000000 8.3083629608 8.5000000000 4.5600705147 -0.018012060 0.1065670028 2.6621520519 5.6483325958 78.089942932 74.908287048 154.19999695 5.5931887627 4.1030311584
 3878.8847656 16.000000000 8.3158721924 8.5000000000 4.4886612892 -0.018355200 0.1807976961 2.6190600395 6.0993986130 102.39769745 86.320396423 150.79049683 3.6301290989 4.2536611557
 3879.0371094 16.000000000 8.3569278717 8.5000000000 4.5331716537 -0.030104620 0.2451442033 2.5504310131 6.9254655838 132.07910156 91.112640381 150.14230347 2.9429540634 4.3277168274
 3879.1896973 16.000000000 8.3669834137 8.5000000000 4.5052080154 -0.022147560 0.2649689913 2.5137090683 7.1270375252 148.86219788 95.495780945 152.75979614 2.7260460854 4.1056017876
 3879.3420410 16.000000000 8.3695516586 8.5000000000 4.3688769341 0.0002962947 0.2644582987 2.5284619331 6.5638332367 156.50329590 99.149391174 162.23939514 2.6619939804 3.9434199333
 3879.4943848 16.000000000 8.3658294678 8.5000000000 3.6129384041 -0.003117949 0.2623352110 2.5199348927 5.9188776016 164.43879700 99.086891174 167.41059875 2.6573650837 3.8270909786
 3879.6467285 16.000000000 8.3658304214 8.5000000000 2.8669128418 -0.010578090 0.2723666131 2.5107760429 6.1764950752 166.97909546 99.090286255 175.70431519 2.5629920959 3.8957099915
 3879.7993164 16.000000000 8.3666772842 8.5000000000 2.4892280102 -0.012988440 0.2697980106 2.5022730827 6.9369740486 166.19259644 99.564193726 184.07469177 2.4322769642 3.8649129868
 3879.9516602 7.0000000000 8.3649835587 8.5000000000 2.4838154316 -0.019726541 0.2565915883 2.4927890301 7.6377396584 159.42449951 98.946807861 187.88011169 2.4806420803 3.8278110027
