# LAS format log file from PETREL
# Project units are specified as depth units
#==================================================================
~Version information
VERS.   2.0:
WRAP.   NO:
#==================================================================
~Well
STRT .m      1948.1618652 :
STOP .m      3612.0659180 :
STEP .m     0.00000000 :
NULL .        -999.250000 :
COMP.           : COMPANY
WELL.  34/4-2   : WELL
FLD.            : FIELD
LOC.            : LOCATION
SRVC.           : SERVICE COMPANY
DATE.  2018-09-11 14:48:50   : Log Export Date {yyyy-MM-dd HH:mm:ss}
PROV.           : PROVINCE
UWI.   34/4-2   : UNIQUE WELL ID
API.            : API NUMBER
#==================================================================
~Curve
DEPT .m                   : DEPTH
Lithology_geolink ._      : Lithology_geolink
CALI .in                  : CALI
BS .in                    : BS
DRHO .g/cm3               : DRHO
NPHI .m3/m3               : NPHI
RHOB .g/cm3               : RHOB
GR .gAPI                  : GR
DTC .us/ft                : DTC
RDEP .ohm.m               : RDEP
SP .mV                    : SP
RSHA .ohm.m               : RSHA
RMED .ohm.m               : RMED
~Parameter
#==================================================================
~Ascii
# ...
 3052.7575684 3.0000000000 9.7530002594 8.5000000000 0.0070000002 0.1855899990 2.5020000935 47.089382172 87.999992371 2.5460464954 63.800201416 2.6131682396 2.6131682396
 3052.9099121 5.0000000000 9.7530002594 8.5000000000 0.0120000001 0.2028899938 2.5090000629 48.868309021 87.843505859 2.5280578136 63.714271545 2.5541887283 2.5541887283
 3053.0625000 5.0000000000 9.7530002594 8.5000000000 0.0160000008 0.1993699968 2.5150001049 52.089839935 87.076225281 2.5519616604 63.682048798 2.6488475800 2.6488475800
 3053.2148438 5.0000000000 9.7519998550 8.5000000000 0.0149999997 0.1922300011 2.5120000839 52.702026367 86.079597473 2.6248829365 63.362514496 2.7458446026 2.7458446026
 3053.3671875 5.0000000000 9.7519998550 8.5000000000 0.0130000003 0.1931599975 2.5039999485 53.537662506 85.157485962 2.7068686485 63.230209351 2.7919263840 2.7919263840
 3053.5195313 5.0000000000 9.7519998550 8.5000000000 0.0130000003 0.1978799999 2.4949998856 54.670185089 82.535202026 2.7359535694 64.516929626 2.8968317509 2.8968317509
 3053.6718750 5.0000000000 9.7519998550 8.5000000000 0.0170000009 0.1902800053 2.4939999580 54.476627350 79.806739807 2.7409839630 65.414123535 3.3635025024 3.3635025024
 3053.8244629 5.0000000000 9.7569999695 8.5000000000 0.0219999999 0.1756599993 2.5039999485 54.937259674 78.577957153 2.7220304012 65.949142456 3.7513799667 3.7513799667
 3053.9768066 5.0000000000 9.7620000839 8.5000000000 0.0250000004 0.1692200154 2.5120000839 54.851142883 77.911071777 2.6720800400 67.119125366 3.5133829117 3.5133829117
 3054.1291504 5.0000000000 9.7670001984 8.5000000000 0.0240000002 0.1778199971 2.5179998875 54.916893005 82.872032166 2.6719999313 66.751594543 3.0717084408 3.0717084408
 3054.2814941 5.0000000000 9.7700004578 8.5000000000 0.0209999997 0.1885700077 2.5260000229 56.558727264 87.360618591 2.6470801830 64.961746216 2.7789378166 2.7789378166
 3054.4340820 5.0000000000 9.7690000534 8.5000000000 0.0199999996 0.1982900053 2.5269999504 54.102951050 88.036941528 2.5411696434 64.635513306 2.6791584492 2.6791584492
 3054.5864258 5.0000000000 9.7580003738 8.5000000000 0.0120000001 0.2101400048 2.5130000114 54.608184814 89.139228821 2.4521424770 64.245628357 2.6500465870 2.6500465870
 3054.7387695 5.0000000000 9.7159996033 8.5000000000 0.0010000000 0.2229299992 2.4969999790 51.146556854 87.361854553 2.3980865479 64.073272705 2.7358622551 2.7358622551
 3054.8911133 3.0000000000 9.6160001755 8.5000000000 -0.003000000 0.2333299965 2.4839999676 47.976158142 89.804145813 2.3541409969 63.349319458 2.7429776192 2.7429776192
 3055.0437012 3.0000000000 9.4870004654 8.5000000000 -0.007000000 0.2347800136 2.4709999561 42.530723572 89.389678955 2.3789598942 62.558261871 2.6082162857 2.6082162857
 3055.1960449 3.0000000000 9.2489995956 8.5000000000 -0.010000000 0.2326700091 2.4479999542 39.884235382 86.563529968 2.5337514877 61.223140717 2.3574023247 2.3574023247
 3055.3483887 3.0000000000 8.9289999008 8.5000000000 -0.013000000 0.2264299989 2.4309999943 36.292755127 83.066612244 2.7107162476 60.394329071 2.3090770245 2.3090770245
 3055.5007324 3.0000000000 8.7080001831 8.5000000000 -0.016000001 0.2099500149 2.4289999008 34.446952820 80.609939575 2.8707437515 60.034576416 2.7622723579 2.7622723579
 3055.6530762 3.0000000000 8.6239995956 8.5000000000 -0.021000000 0.1881200075 2.4479999542 35.034103394 76.822143555 3.0334782600 59.909400940 3.8345601559 3.8345601559
 3055.8056641 3.0000000000 8.6180000305 8.5000000000 -0.022000000 0.1883700043 2.4739999771 39.640605927 74.753303528 3.1368350983 59.753250122 4.8264136314 4.8264136314
 3055.9580078 3.0000000000 8.6949996948 8.5000000000 -0.013000000 0.2114100009 2.4920001030 41.754619598 78.291320801 3.2108814716 61.203674316 4.8829116821 4.8829116821
 3056.1103516 3.0000000000 8.9139995575 8.5000000000 -0.006000000 0.2486700118 2.4960000515 44.620407104 82.883636475 3.2409517765 61.923847198 3.9604809284 3.9604809284
 3056.2626953 3.0000000000 9.3369998932 8.5000000000 -0.003000000 0.2678599954 2.4969999790 47.785854340 85.738861084 3.0894863605 60.849452972 2.8395936489 2.8395936489
 3056.4152832 3.0000000000 9.8109998703 8.5000000000 0.0010000000 0.2611800134 2.5090000629 57.222866058 88.685287476 2.8863251209 61.674667358 2.2768974304 2.2768974304
 3056.5676270 6.0000000000 10.371999741 8.5000000000 0.0109999999 0.2509900033 2.5230000019 61.082828522 90.449180603 2.6483814716 62.821166992 2.2260801792 2.2260801792
 3056.7199707 6.0000000000 10.932999611 8.5000000000 0.0189999994 0.2480600029 2.5230000019 63.652885437 89.611351013 2.4113798141 62.738140106 2.1860642433 2.1860642433
 3056.8723145 6.0000000000 11.392000198 8.5000000000 0.0120000001 0.2569800019 2.5139999390 63.715812683 90.705482483 2.2704510689 63.542411804 2.1202111244 2.1202111244
 3057.0249023 5.0000000000 11.323000908 8.5000000000 0.0060000001 0.2670599818 2.5090000629 61.557464600 93.258911133 2.2090978622 64.624267578 1.9682435989 1.9682435989
 3057.1772461 5.0000000000 11.034000397 8.5000000000 0.0020000001 0.2774800062 2.5079998970 58.785442352 92.423347473 2.1670672894 63.957073212 1.9150848389 1.9150848389
 3057.3295898 5.0000000000 10.744999886 8.5000000000 0.0010000000 0.2801100016 2.5069999695 58.508438110 91.767051697 2.1340529919 63.994934082 2.0008621216 2.0008621216
 3057.4819336 5.0000000000 10.682001114 8.5000000000 0.0040000002 0.2763400078 2.5169999599 57.829090118 88.879631042 2.0990560055 65.242996216 2.2086668015 2.2086668015
 3057.6345215 5.0000000000 10.682001114 8.5000000000 0.0089999996 0.2675800025 2.5380001068 59.022083282 86.973052979 2.0610609055 66.464050293 2.3727374077 2.3727374077
 3057.7868652 5.0000000000 10.620999336 8.5000000000 0.0089999996 0.2544000149 2.5460000038 59.580108643 86.159301758 2.0230607986 65.193046570 2.3849806786 2.3849806786
 3057.9392090 6.0000000000 10.550999641 8.5000000000 0.0089999996 0.2545500100 2.5350000858 62.998516083 87.827323914 2.0060272217 65.783042908 2.2352402210 2.2352402210
 3058.0915527 6.0000000000 10.527000427 8.5000000000 0.0080000004 0.2662500143 2.5199999809 66.072082520 89.076004028 1.9900256395 66.003646851 2.0552885532 2.0552885532
 3058.2438965 6.0000000000 10.560999870 8.5000000000 0.0099999998 0.2809000015 2.5090000629 65.676292419 89.456787109 1.9750480652 66.844299316 1.8935184479 1.8935184479
 3058.3964844 6.0000000000 10.578000069 8.5000000000 0.0089999996 0.2887000144 2.4990000725 67.657821655 92.110740662 1.9740015268 66.498558044 1.8001489639 1.8001489639
 3058.5488281 6.0000000000 10.567999840 8.5000000000 0.0030000000 0.2810100019 2.4890000820 68.748252869 93.560684204 1.9739999771 64.958473206 1.7241218090 1.7241218090
 3058.7011719 6.0000000000 10.559000015 8.5000000000 0.0000000000 0.2740100026 2.4849998951 67.610832214 93.547019958 1.9710047245 64.722373962 1.7509567738 1.7509567738
 3058.8535156 6.0000000000 10.563000679 8.5000000000 -0.001000000 0.2721900046 2.4939999580 68.637695313 94.080291748 1.9909360409 64.644248962 1.8566608429 1.8566608429
 3059.0061035 6.0000000000 10.563000679 8.5000000000 0.0000000000 0.2688699961 2.5120000839 68.985450745 90.363967896 2.0389230251 63.965091705 2.0277261734 2.0277261734
 3059.1584473 6.0000000000 10.472000122 8.5000000000 0.0020000001 0.2598100007 2.5169999599 70.982795715 89.533325195 2.0989038944 64.449218750 2.1607868671 2.1607868671
 3059.3107910 6.0000000000 10.378000259 8.5000000000 -0.001000000 0.2465000004 2.4979999065 71.151733398 90.466499329 2.1938476563 65.593162537 2.2618381977 2.2618381977
 3059.4631348 6.0000000000 10.468999863 8.5000000000 -0.006000000 0.2399500012 2.4739999771 66.529838562 89.141258240 2.3245809078 63.977195740 2.3387537003 2.3387537003
 3059.6157227 5.0000000000 10.633000374 8.5000000000 -0.007000000 0.2347500026 2.4690001011 63.153392792 85.503829956 2.4258382320 63.761341095 2.4288556576 2.4288556576
 3059.7680664 5.0000000000 10.689001083 8.5000000000 0.0010000000 0.2278400064 2.4930000305 56.074352264 83.300529480 2.4908957481 63.807926178 2.4719309807 2.4719309807
 3059.9204102 5.0000000000 10.680999756 8.5000000000 0.0120000001 0.2129800022 2.5199999809 56.647060394 81.533828735 2.5229487419 63.566387177 2.5758333206 2.5758333206
