# LAS format log file from PETREL
# Project units are specified as depth units
#==================================================================
~Version information
VERS.   2.0:
WRAP.   NO:
#==================================================================
~Well
STRT .m      3631.9968262 :
STOP .m      4250.8930664 :
STEP .m     0.00000000 :
NULL .        -999.250000 :
COMP.           : COMPANY
WELL.  34/4-10 R   : WELL
FLD.            : FIELD
LOC.            : LOCATION
SRVC.           : SERVICE COMPANY
DATE.  2018-09-11 14:48:50   : Log Export Date {yyyy-MM-dd HH:mm:ss}
PROV.           : PROVINCE
UWI.   34/4-10 R   : UNIQUE WELL ID
API.            : API NUMBER
#==================================================================
~Curve
DEPT .m                   : DEPTH
Lithology_geolink ._      : Lithology_geolink
CALI .in                  : CALI
BS .in                    : BS
ROP .m/h                  : ROP
DRHO .g/cm3               : DRHO
NPHI .m3/m3               : NPHI
RHOB .g/cm3               : RHOB
PEF .b/e                  : PEF
GR .gAPI                  : GR
DTC .us/ft                : DTC
DTS .us/ft                : DTS
RDEP .ohm.m               : RDEP
RMED .ohm.m               : RMED
~Parameter
#==================================================================
~Ascii
# ...
 4242.2060547  -999.250000 8.3832883835 8.5000000000 13.805250168 -0.043839470 0.3381656110 2.4892480373  -999.250000 83.239982605 103.40869904 223.11520386 1.1440989971 1.3717199564
 4242.3588867  -999.250000 8.3832883835 8.5000000000 14.290935516 -0.043839470 0.3381662965 2.4892480373  -999.250000 83.239982605 103.40869904 223.11520386 1.2187039852 1.4501090050
 4242.5112305  -999.250000 8.3832883835 8.5000000000 13.810546875 -0.043839470 0.3381670117 2.4892480373  -999.250000 83.239982605 103.40869904 223.11520386 1.2863210440 1.4762099981
 4242.6635742  -999.250000 8.3832883835 8.5000000000 13.522603989 -0.043839470 0.3381676078 2.4892480373  -999.250000 83.239982605 103.40869904 223.11520386 1.3492980003 1.4892719984
 4242.8159180  -999.250000 8.3832883835 8.5000000000 13.590241432 -0.043839470 0.3381682932 2.4892480373  -999.250000 83.239982605 103.40869904 223.11520386 1.6818710566 1.5729529858
 4242.9682617  -999.250000 8.3832883835 8.5000000000 13.785449028 -0.043839470 0.3381690085 2.4892480373  -999.250000 83.239982605 103.40869904 224.96595764 1.8699431419 1.5143907070
 4243.1206055  -999.250000 8.3832883835 8.5000000000 13.431501389 -0.043839470 0.3381696939 2.4892480373  -999.250000 83.239982605 103.40869904 225.84269714 1.6712718010 1.6494241953
 4243.2729492  -999.250000 8.3832883835 8.5000000000 12.566651344 -0.043839470 0.3381702900 2.4892480373  -999.250000 83.239982605 103.40869904 224.86006165 1.4386180639 1.7438019514
 4243.4252930  -999.250000 8.3832883835 8.5000000000 12.809945107 -0.043839470 0.3381710052 2.4892480373  -999.250000 83.239982605 103.40869904 226.24464417 1.3953986168 1.6998413801
 4243.5776367  -999.250000 8.3832883835 8.5000000000 13.071900368 -0.043839470 0.3381716907 2.4892480373  -999.250000 83.239982605 103.40869904 222.89875793 1.3586666584 1.7280188799
 4243.7304688  -999.250000 8.3832883835 8.5000000000 13.071900368 -0.043839470 0.3381724060 2.4892480373  -999.250000 83.239982605 103.40869904 209.39759827 1.5879930258 1.5484639406
 4243.8828125  -999.250000 8.3832883835 8.5000000000 13.071900368 -0.043839470 0.3381730914 2.4892480373  -999.250000 83.239982605 103.40869904 209.39759827 1.5879930258 1.5484639406
 4244.0351563  -999.250000 8.3832883835 8.5000000000 14.939403534 -0.043839470 0.3381736875 2.4892480373  -999.250000 83.239982605 103.40869904 209.39759827  -999.250000  -999.250000
 4244.1875000  -999.250000 8.3832883835 8.5000000000 16.877243042 -0.043839470 0.3381744027 2.4892480373  -999.250000 83.239982605 103.40869904 161.40641785  -999.250000  -999.250000
 4244.3398438  -999.250000 8.3832883835  -999.250000 17.882764816 -0.043839470 0.3381750882 2.4892480373  -999.250000 83.239982605 103.40869904 161.25259399  -999.250000  -999.250000
 4244.4921875  -999.250000 8.3832883835  -999.250000 18.945709229 -0.043839470 0.3381758034 2.4892480373  -999.250000 83.239982605 103.40869904 161.25259399  -999.250000  -999.250000
 4244.6445313  -999.250000 8.3832883835  -999.250000 20.222797394 -0.043839470 0.3381764889 2.4892480373  -999.250000 83.239982605 103.40869904 161.25259399  -999.250000  -999.250000
 4244.7968750  -999.250000 8.3832883835  -999.250000 26.251272202 -0.043839470 0.3381771147 2.4892480373  -999.250000 83.239982605 103.40869904 161.25259399  -999.250000  -999.250000
 4244.9492188  -999.250000 8.3832883835  -999.250000 27.457366943 -0.043839470 0.3381778002 2.4892480373  -999.250000 83.239982605 103.40869904 161.25259399  -999.250000  -999.250000
 4245.1020508  -999.250000 8.3832883835  -999.250000 20.749687195 -0.043839470 0.3381784856 2.4892480373  -999.250000 83.239982605 103.40869904 161.25259399  -999.250000  -999.250000
 4245.2543945  -999.250000 8.3832883835  -999.250000 16.568920135 -0.043839470 0.3381792009 2.4892480373  -999.250000 83.239982605 103.40869904 161.25259399  -999.250000  -999.250000
 4245.4067383  -999.250000 8.3832883835  -999.250000 15.613221169 -0.043839470 0.3381798863 2.4892480373  -999.250000 83.239982605 103.40869904 161.25259399  -999.250000  -999.250000
 4245.5590820  -999.250000 8.3832883835  -999.250000 15.523780823 -0.043839470 0.3381805122 2.4892480373  -999.250000 83.239982605  -999.250000 161.25259399  -999.250000  -999.250000
 4245.7114258  -999.250000 8.3832883835  -999.250000 15.552498817 -0.043839470 0.3381811976 2.4892480373  -999.250000 83.239982605  -999.250000 161.25259399  -999.250000  -999.250000
 4245.8637695  -999.250000 8.3832883835  -999.250000 15.347565651 -0.043839470 0.3381819129 2.4892480373  -999.250000 83.239982605  -999.250000 161.25259399  -999.250000  -999.250000
 4246.0161133  -999.250000 8.3832883835  -999.250000 15.701807976 -0.043839470 0.3381825089 2.4892480373  -999.250000 83.239982605  -999.250000 161.25259399  -999.250000  -999.250000
 4246.1684570  -999.250000 8.3832883835  -999.250000 15.914500237 -0.043839470 0.3381831944 2.4892480373  -999.250000 83.239982605  -999.250000 161.25259399  -999.250000  -999.250000
 4246.3212891  -999.250000 8.3832883835  -999.250000 17.256128311 -0.043839470 0.3381839097 2.4892480373  -999.250000 83.239982605  -999.250000 161.25259399  -999.250000  -999.250000
 4246.4736328  -999.250000 8.3832883835  -999.250000 17.885999680 -0.043839470 0.3381845057 2.4892480373  -999.250000 83.239982605  -999.250000 161.25259399  -999.250000  -999.250000
 4246.6259766  -999.250000 8.3832883835  -999.250000 19.708518982 -0.043839470 0.3381851912 2.4892480373  -999.250000 83.239982605  -999.250000 161.25259399  -999.250000  -999.250000
 4246.7783203  -999.250000 8.3832883835  -999.250000 26.547889709 -0.043839470 0.3381859064 2.4892480373  -999.250000 83.239982605  -999.250000 161.25259399  -999.250000  -999.250000
 4246.9306641  -999.250000 8.3832883835  -999.250000 29.368499756 -0.043839470 0.3381865919 2.4892480373  -999.250000 83.239982605  -999.250000 161.25259399  -999.250000  -999.250000
 4247.0830078  -999.250000 8.3832883835  -999.250000 31.362184525 -0.043839470 0.3381871879 2.4892480373  -999.250000 83.239982605  -999.250000 161.25259399  -999.250000  -999.250000
 4247.2353516  -999.250000 8.3832883835  -999.250000 31.555572510 -0.043839470 0.3381879032 2.4892480373  -999.250000 83.239982605  -999.250000 161.25259399  -999.250000  -999.250000
 4247.3876953  -999.250000 8.3832883835  -999.250000 31.571210861 -0.043839470 0.3381885886 2.4892480373  -999.250000 83.239982605  -999.250000  -999.250000  -999.250000  -999.250000
 4247.5400391  -999.250000 8.3832883835  -999.250000 30.562425613 -0.043839470 0.3381893039 2.4892480373  -999.250000 83.239982605  -999.250000  -999.250000  -999.250000  -999.250000
 4247.6928711  -999.250000 8.3832883835  -999.250000 28.364736557 -0.043839470 0.3381898999 2.4892480373  -999.250000 83.239982605  -999.250000  -999.250000  -999.250000  -999.250000
 4247.8452148  -999.250000 8.3832883835  -999.250000 26.695499420 -0.043839470 0.3381905854 2.4892480373  -999.250000 83.239982605  -999.250000  -999.250000  -999.250000  -999.250000
 4247.9975586  -999.250000 8.3832883835  -999.250000 23.648004532 -0.043839470 0.3381913006 2.4892480373  -999.250000 83.239982605  -999.250000  -999.250000  -999.250000  -999.250000
 4248.1499023  -999.250000 8.3832883835  -999.250000 22.410600662 -0.043839470 0.3381919861 2.4892480373  -999.250000 83.239982605  -999.250000  -999.250000  -999.250000  -999.250000
 4248.3022461  -999.250000 8.3832883835  -999.250000  -999.250000 -0.043839470 0.3381927013 2.4892480373  -999.250000 83.239982605  -999.250000  -999.250000  -999.250000  -999.250000
 4248.4545898  -999.250000 8.3832883835  -999.250000  -999.250000 -0.043839470 0.3381932974 2.4892480373  -999.250000 83.239982605  -999.250000  -999.250000  -999.250000  -999.250000
 4248.6069336  -999.250000 8.3832883835  -999.250000  -999.250000 -0.043839470 0.3381940126 2.4892480373  -999.250000 83.239982605  -999.250000  -999.250000  -999.250000  -999.250000
 4248.7592773  -999.250000 8.3832883835  -999.250000  -999.250000 -0.043839470 0.3381946981 2.4892480373  -999.250000 83.239982605  -999.250000  -999.250000  -999.250000  -999.250000
