# LAS format log file from PETREL
# Project units are specified as depth units
#==================================================================
~Version information
VERS.   2.0:
WRAP.   NO:
#==================================================================
~Well
STRT .m      3631.9968262 :
STOP .m      4250.8930664 :
STEP .m     0.00000000 :
NULL .        -999.250000 :
COMP.           : COMPANY
WELL.  34/4-10 R   : WELL
FLD.            : FIELD
LOC.            : LOCATION
SRVC.           : SERVICE COMPANY
DATE.  2018-09-11 14:48:50   : Log Export Date {yyyy-MM-dd HH:mm:ss}
PROV.           : PROVINCE
UWI.   34/4-10 R   : UNIQUE WELL ID
API.            : API NUMBER
#==================================================================
~Curve
DEPT .m                   : DEPTH
Lithology_geolink ._      : Lithology_geolink
CALI .in                  : CALI
BS .in                    : BS
ROP .m/h                  : ROP
DRHO .g/cm3               : DRHO
NPHI .m3/m3               : NPHI
RHOB .g/cm3               : RHOB
PEF .b/e                  : PEF
GR .gAPI                  : GR
DTC .us/ft                : DTC
DTS .us/ft                : DTS
RDEP .ohm.m               : RDEP
RMED .ohm.m               : RMED
~Parameter
#==================================================================
~Ascii
 3631.9968262  -999.250000 8.3729629517 12.250000954 10.789728165 -1.028769016 0.5143936872 2.0325770378  -999.250000 46.557991028 102.97207642 207.60060120 1.4134550095 1.4128500223
 3632.1494141  -999.250000 8.3715248108 12.250000954 11.072814941 -1.028769016 0.5143936872 2.0325770378  -999.250000 46.557991028 103.02260590 207.59663391 1.0502890348 1.2609620094
 3632.3017578  -999.250000 8.3715257645 12.250000954 11.294199944 -1.028769016 0.5143936872 2.0325770378  -999.250000 46.557991028 104.45948792 206.36166382 1.0447629690 1.2479590178
 3632.4541016  -999.250000 8.3718090057 12.250000954 9.8426618576 -1.028769016 0.5143936872 2.0325770378  -999.250000 46.557991028 106.00778961 205.77249146 1.0978050232 1.2487850189
 3632.6064453  -999.250000 8.3698997498 12.250000954 9.0602922440 -1.028769016 0.5143936872 2.0325770378  -999.250000 46.557991028 106.49323273 205.20637512 1.1040970087 1.2601170540
 3632.7590332  -999.250000 8.3715248108 12.250000954 9.1147403717 -1.028769016 0.5143936872 2.0325770378  -999.250000 46.557991028 105.38200378 204.94451904 1.0908379555 1.2515000105
 3632.9113770  -999.250000 8.3726806641 12.250000954 9.5499582291 -1.028769016 0.5143936872 2.0325770378  -999.250000 45.811538696 103.19664001 205.00881958 1.2137989998 1.3606929779
 3633.0637207  -999.250000 8.3715248108 12.250000954 9.7309999466 -1.028769016 0.5143936872 2.0325770378  -999.250000 44.381401062 101.10200500 204.84475708 1.2008420229 1.3078520298
 3633.2160645  -999.250000 8.3741188049 12.250000954 10.333424568 -1.028769016 0.5143936872 2.0325770378  -999.250000 43.225090027 99.862792969 205.00619507 1.2276220322 1.3463890553
 3633.3684082  -999.250000 8.3718090057 12.250000954 15.103268623 -1.028769016 0.5143936872 2.0325770378  -999.250000 45.816699982 100.36278534 205.62486267 1.2831770182 1.3430420160
 3633.5209961  -999.250000 8.3729629517 12.250000954 17.584449768 -1.028769016 0.5143936872 2.0325770378  -999.250000 48.894309998 102.72660065 205.53880310 1.2888180017 1.3306020498
 3633.6733398  -999.250000 8.3741178513 12.250000954 17.761137009 -1.028769016 0.5143936872 2.0325770378  -999.250000 50.033828735 104.47106171 205.53880310 1.2816129923 1.3576819897
 3633.8256836  -999.250000 8.3752727509 12.250000954 19.558868408 -1.011206985 0.5143936872 2.0539100170  -999.250000 48.643749237 104.50605011 205.53880310 1.2695009708 1.3854349852
 3633.9780273  -999.250000 8.3729629517 12.250000954 19.954214096 -0.980283380 0.5143936872 2.0805399418  -999.250000 48.164421082 103.90843964 205.53776550 1.2981059551 1.3669940233
 3634.1306152  -999.250000 8.3752498627 12.250000954 20.015340805 -0.957845390 0.5143936872 2.1009840965  -999.250000 50.745368958 102.93514252 204.88072205 1.2896900177 1.3571189642
 3634.2829590  -999.250000 8.3746833801 12.250000954 19.016464233 -0.953761697 0.5143936872 2.1274449825  -999.250000 50.007011414 102.67316437 202.49029541 1.3051110506 1.3845590353
 3634.4353027  -999.250000 8.3732461929 12.250000954 18.491199493 -0.946733177 0.5143936872 2.1647300720  -999.250000 49.031349182 104.02381897 202.42916870 1.2743419409 1.3435649872
 3634.5876465  -999.250000 8.3746833801 12.250000954 16.488388062 -0.955514908 0.5143936872 2.1768798828  -999.250000 47.065979004 105.15639496 201.59179688 1.2743419409 1.3435649872
 3634.7402344  -999.250000 8.3729629517 12.250000954 15.063158035 -0.976929426 0.5143936872 2.1429378986  -999.250000 48.938961029 104.65099335 200.88763428 1.2347329855 1.3508770466
 3634.8925781  -999.250000 8.3732461929 12.250000954 14.836600304 -1.009461999 0.5143936872 2.1111502647  -999.250000 51.213481903 104.27981567 200.55888367 1.2181550264 1.3067359924
 3635.0449219  -999.250000 8.3721933365 12.250000954 14.367260933 -1.024178982 0.5143936872 2.0894370079  -999.250000 49.777469635 106.66270447 203.79586792 1.2372440100 1.3849829435
 3635.1972656  -999.250000 8.3729629517 12.250000954 14.122776031 -1.023648024 0.5143936872 2.1012361050  -999.250000 48.923069000 112.09395599 205.83454895 1.2625160217 1.3845219612
 3635.3496094  -999.250000 8.3746833801 12.250000954 13.466547966 -1.022379994 0.5143936872 2.1109108925  -999.250000 49.381919861 117.17855072 207.66859436 1.2573670149 1.3281699419
 3635.5021973  -999.250000 8.3755331039 12.250000954 13.164699554 -1.005803943 0.5143936872 2.1364290714  -999.250000 49.912059784 119.38421631 208.45674133 1.2623469830 1.3959180117
 3635.6545410  -999.250000 8.3735294342 12.250000954 13.048282623 -0.985494494 0.5143936872 2.1867380142  -999.250000 48.768020630 119.72528839 209.02635193 1.2662210464 1.3436000347
 3635.8068848  -999.250000 8.3752727509 12.250000954 12.940025330 -0.963933110 0.5143936872 2.2607159615  -999.250000 45.570220947 116.20043945 208.11454773 1.2413890362 1.3334159851
 3635.9592285  -999.250000 8.3740959167 12.250000954 12.425709724 -0.932378411 0.5143936872 2.3810911179  -999.250000 45.339370728 99.677520752 204.64819336 1.2396899462 1.3474409580
 3636.1118164  -999.250000 8.3748655319 12.250000954 12.899600029 -0.929822922 0.5143936872 2.4575159550  -999.250000 45.301761627 75.511260986 203.20480347 1.2268010378 1.3328269720
 3636.2641602  -999.250000 8.3715257645 12.250000954 14.241406441 -0.955851614 0.5143936872 2.4292581081  -999.250000 45.450000763 69.730239868 203.26727295 1.2319680452 1.3351459503
 3636.4165039  -999.250000 8.3703708649 12.250000954 14.596817017 -0.970073283 0.5143936872 2.4089961052  -999.250000 46.177021027 86.254562378 202.81072998 1.2790700197 1.3501960039
 3636.5688477  -999.250000 8.3718090057 12.250000954 15.537089348 -0.997639418 0.5143936872 2.3158500195  -999.250000 46.176929474 100.64202118 202.76884460 1.2679040432 1.3453650475
 3636.7214355  -999.250000 8.3732461929 12.250000954 16.003400803 -1.008649945 0.5143936872 2.2469561100  -999.250000 46.078090668 100.95373535 203.24943542 1.2647819519 1.3420660496
 3636.8737793  -999.250000 8.3720912933 12.250000954 16.862079620 -1.011659026 0.5143936872 2.1755189896  -999.250000 46.465469360 96.664443970 204.47843933 1.2964279652 1.3377050161
 3637.0261230  -999.250000 8.3703718185 12.250000954 18.625175476 -1.026643991 0.5143936872 2.1316320896  -999.250000 46.532089233 95.767150879 205.12586975 1.2923860550 1.3319799900
 3637.1784668  -999.250000 8.3729629517 12.250000954 18.993120193 -1.016798019 0.5143936872 2.1458530426  -999.250000 46.625980377 96.524406433 205.35809326 1.2620480061 1.3265930414
 3637.3308105  -999.250000 8.3715257645 12.250000954 18.866800308 -1.019955039 0.5143936872 2.1655840874  -999.250000 44.269309998 97.409324646 205.85485840 1.2534359694 1.3662979603
 3637.4833984  -999.250000 8.3702764511 12.250000954 22.213562012 -1.014372945 0.5143936872 2.1844539642  -999.250000 45.595771790 98.866592407 206.06477356 1.2283660173 1.3667960167
 3637.6357422  -999.250000 8.3741178513 12.250000954 23.095884323 -1.011852980 0.5143936872 2.1973190308  -999.250000 47.320289612 100.55951691 202.95277405 1.2325049639 1.3716069460
 3637.7880859  -999.250000 8.3706541061 12.250000954 21.484128952 -1.004513025 0.5143936872 2.1917929649  -999.250000 51.062801361 102.19348145 198.17967224 1.2090320587 1.3845009804
 3637.9404297  -999.250000 8.3741178513 12.250000954 18.328947067 -1.012107968 0.5143936872 2.1787419319  -999.250000 50.153110504 104.05421448 194.12033081 1.2635530233 1.3956120014
 3638.0930176  -999.250000 8.3735294342 12.250000954 16.207880020 -1.003726006 0.5143936872 2.1938850880  -999.250000 46.767959595 104.18009186 191.58126831 1.2696260214 1.3747149706
 3638.2453613  -999.250000 8.3732461929 12.250000954 15.505224228 -0.991534889 0.5143936872 2.2350230217  -999.250000 42.882038116 101.40218353 190.72322083 1.2548630238 1.4041969776
 3638.3977051  -999.250000 8.3732471466 12.250000954 15.378500938 -0.997808516 0.5143936872 2.2186539173  -999.250000 43.077709198 99.462135315 190.18244934 1.3090310097 1.3914929628
 3638.5500488  -999.250000 8.3725709915 12.250000954 13.267734528 -1.017220020 0.5143936872 2.1711039543  -999.250000 45.691478729 100.18035126 192.58628845 1.2523460388 1.3639400005
