# LAS format log file from PETREL
# Project units are specified as depth units
#==================================================================
~Version information
VERS.   2.0:
WRAP.   NO:
#==================================================================
~Well
STRT .m      986.78210449 :
STOP .m      4467.4443359 :
STEP .m     0.00000000 :
NULL .        -999.250000 :
COMP.           : COMPANY
WELL.  34/4-3   : WELL
FLD.            : FIELD
LOC.            : LOCATION
SRVC.           : SERVICE COMPANY
DATE.  2018-09-11 14:48:50   : Log Export Date {yyyy-MM-dd HH:mm:ss}
PROV.           : PROVINCE
UWI.   34/4-3   : UNIQUE WELL ID
API.            : API NUMBER
#==================================================================
~Curve
DEPT .m                   : DEPTH
Lithology_geolink ._      : Lithology_geolink
CALI .in                  : CALI
DRHO .g/cm3               : DRHO
NPHI .m3/m3               : NPHI
RHOB .g/cm3               : RHOB
GR .gAPI                  : GR
DTC .us/ft                : DTC
RDEP .ohm.m               : RDEP
SP .mV                    : SP
RSHA .ohm.m               : RSHA
RMED .ohm.m               : RMED
~Parameter
#==================================================================
~Ascii
# ...
 1453.1258545  -999.250000 18.728000641 0.0109999999 0.5214799643 1.9859999418 36.691505432 153.13410950 0.8680223823 90.178413391 0.8490560651 0.8490560651
 1453.2783203  -999.250000 18.020000458 0.0209999997 0.5087900162 1.9910000563 37.324405670 154.76681519 0.8720319867 89.188026428 0.8590256572 0.8590256572
 1453.4306641  -999.250000 17.704000473 0.0179999992 0.5078099966 1.9769999981 39.101360321 157.39532471 0.8769887686 89.192024231 0.8630336523 0.8630336523
 1453.5831299  -999.250000 18.104999542 0.0099999998 0.5190399885 1.9659999609 40.417411804 161.00639343 0.8749679923 89.196022034 0.8689808249 0.8689808249
 1453.7354736  -999.250000 18.134000778 -0.003000000 0.4985400140 1.9490000010 42.170993805 162.00631714 0.8699551225 89.202827454 0.8658990264 0.8658990264
 1453.8879395  -999.250000 17.608999252 -0.007000000 0.5024399757 1.9320000410 39.143791199 163.13301086 0.8619807959 89.700828552 0.8478590846 0.8478590846
 1454.0402832  -999.250000 17.416999817 -0.001000000 0.4848600030 1.9370000362 37.226688385 164.38481140 0.8589719534 89.205238342 0.8258092999 0.8258092999
 1454.1927490  -999.250000 17.443000793 0.0080000004 0.5190399885 1.9440000057 33.105209351 166.12500000 0.8540384173 88.719230652 0.7919359207 0.7919359207
 1454.3450928  -999.250000 17.500000000 0.0060000001 0.5102500319 1.9309999943 34.847682953 166.09835815 0.8600168228 89.222846985 0.7819383144 0.7819383144
 1454.4974365  -999.250000 17.944000244 -0.002000000 0.5332000256 1.9160000086 35.502456665 161.35818481 0.8630223870 89.726646423 0.7710056305 0.7710056305
 1454.6499023  -999.250000 18.614999771 -0.015000000 0.4985400140 1.9550000429 35.959033966 158.33995056 0.8669607043 89.667808533 0.7722468376 0.7722468376
 1454.8022461  -999.250000 18.628000259 0.0010000000 0.5127000213 2.0329999924 39.677837372 152.12640381 0.8600000143 90.165000916 0.8163474798 0.8163474798
 1454.9547119  -999.250000 17.839000702 0.0099999998 0.4658200145 2.0409998894 37.879909515 152.38130188 0.8600056171 90.165000916 0.8781458735 0.8781458735
 1455.1070557  -999.250000 18.047000885 0.0120000001 0.4936500192 1.9730000496 38.744743347 153.52032471 0.8610448837 90.162193298 0.9037195444 0.9037195444
 1455.2595215  -999.250000 18.177000046 -0.004000000 0.5341799855 1.9119999409 37.818199158 157.16102600 0.8691024780 89.668205261 0.8537373543 0.8537373543
 1455.4118652  -999.250000 18.297000885 -0.003000000 0.5678699613 1.9019999504 38.624126434 162.73878479 0.8850167990 90.167808533 0.8129607439 0.8129607439
 1455.5643311  -999.250000 18.399999619 0.0030000000 0.5581099987 1.9190000296 38.488018036 160.73078918 0.8879103661 90.665000916 0.8060768843 0.8060768843
 1455.7166748  -999.250000 18.544000626 -0.001000000 0.4858399928 1.9190000296 41.458332062 157.73738098 0.8739158511 90.665000916 0.8180449009 0.8180449009
 1455.8691406  -999.250000 19.412000656 -0.002000000 0.4780300260 1.9490000010 45.074806213 155.47998047 0.8589552045 90.658592224 0.8260127902 0.8260127902
 1456.0214844  -999.250000 19.048000336 0.0070000002 0.4609400034 1.9550000429 46.877605438 152.38479614 0.8519551158 89.662193298 0.8279607296 0.8279607296
 1456.1739502  -999.250000 17.827999115 0.0030000000 0.5429700017 1.9309999943 41.823787689 154.13540649 0.8440256119 89.161796570 0.8209871650 0.8209871650
 1456.3262939  -999.250000 17.833000183 0.0000000000 0.5312500000 1.8980000019 38.697635651 155.76121521 0.8480224013 88.665000916 0.8189551234 0.8189551234
 1456.4787598  -999.250000 17.766000748 -0.001000000 0.5292999744 1.8819999695 40.425815582 157.74839783 0.8520128131 88.665000916 0.8109230995 0.8109230995
 1456.6311035  -999.250000 17.697999954 0.0080000004 0.4545899928 1.9029999971 43.496849060 157.50000000 0.8539775610 88.665000916 0.7990673184 0.7990673184
 1456.7834473  -999.250000 17.760999680 0.0179999992 0.4858399928 1.9240000248 42.931514740 157.49229431 0.8499776125 88.667800903 0.8109831810 0.8109831810
 1456.9359131  -999.250000 18.114999771 0.0240000002 0.4687500000 1.9559999704 41.773986816 156.12640381 0.8459663391 89.167785645 0.8080449104 0.8080449104
 1457.0882568  -999.250000 18.170999527 0.0070000002 0.4921900034 1.9529999495 40.526973724 156.37359619 0.8399775624 89.663803101 0.8158598542 0.8158598542
 1457.2407227  -999.250000 17.943000793 0.0020000001 0.4594699740 1.9459999800 39.802658081 156.14672852 0.8360168338 90.158195496 0.7910448909 0.7910448909
 1457.3930664  -999.250000 17.895999908 -0.008000000 0.4755899906 1.9149999619 37.948314667 159.99299622 0.8390223980 89.661003113 0.7990561128 0.7990561128
 1457.5455322  -999.250000 17.818000793 -0.002000000 0.5327100158 1.9129999876 34.281204224 158.75881958 0.8430512547 89.657798767 0.8091152906 0.8091152906
 1457.6978760  -999.250000 17.797000885 -0.006000000 0.5297899842 1.9170000553 34.312644958 160.12500000 0.8510504961 89.163787842 0.8269495368 0.8269495368
 1457.8503418  -999.250000 18.042999268 -0.006000000 0.5732400417 1.9190000296 34.277626038 160.12420654 0.8600063920 89.653793335 0.8179872036 0.8179872036
 1458.0026855  -999.250000 18.170000076 -0.013000000 0.5043900013 1.9270000458 38.566150665 159.99159241 0.8610168099 89.165412903 0.8161289692 0.8161289692
 1458.1551514  -999.250000 17.724000931 -0.005000000 0.5014600158 1.9709999561 39.105388641 158.49919128 0.8640128374 90.663391113 0.8391024470 0.8391024470
 1458.3074951  -999.250000 17.754999161 0.0070000002 0.5400400162 2.0209999084 36.039421082 158.35606384 0.8659943938 91.652183533 0.8549719453 0.8549719453
 1458.4599609  -999.250000 17.766000748 0.0099999998 0.5844699740 2.0079998970 31.868106842 154.99359131 0.8649936318 91.143363953 0.8498783112 0.8498783112
 1458.6123047  -999.250000 17.912000656 -0.002000000 0.6069300175 1.9620000124 33.292568207 154.00631714 0.8640280962 89.648979187 0.8309214711 0.8309214711
 1458.7646484  -999.250000 17.993999481 -0.004000000 0.5205099583 1.9320000410 35.358013153 155.12500000 0.8689944148 89.647796631 0.8170111775 0.8170111775
 1458.9171143  -999.250000 17.843999863 0.0070000002 0.4956099987 1.9550000429 37.857322693 155.13061523 0.8680055737 90.147781372 0.8190056086 0.8190056086
 1459.0694580  -999.250000 17.875000000 0.0010000000 0.4868199825 1.9379999638 40.235115051 156.13270569 0.8690112233 90.640975952 0.8199999928 0.8199999928
 1459.2219238  -999.250000 17.916999817 0.0089999996 0.5195299983 1.9609999657 43.082782745 157.50280762 0.8710224032 90.634178162 0.8199270964 0.8199270964
 1459.3742676  -999.250000 17.738000870 -0.002000000 0.5742200017 1.9309999943 41.066482544 158.00280762 0.8749943972 90.131172180 0.8069943786 0.8069943786
 1459.5267334  -999.250000 17.224000931 -0.003000000 0.6088899970 1.9379999638 36.176586151 158.50558472 0.8740063906 89.626747131 0.8060384393 0.8060384393
 1459.6790771  -999.250000 17.364999771 -0.006000000 0.5673800111 1.9329999685 34.420200348 159.37359619 0.8750000000 89.124763489 0.8121233582 0.8121233582
 1459.8315430  -999.250000 17.566999435 0.0099999998 0.5166000128 1.9670000076 36.949405670 159.12739563 0.8750000000 89.610771179 0.8340896368 0.8340896368
 1459.9838867  -999.250000 17.687999725 0.0289999992 0.5327100158 1.9830000401 38.711463928 159.50561523 0.8749887943 89.109954834 0.8480336666 0.8480336666
 1460.1363525  -999.250000 18.024999619 0.0270000007 0.5756800175 1.9800000191 37.359184265 160.49920654 0.8729808331 89.102378845 0.8540256023 0.8540256023
 1460.2886963  -999.250000 17.624000549 0.0060000001 0.5712900162 1.9450000525 34.902847290 160.38061523 0.8699663281 89.163810730 0.8579102159 0.8579102159
 1460.4411621  -999.250000 17.343999863 -0.003000000 0.5239300132 1.9379999638 34.364215851 161.38621521 0.8639936447 89.664207458 0.8418398499 0.8418398499
 1460.5935059  -999.250000 17.489999771 -0.016000001 0.5009800196 1.9229999781 37.513496399 163.12640381 0.8629775643 90.163810730 0.8169775605 0.8169775605
 1460.7458496  -999.250000 17.745000839 -0.029999999 0.5112299919 1.9279999733 39.922813416 163.38410950 0.8589776158 90.661003113 0.8129944205 0.8129944205
