# LAS format log file from PETREL
# Project units are specified as depth units
#==================================================================
~Version information
VERS.   2.0:
WRAP.   NO:
#==================================================================
~Well
STRT .m      1948.1618652 :
STOP .m      3612.0659180 :
STEP .m     0.00000000 :
NULL .        -999.250000 :
COMP.           : COMPANY
WELL.  34/4-2   : WELL
FLD.            : FIELD
LOC.            : LOCATION
SRVC.           : SERVICE COMPANY
DATE.  2018-09-11 14:48:50   : Log Export Date {yyyy-MM-dd HH:mm:ss}
PROV.           : PROVINCE
UWI.   34/4-2   : UNIQUE WELL ID
API.            : API NUMBER
#==================================================================
~Curve
DEPT .m                   : DEPTH
Lithology_geolink ._      : Lithology_geolink
CALI .in                  : CALI
BS .in                    : BS
DRHO .g/cm3               : DRHO
NPHI .m3/m3               : NPHI
RHOB .g/cm3               : RHOB
GR .gAPI                  : GR
DTC .us/ft                : DTC
RDEP .ohm.m               : RDEP
SP .mV                    : SP
RSHA .ohm.m               : RSHA
RMED .ohm.m               : RMED
~Parameter
#==================================================================
~Ascii
 1948.1618652  -999.250000 12.468999863  -999.250000 -0.853999972 0.5092800260 1.7419999838 56.028774261 125.99900055 1.0739616156 75.890884399 1.0710719824 1.0710719824
 1948.3142090  -999.250000 12.468999863  -999.250000 -0.902000010 0.5317400098 1.6870000362 59.991897583 125.75099945 1.0740000010 76.372673035 1.1237452030 1.1237452030
 1948.4666748  -999.250000 12.468999863  -999.250000 -0.875000000 0.5419900417 1.7109999657 61.234096527 122.75961304 1.0759903193 76.397895813 1.1946589947 1.1946589947
 1948.6190186  -999.250000 12.468999863  -999.250000 -0.894999981 0.5712900162 1.6829999685 61.237014771 123.37249756 1.0740096569 76.888626099 1.1969903708 1.1969903708
 1948.7713623  -999.250000 12.477000237  -999.250000 -0.838999987 0.5664100051 1.7319999933 61.755081177 121.57027435 1.0690280199 77.380249023 1.1184427738 1.1184427738
 1948.9238281  -999.250000 12.477000237  -999.250000 -0.802999973 0.5366199613 1.7680000067 62.910434723 122.99423981 1.0680047274 77.336227417 1.0353989601 1.0353989601
 1949.0761719  -999.250000 12.477000237  -999.250000 -0.820999980 0.5385699868 1.7220000029 62.357151031 126.17523193 1.0570616722 77.561729431 1.0021848679 1.0021848679
 1949.2286377  -999.250000 12.477000237  -999.250000 -0.838999987 0.5668900013 1.7029999495 62.056438446 125.19200134 1.0291346312 76.831535339 1.0228990316 1.0228990316
 1949.3809814  -999.250000 12.468999863  -999.250000 -0.862999976 0.5644500256 1.6890000105 62.183376312 125.56150055 1.0031250715 76.183113098 1.0259855986 1.0259855986
 1949.5334473  -999.250000 12.468999863  -999.250000 -0.782000005 0.5351600051 1.7999999523 62.069553375 124.56700897 0.9821008444 75.697326660 1.0329663754 1.0329663754
 1949.6857910  -999.250000 12.468999863  -999.250000 -0.787000000 0.4965800047 1.8029999733 59.686508179 124.99825287 0.9670721292 75.213325500 1.0081201792 1.0081201792
 1949.8382568  -999.250000 12.477000237  -999.250000 -0.739000022 0.5009800196 1.8380000591 57.754268646 126.18325043 0.9580432177 74.604919434 1.0000383854 1.0000383854
 1949.9906006  -999.250000 12.477000237  -999.250000 -0.774999976 0.5175799727 1.7769999504 58.361022949 128.11723328 0.9649662971 74.865722656 0.9820865393 0.9820865393
 1950.1430664  -999.250000 12.468999863  -999.250000 -0.768000007 0.5541999936 1.7359999418 58.497356415 128.49850464 0.9739567637 74.766487122 0.9829951525 0.9829951525
 1950.2954102  -999.250000 12.468999863  -999.250000 -0.824999988 0.5864300132 1.6890000105 56.589221954 128.74899292 0.9799711704 74.882438660 1.0078798532 1.0078798532
 1950.4478760  -999.250000 12.477000237  -999.250000 -0.832000017 0.5683599710 1.6970000267 55.438507080 128.37620544 0.9879615307 74.532691956 1.0617406368 1.0617406368
 1950.6002197  -999.250000 12.477000237  -999.250000 -0.827000022 0.5502899885 1.7660000324 56.336635590 125.38700867 0.9989471436 74.398643494 1.1157404184 1.1157404184
 1950.7526855  -999.250000 12.468999863  -999.250000 -0.814999998 0.5317400098 1.7860000134 57.707405090 124.19181061 1.0109423399 75.261825562 1.1179903746 1.1179903746
 1950.9050293  -999.250000 12.468999863  -999.250000 -0.847000003 0.5717800260 1.7749999762 57.656276703 124.37425995 1.0169711113 75.001281738 1.1090432405 1.1090432405
 1951.0573730  -999.250000 12.468999863  -999.250000 -1.108000040 0.5795900226 1.5709999800 58.167118073 126.55424500 1.0160056353 76.102783203 1.0801625252 1.0801625252
 1951.2098389  -999.250000 12.477000237  -999.250000 -1.353000045 0.5825200081 1.4309999943 60.826168060 125.75325775 1.0110241175 76.467269897 1.0650721788 1.0650721788
 1951.3621826  -999.250000 12.492000580  -999.250000 -1.687999964 0.5454099774 1.2630000114 64.746124268 128.73797607 1.0010480881 77.105926514 1.0361394882 1.0361394882
 1951.5146484  -999.250000 12.500000000  -999.250000 -1.536000013 0.5864300132 1.5130000114 67.918777466 126.38450623 0.9960240126 77.342872620 1.0180864334 1.0180864334
 1951.6669922  -999.250000 12.500000000  -999.250000 -1.723999977 0.5864300132 1.4160000086 65.784385681 126.99749756 0.9969951510 77.079284668 1.0150144100 1.0150144100
 1951.8194580  -999.250000 12.492000580  -999.250000 -1.807999969 0.5815399885 1.3209999800 61.000045776 128.36949158 1.0009808540 77.218322754 1.0159952641 1.0159952641
 1951.9718018  -999.250000 12.500000000  -999.250000 -1.434000015 0.5307599902 1.6879999638 56.581237793 127.37900543 0.9990096092 77.078681946 1.0398845673 1.0398845673
 1952.1242676  -999.250000 12.492000580  -999.250000 -1.047999978 0.5205099583 1.9609999657 57.739307404 126.75249481 1.0009903908 77.591522217 1.0668703318 1.0668703318
 1952.2766113  -999.250000 12.492000580  -999.250000 -1.019999981 0.5170900226 1.9229999781 61.772544861 126.37650299 1.0039855242 76.986930847 1.1048172712 1.1048172712
 1952.4290771  -999.250000 12.492000580  -999.250000 -0.995999992 0.5058599710 1.8480000496 63.083763123 125.56560516 1.0079808235 76.805862427 1.1308751106 1.1308751106
 1952.5814209  -999.250000 12.500000000  -999.250000 -0.945999980 0.4897499979 1.8669999838 60.601024628 124.37976074 1.0149663687 76.197929382 1.1459279060 1.1459279060
 1952.7338867  -999.250000 12.500000000  -999.250000 -0.827000022 0.4750999808 1.8930000067 57.102825165 124.99799347 1.0378894806 75.837722778 1.1251008511 1.1251008511
 1952.8862305  -999.250000 12.492000580  -999.250000 -0.776000023 0.4833999872 1.9069999456 55.025951385 125.00000000 1.0738269091 75.478721619 1.1259952784 1.1259952784
 1953.0385742  -999.250000 12.492000580  -999.250000 -0.816999972 0.5117200017 1.8159999847 54.561557770 124.75099945 1.1137757301 75.243316650 1.1289831400 1.1289831400
 1953.1910400  -999.250000 12.492000580  -999.250000 -0.825999975 0.5278300047 1.8170000315 54.327121735 124.75000000 1.1498268843 75.351470947 1.1270096302 1.1270096302
 1953.3433838  -999.250000 12.492000580  -999.250000 -0.910000026 0.5483400226 1.7430000305 54.977851868 121.20227814 1.1599519253 74.838478088 1.1857163906 1.1857163906
 1953.4958496  -999.250000 12.500000000  -999.250000 -0.867999971 0.5737299919 1.8070000410 56.834053040 118.38626099 1.1520383358 75.317672729 1.2676061392 1.2676061392
 1953.6481934  -999.250000 12.500000000  -999.250000 -0.885999978 0.5664100051 1.7940000296 57.110706329 118.74849701 1.1480191946 75.297103882 1.3297020197 1.3297020197
 1953.8006592  -999.250000 12.492000580  -999.250000 -0.838000000 0.5698199868 1.8430000544 54.054759979 119.37250519 1.1460096836 75.304962158 1.2523746490 1.2523746490
 1953.9530029  -999.250000 12.500000000  -999.250000 -0.884000003 0.5649399757 1.7810000181 50.934001923 121.74047852 1.1400288343 75.319931030 1.1773606539 1.1773606539
 1954.1054688  -999.250000 12.492000580  -999.250000 -0.815999985 0.6118199825 1.8489999771 52.175933838 125.73398590 1.1310433149 75.919105530 1.1033555269 1.1033555269
 1954.2578125  -999.250000 12.500000000  -999.250000 -0.897000015 0.5825200081 1.7539999485 54.466960907 126.99499512 1.1150768995 75.805564880 1.0631922483 1.0631922483
 1954.4102783  -999.250000 12.500000000  -999.250000 -0.943000019 0.5727500319 1.7139999866 54.961666107 127.74799347 1.0751922131 76.318519592 1.0530480146 1.0530480146
 1954.5626221  -999.250000 12.492000580  -999.250000 -0.978999972 0.5727500319 1.6779999733 53.658309937 128.37249756 1.0302163363 76.833518982 1.0370768309 1.0370768309
 1954.7150879  -999.250000 12.492000580  -999.250000 -0.916000009 0.6206099987 1.7419999838 52.541358948 127.56560516 1.0021344423 76.354324341 1.0270479918 1.0270479918
 1954.8674316  -999.250000 12.492000580  -999.250000 -0.884999990 0.6352500319 1.7589999437 53.930263519 125.57100677 0.9840865731 76.615722656 1.0339664221 1.0339664221
 1955.0197754  -999.250000 12.492000580  -999.250000 -0.927999973 0.6274399757 1.7039999962 55.273464203 127.74124146 0.9810168147 76.353485107 1.0489159822 1.0489159822
 1955.1722412  -999.250000 12.492000580  -999.250000 -0.907999992 0.5747100115 1.7170000076 58.079479218 127.99899292 0.9899567366 76.615722656 1.0460144281 1.0460144281
 1955.3245850  -999.250000 12.492000580  -999.250000 -0.875000000 0.5424799919 1.7439999580 60.934982300 127.56475067 0.9900000095 77.013763428 1.0549495220 1.0549495220
