# LAS format log file from PETREL
# Project units are specified as depth units
#==================================================================
~Version information
VERS.   2.0:
WRAP.   NO:
#==================================================================
~Well
STRT .m      986.78210449 :
STOP .m      4467.4443359 :
STEP .m     0.00000000 :
NULL .        -999.250000 :
COMP.           : COMPANY
WELL.  34/4-3   : WELL
FLD.            : FIELD
LOC.            : LOCATION
SRVC.           : SERVICE COMPANY
DATE.  2018-09-11 14:48:50   : Log Export Date {yyyy-MM-dd HH:mm:ss}
PROV.           : PROVINCE
UWI.   34/4-3   : UNIQUE WELL ID
API.            : API NUMBER
#==================================================================
~Curve
DEPT .m                   : DEPTH
Lithology_geolink ._      : Lithology_geolink
CALI .in                  : CALI
DRHO .g/cm3               : DRHO
NPHI .m3/m3               : NPHI
RHOB .g/cm3               : RHOB
GR .gAPI                  : GR
DTC .us/ft                : DTC
RDEP .ohm.m               : RDEP
SP .mV                    : SP
RSHA .ohm.m               : RSHA
RMED .ohm.m               : RMED
~Parameter
#==================================================================
~Ascii
# ...
 3302.9562988  -999.250000 12.796999931 0.0060000001 0.3021900058 2.5220129490 63.454486847 91.999992371 2.0720288754 130.08073425 2.5140383244 2.5140383244
 3303.1086426  -999.250000 12.796999931 -0.003000000 0.3272499740 2.5130288601 59.395256042 91.991706848 2.0900335312 126.79978180 2.5380995274 2.5380995274
 3303.2612305  -999.250000 12.796999931 -0.007000000 0.3491299748 2.5040142536 58.332450867 91.189590454 2.1110639572 123.54151154 2.6001951694 2.6001951694
 3303.4135742  -999.250000 12.796999931 -0.005000000 0.3558499813 2.5069952011 65.640571594 91.371391296 2.1310336590 122.76660919 2.6610865593 2.6610865593
 3303.5659180  -999.250000 12.796999931 -0.005000000 0.3486500084 2.4940207005 67.239273071 90.991706848 2.1520256996 122.52619171 2.7151007652 2.7151007652
 3303.7182617  -999.250000 12.796999931 -0.003000000 0.3374000192 2.5009887218 66.161636353 90.187995911 2.1680369377 123.26660156 2.7780771255 2.7780771255
 3303.8708496  -999.250000 12.796999931 -0.003000000 0.3268600106 2.5059919357 63.421932220 90.185401917 2.1910383701 123.01899719 2.8260128498 2.8260128498
 3304.0231934  -999.250000 12.796999931 0.0000000000 0.3274599910 2.5189793110 56.551418304 90.000000000 2.2030258179 123.01899719 2.8299486637 2.8299486637
 3304.1755371  -999.250000 12.796999931 0.0010000000 0.3246900141 2.5120112896 58.684871674 90.001304626 2.2190241814 123.02140045 2.7979328632 2.7979328632
 3304.3278809  -999.250000 12.796999931 0.0040000002 0.3173199892 2.5129983425 61.726451874 90.190589905 2.2340064049 123.26905060 2.7559599876 2.7559599876
 3304.4802246  -999.250000 12.796999931 0.0010000000 0.2982999980 2.5020353794 65.743988037 90.557106018 2.2379934788 123.30000305 2.7310094833 2.7310094833
 3304.6328125  -999.250000 12.796999931 -0.003000000 0.2815200090 2.5059936047 65.104103088 89.997215271 2.2339775562 123.30269623 2.7371246815 2.7371246815
 3304.7851563  -999.250000 12.793000221 -0.004000000 0.2844599783 2.5079967976 63.265453339 89.753684998 2.2270047665 123.51900482 2.7760624886 2.7760624886
 3304.9375000  -999.250000 12.788000107 -0.005000000 0.2994599938 2.5149888992 61.680492401 90.182312012 2.2300000191 123.52618408 2.8150112629 2.8150112629
 3305.0898438  -999.250000 12.793999672 0.0000000000 0.3172500134 2.5140030384 63.859661102 89.753692627 2.2300081253 124.26419830 2.8219871521 2.8219871521
 3305.2424316  -999.250000 12.796999931 -0.001000000 0.3274999857 2.5080094337 65.524925232 90.185401917 2.2350606918 123.76341248 2.8139774799 2.8139774799
 3305.3947754  -999.250000 12.796999931 0.0040000002 0.3265399933 2.5070016384 67.683258057 90.000000000 2.2540223598 123.26791382 2.8069999218 2.8069999218
 3305.5471191  -999.250000 12.796999931 0.0089999996 0.3153699934 2.5060017109 67.216392517 90.000000000 2.2680110931 123.21717834 2.8070304394 2.8070304394
 3305.6994629  -999.250000 12.796999931 0.0230000000 0.3042399883 2.5249392986 63.715312958 90.001289368 2.2750160694 122.70361328 2.8260576725 2.8260576725
 3305.8520508  -999.250000 12.793000221 0.0240000002 0.2955099940 2.5399758816 60.167228699 90.180015564 2.2850193977 122.46268463 2.8621246815 2.8621246815
 3306.0043945  -999.250000 12.788000107 0.0270000007 0.2943199873 2.5569727421 58.361572266 89.563003540 2.2910127640 122.98699951 2.9010431767 2.9010431767
 3306.1567383  -999.250000 12.793999672 0.0140000004 0.2813699841 2.5480144024 53.737060547 89.560699463 2.2990193367 122.98937225 2.9280207157 2.9280207157
 3306.3090820  -999.250000 12.796999931 0.0010000000 0.2736899853 2.5270335674 55.641616821 89.375007629 2.3110241890 123.22200012 2.9409871101 2.9409871101
 3306.4614258  -999.250000 12.793000221 0.0010000000 0.2756600082 2.5240094662 54.162036896 89.376304626 2.3260288239 123.22197723 2.9329471588 2.9329471588
 3306.6140137  -999.250000 12.784000397 0.0099999998 0.2900699973 2.5200064182 57.917327881 89.567375183 2.3440737724 123.20880127 2.8999199867 2.8999199867
 3306.7663574  -999.250000 12.785000801 0.0289999992 0.3250400126 2.5389695168 56.148674011 89.994003296 2.3670384884 123.45837402 2.8750545979 2.8750545979
 3306.9187012  -999.250000 12.793999672 0.0080000004 0.3368700147 2.5190320015 55.317714691 89.369003296 2.3910081387 123.69342804 2.9092001915 2.9092001915
 3307.0710449  -999.250000 12.796999931 0.0070000002 0.3252300024 2.5518944263 52.648849487 88.744102478 2.3960030079 123.95839691 3.0342435837 3.0342435837
 3307.2236328  -999.250000 12.796999931 0.0170000009 0.2921899855 2.5929341316 51.939636230 88.182617188 2.3980128765 124.20325470 3.1861152649 3.1861152649
 3307.3759766  -999.250000 12.796999931 0.0399999991 0.2777499855 2.6229517460 54.947883606 87.753707886 2.4019870758 123.96965790 3.2218844891 3.2218844891
 3307.5283203  -999.250000 12.796999931 0.0340000018 0.2809199989 2.5920495987 59.237842560 88.195594788 2.3939919472 123.75540161 3.1498126984 3.1498126984
 3307.6806641  -999.250000 12.796999931 0.0160000008 0.2803400159 2.5501344204 61.630893707 89.190605164 2.3889806271 124.00780487 3.0328829288 3.0328829288
 3307.8332520  -999.250000 12.796999931 0.0250000004 0.2782799900 2.5629792213 62.185516357 89.567398071 2.3769040108 124.50867462 2.9598081112 2.9598081112
 3307.9855957  -999.250000 12.796999931 0.0209999997 0.2893500030 2.5610032082 62.035743713 90.003593445 2.3469438553 125.02920532 2.8999118805 2.8999118805
 3308.1379395  -999.250000 12.796999931 0.0120000001 0.3140900135 2.5400335789 62.498836517 90.375000000 2.3119568825 124.53398895 2.8449246883 2.8449246883
 3308.2902832  -999.250000 12.796999931 -0.001000000 0.3298899829 2.5070528984 62.395221710 90.375000000 2.2849504948 124.52678680 2.7979328632 2.7979328632
 3308.4426270  -999.250000 12.793000221 -0.013000000 0.3340300024 2.4780926704 61.288063049 90.376289368 2.2539741993 123.76960754 2.7560384274 2.7560384274
 3308.5952148  -999.250000 12.788000107 -0.018999999 0.3154999912 2.4789984226 61.942687988 90.557800293 2.2379679680 122.28016663 2.7800862789 2.7800862789
 3308.7475586  -999.250000 12.793999672 -0.017999999 0.3145799935 2.4889841080 59.666675568 90.183303833 2.2279887199 123.26977539 2.8070335388 2.8070335388
 3308.8999023  -999.250000 12.796999931 -0.011000000 0.3212600052 2.5069711208 60.707099915 89.752395630 2.2209999561 125.00011444 2.8280129433 2.8280129433
 3309.0522461  -999.250000 12.796999931 -0.002000000 0.3247900009 2.5119841099 59.528804779 90.000000000 2.2210063934 126.32643890 2.8360095024 2.8360095024
 3309.2048340  -999.250000 12.793000221 0.0089999996 0.3307699859 2.5169918537 62.519718170 90.000007629 2.2249805927 132.19075012 2.8418977261 2.8418977261
 3309.3571777  -999.250000 12.788000107 0.0140000004 0.3224999905 2.5249872208 61.497558594 90.003593445 2.2189936638 125.25941467 2.8099405766 2.8099405766
 3309.5095215  -999.250000 12.795999527 0.0179999992 0.3270199895 2.5309903622 61.222888947 90.375000000 2.2149870396 124.26419830 2.7730159760 2.7730159760
 3309.6618652  -999.250000 12.800999641 0.0120000001 0.3062800169 2.5250194073 61.774963379 90.376296997 2.2069840431 123.76421356 2.7830288410 2.7830288410
 3309.8144531  -999.250000 12.798000336 0.0060000001 0.2821999788 2.5050320625 61.129184723 90.560417175 2.1969871521 123.27459717 2.8008978367 2.8008978367
 3309.9667969  -999.250000 12.796999931 -0.003000000 0.2733200192 2.4900240898 61.498840332 90.378593445 2.1929857731 123.77140808 2.7689342499 2.7689342499
 3310.1191406  -999.250000 12.796999931 -0.008000000 0.3004299998 2.4929952621 61.395931244 90.750000000 2.1839904785 124.02140808 2.7279663086 2.7279663086
 3310.2714844  -999.250000 12.798998833 -0.004000000 0.3180800080 2.5149648190 60.110759735 90.747703552 2.1779775620 124.27274323 2.7070257664 2.7070257664
 3310.4238281  -999.250000 12.807000160 -0.002000000 0.3209899962 2.5179903507 61.831157684 90.563011169 2.1639647484 124.73458099 2.7229983807 2.7229983807
 3310.5764160  -999.250000 12.817000389 -0.002000000 0.3233200014 2.5070176125 63.817035675 90.567405701 2.1419391632 124.47481537 2.7218015194 2.7218015194
