# LAS format log file from PETREL
# Project units are specified as depth units
#==================================================================
~Version information
VERS.   2.0:
WRAP.   NO:
#==================================================================
~Well
STRT .m      986.78210449 :
STOP .m      4467.4443359 :
STEP .m     0.00000000 :
NULL .        -999.250000 :
COMP.           : COMPANY
WELL.  34/4-3   : WELL
FLD.            : FIELD
LOC.            : LOCATION
SRVC.           : SERVICE COMPANY
DATE.  2018-09-11 14:48:50   : Log Export Date {yyyy-MM-dd HH:mm:ss}
PROV.           : PROVINCE
UWI.   34/4-3   : UNIQUE WELL ID
API.            : API NUMBER
#==================================================================
~Curve
DEPT .m                   : DEPTH
Lithology_geolink ._      : Lithology_geolink
CALI .in                  : CALI
DRHO .g/cm3               : DRHO
NPHI .m3/m3               : NPHI
RHOB .g/cm3               : RHOB
GR .gAPI                  : GR
DTC .us/ft                : DTC
RDEP .ohm.m               : RDEP
SP .mV                    : SP
RSHA .ohm.m               : RSHA
RMED .ohm.m               : RMED
~Parameter
#==================================================================
~Ascii
# ...
 3994.6997070 2.0000000000 15.786999702 -0.003008013 0.3169041574 2.3010320663 50.608024597 86.440361023 2.9590272903 148.82281494 2.3308045864 2.3308045864
 3994.8522949 2.0000000000 15.980999947 -0.007993600 0.3007133305 2.2740430832 48.127475739 86.662994385 2.9759552479 149.96109009 2.2088656425 2.2088656425
 3995.0046387 2.0000000000 16.138000488 -0.005996795 0.2736968696 2.2410528660 47.030136108 86.659370422 2.9620430470 151.85476685 2.1670258045 2.1670258045
 3995.1569824 2.0000000000 16.347999573 -0.003991988 0.2592753768 2.2160401344 47.116596222 86.266441345 2.9891154766 151.07864380 2.1830883026 2.1830883026
 3995.3093262 2.0000000000 16.337999344 0.0010176282 0.2563993037 2.2249710560 47.489105225 85.918525696 3.0612037182 148.98495483 2.2380912304 2.2380912304
 3995.4619141 2.0000000000 15.790999413 0.0120416004 0.2622082531 2.2589454651 48.180797577 85.623878479 3.1884574890 145.84942627 2.2952241898 2.2952241898
 3995.6142578 2.0000000000 14.750000000 0.0250176284 0.2679029703 2.2989358902 49.053482056 84.961685181 3.3310866356 148.79212952 2.3651361465 2.3651361465
 3995.7666016 2.0000000000 13.571000099 0.0360064097 0.2697391510 2.3379375935 49.978343964 84.144592285 3.3850512505 151.36952209 2.4501459599 2.4501459599
 3995.9189453 2.0000000000 12.892000198 0.0400048085 0.2692074478 2.3549456596 50.191505432 83.265357971 3.4170241356 151.69543457 2.5415446758 2.5415446758
 3996.0715332 2.0000000000 12.505000114 0.0430032015 0.2676103413 2.3559982777 49.255699158 82.864906311 3.4323966503 151.33918762 2.8822865486 2.8822865486
 3996.2238770 2.0000000000 12.201000214 0.0439999998 0.2645910084 2.3599934578 48.227710724 82.526359558 3.5564005375 148.58932495 3.2836410999 3.2836410999
 3996.3762207 2.0000000000 12.024000168 0.0440032035 0.2589966655 2.3689856529 48.047641754 82.124938965 3.8064758778 146.29634094 3.6836011410 3.6836011410
 3996.5285645 2.0000000000 11.848999977 0.0460048094 0.2506783605 2.3789839745 48.447925568 81.462142944 4.1034760475 144.65089417 4.0583591461 4.0583591461
 3996.6809082 2.0000000000 11.632999420 0.0490048081 0.2371783257 2.4009296894 49.650886536 80.930206299 4.4004759789 147.07559204 4.2820034027 4.2820034027
 3996.8334961 2.0000000000 11.468000412 0.0519808009 0.2236537635 2.4259600639 51.457546234 80.430969238 4.6979503632 147.43676758 4.2841534615 4.2841534615
 3996.9858398 2.0000000000 11.348999977 0.0459743589 0.2154779434 2.4469664097 53.811779022 80.108551025 4.9944629669 145.80358887 4.3324198723 4.3324198723
 3997.1381836 2.0000000000 11.255999565 0.0299711525 0.2142035365 2.4539887905 56.169780731 79.826553345 5.2834424973 144.30668640 4.5944499969 4.5944499969
 3997.2905273 2.0000000000 11.179999352 0.0119775645 0.2163981646 2.4609775543 58.527828217 79.542633057 5.5593700409 145.97955322 4.8758702278 4.8758702278
 3997.4431152 4.0000000000 11.109999657 -0.002003200 0.2152396590 2.4759759903 60.921112061 78.683235168 5.7903165817 146.94332886 5.4198241234 5.4198241234
 3997.5954590 4.0000000000 11.053000450 -0.002974359 0.2089002877 2.4969663620 62.822944641 77.821632385 5.8891520500 145.17318726 5.9887609482 5.9887609482
 3997.7478027 4.0000000000 11.020000458 0.0130336545 0.2028482854 2.5129742622 61.537513733 76.970397949 5.9840898514 142.79443359 6.4633169174 6.4633169174
 3997.9001465 4.0000000000 11.013000488 0.0340288468 0.2017753422 2.5229680538 59.362686157 76.597793579 6.0400915146 143.06393433 6.6607370377 6.6607370377
 3998.0527344 4.0000000000 11.013999939 0.0519968010 0.1988579482 2.5150129795 57.919601440 77.092758179 6.0972433090 146.12925720 6.4952306747 6.4952306747
 3998.2050781 4.0000000000 11.015999794 0.0509839728 0.1919812262 2.4920370579 57.481918335 77.639625549 6.1729116440 145.26953125 5.9435076714 5.9435076714
 3998.3574219 2.0000000000 11.024999619 0.0409807712 0.1865153313 2.4680383205 56.804111481 78.029174805 6.1179118156 143.11463928 5.6368927956 5.6368927956
 3998.5097656 2.0000000000 11.034000397 0.0289887805 0.1836032569 2.4440383911 55.002742767 78.142860413 6.0629458427 142.26611328 5.5704088211 5.5704088211
 3998.6621094 2.0000000000 11.041999817 0.0219951998 0.1856287271 2.4220702648 52.969741821 78.055770874 6.0289535522 143.57527161 5.8254685402 5.8254685402
 3998.8146973 2.0000000000 11.060998917 0.0190048069 0.1848341972 2.4130144119 50.935100555 77.914405823 6.0000128746 143.74162292 6.1182579994 6.1182579994
 3998.9670410 2.0000000000 11.079999924 0.0220176280 0.1812177151 2.4199888706 50.375782013 77.545211792 6.0081105232 142.88870239 6.2791552544 6.2791552544
 3999.1193848 2.0000000000 11.092000008 0.0330192298 0.1798007637 2.4419646263 50.865814209 77.677787781 6.0772194862 142.08496094 6.3760013580 6.3760013580
 3999.2717285 2.0000000000 11.095999718 0.0449967980 0.1802787483 2.4629328251 53.246837616 78.167205811 6.2143077850 142.05776978 6.3769454956 6.3769454956
 3999.4243164 2.0000000000 11.090000153 0.0429584011 0.1794920713 2.4610030651 55.639778137 78.292610168 6.4075999260 143.79829407 6.3432145119 6.3432145119
 3999.5766602 2.0000000000 11.083000183 0.0299839731 0.1770068705 2.4400336742 56.190250397 77.854454041 6.9068927765 146.06469727 6.4103941917 6.4103941917
 3999.7290039 2.0000000000 11.107999802 0.0200096145 0.1688147634 2.4180352688 53.850734711 76.266914368 7.4638910294 144.01237488 6.6571397781 6.6571397781
 3999.8813477 2.0000000000 11.164999962 0.0260288473 0.1593060642 2.4229841232 51.188728333 73.714904785 8.0198945999 142.37547302 7.3683223724 7.3683223724
 4000.0339355 2.0000000000 11.159001350 0.0440416001 0.1443539560 2.4399728775 48.518657684 71.160209656 8.5785264969 143.30387878 8.1946401596 8.1946401596
 4000.1862793 2.0000000000 11.074999809 0.0569967963 0.1299981028 2.4519805908 45.920009613 70.290618896 9.0546636581 146.07063293 9.0183210373 9.0183210373
 4000.3386230 2.0000000000 11.020999908 0.0549775623 0.1225841567 2.4500031471 45.930412292 70.055786133 9.4686651230 145.83438110 9.8419561386 9.8419561386
 4000.4909668 2.0000000000 10.989999771 0.0409759618 0.1251849681 2.4390175343 47.435951233 71.169387817 9.8837490082 143.58422852 10.436767578 10.436767578
 4000.6435547 2.0000000000 10.967000008 0.0259872004 0.1345081031 2.4370031357 49.279766083 73.281036377 10.351513863 144.35687256 9.6666030884 9.6666030884
 4000.7958984 2.0000000000 10.951000214 0.0219967943 0.1338965744 2.4659535885 50.763622284 73.292045593 10.823756218 143.69451904 8.9199314117 8.9199314117
 4000.9482422 2.0000000000 10.944000244 0.0199951921 0.1192720160 2.5009438992 50.526897430 72.695541382 11.295699120 142.14695740 8.8776454926 8.8776454926
 4001.1005859 2.0000000000 10.944998741 0.0170000009 0.1018120125 2.5349454880 49.212989807 70.538642883 11.731619835 142.74877930 9.2852449417 9.2852449417
 4001.2529297 2.0000000000 10.949999809 0.0170112196 0.0843544528 2.5629103184 46.089187622 67.195632935 12.118621826 145.10249329 12.560812950 12.560812950
 4001.4055176 2.0000000000 10.968998909 0.0240224004 0.0684189126 2.5879600048 43.711845398 63.845897675 12.506934166 142.29490662 17.435071945 17.435071945
 4001.5578613 2.0000000000 11.005000114 0.0310016014 0.0618602261 2.6079680920 43.041496277 61.636196136 12.798323631 142.26724243 19.656526566 19.656526566
 4001.7102051 2.0000000000 11.055000305 0.0320000015 0.0682495683 2.6070017815 43.351604462 63.632972717 12.999980927 144.28717041 31.199316025 31.199316025
 4001.8625488 2.0000000000 11.104000092 0.0320112184 0.0804789290 2.5840737820 44.355178833 66.737983704 12.987839699 145.63984680 32.007900238 32.007900238
 4002.0151367 2.0000000000 11.152000427 0.0390320010 0.1048397869 2.5430657864 46.343658447 69.852989197 12.886594772 145.54347229 25.062664032 25.062664032
 4002.1674805 2.0000000000 11.206000328 0.0489871800 0.1390991360 2.5060594082 48.733795166 72.970123291 12.447769165 145.37603760 15.917663574 15.917663574
 4002.3198242 2.0000000000 11.263999939 0.0409887843 0.1759672612 2.4850335121 51.101570129 76.167648315 11.679301262 145.39349365 11.342334747 11.342334747
