# LAS format log file from PETREL
# Project units are specified as depth units
#==================================================================
~Version information
VERS.   2.0:
WRAP.   NO:
#==================================================================
~Well
STRT .m      3631.9968262 :
STOP .m      4250.8930664 :
STEP .m     0.00000000 :
NULL .        -999.250000 :
COMP.           : COMPANY
WELL.  34/4-10 R   : WELL
FLD.            : FIELD
LOC.            : LOCATION
SRVC.           : SERVICE COMPANY
DATE.  2018-09-11 14:48:50   : Log Export Date {yyyy-MM-dd HH:mm:ss}
PROV.           : PROVINCE
UWI.   34/4-10 R   : UNIQUE WELL ID
API.            : API NUMBER
#==================================================================
~Curve
DEPT .m                   : DEPTH
Lithology_geolink ._      : Lithology_geolink
CALI .in                  : CALI
BS .in                    : BS
ROP .m/h                  : ROP
DRHO .g/cm3               : DRHO
NPHI .m3/m3               : NPHI
RHOB .g/cm3               : RHOB
PEF .b/e                  : PEF
GR .gAPI                  : GR
DTC .us/ft                : DTC
DTS .us/ft                : DTS
RDEP .ohm.m               : RDEP
RMED .ohm.m               : RMED
~Parameter
#==================================================================
~Ascii
# ...
 4081.2717285 4.0000000000 8.2364206314 8.5000000000 7.8365149498 -0.019345930 0.1803310066 2.6129500866 5.6157846451 81.663528442 76.688407898 143.20782471 4.4682707787 5.5876946449
 4081.4243164 4.0000000000 8.2361488342 8.5000000000 7.7970361710 -0.021020111 0.1799400002 2.6159861088 5.7591152191 79.089767456 76.509841919 142.60047913 4.5515646935 5.6098732948
 4081.5766602 4.0000000000 8.2462148666 8.5000000000 7.8812208176 -0.019009270 0.1820850968 2.6093087196 5.7916831970 78.719657898 76.361640930 142.15910339 4.6229305267 5.5254445076
 4081.7290039 4.0000000000 8.2588834763 8.5000000000 8.0892772675 -0.019811381 0.1763077974 2.6067640781 6.2491321564 82.277473450 76.367393494 141.74316406 4.5812211037 5.5495901108
 4081.8813477 4.0000000000 8.2597045898 8.5000000000 8.5104818344 -0.024908410 0.1756727993 2.5896799564 6.5400085449 85.215263367 76.548927307 141.81607056 4.4901652336 5.3809604645
 4082.0339355 4.0000000000 8.2536773682 8.5000000000 8.2398319244 -0.007945894 0.1832364947 2.6052219868 7.0457434654 82.796546936 76.481170654 141.94808960 4.7600393295 5.8036093712
 4082.1862793 4.0000000000 8.2536773682 8.5000000000 7.7485651970 -0.009694762 0.1851962060 2.5917479992 6.7985548973 79.049766541 76.510963440 142.00810242 4.8439707756 5.9109477997
 4082.3386230 4.0000000000 8.2519664764 8.5000000000 7.6128358841 -0.009129690 0.1862481982 2.5933339596 6.4818000793 79.032623291 76.619476318 142.08587646 4.8683867455 5.9880156517
 4082.4909668 4.0000000000 8.2639751434 8.5000000000 7.4936499596 -0.004646517 0.1796353012 2.5957179070 6.4391646385 81.277687073 76.290657043 141.74974060 4.8808569908 5.9482140541
 4082.6433105 4.0000000000 8.2694959641 8.5000000000 6.9654960632 0.0018351080 0.1750766039 2.6074776649 6.3656120300 81.323776245 76.062156677 141.99580383 4.9392337799 6.0685157776
 4082.7958984 4.0000000000 8.2720966339 8.5000000000 6.7656121254 -0.014299060 0.1726725996 2.6016519070 6.2335577011 83.122062683 76.045188904 141.76736450 5.0195140839 6.1783771515
 4082.9482422 4.0000000000 8.2692213058 8.5000000000 6.5440516472 -0.011454560 0.1728518009 2.6117019653 6.0097160339 82.236846924 75.813652039 140.85456848 5.1129293442 6.2597479820
 4083.1005859 4.0000000000 8.2706594467 8.5000000000 6.4915766716 -0.012560030 0.1724085957 2.6064569950 6.2117810249 81.882568359 75.468826294 140.59991455 5.2156095505 6.2850646973
 4083.2529297 4.0000000000 8.2706594467 8.5000000000 6.3175754547 -0.017208241 0.1725969017 2.5899229050 6.4889373779 79.456970215 75.294509888 139.60438538 5.2457776070 6.3632149696
 4083.4055176 4.0000000000 8.2703847885 8.5000000000 6.2567319870 -0.015820241 0.1649319977 2.5889630318 6.7265000343 79.101219177 75.532371521 138.76144409 5.1783571243 6.3332195282
 4083.5578613 4.0000000000 8.2706594467 8.5000000000 6.4085292816 -0.014564970 0.1701058000 2.5940990448 6.4261169434 78.619453430 75.497520447 138.58686829 5.1215572357 6.3280820847
 4083.7102051 4.0000000000 8.2714853287 8.5000000000 6.4469833374 -0.015810350 0.1742666960 2.5944859982 6.2426700592 78.902847290 75.573333740 138.31922913 5.0501532555 6.2381734848
 4083.8625488 4.0000000000 8.2668943405 8.5000000000 6.3200669289 -0.019701829 0.1725150943 2.5805060863 6.3501367569 78.665382385 75.510482788 138.13119507 5.0481381416 6.1096391678
 4084.0151367 4.0000000000 8.2680578232 8.5000000000 6.3352599144 -0.022342769 0.1705095023 2.5704259872 6.2946176529 79.451477051 75.454261780 138.02027893 5.0466022491 6.0639662743
 4084.1674805 4.0000000000 8.2708787918 8.5000000000 6.8167014122 -0.025394149 0.1773332059 2.5692241192 6.4831557274 81.462898254 75.500198364 137.88351440 5.0456843376 6.1171607971
 4084.3198242 4.0000000000 8.2717590332 8.5000000000 7.0591125488 -0.014801220 0.1765511036 2.5782570839 6.3597283363 80.492446899 75.706092834 137.82249451 4.9896821976 5.9532403946
 4084.4721680 4.0000000000 8.2677841187 8.5000000000 7.3281359673 -0.011644160 0.1688527018 2.5880520344 6.4172120094 82.455741882 75.889213562 137.85923767 4.9416308403 5.9035763741
 4084.6247559 4.0000000000 8.2677841187 8.5000000000 7.4689049721 -0.009920022 0.1681482941 2.5909729004 6.1598520279 78.543228149 76.064407349 138.14814758 4.8963437080 5.8014554977
 4084.7770996 4.0000000000 8.2692213058 8.5000000000 7.7952079773 -0.007673546 0.1631692946 2.5935270786 6.1595220566 78.573020935 76.048652649 138.19622803 4.9061384201 5.9594035149
 4084.9294434 4.0000000000 8.2663459778 8.5000000000 7.8748245239 -0.004509113 0.1657972038 2.5955400467 6.3126015663 74.641647339 75.938919067 138.28854370 4.9757914543 5.8544087410
 4085.0817871 4.0000000000 8.2697715759 8.5000000000 7.7301883698 -0.018428380 0.1680708975 2.5829980373 6.4049234390 75.795143127 76.049102783 138.27403259 5.0880627632 5.9113726616
 4085.2341309 4.0000000000 8.2694959641 8.5000000000 8.1206302643 -0.017540490 0.1750548929 2.5935189724 6.0838255882 76.504409790 75.820907593 138.22296143 5.1397285461 6.0461864471
 4085.3867188 4.0000000000 8.2694959641 8.5000000000 8.3731527328 -0.018096060 0.1722746938 2.6001300812 5.8345932961 78.745590210 75.783508301 138.16958618 5.0603337288 5.9786920547
 4085.5390625 4.0000000000 8.2729234695 8.5000000000 8.3073053360 -0.016201111 0.1718402952 2.6056659222 5.7650275230 78.570297241 75.722877502 138.08143616 5.0290050507 6.1278476715
 4085.6914063 4.0000000000 8.2706594467 8.5000000000 8.2665996552 -0.019336721 0.1711097062 2.6014831066 5.7996211052 76.970993042 75.614814758 138.21047974 5.1151475906 6.0833230019
 4085.8437500 4.0000000000 8.2712087631 8.5000000000 8.7838249207 -0.016245181 0.1735828966 2.6021878719 5.7530012131 76.614921570 75.635910034 138.33610535 5.1635909081 6.1001877785
 4085.9963379 4.0000000000 8.2706594467 8.5000000000 9.3019752502 -0.018909769 0.1771913022 2.5946090221 5.5954627991 74.461036682 75.700187683 138.15838623 5.2511529922 6.1822004318
 4086.1486816 4.0000000000 8.2706594467 8.5000000000 9.5430469513 -0.012051680 0.1740691960 2.6063139439 5.6266574860 74.133613586 75.665260315 138.47239685 5.2798304558 6.1047763824
 4086.3010254 4.0000000000 8.2663469315 8.5000000000 9.5958995819 -0.015726799 0.1863428056 2.5995121002 5.4973783493 74.181640625 75.730262756 138.33821106 5.2168760300 5.9418311119
 4086.4533691 4.0000000000 8.2677841187 8.5000000000 10.877956390 -0.013111820 0.1816093028 2.6045880318 5.4291510582 77.716873169 75.956283569 138.90876770 5.1308593750 6.0672836304
 4086.6059570 4.0000000000 8.2663469315 8.5000000000 12.081446648 -0.011216470 0.1781961024 2.6001040936 5.4218654633 79.795776367 76.081611633 139.41928101 5.0213804245 6.0163216591
 4086.7583008 4.0000000000 8.2683334351 8.5000000000 11.619647980 -0.009701984 0.1823119968 2.6009981632 5.6662430763 84.008056641 76.248191833 140.40631104 4.9952125549 6.0063796043
 4086.9106445 4.0000000000 8.2666206360 8.5000000000 12.225351334 -0.013956380 0.1896325946 2.5952730179 5.6680231094 82.468963623 76.505889893 140.46800232 4.9441637993 6.0088772774
 4087.0629883 4.0000000000 8.2654561996 8.5000000000 12.314041138 -0.012155640 0.1976563931 2.5994369984 5.5982899666 83.588241577 77.012374878 141.40180969 4.9072709084 5.9353928566
 4087.2153320 4.0000000000 8.2680587769 8.5000000000 11.550412178 -0.013467850 0.1963071972 2.5998950005 5.2430038452 83.389869690 77.741867065 142.04693604 4.6926507950 5.8040084839
 4087.3679199 4.0000000000 8.2680587769 8.5000000000 11.398404121 -0.015404040 0.1953220963 2.6031959057 5.0500249863 86.338691711 77.767227173 143.03561401 4.7911896706 5.8404679298
 4087.5202637 4.0000000000 8.2700462341 8.5000000000 11.042993546 -0.016797880 0.1877824962 2.6096100807 4.9818129539 86.482437134 77.551902771 143.90661621 4.8219947815 5.6855750084
 4087.6726074 4.0000000000 8.2649087906 8.5000000000 11.026384354 -0.019753469 0.1838053018 2.6066100597 5.2408552170 85.656036377 77.753723145 144.17965698 4.8248820305 5.6014084816
 4087.8249512 4.0000000000 8.2649087906 8.5000000000 10.625030518 -0.023304690 0.1839330941 2.5992538929 5.5332388878 85.488372803 77.460891724 144.34747314 4.6579389572 5.6824064255
