# LAS format log file from PETREL
# Project units are specified as depth units
#==================================================================
~Version information
VERS.   2.0:
WRAP.   NO:
#==================================================================
~Well
STRT .m      3631.9968262 :
STOP .m      4250.8930664 :
STEP .m     0.00000000 :
NULL .        -999.250000 :
COMP.           : COMPANY
WELL.  34/4-10 R   : WELL
FLD.            : FIELD
LOC.            : LOCATION
SRVC.           : SERVICE COMPANY
DATE.  2018-09-11 14:48:50   : Log Export Date {yyyy-MM-dd HH:mm:ss}
PROV.           : PROVINCE
UWI.   34/4-10 R   : UNIQUE WELL ID
API.            : API NUMBER
#==================================================================
~Curve
DEPT .m                   : DEPTH
Lithology_geolink ._      : Lithology_geolink
CALI .in                  : CALI
BS .in                    : BS
ROP .m/h                  : ROP
DRHO .g/cm3               : DRHO
NPHI .m3/m3               : NPHI
RHOB .g/cm3               : RHOB
PEF .b/e                  : PEF
GR .gAPI                  : GR
DTC .us/ft                : DTC
DTS .us/ft                : DTS
RDEP .ohm.m               : RDEP
RMED .ohm.m               : RMED
~Parameter
#==================================================================
~Ascii
# ...
 3672.2302246  -999.250000 12.289501190 12.250000954 13.655200005 -0.030891281 0.2731502950 2.5482490063  -999.250000 80.978111267 96.761558533 224.36129761 1.1030620337 1.2061369419
 3672.3828125  -999.250000 12.237010956 12.250000954 12.311180115 -0.033393279 0.2460550070 2.5896360874  -999.250000 80.355339050 98.809707642 225.63119507 1.0923990011 1.2061369419
 3672.5351563  -999.250000 12.230959892 12.250000954 11.417165756 -0.026556270 0.2400998026 2.6236341000  -999.250000 79.535911560 99.678482056 224.78599548 1.0740059614 1.2061369419
 3672.6875000  -999.250000 12.300800323 12.250000954 11.293800354 -0.029473331 0.2540245056 2.6003069878  -999.250000 72.627983093 97.737266541 228.64706421 1.0635479689 1.2026050091
 3672.8398438  -999.250000 12.316599846 12.250000954 11.347547531 -0.035609569 0.2832351923 2.5591490269  -999.250000 74.312156677 94.439926147 227.85609436 1.0690150261 1.1925309896
 3672.9921875  -999.250000 12.290869713 12.250000954 10.883057594 -0.030147159 0.3279299140 2.5440309048  -999.250000 79.046096802 92.424629211 225.95669556 1.0944030285 1.1845870018
 3673.1447754  -999.250000 12.234279633 12.250000954 10.888164520 -0.016933929 0.3409067094 2.5649149418  -999.250000 85.459930420 92.330337524 220.12559509 1.1132910252 1.1828509569
 3673.2971191  -999.250000 12.259449005 12.250000954 11.231141090 -0.017769730 0.3215143085 2.5702960491  -999.250000 88.676742554 93.234863281 219.70669556 1.1156549454 1.1828509569
 3673.4494629  -999.250000 12.256170273 12.250000954 11.813083649 -0.017879520 0.2912971079 2.5661280155  -999.250000 88.895912170 94.754592896 219.89868164 1.1156549454 1.1828509569
 3673.6018066  -999.250000 12.257301331 12.250000954 12.653721809 -0.019532900 0.2854683995 2.5609409809  -999.250000 91.034950256 96.037696838 220.75860596 1.1162680387 1.1992989779
 3673.7543945  -999.250000 12.257730484 12.250000954 15.627767563 -0.022626501 0.2879691124 2.5558931828  -999.250000 92.163223267 96.387405396 221.04370117 1.1311650276 1.2209709883
 3673.9067383  -999.250000 12.248740196 12.250000954 16.890199661 -0.026724070 0.2835892141 2.5596170425  -999.250000 96.454757690 96.521156311 221.70021057 1.1376190186 1.2132159472
 3674.0590820  -999.250000 12.215140343 12.250000954 16.288852692 -0.023361141 0.2974467874 2.5503010750  -999.250000 99.062362671 97.272567749 221.47230530 1.1376190186 1.2140339613
 3674.2114258  -999.250000 9.7908802032 12.250000954 16.005199432 -0.025532180 0.2752229869 2.5403110981  -999.250000 100.16609955 99.221839905 223.36950684 1.1658660173 1.2227699757
 3674.3640137  -999.250000 8.6357469559 12.238000870 16.983991623 -0.026507610 0.2811202109 2.5267729759  -999.250000 95.618858337 101.88089752 224.08410645 1.1712490320 1.2455229759
 3674.5163574  -999.250000 8.6030502319 8.5000000000 277.15847778 -0.022539761 0.2746084034 2.5317842960  -999.250000 89.933036804 104.19239807 225.75100708 1.1629669666 1.2793710232
 3674.6687012  -999.250000 8.6050176620 8.5000000000 399.66500854 -0.025219860 0.2920243144 2.5225861073  -999.250000 86.790992737 105.74140167 224.79310608 1.1447440386 1.2756580114
 3674.8210449  -999.250000 8.6032819748 8.5000000000 399.66500854 -0.029821031 0.3359048069 2.5099530220  -999.250000 90.976547241 106.29830170 224.03759766 1.1524130106 1.2872279882
 3674.9733887  -999.250000 8.6004810333 8.5000000000 184.01541138 -0.025713550 0.3483282030 2.5151269436  -999.250000 91.471817017 105.24259949 224.64010620 1.1540130377 1.2950309515
 3675.1259766  -999.250000 8.6007137299 8.5000000000 74.163619995 -0.023881210 0.3095597923 2.5134320259  -999.250000 92.417083740 103.33270264 227.27481079 1.1650040150 1.2962529659
 3675.2783203  -999.250000 8.5989780426 8.5000000000 70.337600708 -0.023986222 0.2789390981 2.5110530853  -999.250000 87.483901978 102.93418884 225.63740540 1.1993639469 1.3932919502
 3675.4306641  -999.250000 8.5697422028 8.5000000000 38.207778931 -0.020284381 0.2809497118 2.5384569168  -999.250000 87.489776611 103.18509674 224.28250122 1.6308829784 1.4215589762
 3675.5830078  -999.250000 8.5559873581 8.5000000000 13.197121620 -0.016046790 0.2878085971 2.5859379768  -999.250000 82.767509460 102.03230286 223.43949890 1.9037230015 1.4378980398
 3675.7355957  -999.250000 8.5206394196 8.5000000000 7.8226003647 -0.012698280 0.2809630036 2.6394810677  -999.250000 79.381042480 99.608726501 224.41839600 1.7697869539 1.4448939562
 3675.8879395  -999.250000 8.5361356735 8.5000000000 6.4236502647 -0.007735576 0.2429106981 2.6501650810  -999.250000 79.655258179 96.704109192 223.57739258 1.4685200453 1.4471280575
 3676.0402832  -999.250000 8.5740118027 8.5000000000 5.4812626839 -0.019457830 0.2104098052 2.6158859730  -999.250000 85.327186584 94.023490906 220.62098694 1.2291229963 1.4072289467
 3676.1926270  -999.250000 8.6150531769 8.5000000000 4.6626358032 -0.014384670 0.2106460035 2.5852580070  -999.250000 94.992233276 92.088836670 214.29899597 1.2301260233 1.3799500465
 3676.3452148  -999.250000 8.6914863586 8.5000000000 4.3516721725 -0.007779080 0.2366103977 2.5701169968  -999.250000 99.677009583 93.027709961 213.09100342 1.1492409706 1.3366349936
 3676.4975586  -999.250000 8.6408767700 8.5000000000 4.1775231361 -0.016995979 0.2698340118 2.5548400879 5.9555163383 102.60050201 94.064659119 210.99850464 1.1243779659 1.3474760056
 3676.6499023  -999.250000 8.6271419525 8.5000000000 4.3208217621 -0.020565240 0.2629770041 2.5639100075 5.6517910957 101.82550049 93.947273254 208.03909302 1.1291199923 1.3609910011
 3676.8022461  -999.250000 8.5958051682 8.5000000000 4.2837061882 -0.010314790 0.2501038909 2.5748538971 5.6821551323 99.446502686 94.405754089 208.02128601 1.2529170513 1.3687249422
 3676.9548340  -999.250000 8.5668697357 8.5000000000 4.7084698677 -0.017928209 0.2548821867 2.5538969040 6.0225524902 97.906738281 95.328643799 207.37559509 1.3547680378 1.3844540119
 3677.1071777  -999.250000 8.5507202148 8.5000000000 5.0934720039 -0.029356260 0.2689484954 2.5279419422 6.2289915085 96.266349792 95.146629333 212.02349854 1.2218120098 1.3912010193
 3677.2595215  -999.250000 8.5482120514 8.5000000000 5.9857935905 -0.022337550 0.2849819958 2.5360128880 6.3064513206 98.386978149 97.083763123 213.54377747 1.1431909800 1.3292360306
 3677.4118652  -999.250000 8.5490531921 8.5000000000 6.4180974960 -0.023591969 0.2831579149 2.5549058914 6.2506995201 92.079612732 97.851371765 214.17958069 1.1447590590 1.3329160213
 3677.5642090  -999.250000 8.5467767715 8.5000000000 6.8251051903 -0.029732401 0.2821556032 2.5744409561 5.9190053940 86.471153259 98.020103455 215.36010742 1.1664700508 1.3749170303
 3677.7167969  -999.250000 8.5496473312 8.5000000000 6.9055800438 -0.028440179 0.2764050961 2.5961349010 6.0116405487 79.374282837 94.652343750 216.07069397 1.3765879869 1.4700880051
 3677.8691406  -999.250000 8.5634069443 8.5000000000 6.9348859787 -0.027603230 0.2558167875 2.5887749195 5.7012200356 78.346717834 92.560058594 216.03871155 1.7343809605 1.4578200579
 3678.0214844  -999.250000 8.5734510422 8.5000000000 6.8710436821 -0.030043980 0.2521679997 2.5621531010 5.5292205811 78.925453186 92.026290894 213.07519531 1.4690610170 1.4817860126
 3678.1738281  -999.250000 8.5533571243 8.5000000000 6.8645691872 -0.030236170 0.2432883978 2.5365729332 5.3220510483 85.668113708 91.979759216 210.44819641 1.4146070480 1.4865839481
 3678.3264160  -999.250000 8.5024633408 8.5000000000 6.8838000298 -0.021486090 0.2585322857 2.5366280079 5.7555718422 97.559570313 92.404739380 207.42349243 1.2302830219 1.3772560358
 3678.4787598  -999.250000 8.5042896271 8.5000000000 6.2849678993 -0.016805330 0.2606661022 2.5387198925 5.9638085365 105.99759674 93.295570374 205.59739685 1.2132749557 1.3389979601
 3678.6311035  -999.250000 8.4390687943 8.5000000000 5.8233871460 -0.021652861 0.2698490024 2.5370309353 5.8653845787 108.06289673 94.990875244 203.47529602 1.2024459839 1.3350839615
 3678.7834473  -999.250000 8.4270000458 8.5000000000 5.3966422081 -0.020742569 0.2841944993 2.5356268883 5.6992015839 103.65969849 97.692756653 204.76448059 1.1820310354 1.3048210144
