# LAS format log file from PETREL
# Project units are specified as depth units
#==================================================================
~Version information
VERS.   2.0:
WRAP.   NO:
#==================================================================
~Well
STRT .m      3631.9968262 :
STOP .m      4250.8930664 :
STEP .m     0.00000000 :
NULL .        -999.250000 :
COMP.           : COMPANY
WELL.  34/4-10 R   : WELL
FLD.            : FIELD
LOC.            : LOCATION
SRVC.           : SERVICE COMPANY
DATE.  2018-09-11 14:48:50   : Log Export Date {yyyy-MM-dd HH:mm:ss}
PROV.           : PROVINCE
UWI.   34/4-10 R   : UNIQUE WELL ID
API.            : API NUMBER
#==================================================================
~Curve
DEPT .m                   : DEPTH
Lithology_geolink ._      : Lithology_geolink
CALI .in                  : CALI
BS .in                    : BS
ROP .m/h                  : ROP
DRHO .g/cm3               : DRHO
NPHI .m3/m3               : NPHI
RHOB .g/cm3               : RHOB
PEF .b/e                  : PEF
GR .gAPI                  : GR
DTC .us/ft                : DTC
DTS .us/ft                : DTS
RDEP .ohm.m               : RDEP
RMED .ohm.m               : RMED
~Parameter
#==================================================================
~Ascii
# ...
 3712.4638672  -999.250000 8.4428014755 8.5000000000 6.0531730652 -0.016986487 0.1296842992 2.6763579845 8.1699647903 35.805141449 88.704208374 203.81109619 5.3946042061 2.4551448822
 3712.6164551  -999.250000 8.4425134659 8.5000000000 5.9165678024 -0.015084710 0.1917763054 2.6741108894 8.0119094849 42.121009827 86.673316956 194.15829468 4.1851749420 2.3547289371
 3712.7687988  -999.250000 8.4428014755 8.5000000000 5.8126001358 -0.022023359 0.2174428999 2.6322419643 7.0641927719 60.338459015 85.437179565 186.73358154 2.2258880138 2.1183350086
 3712.9211426  -999.250000 8.4916276932 8.5000000000 5.7834501266 -0.027724290 0.2381694019 2.5803740025 5.8249115944 80.027557373 88.567680359 171.15870667 1.4493780136 1.8942149878
 3713.0734863  -999.250000 8.5226287842 8.5000000000 5.8112845421 -0.026723521 0.2516219914 2.5539369583 4.9160475731 91.415206909 90.546218872 163.33380127 1.2731200457 1.7361739874
 3713.2260742  -999.250000 8.5742893219 8.5000000000 5.4500999451 -0.025372630 0.2401250005 2.5493910313 4.6107087135 94.461341858 93.718231201 160.37579346 1.2712260485 1.7190630436
 3713.3784180  -999.250000 8.5881004333 8.5000000000 4.2803435326 -0.027348951 0.2031500936 2.5556418896 4.4836964607 93.138122559 93.763473511 160.33738708 1.4565190077 1.7617399693
 3713.5307617  -999.250000 8.6136226654 8.5000000000 3.1549487114 -0.030531380 0.1772311032 2.5723149776 4.4872860909 86.067298889 91.343399048 170.51788330 1.6720939875 1.8160690069
 3713.6831055  -999.250000 8.6352128983 8.5000000000 2.3977372646 -0.026410760 0.1620036066 2.5924971104 4.6445889473 84.981826782 89.554916382 177.29672241 1.7196500301 1.8980660439
 3713.8356934  -999.250000 8.6337060928 8.5000000000 2.1393320560 -0.028780470 0.1604702026 2.5995969772 5.2999863625 80.067672729 85.742706299 184.62780762 1.8093320131 1.9452899694
 3713.9880371  -999.250000 8.6400537491 8.5000000000 2.1130270958 -0.030666441 0.1641063988 2.5893449783 5.6216077805 73.956489563 83.686523438 189.77238464 2.0273370743 1.9535750151
 3714.1403809  -999.250000 8.6380081177 8.5000000000 2.1434078217 -0.033253681 0.1586803943 2.5832839012 5.8822307587 66.961608887 84.597976685 195.73551941 2.2715508938 1.9793000221
 3714.2927246  -999.250000 8.6549139023 8.5000000000 2.0910589695 -0.030262111 0.1680005938 2.5861709118 6.0133385658 64.450866699 86.216331482 193.82710266 2.3634169102 1.9211659431
 3714.4450684  -999.250000 8.6480484009 8.5000000000 2.1152577400 -0.028807970 0.1980192065 2.5766010284 6.2608857155 75.126129150 88.007858276 185.93550110 1.8384890556 1.6886579990
 3714.5976563  -999.250000 8.6770334244 8.5000000000 2.1417000294 -0.029076720 0.2322255969 2.5580739975 6.1595997810 87.751373291 90.038307190 182.52648926 1.1885379553 1.4951629639
 3714.7500000  -999.250000 8.6849193573 8.5000000000 2.0536384583 -0.029190149 0.2592723966 2.5623199940 5.8906087875 99.111129761 92.184143066 177.63389587 1.0643739700 1.4195619822
 3714.9023438  -999.250000 8.6534795761 8.5000000000 2.1697411537 -0.019535281 0.2212591022 2.5937039852 5.7492890358 99.738189697 93.517753601 176.29139709 1.1502029896 1.3910180330
 3715.0546875  -999.250000 8.6649503708 8.5000000000 2.4762129784 -0.016511260 0.2109345049 2.6160368919 5.6678562164 92.621612549 93.963500977 180.06030273 1.4218250513 1.4087460041
 3715.2072754  -999.250000 8.6830816269 8.5000000000 3.0209000111 -0.018564161 0.2292384058 2.6114189625 5.7016701698 85.608123779 93.671943665 183.04229736 1.5533440113 1.4131350517
 3715.3596191  -999.250000 8.6950569153 8.5000000000 3.2676923275 -0.020496059 0.2785629928 2.5872180462 5.6341938972 84.835250854 93.346817017 191.70590210 1.2938359976 1.3879519701
 3715.5119629  -999.250000 8.7311983109 8.5000000000 3.1889743805 -0.018755810 0.2940371931 2.5668430328 5.8594393730 89.137367249 94.058639526 195.58612061 1.1301980019 1.3163559437
 3715.6643066  -999.250000 8.7409172058 8.5000000000 3.1899960041 -0.022577530 0.2935676873 2.5390720367 6.1859083176 92.382797241 97.952957153 198.55909729 1.0602170229 1.2489409447
 3715.8168945  -999.250000 8.6936225891 8.5000000000 3.2123999596 -0.018587699 0.2956457138 2.5413460732 6.5270395279 93.029991150 97.391677856 201.54670715 1.0600789785 1.2366219759
 3715.9692383  -999.250000 8.6696281433 8.5000000000 3.2699525356 -0.018666441 0.2972323895 2.5531880856 6.5315127373 90.144836426 96.535797119 203.42959595 1.1972759962 1.2987790108
 3716.1215820  -999.250000 8.6136226654 8.5000000000 3.4164180756 -0.012854350 0.2784216106 2.5844960213 6.3702445030 88.883171082 95.364280701 204.38241577 1.4373459816 1.4236630201
 3716.2739258  -999.250000 8.5995788574 8.5000000000 3.4727001190 -0.012822190 0.2494432926 2.6036651134 6.3423295021 84.392509460 95.231498718 204.26119995 1.1688510180 1.4268100262
 3716.4262695  -999.250000 8.6018466949 8.5000000000 3.5045001507 -0.013148420 0.2441006005 2.6112499237 7.3060083389 81.280609131 95.383560181 212.44702148 1.1370420456 1.4633430243
 3716.5788574  -999.250000 8.6018466949 8.5000000000 3.8716039658 -0.019907810 0.2454369962 2.5822010040 7.8201642036 78.466232300 93.369750977 217.29110718 1.1812050343 1.5149530172
 3716.7312012  -999.250000 8.6018466949 8.5000000000 4.4164538383 -0.021565439 0.2616203129 2.5666110516 6.9703550339 82.091026306 93.074432373 215.27461243 1.2296689749 1.5281009674
 3716.8835449  -999.250000 8.5817623138 8.5000000000 4.5770897865 -0.023923980 0.2323219031 2.5615370274 5.8549661636 87.810836792 91.698440552 211.44522095 1.3058929443 1.5723010302
 3717.0358887  -999.250000 8.5791912079 8.5000000000 4.5685000420 -0.026407881 0.1951479018 2.5773260593 5.1432723999 84.766471863 91.526687622 212.33569336 1.5903049707 1.6369379759
 3717.1884766  -999.250000 8.5286560059 8.5000000000 4.8051400185 -0.021647001 0.1736581028 2.5972030163 5.2363529205 79.393577576 88.469726563 205.92460632 2.2032780647 1.8232599497
 3717.3408203  -999.250000 8.5189104080 8.5000000000 4.9436116219 -0.019113369 0.1850256026 2.5936288834 5.0531492233 71.703697205 87.027130127 203.61819458 2.1978390217 1.8485260010
 3717.4931641  -999.250000 8.5186157227 8.5000000000 4.9055743217 -0.019803310 0.2076267004 2.5833399296 5.3018293381 76.751213074 87.421218872 201.00259399 1.8755090237 1.8601850271
 3717.6455078  -999.250000 8.5229234695 8.5000000000 4.6870627403 -0.024635561 0.2195125967 2.5546410084 5.6768412590 76.161132813 88.416183472 198.73149109 1.6405149698 1.8514649868
 3717.7980957  -999.250000 8.5223331451 8.5000000000 4.5953001976 -0.023847790 0.2110724002 2.5505020618 6.5278797150 77.945663452 87.731140137 196.04348755 1.6515970230 1.8410530090
 3717.9504395  -999.250000 8.5211925507 8.5000000000 4.8973999023 -0.028576391 0.1959207952 2.5320129395 6.6783742905 78.143302917 89.905456543 191.31268311 1.6748330593 1.8354729414
 3718.1027832  -999.250000 8.5214872360 8.5000000000 5.1259231567 -0.027057581 0.1892161965 2.5404210091 6.7925939560 78.617340088 89.364089966 188.46522522 1.7321530581 1.7818000317
 3718.2551270  -999.250000 8.5217809677 8.5000000000 5.3655896187 -0.032626029 0.1957487017 2.5236999989 6.1972355843 80.955116272 89.015930176 186.76139832 1.6676100492 1.7707660198
 3718.4077148  -999.250000 8.5491361618 8.5000000000 4.9544720650 -0.035938218 0.1943203062 2.5279450417 5.7272553444 76.011146545 88.198875427 186.85231018 1.5885020494 1.8010079861
 3718.5600586  -999.250000 8.5605354309 8.5000000000 4.6140956879 -0.031051921 0.1862355024 2.5403690338 5.6446299553 72.303497314 87.831153870 188.48970032 1.7326940298 1.7338260412
 3718.7124023  -999.250000 8.5760221481 8.5000000000 4.5651998520 -0.034158759 0.1945268065 2.5423901081 6.3177785873 68.410491943 90.061180115 191.03329468 1.7876139879 1.6597130299
 3718.8647461  -999.250000 8.5961084366 8.5000000000 4.0046906471 -0.032602292 0.2298361063 2.5354979038 7.1994123459 77.050559998 91.662178040 191.36489868 1.2366210222 1.4354560375
 3719.0170898  -999.250000 8.6004123688 8.5000000000 3.6356587410 -0.028133130 0.2728340030 2.5192480087 7.6627607346 91.974792480 93.369262695 191.22290039 1.0507049561 1.3333619833
