# LAS format log file from PETREL
# Project units are specified as depth units
#==================================================================
~Version information
VERS.   2.0:
WRAP.   NO:
#==================================================================
~Well
STRT .m      3631.9968262 :
STOP .m      4250.8930664 :
STEP .m     0.00000000 :
NULL .        -999.250000 :
COMP.           : COMPANY
WELL.  34/4-10 R   : WELL
FLD.            : FIELD
LOC.            : LOCATION
SRVC.           : SERVICE COMPANY
DATE.  2018-09-11 14:48:50   : Log Export Date {yyyy-MM-dd HH:mm:ss}
PROV.           : PROVINCE
UWI.   34/4-10 R   : UNIQUE WELL ID
API.            : API NUMBER
#==================================================================
~Curve
DEPT .m                   : DEPTH
Lithology_geolink ._      : Lithology_geolink
CALI .in                  : CALI
BS .in                    : BS
ROP .m/h                  : ROP
DRHO .g/cm3               : DRHO
NPHI .m3/m3               : NPHI
RHOB .g/cm3               : RHOB
PEF .b/e                  : PEF
GR .gAPI                  : GR
DTC .us/ft                : DTC
DTS .us/ft                : DTS
RDEP .ohm.m               : RDEP
RMED .ohm.m               : RMED
~Parameter
#==================================================================
~Ascii
# ...
 3913.6320801 7.0000000000 8.2684650421 8.5000000000 17.815893173 -0.016409690 0.2918747067 2.5632369518 6.3718047142 173.42790222 93.722061157 187.80859375 1.7624720335 2.0392820835
 3913.7844238 7.0000000000 8.2673015594 8.5000000000 17.487136841 -0.012159910 0.2865988910 2.5803549290 6.8276834488 167.39469910 92.607917786 185.76899719 2.0736579895 2.1689939499
 3913.9367676 7.0000000000 8.2684650421 8.5000000000 22.581214905 -0.011616480 0.2847482860 2.5988070965 6.8409161568 151.75869751 92.444335938 184.23411560 2.2490279675 2.3774280548
 3914.0893555 7.0000000000 8.2673015594 8.5000000000 21.923324585 -0.018969361 0.2824783921 2.5888400078 6.3888320923 139.48669434 92.864196777 182.18840027 2.3632390499 2.4435698986
 3914.2416992 7.0000000000 8.2670288086 8.5000000000 19.919885635 -0.033461519 0.2850803137 2.5776770115 5.8346114159 133.65570068 92.787284851 180.87879944 2.3784649372 2.4510750771
 3914.3940430 7.0000000000 8.2673015594 8.5000000000 19.663000107 -0.017302260 0.2918215990 2.6032290459 6.2968473434 130.37820435 92.272750854 181.38529968 2.2949719429 2.4932680130
 3914.5463867 7.0000000000 8.2670288086 8.5000000000 15.539070129 -0.003431022 0.2894637883 2.6230630875 7.1849813461 132.24409485 92.432273865 181.71170044 2.1700019836 2.5035789013
 3914.6989746 7.0000000000 8.2670288086 8.5000000000 12.640793800 -0.006432337 0.2974523902 2.6163098812 7.2730031013 127.46759796 93.170219421 182.93881226 2.0307559967 2.5054090023
 3914.8513184 7.0000000000 8.2687397003 8.5000000000 11.100436211 -0.007855337 0.3004082143 2.6111938953 6.3083443642 128.28480530 93.116111755 183.67289734 1.9709089994 2.4664680958
 3915.0036621 7.0000000000 8.2687397003 8.5000000000 10.590900421 -0.008799520 0.3031305075 2.6100440025 5.7929315567 128.25100708 92.180297852 184.19290161 1.9690699577 2.3721420765
 3915.1560059 7.0000000000 8.2673015594 8.5000000000 9.1085081100 -0.014677290 0.3038561046 2.5987119675 5.8503479958 136.06649780 90.201698303 184.68589783 1.9685790539 2.2839109898
 3915.3085938 7.0000000000 8.2673015594 8.5000000000 8.4144001007 -0.016278479 0.2984552085 2.5908179283 6.3034391403 134.61030579 88.000129700 184.93690491 1.9686679840 2.2489049435
 3915.4609375 16.000000000 8.2687387466 8.5000000000 8.0596265793 -0.021912050 0.2830901146 2.5805010796 6.4429416656 129.99540710 86.470230103 183.65190125 1.9946889877 2.2472059727
 3915.6132813 16.000000000 8.2687397003 8.5000000000 8.3928661346 -0.037484299 0.2376161069 2.6195890903 7.1536488533 115.36239624 86.501892090 181.97570801 2.1704790592 2.1186470985
 3915.7656250 16.000000000 8.2684650421 8.5000000000 8.6265001297 -0.020147940 0.2194802016 2.7328460217 8.7442016602 108.84040070 86.976356506 180.51170349 2.2479579449 1.9005769491
 3915.9182129 16.000000000 8.2699022293 8.5000000000 8.4718027115 -0.014272250 0.2456775010 2.7477579117 9.1588010788 120.62049866 88.357971191 177.07049561 1.8383710384 1.8688100576
 3916.0705566 16.000000000 8.2857074738 8.5000000000 8.2473182678 -0.033299830 0.3047918081 2.6538929939 8.1377468109 141.70550537 91.089729309 177.83900452 1.5036089420 1.8429919481
 3916.2229004 16.000000000 8.2862567902 8.5000000000 8.7037534714 -0.042146601 0.3131389916 2.5714418888 7.2448172569 164.46319580 93.587471008 177.79670715 1.4519939423 1.7568860054
 3916.3752441 16.000000000 8.2845449448 8.5000000000 8.8328847885 -0.013449050 0.2945697904 2.6061038971 7.2550201416 179.57670593 94.512908936 180.26890564 1.4499419928 1.6958570480
 3916.5275879 16.000000000 8.2865333557 8.5000000000 9.2198905945 0.0055398340 0.2808774114 2.6297209263 7.1082811356 192.23460388 94.589820862 184.36450195 1.2974270582 1.7546459436
 3916.6801758 16.000000000 8.2862577438 8.5000000000 8.8162679672 -0.003183058 0.2908042967 2.5926549435 6.5747747421 204.15679932 94.201843262 185.23890686 1.3824720383 1.8810369968
 3916.8325195 16.000000000 8.2865333557 8.5000000000 8.8671655655 -0.008086303 0.3121128082 2.5572888851 6.1154985428 205.75300598 92.513122559 187.22340393 1.6467469931 2.0622360706
 3916.9848633 16.000000000 8.2865324020 8.5000000000 9.2002429962 -0.010199610 0.3254238069 2.5381751060 6.0559010506 222.20140076 91.161598206 184.66258240 2.0250430107 2.2965140343
 3917.1369629 16.000000000 8.3003492355 8.5000000000 9.3260116577 -0.000322553 0.3126601875 2.5607256889 6.3403677940 231.08059692 90.217720032 182.17230225 3.0505709648 2.6279060841
 3917.2893066 16.000000000 8.3086910248 8.5000000000 9.3679084778 -0.006646072 0.2966409922 2.5705654621 7.1164388657 228.07789612 88.742088318 176.91197205 4.5578336716 2.7760443687
 3917.4418945 16.000000000 8.2900123596 8.5000000000 9.0693798065 0.0068827346 0.2918254137 2.6094198227 8.7954969406 213.92480469 88.800460815 173.53749084 4.3886022568 2.7906863689
 3917.5942383 16.000000000 8.2690124512 8.5000000000 9.5528287888 0.0038323840 0.2913185954 2.6043860912 10.004930496 193.06880188 89.544593811 170.73120117 2.2052323818 3.1310007572
 3917.7465820 7.0000000000 8.2687387466 8.5000000000 9.4751386642 0.0119018285 0.3023873866 2.6177914143 8.2890396118 178.18980408 89.592536926 170.15829468 1.6455307007 3.5412054062
 3917.8989258 7.0000000000 8.2698364258 8.5000000000 9.7214450836 0.0056116278 0.2920154929 2.6142055988 6.2172226906 154.62600708 88.068954468 169.84022522 2.1196043491 2.9445874691
 3918.0515137 7.0000000000 8.2692871094 8.5000000000 9.9209003448 0.0012299686 0.2854166925 2.6229078770 5.1899518967 135.38209534 85.601646423 172.07202148 2.4131512642 2.9283468723
 3918.2038574 7.0000000000 8.2665491104 8.5000000000 12.185912132 -0.000640441 0.2736161053 2.6233792305 5.1953954697 130.62910461 84.527587891 171.19261169 2.6976671219 3.0605778694
 3918.3562012 7.0000000000 8.2679729462 8.5000000000 14.413722992 -0.001870629 0.2726694942 2.6209011078 5.2725739479 127.53369904 84.728927612 169.71533203 2.8339679241 3.2770018578
 3918.5085449 7.0000000000 8.2669143677 8.5000000000 14.898404121 -0.007720850 0.2807509899 2.6133310795 5.3269987106 129.03309631 85.857551575 168.44712830 2.9934673309 3.3011598587
 3918.6608887 7.0000000000 8.2675762177 8.5000000000 15.571292877 -0.002509367 0.2765229046 2.6088314056 5.2763752937 128.24200439 87.051956177 167.76876831 3.0777213573 3.2031567097
 3918.8134766 7.0000000000 8.2684650421 8.5000000000 15.902798653 0.0015932897 0.2811056077 2.6115884781 5.5436873436 131.51660156 86.755989075 169.97657776 2.8264107704 3.3160424232
 3918.9658203 7.0000000000 8.2673034668 8.5000000000 15.907283783 0.0109655764 0.2803676128 2.6094336510 5.6519198418 132.28320313 88.236846924 170.52244568 2.4932601452 3.2527887821
 3919.1181641 7.0000000000 8.2703866959 8.5000000000 16.194852829 0.0068393662 0.3053360879 2.6088528633 5.8288164139 130.87120056 89.398300171 173.88832092 2.5190966129 3.0742225647
 3919.2705078 7.0000000000 8.2675762177 8.5000000000 15.855353355 0.0022678296 0.3084628880 2.6051359177 5.7863554955 128.07009888 89.481697083 174.95846558 2.5677728653 3.1561121941
 3919.4230957 7.0000000000 8.2670288086 8.5000000000 14.423679352 -0.004728975 0.2965149879 2.5951237679 5.8166365623 126.98380280 88.264266968 177.07780457 2.5734901428 3.1629045010
 3919.5754395 16.000000000 8.2687387466 8.5000000000 13.424268723 -0.011097415 0.2648530900 2.5795700550 5.6622767448 125.24430084 84.679733276 179.10874939 2.6380803585 3.2226202488
 3919.7277832 16.000000000 8.2676429749 8.5000000000 12.341947556 -0.031026108 0.2020262033 2.5855505466 6.0442066193 118.38860321 84.396270752 178.09033203 2.7079479694 3.1797947884
 3919.8801270 16.000000000 8.2692880630 8.5000000000 10.973232269 -0.026124299 0.1649124026 2.6602771282 6.8254427910 108.19419861 84.594451904 176.55163574 2.5271418095 3.1510083675
 3920.0327148 16.000000000 8.2699022293 8.5000000000 10.263159752 -0.022739157 0.1770526022 2.6888613701 7.6004800797 99.822273254 84.684249878 174.29141235 2.4846353531 2.9807848930
 3920.1850586 16.000000000 8.2687387466 8.5000000000 10.113860130 -0.025960242 0.2470290065 2.6590549946 6.9703688622 108.58010101 86.569183350 172.43167114 2.9119150639 2.8604516983
