# LAS format log file from PETREL
# Project units are specified as depth units
#==================================================================
~Version information
VERS.   2.0:
WRAP.   NO:
#==================================================================
~Well
STRT .m      1948.1618652 :
STOP .m      3612.0659180 :
STEP .m     0.00000000 :
NULL .        -999.250000 :
COMP.           : COMPANY
WELL.  34/4-2   : WELL
FLD.            : FIELD
LOC.            : LOCATION
SRVC.           : SERVICE COMPANY
DATE.  2018-09-11 14:48:50   : Log Export Date {yyyy-MM-dd HH:mm:ss}
PROV.           : PROVINCE
UWI.   34/4-2   : UNIQUE WELL ID
API.            : API NUMBER
#==================================================================
~Curve
DEPT .m                   : DEPTH
Lithology_geolink ._      : Lithology_geolink
CALI .in                  : CALI
BS .in                    : BS
DRHO .g/cm3               : DRHO
NPHI .m3/m3               : NPHI
RHOB .g/cm3               : RHOB
GR .gAPI                  : GR
DTC .us/ft                : DTC
RDEP .ohm.m               : RDEP
SP .mV                    : SP
RSHA .ohm.m               : RSHA
RMED .ohm.m               : RMED
~Parameter
#==================================================================
~Ascii
# ...
 3381.9416504 7.0000000000 8.2530002594 8.5000000000 -0.005000000 0.1437299997 2.4660000801 52.229049683 75.423400879 2.6918091774 64.094223022 3.0926296711 3.0926296711
 3382.0939941 7.0000000000 8.3640003204 8.5000000000 0.0040000002 0.1501799971 2.5130000114 66.440193176 74.937774658 2.8088126183 64.715011597 3.8328125477 3.8328125477
 3382.2463379 7.0000000000 8.6370000839 8.5000000000 0.0109999999 0.1742900014 2.5490000248 93.971687317 74.656898499 2.9385838509 66.646804810 4.7989025116 4.7989025116
 3382.3989258 7.0000000000 8.9610004425 8.5000000000 0.0140000004 0.1937499940 2.5690000057 106.07272339 74.579116821 3.0618028641 68.610855103 4.9377822876 4.9377822876
 3382.5512695 7.0000000000 9.1730003357 8.5000000000 0.0109999999 0.2077499926 2.5720000267 100.25936127 75.888893127 3.2147548199 70.281318665 4.2401199341 4.2401199341
 3382.7036133 7.0000000000 9.2539997101 8.5000000000 0.0070000002 0.2244700044 2.5710000992 83.729522705 78.043540955 3.3757419586 71.392219543 3.8176763058 3.8176763058
 3382.8559570 7.0000000000 9.2670001984 8.5000000000 0.0030000000 0.2429700047 2.5720000267 74.529449463 78.327102661 3.4537503719 71.300300598 3.5777678490 3.5777678490
 3383.0085449 7.0000000000 9.2670001984 8.5000000000 0.0010000000 0.2543799877 2.5720000267 75.981620789 79.106750488 3.4420192242 70.913619995 3.5131025314 3.5131025314
 3383.1608887 7.0000000000 9.2430000305 8.5000000000 -0.001000000 0.2543700039 2.5699999332 75.781326294 80.686477661 3.4020640850 72.163993835 3.5739021301 3.5739021301
 3383.3132324 7.0000000000 9.2100000381 8.5000000000 -0.001000000 0.2454400063 2.5659999847 74.671775818 82.075775146 3.3450913429 74.045982361 3.6898140907 3.6898140907
 3383.4655762 7.0000000000 9.2130002975 8.5000000000 0.0010000000 0.2426899970 2.5659999847 74.380928040 82.064048767 3.2841951847 72.837890625 3.7039551735 3.7039551735
 3383.6181641 7.0000000000 9.2370004654 8.5000000000 0.0020000001 0.2527300119 2.5720000267 81.707237244 83.250091553 3.2380735874 71.888519287 3.5582339764 3.5582339764
 3383.7705078 7.0000000000 9.1789999008 8.5000000000 -0.001000000 0.2709699869 2.5710000992 90.877296448 84.298324585 3.1651170254 73.168937683 3.3802852631 3.3802852631
 3383.9228516 7.0000000000 9.0659999847 8.5000000000 -0.008000000 0.2848500013 2.5490000248 98.768356323 85.232505798 3.0182354450 76.092308044 3.2252483368 3.2252483368
 3384.0751953 7.0000000000 8.8809995651 8.5000000000 -0.015000000 0.2844699919 2.4890000820 110.91851807 85.219024658 2.7624104023 76.459419250 3.0962066650 3.0962066650
 3384.2275391 7.0000000000 8.6120004654 8.5000000000 -0.018999999 0.2620199919 2.4179999828 124.87725067 84.751502991 2.4420270920 71.157020569 2.9654190540 2.9654190540
 3384.3801270 7.0000000000 8.3610000610 8.5000000000 -0.020000000 0.2311400026 2.3599998951 117.44001007 84.252799988 2.1255064011 66.894813538 2.7333717346 2.7333717346
 3384.5324707 6.0000000000 8.2180004120 8.5000000000 -0.023000000 0.2067499906 2.3269999027 88.275787354 82.454879761 1.8684118986 64.426948547 2.2807259560 2.2807259560
 3384.6848145 6.0000000000 8.1579999924 8.5000000000 -0.025000000 0.1921999902 2.3210000992 56.911270142 81.814025879 1.6733124256 62.598930359 1.8087563515 1.8087563515
 3384.8371582 6.0000000000 8.1239995956 8.5000000000 -0.021000000 0.1889699996 2.3269999027 43.339408875 82.419052124 1.5204895735 61.777629852 1.6026592255 1.6026592255
 3384.9897461 3.0000000000 8.1239995956 8.5000000000 -0.017999999 0.1905599982 2.3299999237 42.479312897 82.000671387 1.4041858912 60.237468719 1.5800353289 1.5800353289
 3385.1420898 3.0000000000 8.1239995956 8.5000000000 -0.022000000 0.1934700012 2.3259999752 43.287700653 82.000000000 1.3221313953 59.207649231 1.6409022808 1.6409022808
 3385.2944336 3.0000000000 8.1250000000 8.5000000000 -0.028999999 0.1952300072 2.3150000572 43.562561035 81.938102722 1.2790689468 59.152088165 1.6649614573 1.6649614573
 3385.4467773 3.0000000000 8.1269998550 8.5000000000 -0.035000000 0.1961400062 2.3069999218 44.162078857 81.952957153 1.2650448084 59.354351044 1.6490511894 1.6490511894
 3385.5993652 3.0000000000 8.1300001144 8.5000000000 -0.035000000 0.1969099939 2.3099999428 45.455924988 82.670845032 1.2699919939 60.260547638 1.6240400076 1.6240400076
 3385.7517090 3.0000000000 8.1319999695 8.5000000000 -0.035000000 0.1975699961 2.3229999542 48.214576721 82.999465942 1.2869726419 59.558128357 1.6479614973 1.6479614973
 3385.9040527 3.0000000000 8.1339998245 8.5000000000 -0.035000000 0.1946199983 2.3350000381 46.715415955 82.890174866 1.3129582405 59.010875702 1.6909310818 1.6909310818
 3386.0563965 3.0000000000 8.1359996796 8.5000000000 -0.035999998 0.1898399889 2.3369998932 40.083641052 82.219078064 1.3449487686 58.668548584 1.7269423008 1.7269423008
 3386.2089844 3.0000000000 8.1389999390 8.5000000000 -0.039000001 0.1852400005 2.3320000172 34.983154297 80.892127991 1.3809424639 60.080738068 1.7499631643 1.7499631643
 3386.3613281 3.0000000000 8.1409997940 8.5000000000 -0.041000001 0.1814800054 2.3269999027 35.942447662 79.891601563 1.4199374914 62.046848297 1.7989214659 1.7989214659
 3386.5136719 3.0000000000 8.1440000534 8.5000000000 -0.041000001 0.1828300059 2.3259999752 43.682579041 79.313926697 1.4639294147 61.129474640 1.8848621845 1.8848621845
 3386.6660156 3.0000000000 8.1470003128 8.5000000000 -0.037999999 0.1871400028 2.3299999237 48.187789917 78.673027039 1.5079294443 59.630401611 1.9608781338 1.9608781338
 3386.8183594 3.0000000000 8.1499996185 8.5000000000 -0.034000002 0.1911499947 2.3359999657 46.303073883 79.139495850 1.5548495054 60.110450745 1.9829295874 1.9829295874
 3386.9709473 3.0000000000 8.1529998779 8.5000000000 -0.030999999 0.1933600008 2.3410000801 41.596546173 79.671142578 1.5949358940 58.752182007 1.9690223932 1.9690223932
 3387.1232910 3.0000000000 8.1560001373 8.5000000000 -0.029999999 0.1916999966 2.3469998837 38.816452026 80.093322754 1.6259503365 61.780136108 1.9660047293 1.9660047293
 3387.2756348 3.0000000000 8.1590003967 8.5000000000 -0.028000001 0.1890899986 2.3519999981 39.477931976 80.468399048 1.6539552212 62.143424988 1.9959520102 1.9959520102
 3387.4279785 3.0000000000 8.1590003967 8.5000000000 -0.025000000 0.1866200119 2.3489999771 42.992721558 80.702255249 1.6759295464 61.658561707 2.0687663555 2.0687663555
 3387.5805664 5.0000000000 8.1569995880 8.5000000000 -0.023000000 0.1869199872 2.3380000591 47.599620819 80.610153198 1.6989631653 58.991279602 2.1508686543 2.1508686543
 3387.7329102 5.0000000000 8.1549997330 8.5000000000 -0.024000000 0.1878499985 2.3310000896 50.277713776 80.749778748 1.7209646702 58.596626282 2.1909358501 2.1909358501
 3387.8852539 5.0000000000 8.1529998779 8.5000000000 -0.026000001 0.1882200092 2.3289999962 50.601490021 80.858825684 1.7509520054 58.222599030 2.1680369377 2.1680369377
 3388.0375977 5.0000000000 8.1510000229 8.5000000000 -0.030999999 0.1904599965 2.3320000172 50.765472412 81.326499939 1.7898751497 57.972801208 2.1181600094 2.1181600094
 3388.1901855 5.0000000000 8.1490001678 8.5000000000 -0.035000000 0.1929700077 2.3380000591 52.660961151 81.812225342 1.8319326639 57.550674438 2.1140065193 2.1140065193
 3388.3425293 5.0000000000 8.1470003128 8.5000000000 -0.033000000 0.1929299980 2.3469998837 54.779605865 82.046630859 1.8739326000 57.004875183 2.1639199257 2.1639199257
 3388.4948730 5.0000000000 8.1450004578 8.5000000000 -0.028000001 0.1909399927 2.3599998951 52.924983978 82.139846802 1.9179294109 56.912147522 2.2508604527 2.2508604527
 3388.6472168 5.0000000000 8.1429996490 8.5000000000 -0.024000000 0.1917800009 2.3710000515 52.296001434 81.890403748 1.9709150791 59.203323364 2.3608238697 2.3608238697
 3388.7995605 5.0000000000 8.1409997940 8.5000000000 -0.020000000 0.1980299950 2.3800001144 51.600231171 81.564056396 2.0218367577 60.017398834 2.4457280636 2.4457280636
 3388.9521484 5.0000000000 8.1389999390 8.5000000000 -0.018999999 0.2065399885 2.3849999905 55.737354279 81.563011169 2.0599391460 60.814727783 2.5268702507 2.5268702507
 3389.1044922 5.0000000000 8.1370000839 8.5000000000 -0.021000000 0.2092400044 2.3880000114 55.861808777 81.357330322 2.0719807148 61.350143433 2.5978863239 2.5978863239
