# LAS format log file from PETREL
# Project units are specified as depth units
#==================================================================
~Version information
VERS.   2.0:
WRAP.   NO:
#==================================================================
~Well
STRT .m      1948.1618652 :
STOP .m      3612.0659180 :
STEP .m     0.00000000 :
NULL .        -999.250000 :
COMP.           : COMPANY
WELL.  34/4-2   : WELL
FLD.            : FIELD
LOC.            : LOCATION
SRVC.           : SERVICE COMPANY
DATE.  2018-09-11 14:48:50   : Log Export Date {yyyy-MM-dd HH:mm:ss}
PROV.           : PROVINCE
UWI.   34/4-2   : UNIQUE WELL ID
API.            : API NUMBER
#==================================================================
~Curve
DEPT .m                   : DEPTH
Lithology_geolink ._      : Lithology_geolink
CALI .in                  : CALI
BS .in                    : BS
DRHO .g/cm3               : DRHO
NPHI .m3/m3               : NPHI
RHOB .g/cm3               : RHOB
GR .gAPI                  : GR
DTC .us/ft                : DTC
RDEP .ohm.m               : RDEP
SP .mV                    : SP
RSHA .ohm.m               : RSHA
RMED .ohm.m               : RMED
~Parameter
#==================================================================
~Ascii
# ...
 3162.4858398 3.0000000000 8.8839998245 8.5000000000 -0.050000001 0.1979805380 2.3900272846 44.817001343 82.609001160 2.6389999390 57.604000092 2.5690000057 2.5690000057
 3162.6381836 3.0000000000 8.9029998779 8.5000000000 -0.046999998 0.1920760125 2.4070160389 42.556999207 82.329002380 2.6630001068 57.285999298 2.6679999828 2.6679999828
 3162.7905273 3.0000000000 8.9020004272 8.5000000000 -0.048999999 0.1833556443 2.4170017242 45.791999817 82.358001709 2.6909999847 59.238998413 2.9289999008 2.9289999008
 3162.9431152 3.0000000000 8.9119997025 8.5000000000 -0.050999999 0.1744017601 2.4179904461 49.257999420 81.140991211 2.7699999809 61.066001892 3.0880000591 3.0880000591
 3163.0954590 3.0000000000 8.9209995270 8.5000000000 -0.048000000 0.1687146723 2.4150142670 51.594001770 81.094009399 2.9030001163 60.986999512 3.0269999504 3.0269999504
 3163.2478027 3.0000000000 8.9659996033 8.5000000000 -0.041000001 0.1653919071 2.4240465164 50.039001465 81.171997070 3.0520000458 59.736999512 2.9539999962 2.9539999962
 3163.4001465 3.0000000000 8.9940004349 8.5000000000 -0.028999999 0.1603297591 2.4530320168 50.557998657 80.313011169 3.1630001068 57.847000122 3.1559998989 3.1559998989
 3163.5527344 3.0000000000 9.0000000000 8.5000000000 -0.017000001 0.1539096981 2.4730448723 46.605998993 79.170997620 3.2620000839 57.439998627 3.4549999237 3.4549999237
 3163.7050781 3.0000000000 9.0000000000 8.5000000000 -0.007000000 0.1444564313 2.4870064259 42.236999512 77.388999939 3.3440001011 57.504001617 3.8229999542 3.8229999542
 3163.8574219 3.0000000000 9.1009998322 8.5000000000 0.0000000000 0.1359968334 2.4909951687 38.229000092 75.671989441 3.3719999790 59.123001099 4.2020001411 4.2020001411
 3164.0097656 3.0000000000 9.1829996109 8.5000000000 0.0030000000 0.1277949661 2.4879822731 40.758998871 75.543998718 3.3650000095 61.189998627 4.5720000267 4.5720000267
 3164.1621094 3.0000000000 9.2489995956 8.5000000000 0.0049999999 0.1246716753 2.4769840240 42.212001801 74.787002563 3.3529999256 61.068000793 4.9250001907 4.9250001907
 3164.3146973 3.0000000000 9.3310003281 8.5000000000 0.0060000001 0.1319887489 2.4669871330 46.312999725 76.813003540 3.3320000172 61.909000397 4.8489999771 4.8489999771
 3164.4670410 6.0000000000 9.4530000687 8.5000000000 0.0040000002 0.1440891773 2.4630177021 51.875000000 78.219001770 3.3299999237 62.894001007 4.3379998207 4.3379998207
 3164.6193848 6.0000000000 9.5790004730 8.5000000000 0.0020000001 0.1623111665 2.4740431309 57.555000305 80.828002930 3.3680000305 63.964000702 3.6119999886 3.6119999886
 3164.7717285 6.0000000000 9.6169996262 8.5000000000 0.0049999999 0.1879810840 2.5010240078 58.062999725 82.454002380 3.4140000343 64.986000061 3.0250000954 3.0250000954
 3164.9243164 6.0000000000 9.5880002975 8.5000000000 0.0109999999 0.2011064887 2.5159711838 57.006999969 80.606002808 3.4440000057 66.066001892 2.8180000782 2.8180000782
 3165.0766602 6.0000000000 9.5600004196 8.5000000000 0.0120000001 0.1968575567 2.5069694519 55.005001068 76.903999329 3.3280000687 66.332000732 2.9930000305 2.9930000305
 3165.2290039 7.0000000000 9.5930004120 8.5000000000 0.0099999998 0.1703971773 2.4879934788 52.875999451 75.032997131 3.0759999752 66.651000977 3.5750000477 3.5750000477
 3165.3813477 7.0000000000 9.6359996796 8.5000000000 0.0149999997 0.1624531597 2.4840128422 55.158000946 78.100997925 2.8810000420 66.763000488 4.0390000343 4.0390000343
 3165.5339355 7.0000000000 9.6709995270 8.5000000000 0.0230000000 0.1957019269 2.4920001030 61.914001465 83.141998291 2.7360000610 67.597000122 3.6579999924 3.6579999924
 3165.6862793 7.0000000000 9.7019996643 8.5000000000 0.0260000005 0.2337400019 2.4919681549 70.921997070 89.671997070 2.6129999161 67.550003052 2.7030000687 2.7030000687
 3165.8386230 7.0000000000 9.7399997711 8.5000000000 0.0209999997 0.2711553574 2.4719791412 76.938003540 93.515998840 2.5209999084 67.057998657 2.2300000191 2.2300000191
 3165.9909668 7.0000000000 9.8409996033 8.5000000000 0.0120000001 0.2932187319 2.4590048790 79.844001770 93.827011108 2.4079999924 66.581001282 2.0329999924 2.0329999924
 3166.1433105 7.0000000000 9.8929996490 8.5000000000 0.0040000002 0.3048983812 2.4620175362 80.205001831 94.889999390 2.2579998970 67.402999878 1.9880000353 1.9880000353
 3166.2958984 7.0000000000 9.8769998550 8.5000000000 -0.004000000 0.3101261854 2.4730129242 81.763999939 93.685997009 2.1210000515 68.541999817 1.9670000076 1.9670000076
 3166.4482422 7.0000000000 9.7939996719 8.5000000000 -0.008000000 0.3120600283 2.4769887924 82.537002563 93.611999512 2.0260000229 68.783996582 1.9290000200 1.9290000200
 3166.6005859 7.0000000000 9.7720003128 8.5000000000 -0.007000000 0.3120807409 2.4699823856 88.751998901 95.638999939 1.9550000429 68.636001587 1.9249999523 1.9249999523
 3166.7529297 7.0000000000 9.7849998474 8.5000000000 -0.009000000 0.3125429451 2.4589793682 90.153999329 94.549003601 1.9069999456 68.410003662 1.9589999914 1.9589999914
 3166.9055176 7.0000000000 9.7910003662 8.5000000000 -0.013000000 0.3144040108 2.4459617138 87.046997070 96.234008789 1.8930000067 68.463996887 1.9670000076 1.9670000076
 3167.0578613 7.0000000000 9.7679996490 8.5000000000 -0.017999999 0.3187866211 2.4340000153 83.265998840 96.219001770 1.9010000229 68.486999512 1.9630000591 1.9630000591
 3167.2102051 7.0000000000 9.7279996872 8.5000000000 -0.018999999 0.3291451931 2.4340288639 81.719001770 95.953002930 1.8999999762 69.713996887 1.9509999752 1.9509999752
 3167.3625488 6.0000000000 9.7069997787 8.5000000000 -0.016000001 0.3386111259 2.4520270824 79.875999451 95.861999512 1.9029999971 68.137001038 1.9110000134 1.9110000134
 3167.5151367 6.0000000000 9.6809997559 8.5000000000 -0.009000000 0.3392983675 2.4690544605 77.591003418 94.205001831 1.9229999781 67.573997498 1.8630000353 1.8630000353
 3167.6674805 6.0000000000 9.5959997177 8.5000000000 -0.002000000 0.3325470388 2.4860272408 74.938003540 94.809997559 1.9429999590 67.752998352 1.8589999676 1.8589999676
 3167.8198242 6.0000000000 9.4849996567 8.5000000000 0.0030000000 0.3244516551 2.5030319691 75.578002930 92.218002319 1.9630000591 68.081001282 1.9060000181 1.9060000181
 3167.9721680 6.0000000000 9.4329996109 8.5000000000 0.0060000001 0.3129957914 2.5230128765 74.857002258 91.486000061 2.0020000935 68.097000122 1.9819999933 1.9819999933
 3168.1245117 6.0000000000 9.4099998474 8.5000000000 0.0049999999 0.2916348577 2.5310029984 74.002998352 91.569999695 2.0529999733 67.906997681 2.0840001106 2.0840001106
 3168.2770996 6.0000000000 9.4069995880 8.5000000000 0.0010000000 0.2634745538 2.5330095291 74.530998230 88.234001160 2.1040000916 67.736999512 2.2219998837 2.2219998837
 3168.4294434 6.0000000000 9.3900003433 8.5000000000 0.0020000001 0.2461965382 2.5360128880 72.421997070 84.671997070 2.1630001068 69.495002747 2.3870000839 2.3870000839
 3168.5817871 6.0000000000 9.3859996796 8.5000000000 0.0040000002 0.2440432310 2.5440080166 69.688003540 83.015998840 2.2149999142 69.533996582 2.4820001125 2.4820001125
 3168.7341309 6.0000000000 9.3879995346 8.5000000000 0.0030000000 0.2523095906 2.5489935875 69.625000000 83.377998352 2.2530000210 67.801002502 2.4370000362 2.4370000362
 3168.8867188 6.0000000000 9.4029998779 8.5000000000 0.0010000000 0.2645325959 2.5449969769 72.179000854 81.973999023 2.2850000858 66.698997498 2.3429999352 2.3429999352
 3169.0390625 6.0000000000 9.3870000839 8.5000000000 -0.001000000 0.2715873122 2.5439951420 77.496002197 87.000999451 2.2880001068 66.877998352 2.3090000153 2.3090000153
 3169.1914063 6.0000000000 9.4329996109 8.5000000000 0.0000000000 0.2824130952 2.5409886837 73.278999329 87.703002930 2.2469999790 66.892997742 2.3659999371 2.3659999371
 3169.3437500 6.0000000000 9.4600000381 8.5000000000 0.0049999999 0.3030568063 2.5339517593 69.597999573 88.176002502 2.1740000248 66.238998413 2.4330000877 2.4330000877
 3169.4963379 6.0000000000 9.4139995575 8.5000000000 0.0049999999 0.3197174370 2.5038239956 63.680000305 89.385002136 2.1070001125 66.774002075 2.3770000935 2.3770000935
 3169.6486816 6.0000000000 9.1090002060 8.5000000000 0.0000000000 0.3064050674 2.4489197731 59.272998810 87.859001160 2.0390000343 64.831001282 2.2820000648 2.2820000648
