# LAS format log file from PETREL
# Project units are specified as depth units
#==================================================================
~Version information
VERS.   2.0:
WRAP.   NO:
#==================================================================
~Well
STRT .m      3631.9968262 :
STOP .m      4250.8930664 :
STEP .m     0.00000000 :
NULL .        -999.250000 :
COMP.           : COMPANY
WELL.  34/4-10 R   : WELL
FLD.            : FIELD
LOC.            : LOCATION
SRVC.           : SERVICE COMPANY
DATE.  2018-09-11 14:48:50   : Log Export Date {yyyy-MM-dd HH:mm:ss}
PROV.           : PROVINCE
UWI.   34/4-10 R   : UNIQUE WELL ID
API.            : API NUMBER
#==================================================================
~Curve
DEPT .m                   : DEPTH
Lithology_geolink ._      : Lithology_geolink
CALI .in                  : CALI
BS .in                    : BS
ROP .m/h                  : ROP
DRHO .g/cm3               : DRHO
NPHI .m3/m3               : NPHI
RHOB .g/cm3               : RHOB
PEF .b/e                  : PEF
GR .gAPI                  : GR
DTC .us/ft                : DTC
DTS .us/ft                : DTS
RDEP .ohm.m               : RDEP
RMED .ohm.m               : RMED
~Parameter
#==================================================================
~Ascii
# ...
 3792.9311523 7.0000000000 8.4560070038 8.5000000000 8.1417961121 -0.016294479 0.3118627965 2.3645720482 4.9070963860 161.71350098 119.97440338 231.69309998 1.5958786011 1.8561360836
 3793.0834961 7.0000000000 8.4789791107 8.5000000000 7.8772768974 -0.015960192 0.3154391944 2.3774821758 5.0699539185 162.02879333 119.41089630 235.30180359 1.5866377354 1.8628301620
 3793.2358398 7.0000000000 8.4933357239 8.5000000000 7.8117847443 -0.020305805 0.3020749986 2.3779122829 5.0015926361 168.85169983 118.50980377 258.14279175 1.5663385391 1.8509820700
 3793.3881836 7.0000000000 8.4930429459 8.5000000000 7.8189001083 -0.018080624 0.3043031991 2.3997869492 5.1765460968 169.29550171 117.73940277 253.93829346 1.5985273123 1.8591009378
 3793.5405273 7.0000000000 8.4939193726 8.5000000000 8.4072685242 -0.016802600 0.2997837067 2.4068400860 5.0309901237 166.55169678 116.97999573 246.61669922 1.5496729612 1.8638895750
 3793.6931152 7.0000000000 8.4947710037 8.5000000000 8.7134284973 -0.020429211 0.3113529086 2.4078640938 5.1229681969 162.34800720 117.17700195 244.58239746 1.5258839130 1.9542969465
 3793.8454590 7.0000000000 8.4944782257 8.5000000000 8.7269001007 -0.025491539 0.3164780140 2.3903779984 4.9020571709 161.89410400 116.43460083 236.34669495 1.6144038439 1.9348254204
 3793.9978027 7.0000000000 8.4978561401 8.5000000000 8.8617095947 -0.023861021 0.3202235103 2.3770918846 4.6969547272 158.83099365 114.56359863 230.76499939 1.7372410297 1.9932482243
 3794.1501465 7.0000000000 8.4837512970 8.5000000000 9.7428588867 -0.027446199 0.3120751977 2.3651769161 4.5381555557 156.03849792 113.17389679 227.14878845 1.9130631685 2.1163511276
 3794.3027344 7.0000000000 8.4450979233 8.5000000000 10.103136063 -0.030681850 0.3073881865 2.3743019104 4.6124701500 151.96699524 112.36219788 230.24209595 1.9324917793 2.1257574558
 3794.4550781 7.0000000000 8.4272890091 8.5000000000 10.370605469 -0.031491999 0.2921110094 2.3922460079 4.9516754150 146.94200134 112.44760132 228.47097778 1.9425449371 2.1583387852
 3794.6074219 7.0000000000 8.4186725616 8.5000000000 10.796482086 -0.034685832 0.2880944014 2.4140779972 5.1897468567 151.56880188 112.65010071 229.12130737 1.9232949018 2.1673657894
 3794.7597656 7.0000000000 8.4220228195 8.5000000000 11.341533661 -0.070665173 0.2860231102 2.4006099701 5.3188848495 155.79260254 112.99839783 236.08779907 1.8457399607 2.1616714001
 3794.9123535 7.0000000000 8.4247045517 8.5000000000 10.828448296 -0.073230028 0.2920921147 2.4122018814 5.3919239044 163.94169617 113.54750824 232.58470154 1.8126397133 2.1405658722
 3795.0646973 7.0000000000 8.4220228195 8.5000000000 10.510253906 -0.067242503 0.2950024009 2.4343850613 5.8299922943 165.73350525 114.06919861 226.85440063 1.8760920763 2.1779439449
 3795.2170410 7.0000000000 8.4229803085 8.5000000000 9.7141256332 -0.068724133 0.3007935882 2.4237349033 5.7892041206 169.63850403 113.86799622 227.30299377 1.7675284147 2.1822750568
 3795.3693848 7.0000000000 8.4293050766 8.5000000000 9.0865678787 -0.062838718 0.3144009113 2.4149639606 5.3896265030 172.11819458 112.40399933 227.57460022 1.8030966520 2.1131000519
 3795.5219727 7.0000000000 8.4448175430 8.5000000000 9.1222772598 -0.033538230 0.2984288931 2.4194490910 4.9406981468 175.46339417 111.22470093 225.80729675 1.9503540993 2.1852991581
 3795.6743164 7.0000000000 8.4422206879 8.5000000000 9.2253484726 -0.032078929 0.2774980962 2.4136600494 4.9025969505 174.00790405 112.21459961 225.97711182 1.9287750721 2.1773548126
 3795.8266602 7.0000000000 8.4445219040 8.5000000000 8.8435516357 -0.033114709 0.2671658099 2.4083859921 5.1500916481 171.97860718 108.59829712 224.41940308 1.9070508480 2.1757626534
 3795.9790039 7.0000000000 8.4422254562 8.5000000000 8.9692678452 -0.035294469 0.2645676136 2.4039258957 5.2117190361 171.92759705 108.32630157 223.86450195 1.9425898790 2.2204012871
 3796.1313477 7.0000000000 8.4468145370 8.5000000000 9.0759630203 -0.036720961 0.2691782117 2.4028639793 5.1553769112 179.39140320 109.25119019 220.50889587 1.9739704132 2.1888902187
 3796.2839355 7.0000000000 8.4427957535 8.5000000000 8.9663286209 -0.033496190 0.2730793953 2.4214699268 5.1135125160 192.50660706 107.70939636 216.20779419 2.1072044373 2.1695139408
 3796.4362793 7.0000000000 8.4186716080 8.5000000000 9.1807146072 -0.030802140 0.2676990032 2.4396181107 4.9925084114 195.12950134 106.91590118 213.68940735 1.9045447111 2.1672186852
 3796.5886230 7.0000000000 8.4112052917 8.5000000000 9.2489681244 -0.033678532 0.2717668116 2.4325530529 4.9320821762 189.79789734 105.99369049 213.44290161 1.7089554071 2.1735286713
 3796.7409668 7.0000000000 8.4057445526 8.5000000000 9.3644504547 -0.037466221 0.2719649971 2.4218192101 4.7572507858 178.82919312 105.90019226 212.14340210 1.8464914560 2.1519751549
 3796.8935547 7.0000000000 8.4129276276 8.5000000000 9.4636802673 -0.032857832 0.2708759904 2.4227559566 4.9406824112 178.75309753 104.75540161 211.01789856 1.9931912422 2.1373822689
 3797.0458984 7.0000000000 8.4028720856 8.5000000000 9.4792003632 -0.032859884 0.2641767859 2.4286010265 5.1733145714 177.53019714 105.82749939 210.35987854 2.0741455555 2.2115299702
 3797.1982422 7.0000000000 8.3965578079 8.5000000000 9.0148391724 -0.032544259 0.2592855096 2.4296839237 5.4129171371 176.65269470 106.23680115 209.92030334 2.1159870625 2.1774587631
 3797.3505859 7.0000000000 8.3971261978 8.5000000000 8.9232721329 -0.026671020 0.2662549019 2.4372620583 5.6658921242 172.16740417 106.68479156 209.53199768 1.7153613567 1.9415122271
 3797.5031738 7.0000000000 8.4054594040 8.5000000000 8.6340694427 -0.021913109 0.2694830894 2.4378170967 5.8291878700 167.66259766 107.75309753 209.85589600 1.7239331007 1.9920415878
 3797.6555176 7.0000000000 8.4054594040 8.5000000000 8.5061321259 -0.024223089 0.2779355943 2.4355208874 5.7625632286 167.27510071 109.33509064 210.95108032 1.7473114729 1.9953408241
 3797.8078613 7.0000000000 8.4114913940 8.5000000000 8.0749139786 -0.027951401 0.2783753872 2.4307749271 5.6192798615 164.88110352 110.45379639 213.17619324 1.7093410492 1.9492410421
 3797.9602051 7.0000000000 8.4080476761 8.5000000000 7.7362637520 -0.033637580 0.2799260914 2.4234030247 5.7207083702 164.50109863 111.01010895 215.46278381 1.6419551373 1.9254620075
 3798.1125488 7.0000000000 8.4097681046 8.5000000000 7.4393987656 -0.033333041 0.2814123034 2.4219820499 5.5988121033 162.70939636 111.38990021 216.52452087 1.6730597019 1.9175392389
 3798.2651367 7.0000000000 8.4083328247 8.5000000000 7.1793918610 -0.035486311 0.2892965972 2.4190061092 5.2678174973 162.25300598 112.35539246 217.78520203 1.6458628178 1.9438827038
 3798.4174805 7.0000000000 8.4100551605 8.5000000000 7.3945770264 -0.038413510 0.2887529135 2.4153749943 4.8473529816 160.57870483 112.12059021 219.38900757 1.7081159353 1.9958765507
 3798.5698242 7.0000000000 8.4028720856 8.5000000000 7.5857372284 -0.037439112 0.2949407101 2.4154839516 4.8114528656 160.63879395 112.08580017 219.95370483 1.7287480831 1.9780108929
 3798.7221680 7.0000000000 8.4028720856 8.5000000000 7.8137640953 -0.031260420 0.2856937945 2.4185249805 4.9241151810 166.55070496 112.15889740 221.64710999 1.6940236092 2.0285387039
 3798.8747559 7.0000000000 8.4051656723 8.5000000000 7.6576442719 -0.038363520 0.2878147960 2.4073030949 5.1162266731 168.07839966 112.37999725 223.06118774 1.7082649469 1.9731221199
 3799.0270996 7.0000000000 8.4028720856 8.5000000000 7.6035757065 -0.049519099 0.2812638879 2.3937950134 5.3996834755 171.68609619 111.85240173 223.73309326 1.7010257244 1.9814693928
 3799.1794434 7.0000000000 8.3991346359 8.5000000000 7.3286423683 -0.052600998 0.3000957966 2.3824090958 5.3881340027 165.06629944 111.90049744 227.37371826 1.7186526060 1.9558212757
 3799.3317871 7.0000000000 8.3956909180 8.5000000000 7.2298178673 -0.051276859 0.3026011884 2.3908710480 5.2898960114 165.03919983 111.85031128 227.72329712 1.6812471151 2.0114374161
 3799.4843750 7.0000000000 8.3956909180 8.5000000000 7.3717207909 -0.045636781 0.2929187119 2.4026219845 5.0516281128 160.05929565 111.14669800 228.01121521 1.6796634197 2.0387125015
