# LAS format log file from PETREL
# Project units are specified as depth units
#==================================================================
~Version information
VERS.   2.0:
WRAP.   NO:
#==================================================================
~Well
STRT .m      3631.9968262 :
STOP .m      4250.8930664 :
STEP .m     0.00000000 :
NULL .        -999.250000 :
COMP.           : COMPANY
WELL.  34/4-10 R   : WELL
FLD.            : FIELD
LOC.            : LOCATION
SRVC.           : SERVICE COMPANY
DATE.  2018-09-11 14:48:50   : Log Export Date {yyyy-MM-dd HH:mm:ss}
PROV.           : PROVINCE
UWI.   34/4-10 R   : UNIQUE WELL ID
API.            : API NUMBER
#==================================================================
~Curve
DEPT .m                   : DEPTH
Lithology_geolink ._      : Lithology_geolink
CALI .in                  : CALI
BS .in                    : BS
ROP .m/h                  : ROP
DRHO .g/cm3               : DRHO
NPHI .m3/m3               : NPHI
RHOB .g/cm3               : RHOB
PEF .b/e                  : PEF
GR .gAPI                  : GR
DTC .us/ft                : DTC
DTS .us/ft                : DTS
RDEP .ohm.m               : RDEP
RMED .ohm.m               : RMED
~Parameter
#==================================================================
~Ascii
# ...
 4000.8046875 6.0000000000 8.2655916214 8.5000000000 9.6742496490 -0.005705535 0.2622384131 2.6954889297 7.8056559563 115.45929718 88.572723389 168.76089478 2.2594230175 2.6095509529
 4000.9572754 6.0000000000 8.2678489685 8.5000000000 9.4005002975 -0.011196080 0.2607825100 2.6819150448 8.4367389679 117.30570221 89.416236877 171.46641541 1.8760789633 2.5239489079
 4001.1096191 6.0000000000 8.2673015594 8.5000000000 8.7483119965 -0.006026149 0.2524437904 2.6876258850 8.6346492767 113.94680023 91.603759766 172.60020447 1.8408139944 2.3513040543
 4001.2619629 6.0000000000 8.2675762177 8.5000000000 7.8807549477 -0.002863646 0.2610265911 2.6904230118 7.8002309799 111.53369904 93.790603638 176.31468201 1.8688060045 2.3122529984
 4001.4143066 6.0000000000 8.2692871094 8.5000000000 7.5618729591 0.0043101911 0.2608962059 2.6809990406 7.1447882652 117.24579620 93.409896851 177.52760315 1.8450679779 2.3548099995
 4001.5666504 6.0000000000 8.2686843872 8.5000000000 7.5362000465 0.0060618520 0.2712670863 2.6593639851 6.8129553795 127.00730133 92.442390442 182.55769348 1.9283440113 2.3959350586
 4001.7192383 6.0000000000 8.2687387466 8.5000000000 7.5151200294 0.0032371881 0.2531923056 2.6242098808 6.7942247391 129.60659790 91.421760559 185.26861572 2.3509969711 2.4597439766
 4001.8715820 6.0000000000 8.2690124512 8.5000000000 6.9796848297 -0.001169622 0.2644245028 2.6176791191 6.8171300888 121.44190216 90.637710571 186.78239441 2.6126809120 2.4962480068
 4002.0239258 6.0000000000 8.2675762177 8.5000000000 7.2645859718 -0.002006463 0.2640711963 2.6213650703 6.7843985558 114.92489624 90.125465393 186.66369629 2.7072339058 2.5027151108
 4002.1762695 6.0000000000 8.2678499222 8.5000000000 7.8913841248 -0.015159210 0.2577678859 2.6079950333 6.5671820641 118.47119904 89.788970947 185.02601624 2.2323000431 2.3869190216
 4002.3288574 6.0000000000 8.2680606842 8.5000000000 8.0045118332 -0.020897301 0.2745397985 2.6033959389 6.1005201340 123.20980072 90.776290894 183.00950623 1.8970789909 2.2518150806
 4002.4812012 6.0000000000 8.2839336395 8.5000000000 8.2300233841 -0.010416940 0.2915087938 2.6096138954 6.1181664467 128.41290283 91.780181885 182.31889343 1.7741309404 2.1143970490
 4002.6335449 6.0000000000 8.2850952148 8.5000000000 8.2823801041 -0.005423269 0.3065604866 2.6189761162 6.3254413605 127.43319702 93.363273621 181.95050049 1.6962369680 2.0297780037
 4002.7858887 6.0000000000 8.2850952148 8.5000000000 8.3974447250 -0.008747712 0.3052416146 2.6052899361 6.1787524223 127.19750214 94.507049561 183.45019531 1.6749000549 2.0123178959
 4002.9384766 6.0000000000 8.2848196030 8.5000000000 8.4668998718 -0.009142102 0.3115560114 2.6035130024 5.7706074715 125.78330231 94.511383057 186.70460510 1.6877629757 1.9826970100
 4003.0908203 6.0000000000 8.2850961685 8.5000000000 8.2123641968 -0.000662625 0.3050849140 2.6096971035 5.9527492523 126.31950378 94.075256348 190.19908142 1.7083979845 1.9871089458
 4003.2431641 6.0000000000 8.2845449448 8.5000000000 8.3381385803 -0.008330287 0.3002409041 2.6037149429 6.4032635689 128.09320068 94.197357178 193.66729736 1.7469919920 2.0291790962
 4003.3955078 6.0000000000 8.2848196030 8.5000000000 9.0499420166 -0.010694360 0.3067503870 2.5995609760 6.6743593216 127.50630188 95.044319153 196.06591797 2.0630159378 2.2647271156
 4003.5478516 6.0000000000 8.2850952148 8.5000000000 9.4519491196 -0.010751480 0.3051419854 2.5932679176 6.0158476830 127.49440002 95.825691223 197.78619385 2.0681118965 2.2624490261
 4003.7004395 6.0000000000 8.2848205566 8.5000000000 10.719944000 -0.012379740 0.3030191064 2.5869109631 5.6327910423 126.68560028 95.832374573 199.66661072 1.6988660097 1.9584410191
 4003.8527832 6.0000000000 8.2872495651 8.5000000000 11.602228165 -0.014502920 0.3044075072 2.5919899940 5.6089096069 126.24009705 95.795669556 200.21440125 1.6988660097 1.9584410191
 4004.0051270 6.0000000000 8.2888545990 8.5000000000 11.469311714 -0.019664239 0.3003154099 2.5952780247 6.0062737465 124.83580017 95.401191711 199.98699951 1.6988660097 1.9584410191
 4004.1574707 6.0000000000 8.2853708267 8.5000000000 11.385004044 -0.021572581 0.3092221022 2.5974459648 6.1899032593 126.66600037 94.389846802 199.91310120 1.6988660097 1.9584410191
 4004.3100586 6.0000000000 8.2842702866 8.5000000000 11.407600403 -0.022864399 0.2974286079 2.5963408947 6.3601288795 128.67480469 93.583236694 198.69520569 1.8024200201 2.1033780575
 4004.4624023 6.0000000000 8.2831087112 8.5000000000 11.521957397 -0.020871211 0.2839331925 2.5979940891 6.4931330681 127.96340179 91.894317627 195.65769958 2.0454659462 2.3997058868
 4004.6147461 6.0000000000 8.2850952148 8.5000000000 11.078379631 -0.017406210 0.2791757882 2.6132099628 6.7941136360 123.31420135 89.903961182 193.12309265 2.1677160263 2.4938490391
 4004.7670898 6.0000000000 8.2848205566 8.5000000000 10.843700409 -0.012320490 0.2794998884 2.6225130558 6.7870454788 117.67140198 87.832748413 188.43080139 2.3139519691 2.6303310394
 4004.9196777 6.0000000000 8.2848196030 8.5000000000 10.955559731 -0.013267200 0.2760519087 2.6222100258 6.7178068161 116.77809906 86.391296387 185.20199585 2.6398410797 2.8034100533
 4005.0720215 6.0000000000 8.2850952148 8.5000000000 11.121538162 -0.020704459 0.2730771005 2.6246230602 6.5003914833 121.84790039 85.901893616 180.91938782 2.7840240002 2.8419740200
 4005.2243652 6.0000000000 8.2865324020 8.5000000000 11.480769157 -0.023507230 0.2683795094 2.6565420628 6.3154087067 124.61460114 86.288238525 176.35139465 2.6785509586 2.8301548958
 4005.3767090 6.0000000000 8.2874183655 8.5000000000 10.826942444 -0.020331919 0.2696981132 2.7056460381 6.8941617012 121.11689758 86.970748901 175.18850708 2.4549241066 2.8868870735
 4005.5290527 6.0000000000 8.2879695892 8.5000000000 10.450499535 -0.022241371 0.2834118009 2.7132658958 7.6581473351 118.32270050 87.738151550 171.46279907 2.5760400295 2.8857340813
 4005.6816406 6.0000000000 8.2852182388 8.5000000000 11.727947235 -0.030208919 0.3074952960 2.6577749252 7.2731137276 122.02529907 88.427360535 171.69830322 2.6465780735 2.8687551022
 4005.8339844 6.0000000000 8.2850952148 8.5000000000 12.367218971 -0.026436180 0.3233275115 2.6208870411 6.8132066727 128.33500671 88.518730164 172.75579834 2.6375269890 2.8765499592
 4005.9863281 6.0000000000 8.2870845795 8.5000000000 12.385199547 -0.026947699 0.3159522116 2.5889339447 6.8440780640 126.96759796 87.713432312 174.60510254 2.6722190380 2.8973529339
 4006.1386719 6.0000000000 8.2876367569 8.5000000000 12.438267708 -0.028160200 0.3000834882 2.6167180538 8.6478681564 121.71739960 87.685722351 175.61138916 2.5705370903 2.9145009518
 4006.2912598 6.0000000000 8.2868080139 8.5000000000 12.892583847 -0.019713260 0.3052377105 2.6623580456 9.3926086426 115.98590088 88.736297607 176.87359619 2.6144928932 2.7757759094
 4006.4436035 6.0000000000 8.2942714691 8.5000000000 13.094599724 -0.019014990 0.3075223863 2.6787199974 8.3172693253 110.37270355 89.307357788 178.48519897 2.4663610458 2.6350290775
 4006.5959473 7.0000000000 8.2899599075 8.5000000000 14.085700035 -0.026415480 0.3245046139 2.6404509544 6.8816246986 114.86599731 89.246330261 179.02281189 1.9958610535 2.4773979187
 4006.7482910 7.0000000000 8.2850952148 8.5000000000 13.254971504 -0.029465331 0.3187654912 2.5830299854 5.9817595482 127.38339996 89.647499084 180.12319946 1.7228709459 2.4454538822
 4006.9008789 7.0000000000 8.2833824158 8.5000000000 12.824567795 -0.025008909 0.3105773926 2.5571808815 5.7788400650 135.90060425 90.819602966 181.21699524 1.6521519423 2.4595830441
 4007.0532227 7.0000000000 8.2853717804 8.5000000000 12.155493736 -0.026469760 0.3096109033 2.5337159634 5.6217880249 135.23550415 91.072486877 182.81819153 2.0821220875 2.6107239723
 4007.2055664 7.0000000000 8.2831087112 8.5000000000 11.223158836 -0.022467250 0.3185232878 2.5309610367 5.5419769287 129.16059875 90.460891724 184.42758179 2.3358359337 2.7344510555
 4007.3579102 6.0000000000 8.2831077576 8.5000000000 10.478240967 -0.018092999 0.3209789097 2.5344610214 5.5538258553 124.37550354 90.453216553 186.12969971 2.5843210220 2.8782889843
