# LAS format log file from PETREL
# Project units are specified as depth units
#==================================================================
~Version information
VERS.   2.0:
WRAP.   NO:
#==================================================================
~Well
STRT .m      986.78210449 :
STOP .m      4467.4443359 :
STEP .m     0.00000000 :
NULL .        -999.250000 :
COMP.           : COMPANY
WELL.  34/4-3   : WELL
FLD.            : FIELD
LOC.            : LOCATION
SRVC.           : SERVICE COMPANY
DATE.  2018-09-11 14:48:50   : Log Export Date {yyyy-MM-dd HH:mm:ss}
PROV.           : PROVINCE
UWI.   34/4-3   : UNIQUE WELL ID
API.            : API NUMBER
#==================================================================
~Curve
DEPT .m                   : DEPTH
Lithology_geolink ._      : Lithology_geolink
CALI .in                  : CALI
DRHO .g/cm3               : DRHO
NPHI .m3/m3               : NPHI
RHOB .g/cm3               : RHOB
GR .gAPI                  : GR
DTC .us/ft                : DTC
RDEP .ohm.m               : RDEP
SP .mV                    : SP
RSHA .ohm.m               : RSHA
RMED .ohm.m               : RMED
~Parameter
#==================================================================
~Ascii
# ...
 3769.3000488 5.0000000000 9.4639997482 0.0359999985 0.2082699984 2.5379889011 89.762001038 78.300003052 8.9300003052 133.54800415 10.715999603 10.715999603
 3769.4523926 5.0000000000 9.4720001221 0.0340000018 0.1875700057 2.5280320644 87.792999268 78.002990723 8.8380002975 135.72000122 10.071999550 10.071999550
 3769.6049805 5.0000000000 9.4860000610 0.0309999995 0.1823299974 2.5180158615 83.665000916 77.142997742 8.7469997406 136.43899536 9.5260000229 9.5260000229
 3769.7573242 5.0000000000 9.5000000000 0.0299999993 0.1890200078 2.5150048733 79.103996277 76.974998474 8.6549997330 136.20799255 9.1180000305 9.1180000305
 3769.9096680 5.0000000000 9.5080003738 0.0309999995 0.1934600025 2.5169968605 80.138000488 77.500000000 8.5430002213 136.02699280 9.1700000763 9.1700000763
 3770.0620117 5.0000000000 9.5080003738 0.0329999998 0.1845600009 2.5150032043 82.810997009 77.718002319 8.4049997330 136.00000000 9.4600000381 9.4600000381
 3770.2143555 5.0000000000 9.5019998550 0.0359999985 0.1754599959 2.5080223083 85.485000610 77.875000000 8.2659997940 136.26600647 10.039999962 10.039999962
 3770.3669434 5.0000000000 9.5050001144 0.0379999988 0.1756800115 2.5040063858 84.962997437 78.083999634 8.1280002594 136.71499634 10.302000046 10.302000046
 3770.5192871 5.0000000000 9.5050001144 0.0370000005 0.1817000061 2.5030016899 82.847999573 78.379997253 7.9889998436 136.36799622 9.5620002747 9.5620002747
 3770.6716309 5.0000000000 9.5039997101 0.0289999992 0.1873700023 2.5020017624 82.511001587 78.380996704 7.9340000153 134.05200195 8.8540000916 8.8540000916
 3770.8239746 5.0000000000 9.5010004044 0.0189999994 0.1913599968 2.4970159531 81.790000916 78.183998108 7.9000000954 133.84100342 8.2370004654 8.2370004654
 3770.9765625 5.0000000000 9.4989995956 0.0140000004 0.1899600029 2.4910094738 79.353996277 77.827003479 7.8220000267 136.23199463 8.0430002213 8.0430002213
 3771.1289063 5.0000000000 9.5019998550 0.0189999994 0.1860600114 2.4900016785 75.952003479 76.861999512 7.7290000916 136.99400330 7.9520001411 7.9520001411
 3771.2812500 5.0000000000 9.5039997101 0.0280000009 0.1838800013 2.4959905148 73.274002075 75.601989746 7.6250000000 135.55900574 8.1160001755 8.1160001755
 3771.4335938 5.0000000000 9.5089998245 0.0350000001 0.1820099950 2.5049712658 75.974998474 74.647003174 7.5130000114 134.80999756 8.5880002975 8.5880002975
 3771.5861816 5.0000000000 9.5190000534 0.0340000018 0.1744499952 2.5129871368 78.550003052 74.547996521 7.4499998093 136.10099792 9.3079996109 9.3079996109
 3771.7385254 5.0000000000 9.5310001373 0.0260000005 0.1615399867 2.5219857693 78.183998108 74.486999512 7.4499998093 134.41400146 9.7519998550 9.7519998550
 3771.8908691 5.0000000000 9.5389995575 0.0189999994 0.1543100029 2.5279905796 75.855003357 75.162002563 7.4899997711 133.86399841 9.1660003662 9.1660003662
 3772.0432129 5.0000000000 9.5389995575 0.0170000009 0.1547500044 2.5329918861 76.356002808 75.934005737 7.5370001793 135.95399475 8.3509998322 8.3509998322
 3772.1955566 5.0000000000 9.5430002213 0.0189999994 0.1658699960 2.5300095081 80.499000549 76.649002075 7.5999999046 137.50999451 7.8680000305 7.8680000305
 3772.3481445 5.0000000000 9.5530004501 0.0230000000 0.1829000115 2.5210142136 84.003997803 77.330001831 7.6729998589 137.75999451 7.8629999161 7.8629999161
 3772.5004883 5.0000000000 9.5670003891 0.0260000005 0.1909199953 2.5209999084 83.935997009 77.744003296 7.7989997864 137.29699707 8.2259998322 8.2259998322
 3772.6528320 5.0000000000 9.5780000687 0.0280000009 0.1931699961 2.5239951611 81.378997803 77.513999939 7.9159998894 137.51400757 8.7939996719 8.7939996719
 3772.8051758 5.0000000000 9.5819997787 0.0280000009 0.1953599900 2.5180191994 80.537002563 77.170997620 8.0050001144 137.35000610 9.3900003433 9.3900003433
 3772.9577637 5.0000000000 9.5869998932 0.0219999999 0.1970500052 2.5120096207 82.133003235 76.775001526 8.0050001144 135.58999634 9.8050003052 9.8050003052
 3773.1101074 5.0000000000 9.5889997482 0.0209999997 0.1940300018 2.5100030899 82.703002930 76.436996460 8.0050001144 135.23500061 9.9980001450 9.9980001450
 3773.2624512 5.0000000000 9.6029996872 0.0240000002 0.1818899959 2.5109982491 78.662002563 76.085998535 7.9800000191 136.77799988 9.7349996567 9.7349996567
 3773.4147949 5.0000000000 9.6180000305 0.0240000002 0.1786000133 2.5119969845 74.540000916 75.597999573 7.9299998283 138.22399902 9.1969995499 9.1969995499
 3773.5673828 5.0000000000 9.6300001144 0.0160000008 0.1803900003 2.5129983425 71.434997559 75.302001953 7.7890000343 137.64700317 8.6420001984 8.6420001984
 3773.7197266 5.0000000000 9.6379995346 0.0089999996 0.1807599962 2.5249807835 70.861999512 75.416000366 7.6919999123 137.10299683 8.0790004730 8.0790004730
 3773.8720703 5.0000000000 9.6330003738 0.0080000004 0.1757200062 2.5519568920 71.098999023 76.170997620 7.6319999695 137.49200439 7.7430000305 7.7430000305
 3774.0244141 5.0000000000 9.6309995651 0.0140000004 0.1750700027 2.5669758320 70.388999939 76.373992920 7.5729999542 138.33799744 7.5960001945 7.5960001945
 3774.1767578 4.0000000000 9.6319999695 0.0219999999 0.1817000061 2.5600223541 68.353996277 76.072998047 7.5159997940 138.77099609 7.7059998512 7.7059998512
 3774.3293457 4.0000000000 9.6280002594 0.0289999992 0.1873999983 2.5440256596 66.208000183 75.069000244 7.4749999046 137.89500427 8.2530002594 8.2530002594
 3774.4816895 4.0000000000 9.6289997101 0.0359999985 0.1885600090 2.5449984074 64.207000732 75.981002808 7.4499998093 138.03399658 9.1319999695 9.1319999695
 3774.6340332 4.0000000000 9.6359996796 0.0320000015 0.1799900085 2.5430030823 63.213001251 76.987998962 7.4470000267 138.96200562 9.5260000229 9.5260000229
 3774.7863770 4.0000000000 9.6370000839 0.0199999996 0.1685699970 2.5310382843 64.348999023 78.424003601 7.3899998665 140.14900208 8.6359996796 8.6359996796
 3774.9389648 4.0000000000 9.6490001678 0.0109999999 0.1584399939 2.5200176239 67.555999756 79.162002563 7.2100000381 138.81199646 7.5819997787 7.5819997787
 3775.0913086 4.0000000000 9.6549997330 0.0130000003 0.1556299925 2.5160064697 70.277999878 79.482994080 7.0159997940 136.87899780 6.6050000191 6.6050000191
 3775.2436523 5.0000000000 9.6590003967 0.0189999994 0.1667499989 2.5110080242 71.668998718 79.705001831 6.8629999161 137.17700195 6.2080001831 6.2080001831
 3775.3959961 5.0000000000 9.6660003662 0.0170000009 0.1795599908 2.4970448017 72.353996277 79.902000427 6.7319998741 138.62399292 5.9289999008 5.9289999008
 3775.5485840 5.0000000000 9.6579999924 0.0120000001 0.1887000054 2.4880142212 74.711997986 80.035003662 6.7109999657 140.10099792 5.9320001602 5.9320001602
 3775.7009277 5.0000000000 9.6579999924 0.0099999998 0.1915800124 2.4830081463 77.085998535 80.136001587 6.7630000114 140.12100220 6.5510001183 6.5510001183
 3775.8532715 5.0000000000 9.6529998779 0.0120000001 0.1915800124 2.4839982986 79.172996521 80.135002136 6.8229999542 139.35899353 7.2249999046 7.2249999046
 3776.0056152 5.0000000000 9.6479997635 0.0219999999 0.1916799992 2.4949822426 78.594001770 79.769996643 6.9640002251 139.35800171 7.7319998741 7.7319998741
 3776.1582031 5.0000000000 9.6400003433 0.0299999993 0.1957500130 2.4989936352 75.510002136 79.292999268 7.0939998627 140.47799683 7.9149999619 7.9149999619
 3776.3105469 5.0000000000 9.6160001755 0.0309999995 0.2040399909 2.4860208035 72.275001526 78.622001648 7.2340002060 141.41900635 8.1379995346 8.1379995346
 3776.4628906 5.0000000000 9.5989999771 0.0260000005 0.2085300088 2.4700257778 66.323997498 77.797996521 7.0679998398 142.07200623 8.7060003281 8.7060003281
 3776.6152344 2.0000000000 9.5889997482 0.0250000004 0.2019599974 2.4590177536 58.150001526 77.423004150 6.7960000038 142.07200623 8.6120004654 8.6120004654
 3776.7675781 2.0000000000 9.5839996338 0.0299999993 0.1922599971 2.4639840126 52.706001282 77.723999023 6.5799999237 142.27000427 7.8660001755 7.8660001755
 3776.9201660 2.0000000000 9.5900001526 0.0340000018 0.1909499913 2.4769792557 50.233001709 78.459999084 6.3730001450 142.93499756 6.9699997902 6.9699997902
