# LAS format log file from PETREL
# Project units are specified as depth units
#==================================================================
~Version information
VERS.   2.0:
WRAP.   NO:
#==================================================================
~Well
STRT .m      986.78210449 :
STOP .m      4467.4443359 :
STEP .m     0.00000000 :
NULL .        -999.250000 :
COMP.           : COMPANY
WELL.  34/4-3   : WELL
FLD.            : FIELD
LOC.            : LOCATION
SRVC.           : SERVICE COMPANY
DATE.  2018-09-11 14:48:50   : Log Export Date {yyyy-MM-dd HH:mm:ss}
PROV.           : PROVINCE
UWI.   34/4-3   : UNIQUE WELL ID
API.            : API NUMBER
#==================================================================
~Curve
DEPT .m                   : DEPTH
Lithology_geolink ._      : Lithology_geolink
CALI .in                  : CALI
DRHO .g/cm3               : DRHO
NPHI .m3/m3               : NPHI
RHOB .g/cm3               : RHOB
GR .gAPI                  : GR
DTC .us/ft                : DTC
RDEP .ohm.m               : RDEP
SP .mV                    : SP
RSHA .ohm.m               : RSHA
RMED .ohm.m               : RMED
~Parameter
#==================================================================
~Ascii
# ...
 2611.2131348  -999.250000 13.581000328 0.0010000000 0.3362799883 2.4000000954 60.392021179 100.75278473 2.0740511417 81.975807190 2.3669872284 2.3669872284
 2611.3654785  -999.250000 13.576000214 0.0000000000 0.3350400031 2.3989999294 64.132095337 100.99721527 2.0899999142 80.981559753 2.3630895615 2.3630895615
 2611.5178223  -999.250000 13.567999840 -0.004000000 0.3301800191 2.3910000324 64.772789001 100.75000763 2.0900192261 80.552139282 2.3910546303 2.3910546303
 2611.6704102  -999.250000 13.555999756 0.0020000001 0.3303500116 2.4019999504 61.271823883 100.75318146 2.0960817337 86.169982910 2.4081153870 2.4081153870
 2611.8227539  -999.250000 13.548001289 -0.003000000 0.3318800032 2.3989999294 58.118568420 100.99681854 2.1130192280 80.994331360 2.4320287704 2.4320287704
 2611.9750977  -999.250000 13.543000221 0.0000000000 0.3252500296 2.4079999924 55.544826508 100.74997711 2.1170065403 81.475814819 2.4380481243 2.4380481243
 2612.1274414  -999.250000 13.532999992 0.0099999998 0.3093899786 2.4330000877 56.741661072 100.74163818 2.1189806461 80.485198975 2.4530384541 2.4530384541
 2612.2800293  -999.250000 13.524998665 0.0179999992 0.2972700000 2.4409999847 58.831531525 100.00955200 2.1129710674 80.234794617 2.4649903774 2.4649903774
 2612.4323730  -999.250000 13.522999763 0.0170000009 0.2903600037 2.4219999313 62.658485413 100.74233246 2.1069808006 79.983856201 2.4629137516 2.4629137516
 2612.5847168  -999.250000 13.524998665 0.0189999994 0.3266099989 2.4110000134 60.685520172 100.18962097 2.1029775143 79.749191284 2.4448556900 2.4448556900
 2612.7370605  -999.250000 13.529999733 0.0189999994 0.3483499885 2.4119999409 60.525417328 100.38457489 2.0959742069 80.740760803 2.3999264240 2.3999264240
 2612.8896484  -999.250000 13.529000282 0.0109999999 0.3438000083 2.4110000134 57.243289948 101.18191528 2.0879135132 80.971107483 2.3769087791 2.3769087791
 2613.0419922  -999.250000 13.524998665 0.0020000001 0.3408200145 2.4089999199 59.170761108 100.75000763 2.0698416233 79.759124756 2.3580431938 2.3580431938
 2613.1943359  -999.250000 13.522999763 0.0049999999 0.3486299813 2.4219999313 60.158458710 100.75278473 2.0369615555 81.236999512 2.3670129776 2.3670129776
 2613.3466797  -999.250000 13.522999763 0.0120000001 0.3571400046 2.4409999847 60.296276093 100.99722290 2.0249328613 81.237007141 2.3709487915 2.3709487915
 2613.4990234  -999.250000 13.520000458 0.0049999999 0.3475099802 2.4419999123 58.821807861 100.75438690 2.0039615631 81.240798950 2.3549582958 2.3549582958
 2613.6516113  -999.250000 13.511000633 0.0000000000 0.3453299999 2.4379999638 56.890354156 101.18511200 1.9920576811 81.491172791 2.3418653011 2.3418653011
 2613.8039551  -999.250000 13.508000374 0.0020000001 0.3572100103 2.4379999638 55.739257813 101.00284576 2.0040287971 81.733810425 2.3139855862 2.3139855862
 2613.9562988  -999.250000 13.508000374 0.0140000004 0.3675899804 2.4349999428 59.331089020 101.17581940 2.0099806786 81.487014771 2.3110320568 2.3110320568
 2614.1086426  -999.250000 13.501999855 0.0109999999 0.3616400063 2.4170000553 63.709182739 100.18538666 2.0040640831 81.492599487 2.3211250305 2.3211250305
 2614.2612305  -999.250000 13.486999512 0.0149999997 0.3497799933 2.4200000763 62.807590485 99.991996765 2.0240912437 81.993385315 2.3601584435 2.3601584435
 2614.4135742  -999.250000 13.477999687 0.0109999999 0.3448300064 2.4309999943 57.525680542 99.366050720 2.0430288315 82.486663818 2.3931581974 2.3931581974
 2614.5659180  -999.250000 13.472999573 0.0189999994 0.3517100215 2.4579999447 52.907238007 98.752792358 2.0490577221 82.413803101 2.4261379242 2.4261379242
 2614.7182617  -999.250000 13.463999748 0.0109999999 0.3604100049 2.4539999962 55.793235779 99.000000000 2.0671122074 81.416610718 2.4690546989 2.4690546989
 2614.8708496  -999.250000 13.461000443 0.0099999998 0.3488900065 2.4509999752 59.620296478 99.001899719 2.1020336151 80.671783447 2.4860672951 2.4860672951
 2615.0231934  -999.250000 13.461000443 0.0030000000 0.3603900075 2.4360001087 64.012306213 99.188049316 2.1089856625 80.417564392 2.5000913143 2.5000913143
 2615.1755371  -999.250000 13.461000443 0.0140000004 0.3549199998 2.4539999962 60.547874451 99.200775146 2.1060287952 79.908187866 2.5189392567 2.5189392567
 2615.3278809  -999.250000 13.465000153 0.0179999992 0.3691400290 2.4609999657 59.246303558 100.37660217 2.1150193214 78.405593872 2.4998238087 2.4998238087
 2615.4802246  -999.250000 13.469999313 0.0140000004 0.3538600206 2.4440000057 53.442314148 100.56299591 2.1210193634 76.742118835 2.4448685646 2.4448685646
 2615.6328125  -999.250000 13.461999893 0.0020000001 0.3408900201 2.4159998894 56.646213531 100.56008911 2.1269905567 82.697364807 2.4039857388 2.4039857388
 2615.7851563  -999.250000 13.456999779 0.0089999996 0.3272800148 2.4100000858 55.855457306 100.36927795 2.1249327660 84.431312561 2.4010624886 2.4010624886
 2615.9375000  -999.250000 13.458000183 0.0170000009 0.3272100091 2.4159998894 54.486454010 100.01537323 2.1110193729 84.905387878 2.4139680862 2.4139680862
 2616.0898438  -999.250000 13.456999779 0.0189999994 0.3360300064 2.4149999619 50.594211578 101.37660217 2.1170513630 83.152626038 2.4040064812 2.4040064812
 2616.2424316  -999.250000 13.458000183 0.0170000009 0.3544499874 2.4179999828 53.490161896 101.56298828 2.1330864429 81.168624878 2.4061441422 2.4061441422
 2616.3947754  -999.250000 13.454999924 0.0250000004 0.3657300174 2.4419999123 59.942764282 101.55717468 2.1511008739 80.678176880 2.4363360405 2.4363360405
 2616.5471191  -999.250000 13.453001022 0.0350000001 0.3591899872 2.4630000591 60.306236267 101.17583466 2.1720576286 80.919418335 2.5061185360 2.5061185360
 2616.6994629  -999.250000 13.453001022 0.0309999995 0.3435900211 2.4609999657 59.748806000 100.19119263 2.1900546551 80.430587769 2.5430960655 2.5430960655
 2616.8520508  -999.250000 13.449000359 0.0209999997 0.3254899979 2.4409999847 56.898536682 100.56010437 2.2070865631 80.925018311 2.5731346607 2.5731346607
 2617.0043945  -999.250000 13.440999985 0.0099999998 0.3293099999 2.4249999523 58.655143738 100.37213135 2.2250719070 80.929481506 2.6009232998 2.6009232998
 2617.1567383  -999.250000 13.434000015 0.0040000002 0.3205899894 2.4079999924 56.403072357 100.19376373 2.2400641441 81.236808777 2.5848269463 2.5848269463
 2617.3090820  -999.250000 13.427000046 0.0030000000 0.3220700026 2.4079999924 56.123367310 100.73878479 2.2600481510 81.178001404 2.5310416222 2.5310416222
 2617.4614258  -999.250000 13.426000595 0.0010000000 0.3194299936 2.4030001163 58.727546692 99.738822937 2.2749743462 81.490791321 2.5442306995 2.5442306995
 2617.6140137  -999.250000 13.423000336 0.0099999998 0.3433200121 2.4289999008 59.513401031 98.753173828 2.2669086456 81.736976624 2.6165039539 2.6165039539
 2617.7663574  -999.250000 13.421999931 0.0099999998 0.3522600234 2.4400000572 58.140727997 98.994621277 2.2479486465 81.731384277 2.7209582329 2.7209582329
 2617.9187012  -999.250000 13.421999931 0.0209999997 0.3503900170 2.4609999657 56.811706543 98.564636230 2.2319712639 81.225814819 2.7077755928 2.7077755928
 2618.0710449  -999.250000 13.421999931 0.0099999998 0.3585699797 2.4560000896 56.720680237 98.766555786 2.2229936123 80.236801147 2.6377563477 2.6377563477
 2618.2236328  -999.250000 13.421999931 0.0040000002 0.3643399775 2.4470000267 56.928520203 100.18190002 2.2209806442 80.174957275 2.5617356300 2.5617356300
 2618.3759766  -999.250000 13.421999931 0.0020000001 0.3872600198 2.4470000267 56.201721191 99.745170593 2.2169423103 80.159210205 2.5067887306 2.5067887306
 2618.5283203  -999.250000 13.421999931 0.0030000000 0.3443700075 2.4419999123 54.897583008 99.361213684 2.2049453259 78.948005676 2.4630384445 2.4630384445
 2618.6806641  -999.250000 13.421999931 -0.002000000 0.3284000158 2.4300000668 54.142009735 98.182617188 2.1879968643 75.543998718 2.4751441479 2.4751441479
 2618.8332520  -999.250000 13.421999931 -0.005000000 0.3274800181 2.4179999828 52.897991180 97.753242493 2.1869857311 80.537933350 2.5200142860 2.5200142860
