# LAS format log file from PETREL
# Project units are specified as depth units
#==================================================================
~Version information
VERS.   2.0:
WRAP.   NO:
#==================================================================
~Well
STRT .m      986.78210449 :
STOP .m      4467.4443359 :
STEP .m     0.00000000 :
NULL .        -999.250000 :
COMP.           : COMPANY
WELL.  34/4-3   : WELL
FLD.            : FIELD
LOC.            : LOCATION
SRVC.           : SERVICE COMPANY
DATE.  2018-09-11 14:48:50   : Log Export Date {yyyy-MM-dd HH:mm:ss}
PROV.           : PROVINCE
UWI.   34/4-3   : UNIQUE WELL ID
API.            : API NUMBER
#==================================================================
~Curve
DEPT .m                   : DEPTH
Lithology_geolink ._      : Lithology_geolink
CALI .in                  : CALI
DRHO .g/cm3               : DRHO
NPHI .m3/m3               : NPHI
RHOB .g/cm3               : RHOB
GR .gAPI                  : GR
DTC .us/ft                : DTC
RDEP .ohm.m               : RDEP
SP .mV                    : SP
RSHA .ohm.m               : RSHA
RMED .ohm.m               : RMED
~Parameter
#==================================================================
~Ascii
# ...
 3536.1281738 7.0000000000 9.2469997406 0.0179999992 0.3413600028 2.4600143433 146.05482483 95.222717285 3.0611860752 137.07472229 4.3597822189 4.3597822189
 3536.2805176 7.0000000000 9.0989999771 -0.002000000 0.3572999835 2.4420576096 146.57043457 100.03478241 3.1776714325 138.14599609 4.2238459587 4.2238459587
 3536.4331055 7.0000000000 9.0860004425 -0.006000000 0.3753900230 2.4360096455 145.59082031 101.77290344 3.5974047184 138.75733948 4.1279549599 4.1279549599
 3536.5854492 7.0000000000 9.0860004425 -0.006000000 0.3782899976 2.4280128479 143.97770691 102.36495209 4.0354390144 137.92655945 4.1142416000 4.1142416000
 3536.7377930 7.0000000000 9.0850000381 0.0000000000 0.3570199907 2.4339904785 142.55039978 102.95788574 4.3090753555 135.78938293 4.2651457787 4.2651457787
 3536.8901367 7.0000000000 9.0780000687 0.0179999992 0.3511700034 2.4439840317 141.55415344 103.50886536 4.3559999466 134.15660095 4.3559741974 4.3559741974
 3537.0424805 7.0000000000 9.0620002747 0.0149999997 0.3454499841 2.4270544052 141.02886963 104.04855347 4.3559775352 135.15553284 4.3400754929 4.3400754929
 3537.1950684 7.0000000000 9.0600004196 0.0049999999 0.3504299819 2.4140207767 142.19964600 104.39586639 4.3419585228 136.73753357 4.3874711990 4.3874711990
 3537.3474121 7.0000000000 9.0699996948 0.0000000000 0.3441599905 2.4060127735 144.46846008 104.30967712 4.3159985542 137.69972229 4.6819601059 4.6819601059
 3537.4997559 7.0000000000 9.0500001907 0.0089999996 0.3413099945 2.4129889011 145.37521362 103.48274231 4.3149952888 138.14566040 5.2804327011 5.2804327011
 3537.6520996 7.0000000000 9.0249996185 0.0120000001 0.3434799910 2.4060223103 141.75665283 102.69799805 4.3119583130 138.55296326 5.5500817299 5.5500817299
 3537.8046875 16.000000000 9.0030002594 0.0070000002 0.3554600179 2.4030048847 132.15924072 102.69216919 4.2859644890 138.53633118 5.6010031700 5.6010031700
 3537.9570313 16.000000000 8.9770002365 0.0000000000 0.3662399948 2.4000048637 121.31054688 100.56353760 4.2750692368 138.32635498 5.6019988060 5.6019988060
 3538.1093750 16.000000000 8.8730001450 0.0010000000 0.3886600137 2.4199681282 107.93598938 99.652763367 4.3182835579 137.92636108 5.6009998322 5.6009998322
 3538.2617188 6.0000000000 8.7320003510 0.0099999998 0.3365700245 2.4778144360 102.95738220 100.13486481 4.4953603745 137.52572632 5.6009855270 5.6009855270
 3538.4143066 6.0000000000 8.7629995346 0.0270000007 0.2432799935 2.5239262581 110.70036316 100.67073059 4.7204256058 137.35314941 5.5919680595 5.5919680595
 3538.5666504 6.0000000000 8.9449996948 0.0240000002 0.1567199975 2.5120193958 119.86486053 100.27747345 4.8530163765 137.70910645 5.5819821358 5.5819821358
 3538.7189941 6.0000000000 9.0530004501 0.0080000004 0.1799599975 2.4421122074 130.38082886 99.950996399 4.8626890182 138.40579224 5.5709838867 5.5709838867
 3538.8713379 6.0000000000 8.9469995499 0.0010000000 0.2592499852 2.4260258675 137.14160156 99.951972961 4.6684198380 137.64921570 5.5609822273 5.5609822273
 3539.0239258 6.0000000000 8.9689998627 -0.001000000 0.3188199997 2.4230048656 141.88533020 99.930419922 4.3066034317 135.91615295 5.5500831604 5.5500831604
 3539.1762695 6.0000000000 8.9709997177 0.0010000000 0.3311500251 2.4379758835 145.10227966 97.250480652 4.1830816269 135.65058899 5.5760836601 5.5760836601
 3539.3286133 6.0000000000 8.9700002670 -0.007000000 0.3215900064 2.4260194302 144.01222229 93.179710388 4.2344827652 136.63467407 5.6281471252 5.6281471252
 3539.4809570 6.0000000000 8.9600000381 -0.005000000 0.3342200220 2.4369823933 135.40995789 89.258552551 4.5354981422 136.43959045 5.7201871872 5.7201871872
 3539.6333008 6.0000000000 8.9510002136 -0.004000000 0.3445200026 2.4300224781 122.89102173 87.731552124 4.8460707664 137.43190002 5.8372163773 5.8372163773
 3539.7858887 6.0000000000 8.9259996414 -0.001000000 0.3708100021 2.4200160503 101.67953491 86.196586609 4.8901343346 138.62306213 5.9728798866 5.9728798866
 3539.9382324 16.000000000 8.8409996033 -0.005000000 0.3894699812 2.4040257931 88.758262634 83.885574341 4.9319744110 138.95515442 6.2505354881 6.2505354881
 3540.0905762 16.000000000 8.7030000687 -0.007000000 0.3361899853 2.4339518547 86.446418762 83.629356384 4.9159741402 138.43060303 8.4556407928 8.4556407928
 3540.2429199 6.0000000000 8.7650003433 -0.007000000 0.2288500071 2.4569263458 98.560012817 90.091171265 4.8999104500 137.55102539 10.097820282 10.097820282
 3540.3955078 6.0000000000 8.9770002365 0.0020000001 0.1461900026 2.4779663086 109.20560455 98.301895142 4.8431677818 136.94090271 8.1086635590 8.1086635590
 3540.5478516 6.0000000000 9.0909996033 0.0179999992 0.1853100061 2.4720094204 123.10713959 101.07379913 4.5833945274 137.53465271 5.5112900734 5.5112900734
 3540.7001953 7.0000000000 9.1969995499 0.0260000005 0.2774699926 2.4680063725 127.56320953 100.95354462 4.2056345940 137.93930054 5.0688443184 5.0688443184
 3540.8525391 7.0000000000 9.2200002670 0.0289999992 0.3378900290 2.4620192051 132.05612183 100.04231262 3.9778108597 138.12838745 4.9719376564 4.9719376564
 3541.0051270 7.0000000000 9.2250003815 0.0230000000 0.3421799839 2.4420318604 132.74714661 97.741638184 3.8599262238 138.36802673 4.9330034256 4.9330034256
 3541.1574707 7.0000000000 9.2270002365 0.0080000004 0.3478499949 2.4170401096 127.80243683 96.692031860 3.8369646072 138.68557739 4.9341216087 4.9341216087
 3541.3098145 7.0000000000 9.2170000076 -0.001000000 0.3283800185 2.4160015583 123.08750916 96.086898804 3.8149681091 139.04624939 5.0103688240 5.0103688240
 3541.4621582 7.0000000000 9.1999998093 0.0020000001 0.3221300244 2.4289791584 120.28784943 94.777359009 3.7949681282 138.57504272 5.2404742241 5.2404742241
 3541.6145020 7.0000000000 9.1260004044 0.0099999998 0.3049799800 2.4579071999 120.81743622 93.755935669 3.7749681473 136.72926331 5.5362386703 5.5362386703
 3541.7670898 7.0000000000 9.0459995270 0.0130000003 0.2847400010 2.4779679775 121.71826935 93.090621948 3.7549362183 135.64898682 5.6845169067 5.6845169067
 3541.9194336 7.0000000000 9.0930004120 0.0089999996 0.2879999876 2.4909791946 123.98832703 94.845245361 3.7350080013 136.58316040 5.5339102745 5.5339102745
 3542.0717773 7.0000000000 9.1739997864 0.0049999999 0.2989900112 2.4850094318 126.69314575 96.867584229 3.7400608063 138.55197144 5.4779376984 5.4779376984
 3542.2241211 7.0000000000 9.2019996643 0.0080000004 0.3435100317 2.4730384350 131.77722168 98.480255127 3.7781250477 139.15773010 5.4389362335 5.4389362335
 3542.3767090 7.0000000000 9.2110004425 -0.003000000 0.3371900320 2.4440464973 136.91029358 99.892669678 3.8564927578 137.11650085 5.3988018036 5.3988018036
 3542.5290527 7.0000000000 9.2110004425 -0.004000000 0.3210699856 2.4350142479 139.80455017 100.72470856 4.0102486610 136.02670288 5.3368906975 5.3368906975
 3542.6813965 7.0000000000 9.2110004425 -0.005000000 0.3068899810 2.4340016842 139.52923584 101.16732025 4.1652450562 136.46241760 5.2688908577 5.2688908577
 3542.8337402 7.0000000000 9.2110004425 -0.001000000 0.3036199808 2.4479551315 138.42816162 101.36097717 4.3180751801 137.34881592 5.2010545731 5.2010545731
 3542.9863281 7.0000000000 9.2139997482 -0.002000000 0.3057399988 2.4489982128 136.66146851 101.34857941 4.3649230003 137.84976196 5.2352113724 5.2352113724
 3543.1386719 7.0000000000 9.2189998627 -0.004000000 0.3093000054 2.4489998817 136.49702454 101.21743011 4.3410482407 138.08615112 5.3011317253 5.3011317253
 3543.2910156 7.0000000000 9.2189998627 -0.008000000 0.3254399896 2.4450063705 137.13160706 100.85736084 4.3709692955 138.17799377 5.3831567764 5.3831567764
 3543.4433594 7.0000000000 9.2189998627 -0.007000000 0.3238399923 2.4430031776 136.26106262 99.833633423 4.3520050049 138.17626953 5.4812211990 5.4812211990
 3543.5957031 7.0000000000 9.2189998627 -0.013000000 0.3073199987 2.4320352077 131.92855835 98.359825134 4.3550319672 138.34439087 5.6191568375 5.6191568375
 3543.7482910 7.0000000000 9.2159996033 -0.011000000 0.2968699932 2.4230144024 126.65618134 97.000068665 4.3749389648 138.59260559 5.7172751427 5.7172751427
