# LAS format log file from PETREL
# Project units are specified as depth units
#==================================================================
~Version information
VERS.   2.0:
WRAP.   NO:
#==================================================================
~Well
STRT .m      3631.9968262 :
STOP .m      4250.8930664 :
STEP .m     0.00000000 :
NULL .        -999.250000 :
COMP.           : COMPANY
WELL.  34/4-10 R   : WELL
FLD.            : FIELD
LOC.            : LOCATION
SRVC.           : SERVICE COMPANY
DATE.  2018-09-11 14:48:50   : Log Export Date {yyyy-MM-dd HH:mm:ss}
PROV.           : PROVINCE
UWI.   34/4-10 R   : UNIQUE WELL ID
API.            : API NUMBER
#==================================================================
~Curve
DEPT .m                   : DEPTH
Lithology_geolink ._      : Lithology_geolink
CALI .in                  : CALI
BS .in                    : BS
ROP .m/h                  : ROP
DRHO .g/cm3               : DRHO
NPHI .m3/m3               : NPHI
RHOB .g/cm3               : RHOB
PEF .b/e                  : PEF
GR .gAPI                  : GR
DTC .us/ft                : DTC
DTS .us/ft                : DTS
RDEP .ohm.m               : RDEP
RMED .ohm.m               : RMED
~Parameter
#==================================================================
~Ascii
# ...
 4121.5053711 6.0000000000 8.2631282806 8.5000000000 10.089099884 -0.010992870 0.2406287938 2.6056981087 5.0701231956 107.56199646 87.852287292 171.27853394 2.6636629105 3.1212110519
 4121.6577148 6.0000000000 8.2657299042 8.5000000000 10.038750648 -0.000113666 0.2477571964 2.6239778996 5.0852861404 110.34020233 88.331253052 171.62489319 2.6105320454 3.1187810898
 4121.8105469 6.0000000000 8.2660045624 8.5000000000 10.015000343 0.0042582750 0.2599284947 2.6323900223 5.1168923378 107.91040039 88.544647217 171.97210693 2.5778620243 3.0829470158
 4121.9628906 6.0000000000 8.2662792206 8.5000000000 9.5087680817 -0.000442803 0.2571358979 2.6264710426 5.3010902405 109.10250092 88.738937378 171.86201477 2.5880260468 2.9911720753
 4122.1152344 6.0000000000 8.2677173615 8.5000000000 9.2498321533 0.0053371191 0.2507635057 2.6261870861 5.5824046135 106.83540344 88.916397095 172.34410095 2.5357820988 2.9836699963
 4122.2675781 6.0000000000 8.2679929733 8.5000000000 9.2398004532 0.0025000130 0.2513523996 2.6281979084 6.0057330132 111.81939697 89.149803162 173.15821838 2.4804179668 2.9768140316
 4122.4199219 6.0000000000 8.2677173615 8.5000000000 9.5853195190 -0.010537100 0.2596965134 2.6161971092 6.2330260277 111.11180115 89.332832336 173.65898132 2.4967820644 3.0590000153
 4122.5722656 6.0000000000 8.2660045624 8.5000000000 9.3918409348 -0.015694870 0.2608186901 2.6054399014 6.2388682365 112.24990082 89.221672058 174.39604187 2.5039980412 2.9432520866
 4122.7246094 6.0000000000 8.2660045624 8.5000000000 9.1097497940 -0.026707221 0.2672312856 2.5888819695 6.0158305168 110.16870117 89.096130371 174.92500305 2.5261409283 3.0020198822
 4122.8769531 6.0000000000 8.2682676315 8.5000000000 8.8787221909 -0.037038960 0.2669706047 2.5731489658 5.7130465508 109.98650360 89.349319458 175.45718384 2.5732479095 2.9899840355
 4123.0292969 6.0000000000 8.2662792206 8.5000000000 8.8925390244 -0.028173329 0.2549938858 2.5867919922 5.2825284004 106.31320190 89.477241516 176.82112122 2.5402569771 2.9973258972
 4123.1821289 6.0000000000 8.2660045624 8.5000000000 9.0494232178 -0.018119341 0.2513482869 2.6051230431 5.1977429390 104.79740143 89.609008789 177.07028198 2.5397489071 3.0164310932
 4123.3344727 6.0000000000 8.2645664215 8.5000000000 8.5589294434 -0.006520884 0.2511371970 2.6194210052 5.4334721565 105.06410217 89.644332886 177.07380676 2.5597229004 2.9140861034
 4123.4868164 6.0000000000 8.2645664215 8.5000000000 8.7846889496 -0.005345372 0.2534697950 2.6167080402 5.7198190689 103.67199707 89.576446533 177.34880066 2.5405080318 2.8981440067
 4123.6391602 6.0000000000 8.2665538788 8.5000000000 8.6702537537 -0.002771628 0.2458796054 2.6172249317 5.9812703133 103.99440002 89.436950684 177.56889343 2.5339269638 2.9023790359
 4123.7915039 6.0000000000 8.2662792206 8.5000000000 8.5908422470 -0.002697665 0.2612614036 2.6159949303 5.9798913002 103.37249756 89.382720947 177.39994812 2.4863300323 2.8931488991
 4123.9438477 6.0000000000 8.2686557770 8.5000000000 8.3650798798 0.0007538249 0.2670353949 2.6313359737 5.9457182884 106.66840363 89.460205078 176.86093140 2.4854838848 2.8505239487
 4124.0961914 6.0000000000 8.2697067261 8.5000000000 8.2405357361 -0.012790190 0.2748672068 2.6083080769 5.7965989113 107.89270020 89.580047607 177.67066956 2.4104900360 2.8567800522
 4124.2485352 6.0000000000 8.2677173615 8.5000000000 8.5700836182 -0.012847030 0.2693045139 2.6090559959 5.8207244873 106.64839935 89.409179688 178.64227295 2.3734579086 2.8834760189
 4124.4008789 6.0000000000 8.2645664215 8.5000000000 8.7255001068 -0.012348920 0.2633883059 2.6023080349 5.7393193245 107.44190216 89.420661926 178.88520813 2.3968179226 2.8742051125
 4124.5537109 6.0000000000 8.2642927170 8.5000000000 8.4037542343 -0.022186970 0.2563813925 2.6030910015 5.6668286324 105.25420380 89.488258362 179.12879944 2.3972311020 2.8170759678
 4124.7060547 6.0000000000 8.2651147842 8.5000000000 8.1210155487 -0.028247699 0.2682521045 2.6034851074 5.4419970512 105.22689819 89.522659302 179.58790588 2.3316419125 2.8191950321
 4124.8583984 6.0000000000 8.2657308578 8.5000000000 8.1240634918 -0.026521260 0.2689361870 2.6086049080 5.4592251778 105.27079773 89.531661987 180.10020447 2.3314769268 2.7960379124
 4125.0107422 6.0000000000 8.2662792206 8.5000000000 8.1100893021 -0.030223440 0.2600392997 2.5973188877 5.3957114220 106.78350067 89.521308899 180.43074036 2.3718910217 2.7881689072
 4125.1630859 6.0000000000 8.2665519714 8.5000000000 8.4653682709 -0.024963060 0.2573497891 2.5967960358 5.6097536087 108.63040161 89.683631897 180.26971436 2.3939878941 2.8270649910
 4125.3154297 6.0000000000 8.2667360306 8.5000000000 8.6429004669 -0.030338790 0.2637023926 2.5864160061 5.7135319710 108.81469727 89.736793518 180.42321777 2.3904640675 2.8081569672
 4125.4677734 6.0000000000 8.2645664215 8.5000000000 9.0912256241 -0.031329200 0.2693164051 2.5878279209 5.8322629929 108.03109741 89.738304138 180.53355408 2.4094018936 2.8107120991
 4125.6201172 6.0000000000 8.2648401260 8.5000000000 12.419439316 -0.026677851 0.2732693851 2.5905089378 5.6334362030 108.26650238 89.851860046 180.67442322 2.3684959412 2.8514819145
 4125.7729492 6.0000000000 8.2645664215 8.5000000000 13.889599800 -0.022284931 0.2838154137 2.5982429981 5.4596614838 107.13099670 89.714393616 180.76820374 2.3800480366 2.8519589901
 4125.9252930 6.0000000000 8.2650737762 8.5000000000 13.889599800 -0.031928960 0.2680953145 2.5981409550 5.3951115608 111.03589630 89.509429932 180.56268311 2.4105100632 2.8435680866
 4126.0776367 6.0000000000 8.2660045624 8.5000000000 13.889599800 -0.018947400 0.2675575018 2.6120738983 5.8525824547 113.05400085 89.620399475 180.48020935 2.4241600037 2.8450589180
 4126.2299805 6.0000000000 8.2660045624 8.5000000000 27.069477081 -0.019349340 0.2586081028 2.6106069088 6.3484420776 115.20860291 89.797111511 180.19340515 2.4261341095 2.8291049004
 4126.3823242 6.0000000000 8.2662792206 8.5000000000 20.042175293 -0.017758360 0.2536396086 2.6051180363 6.2549443245 111.29630280 89.986068726 179.91029358 2.3931128979 2.8266959190
 4126.5346680 6.0000000000 8.2708702087 8.5000000000 14.059424400 -0.017495999 0.2510834932 2.6123399734 5.5861115456 109.01020050 90.031936646 179.85328674 2.3663120270 2.8423728943
 4126.6870117 6.0000000000 8.2660045624 8.5000000000 14.966358185 -0.013165050 0.2496163994 2.6195869446 5.2462382317 107.06240082 90.240928650 179.95544434 2.3683218956 2.7924599648
 4126.8393555 6.0000000000 8.2651147842 8.5000000000 14.102778435 -0.018745540 0.2539441884 2.6148729324 5.1709938049 109.23200226 90.449142456 179.88502502 2.3538370132 2.7835040092
 4126.9916992 6.0000000000 8.2645664215 8.5000000000 13.801756859 -0.020518120 0.2679401934 2.6174919605 5.2318639755 105.73349762 90.203132629 179.87216187 2.3461670876 2.8102838993
 4127.1445313 6.0000000000 8.2660045624 8.5000000000 12.987136841 -0.030688630 0.2858310938 2.6060180664 5.2946276665 104.75700378 90.094490051 180.19270325 2.3710889816 2.8340640068
 4127.2968750 6.0000000000 8.2671680450 8.5000000000 11.711315155 -0.030821141 0.2806634903 2.6063570976 5.4681978226 107.34079742 89.961952209 180.40519714 2.3923220634 2.8331799507
 4127.4492188 6.0000000000 8.2648401260 8.5000000000 10.410046577 -0.039639030 0.2597781122 2.5918960571 5.7648653984 109.46089935 89.835800171 180.71490479 2.4304840565 2.8139159679
 4127.6015625 6.0000000000 8.2660045624 8.5000000000 10.018163681 -0.041536566 0.2562749982 2.5837430954 5.9913673401 111.19120026 89.830017090 180.70562744 2.4462459087 2.8023118973
 4127.7539063 6.0000000000 8.2660045624 8.5000000000 10.307394981 -0.038869899 0.2682484984 2.5825870037 5.8567585945 108.06259918 89.934432983 180.60073853 2.4022400379 2.8152980804
 4127.9062500 6.0000000000 8.2648401260 8.5000000000 10.819238663 -0.025979729 0.2728593051 2.5950620174 5.8103041649 110.31469727 90.155487061 180.40452576 2.3869709969 2.8043110371
 4128.0585938 6.0000000000 8.2657299042 8.5000000000 10.782084465 -0.023427339 0.2528389096 2.5990760326 5.6613435745 108.54660034 90.123573303 180.28009033 2.3216071129 2.8295440674
