# LAS format log file from PETREL
# Project units are specified as depth units
#==================================================================
~Version information
VERS.   2.0:
WRAP.   NO:
#==================================================================
~Well
STRT .m      1948.1618652 :
STOP .m      3612.0659180 :
STEP .m     0.00000000 :
NULL .        -999.250000 :
COMP.           : COMPANY
WELL.  34/4-2   : WELL
FLD.            : FIELD
LOC.            : LOCATION
SRVC.           : SERVICE COMPANY
DATE.  2018-09-11 14:48:50   : Log Export Date {yyyy-MM-dd HH:mm:ss}
PROV.           : PROVINCE
UWI.   34/4-2   : UNIQUE WELL ID
API.            : API NUMBER
#==================================================================
~Curve
DEPT .m                   : DEPTH
Lithology_geolink ._      : Lithology_geolink
CALI .in                  : CALI
BS .in                    : BS
DRHO .g/cm3               : DRHO
NPHI .m3/m3               : NPHI
RHOB .g/cm3               : RHOB
GR .gAPI                  : GR
DTC .us/ft                : DTC
RDEP .ohm.m               : RDEP
SP .mV                    : SP
RSHA .ohm.m               : RSHA
RMED .ohm.m               : RMED
~Parameter
#==================================================================
~Ascii
# ...
 2057.8898926  -999.250000 16.750000000  -999.250000  -999.250000 0.3642599881 2.2750000954 35.970806122 138.00120544 0.9379471540 60.723281860 0.9630336761 0.9630336761
 2058.0422363  -999.250000 16.266000748  -999.250000 0.0030000000 0.3442400098 2.2579998970 40.633464813 136.75599670 0.9459615350 60.454277039 0.9699663520 0.9699663520
 2058.1945801  -999.250000 17.108999252  -999.250000 0.0010000000 0.3637699783 2.2520000935 44.289596558 136.12800598 0.9489808083 61.089900970 0.9868912101 0.9868912101
 2058.3471680  -999.250000 17.141000748  -999.250000 0.0000000000 0.3598600030 2.2539999485 46.831832886 134.75440979 0.9509903789 60.735733032 0.9989423156 0.9989423156
 2058.4995117  -999.250000 16.656000137  -999.250000 0.0070000002 0.3833000064 2.2790000439 43.764873505 134.75000000 0.9500048161 61.216670990 0.9850673079 0.9850673079
 2058.6518555  -999.250000 16.656000137  -999.250000 0.0089999996 0.3710900247 2.2809998989 45.740383148 133.75480652 0.9430336952 61.109531403 0.9690769315 0.9690769315
 2058.8041992  -999.250000 15.953000069  -999.250000 -0.001000000 0.3989300132 2.2750000954 43.449115753 134.74519348 0.9390192628 61.871318817 0.9630288482 0.9630288482
 2058.9567871  -999.250000 15.843999863  -999.250000 -0.002000000 0.4067400098 2.2599999905 41.384902954 137.74038696 0.9340240359 61.890922546 0.9500623941 0.9500623941
 2059.1091309  -999.250000 15.765999794  -999.250000 -0.010000000 0.4081999958 2.2520000935 35.310295105 139.12059021 0.9300192595 62.015396118 0.9440288544 0.9440288544
 2059.2614746  -999.250000 15.758000374  -999.250000 -0.002000000 0.3891600072 2.2599999905 35.561645508 139.12500000 0.9240288734 62.528526306 0.9479807615 0.9479807615
 2059.4138184  -999.250000 15.758000374  -999.250000 -0.001000000 0.3955099881 2.2679998875 38.206233978 140.74218750 0.9200192690 62.531002045 0.9758654237 0.9758654237
 2059.5664063  -999.250000 15.866999626  -999.250000 0.0030000000 0.3950199783 2.2679998875 38.094600677 141.49758911 0.9180095792 62.391670227 0.9899328351 0.9899328351
 2059.7187500  -999.250000 16.250000000  -999.250000 0.0089999996 0.3896499872 2.2699999809 39.244441986 140.37860107 0.9189952016 62.017803192 0.9929855466 0.9929855466
 2059.8710938  -999.250000 16.812999725  -999.250000 0.0149999997 0.3608399928 2.2790000439 35.456325531 140.49960327 0.9070577025 62.622070313 0.9860336781 0.9860336781
 2060.0234375  -999.250000 16.687999725  -999.250000 0.0240000002 0.3432599902 2.3029999733 36.401344299 139.75360107 0.9229230285 62.857872009 0.9730625153 0.9730625153
 2060.1757813  -999.250000 16.406000137  -999.250000 0.0160000008 0.3344699740 2.3010001183 40.007797241 137.51081848 0.9220063686 62.098896027 0.9720063806 0.9720063806
 2060.3283691  -999.250000 16.422000885  -999.250000 0.0099999998 0.3505899906 2.2850000858 45.722503662 137.74919128 0.9210048318 62.202476501 0.9739903808 0.9739903808
 2060.4807129  -999.250000 16.577999115  -999.250000 -0.003000000 0.3955099881 2.2730000019 44.848358154 138.37300110 0.9329423308 61.596931458 0.9809663296 0.9809663296
 2060.6330566  -999.250000 16.406000137  -999.250000 -0.018999999 0.4116199911 2.3159999847 40.738834381 139.37019348 0.9917163253 61.578075409 0.9581105709 0.9581105709
 2060.7854004  -999.250000 16.733999252  -999.250000 -0.012000000 0.4003900290 2.4079999924 39.412311554 132.15985107 0.9870240092 61.189876556 0.9321249723 0.9321249723
 2060.9379883  -999.250000 16.812999725  -999.250000 -0.007000000 0.3564499915 2.4709999561 38.783996582 125.77043152 1.0228271484 60.705326080 0.9787743688 0.9787743688
 2061.0903320  -999.250000 16.577999115  -999.250000 0.0240000002 0.3300800025 2.4749999046 39.154193878 119.76923370 1.0180240870 60.718925476 1.0954374075 1.0954374075
 2061.2426758  -999.250000 16.391000748  -999.250000 -0.003000000 0.3530300260 2.3910000324 35.268779755 117.75959778 0.9951105714 61.947067261 1.2263702154 1.2263702154
 2061.3950195  -999.250000 17.156000137  -999.250000 -0.010000000 0.3754900098 2.3180000782 38.951122284 124.34315491 0.9790769219 60.569683075 1.2130674124 1.2130674124
 2061.5476074  -999.250000 17.156000137  -999.250000 -0.020000000 0.3940399885 2.2500000000 42.701000214 133.47074890 1.0347311497 60.951126099 1.0308784246 1.0308784246
 2061.6999512  -999.250000 15.500000000  -999.250000 -0.006000000 0.4140599966 2.2439999580 46.948570251 140.10375977 1.0170865059 60.564876556 0.9065961838 0.9065961838
 2061.8522949  -999.250000 15.647998810  -999.250000 0.0000000000 0.4091799855 2.2620000839 44.854217529 145.10897827 1.0110288858 61.821918488 0.8681826591 0.8681826591
 2062.0046387  -999.250000 16.500000000  -999.250000 0.0030000000 0.4067400098 2.2829999924 44.004058838 142.51260376 0.9711923003 61.097530365 0.9117884636 0.9117884636
 2062.1569824  -999.250000 15.953000069  -999.250000 0.0030000000 0.3544900119 2.2869999409 45.117801666 136.52883911 0.9243008494 61.357303619 0.9676415920 0.9676415920
 2062.3095703  -999.250000 15.968999863  -999.250000 0.0149999997 0.3720700145 2.2890000343 47.861778259 135.12940979 0.8911586404 62.012840271 0.9749663472 0.9749663472
 2062.4619141  -999.250000 16.843999863  -999.250000 0.0099999998 0.3857400119 2.2699999809 42.464138031 135.12500000 0.9019471407 62.279724121 0.9341971278 0.9341971278
 2062.6142578  -999.250000 16.843999863  -999.250000 -0.001000000 0.4169900119 2.2520000935 38.114887238 136.49339294 0.9029951692 62.778594971 0.8981730938 0.8981730938
 2062.7666016  -999.250000 16.327999115  -999.250000 -0.003000000 0.4208999872 2.2420001030 33.397686005 139.48558044 0.9099663496 62.641674042 0.8790913820 0.8790913820
 2062.9191895  -999.250000 16.468999863  -999.250000 -0.002000000 0.4174800217 2.2400000095 34.836952209 143.36257935 0.9030336142 62.765399933 0.8809903860 0.8809903860
 2063.0715332  -999.250000 17.172000885  -999.250000 0.0010000000 0.4218800068 2.2379999161 34.439952850 142.00440979 0.8880721331 63.247669220 0.8849807382 0.8849807382
 2063.2238770  -999.250000 17.062999725  -999.250000  -999.250000 0.3940399885 2.2479999065 38.574020386 142.12440491 0.8760576844 63.265926361 0.8919663429 0.8919663429
 2063.3762207  -999.250000 16.608999252  -999.250000 0.0109999999 0.3833000064 2.2699999809 38.718399048 144.36418152 0.8750048280 63.017200470 0.9059327245 0.9059327245
 2063.5288086  -999.250000 16.702999115  -999.250000 0.0070000002 0.3867200017 2.2639999390 40.149101257 142.50601196 0.8750000000 63.373279572 0.9030144215 0.9030144215
 2063.6811523  -999.250000 17.172000885  -999.250000 0.0120000001 0.4165000021 2.2579998970 35.428833008 144.74278259 0.8849518895 62.395729065 0.8970288634 0.8970288634
 2063.8334961  -999.250000 17.156000137  -999.250000 0.0070000002 0.4287099838 2.2479999065 37.489933014 143.50401306 0.8929615617 62.888595581 0.8910288215 0.8910288215
 2063.9858398  -999.250000 17.156000137  -999.250000 0.0049999999 0.3935500085 2.2479999065 39.241584778 143.50000000 0.8959856033 61.506687164 0.8919951916 0.8919951916
 2064.1381836  -999.250000 17.156000137  -999.250000 0.0109999999 0.3793900013 2.2660000324 43.442001343 141.01202393 0.8900383711 62.229305267 0.8999487758 0.8999487758
 2064.2907715  -999.250000 17.000000000  -999.250000 -0.002000000 0.3730500042 2.2660000324 43.438148499 141.37379456 0.8840288520 61.597080231 0.9089567065 0.9089567065
 2064.4431152  -999.250000 17.062999725  -999.250000 -0.005000000 0.3930699825 2.2699999809 41.291366577 139.75520325 0.8810144067 61.608928680 0.9219374657 0.9219374657
 2064.5954590  -999.250000 17.172000885  -999.250000 -0.014000000 0.3852500021 2.2539999485 36.492137909 139.37680054 0.8790096045 61.640846252 0.9190144539 0.9190144539
 2064.7478027  -999.250000 16.983999252  -999.250000 -0.010000000 0.4013700187 2.2460000515 33.265476227 140.74339294 0.8819856048 60.878681183 0.9279567003 0.9279567003
 2064.9003906  -999.250000 15.555000305  -999.250000 -0.006000000 0.4282199740 2.2420001030 32.161251068 142.36979675 0.8899616003 61.107879639 0.9379520416 0.9379520416
 2065.0527344  -999.250000 15.727000237  -999.250000  -999.250000 0.4101599753 2.2460000515 38.936248779 140.38140869 0.8939807415 61.249320984 0.9449663162 0.9449663162
