# LAS format log file from PETREL
# Project units are specified as depth units
#==================================================================
~Version information
VERS.   2.0:
WRAP.   NO:
#==================================================================
~Well
STRT .m      986.78210449 :
STOP .m      4467.4443359 :
STEP .m     0.00000000 :
NULL .        -999.250000 :
COMP.           : COMPANY
WELL.  34/4-3   : WELL
FLD.            : FIELD
LOC.            : LOCATION
SRVC.           : SERVICE COMPANY
DATE.  2018-09-11 14:48:50   : Log Export Date {yyyy-MM-dd HH:mm:ss}
PROV.           : PROVINCE
UWI.   34/4-3   : UNIQUE WELL ID
API.            : API NUMBER
#==================================================================
~Curve
DEPT .m                   : DEPTH
Lithology_geolink ._      : Lithology_geolink
CALI .in                  : CALI
DRHO .g/cm3               : DRHO
NPHI .m3/m3               : NPHI
RHOB .g/cm3               : RHOB
GR .gAPI                  : GR
DTC .us/ft                : DTC
RDEP .ohm.m               : RDEP
SP .mV                    : SP
RSHA .ohm.m               : RSHA
RMED .ohm.m               : RMED
~Parameter
#==================================================================
~Ascii
# ...
 3069.7844238  -999.250000 13.362999916 0.0270000007 0.2759300172 2.4999568462 61.176307678 89.390594482 1.9990736246 104.24179077 2.6588349342 2.6588349342
 3069.9367676  -999.250000 13.394999504 0.0250000004 0.2826499939 2.4730863571 63.240604401 91.007202148 2.0450625420 104.73692322 2.5558028221 2.5558028221
 3070.0893555  -999.250000 13.427000046 0.0189999994 0.3110100031 2.4530320168 65.481727600 91.759597778 2.0840802193 104.68446350 2.4329297543 2.4329297543
 3070.2416992  -999.250000 13.378999710 0.0120000001 0.3367899954 2.4400207996 63.833038330 92.568984985 2.1090257168 102.95353699 2.4111218452 2.4111218452
 3070.3940430  -999.250000 13.357998848 0.0120000001 0.3361099958 2.4639616013 59.496425629 93.183296204 2.1250224113 99.562408447 2.4871649742 2.4871649742
 3070.5463867  -999.250000 13.367999077 0.0099999998 0.3230300248 2.4699807167 59.134460449 92.744110107 2.1390030384 107.30403137 2.5900223255 2.5900223255
 3070.6989746  -999.250000 13.390000343 0.0179999992 0.3218999803 2.4759905338 56.938793182 92.188003540 2.1410479546 114.15136719 2.6040160656 2.6040160656
 3070.8513184  -999.250000 13.397999763 0.0270000007 0.3079600036 2.4849855900 60.298824310 92.188003540 2.1560447216 106.47501373 2.6089694500 2.6089694500
 3071.0036621  -999.250000 13.392999649 0.0370000005 0.2944799960 2.4919888973 58.944065094 92.185684204 2.1840271950 105.24039459 2.5900287628 2.5900287628
 3071.1560059  -999.250000 13.369000435 0.0320000015 0.2870999873 2.4850111008 59.598434448 91.988014221 2.2009904385 105.48559570 2.6080865860 2.6080865860
 3071.3083496  -999.250000 13.334000587 0.0140000004 0.2929500043 2.4660608768 53.634437561 90.750007629 2.1949710846 105.23220825 2.6620719433 2.6620719433
 3071.4609375  -999.250000 13.315999985 0.0020000001 0.2953700125 2.4699935913 51.417301178 90.754394531 2.1768784523 104.73700714 2.7070543766 2.7070543766
 3071.6132813  -999.250000 13.312999725 0.0140000004 0.2888100147 2.5129311085 52.452701569 91.190620422 2.1389741898 104.73934174 2.7237915993 2.7237915993
 3071.7656250  -999.250000 13.315999985 0.0260000005 0.2966400087 2.5349647999 57.251159668 91.579879761 2.1230192184 104.95365906 2.5937550068 2.5937550068
 3071.9179688  -999.250000 13.314000130 0.0350000001 0.2948299944 2.5320096016 57.347351074 93.372703552 2.1349968910 104.74039459 2.4408862591 2.4408862591
 3072.0705566  -999.250000 13.252000809 0.0170000009 0.3055500090 2.4950592518 54.456501007 93.185386658 2.1329360008 104.98698425 2.3701951504 2.3701951504
 3072.2229004  -999.250000 13.143000603 0.0089999996 0.3125399947 2.4850158691 56.172672272 92.994010925 2.1129822731 104.98220825 2.4311811924 2.4311811924
 3072.3752441  -999.250000 13.093999863 0.0030000000 0.3346699774 2.4710223675 57.838066101 92.375000000 2.1019904613 104.48565674 2.5441265106 2.5441265106
 3072.5275879  -999.250000 13.090000153 0.0000000000 0.3256000280 2.4500672817 57.256118774 92.376296997 2.0960094929 104.27140808 2.6230223179 2.6230223179
 3072.6801758  -999.250000 13.083999634 0.0040000002 0.3106099963 2.4509983063 57.960609436 92.560401917 2.1020801067 104.52740479 2.6369936466 2.6369936466
 3072.8325195  -999.250000 13.072999954 0.0040000002 0.2936899960 2.4589872360 60.334560394 92.374984741 2.1270418167 105.27619171 2.6350257397 2.6350257397
 3072.9848633  -999.250000 13.069999695 0.0040000002 0.3066000044 2.4719791412 62.542560577 92.365409851 2.1530401707 106.01554108 2.6510896683 2.6510896683
 3073.1372070  -999.250000 13.069999695 0.0070000002 0.3098599911 2.4710016251 57.279582977 91.376296997 2.1780657768 105.72976685 2.7070593834 2.7070593834
 3073.2895508  -999.250000 13.069999695 0.0219999999 0.3170999885 2.4959199429 53.904781342 91.563011169 2.2189776897 104.96083832 2.7439999580 2.7439999580
 3073.4421387  -999.250000 13.069999695 0.0340000018 0.3141700029 2.5129728317 53.777839661 91.563011169 2.2048976421 105.48519135 2.7439870834 2.7439870834
 3073.5944824  -999.250000 13.069999695 0.0289999992 0.3140900135 2.4880399704 56.220252991 91.564292908 2.1728878021 105.23217010 2.7399439812 2.7399439812
 3073.7468262  -999.250000 13.069999695 0.0219999999 0.3062800169 2.4480640888 56.377361298 91.744132996 2.1028475761 104.70821381 2.7049629688 2.7049629688
 3073.8991699  -999.250000 13.074000359 0.0320000015 0.2968199849 2.4479999542 56.603534698 91.206207275 2.0079438686 101.72856903 2.6819775105 2.6819775105
 3074.0517578  -999.250000 13.090000153 0.0540000014 0.2883299887 2.4829440117 57.555603027 93.212158203 1.9729264975 100.85840607 2.6672480106 2.6672480106
 3074.2041016  -999.250000 13.123999596 0.0439999998 0.2832700014 2.4879918098 56.802223206 95.753692627 1.9499696493 108.77383423 2.4325385094 2.4325385094
 3074.3564453  -999.250000 13.161000252 0.0189999994 0.2991699874 2.4650368690 52.584754944 96.187965393 1.9309823513 109.29774475 2.1447885036 2.1447885036
 3074.5087891  -999.250000 13.171999931 0.0089999996 0.3083299994 2.4530384541 54.927513123 96.158233643 1.9199870825 112.24975586 2.0133509636 2.0133509636
 3074.6613770  -999.250000 13.171999931 0.0099999998 0.3104400039 2.4689743519 57.128528595 93.185409546 1.9119327068 110.21322632 2.2327520847 2.2327520847
 3074.8137207  -999.250000 13.164999962 0.0149999997 0.3083200157 2.4789841175 60.719039917 93.003585815 1.8909888268 105.29994202 2.4670193195 2.4670193195
 3074.9660645  -999.250000 13.147000313 0.0020000001 0.3139199913 2.4640240669 60.747756958 93.374992371 1.8840175867 105.26075745 2.4790031910 2.4790031910
 3075.1184082  -999.250000 13.140999794 0.0020000001 0.3209699988 2.4649982452 63.715644836 93.369018555 1.8950191736 104.48561096 2.4810080528 2.4810080528
 3075.2707520  -999.250000 13.133000374 0.0070000002 0.3241100013 2.4709806442 66.607376099 92.756286621 1.9071745872 104.24417877 2.4860320091 2.4860320091
 3075.4233398  -999.250000 13.123000145 0.0089999996 0.3348699808 2.4769904613 64.341407776 93.556221008 2.0160353184 104.98140717 2.5060193539 2.5060193539
 3075.5756836  -999.250000 13.133999825 0.0030000000 0.3424099982 2.4640207291 61.351158142 93.003593445 2.0269758701 104.48321533 2.5119841099 2.5119841099
 3075.7280273  -999.250000 13.140999794 -0.006000000 0.3216999769 2.4580094814 58.960872650 93.378601074 2.0119760036 103.98783875 2.5019776821 2.5019776821
 3075.8803711  -999.250000 13.135000229 -0.008000000 0.3133699894 2.4639806747 61.371238708 93.752395630 1.9969855547 100.77763367 2.4879727364 2.4879727364
 3076.0329590  -999.250000 13.114999771 -0.009000000 0.3163399994 2.4709887505 60.904907227 94.001594543 1.9879584312 101.81523132 2.4709422588 2.4709422588
 3076.1853027  -999.250000 13.083000183 -0.001000000 0.3333399892 2.4879727364 63.989295959 94.185691833 1.9749696255 108.74182892 2.4528975487 2.4528975487
 3076.3376465  -999.250000 13.074998856 0.0040000002 0.3311699927 2.4909951687 62.932292938 94.000000000 1.9559646845 109.26670837 2.3889968395 2.3889968395
 3076.4899902  -999.250000 13.111999512 0.0120000001 0.3271499872 2.4890065193 65.602577209 94.002601624 1.9339759350 112.18897247 2.3869872093 2.3869872093
 3076.6425781  -999.250000 13.119999886 0.0040000002 0.3146100044 2.4670352936 62.845329285 94.376609802 1.9189903736 107.18366241 2.3789231777 2.3789231777
 3076.7949219  -999.250000 13.121000290 -0.003000000 0.3012700081 2.4560177326 62.942729950 94.566696167 1.9159967899 105.20840454 2.3549919128 2.3549919128
 3076.9472656  -999.250000 13.130999565 -0.006000000 0.2869800031 2.4480128288 60.283382416 94.997604370 1.9139968157 105.45844269 2.3500063419 2.3500063419
 3077.0996094  -999.250000 13.138999939 -0.008000000 0.2910499871 2.4440064430 60.525253296 94.750000000 1.9119951725 105.73218536 2.3540143967 2.3540143967
 3077.2519531  -999.250000 13.140999794 0.0020000001 0.3156000078 2.4599487782 63.173061371 94.748703003 1.9089936018 105.22760773 2.3630063534 2.3630063534
 3077.4045410  -999.250000 13.135000229 0.0089999996 0.3490999937 2.4719805717 61.343967438 94.562995911 1.9049872160 107.47132111 2.3669424057 2.3669424057
