# LAS format log file from PETREL
# Project units are specified as depth units
#==================================================================
~Version information
VERS.   2.0:
WRAP.   NO:
#==================================================================
~Well
STRT .m      986.78210449 :
STOP .m      4467.4443359 :
STEP .m     0.00000000 :
NULL .        -999.250000 :
COMP.           : COMPANY
WELL.  34/4-3   : WELL
FLD.            : FIELD
LOC.            : LOCATION
SRVC.           : SERVICE COMPANY
DATE.  2018-09-11 14:48:50   : Log Export Date {yyyy-MM-dd HH:mm:ss}
PROV.           : PROVINCE
UWI.   34/4-3   : UNIQUE WELL ID
API.            : API NUMBER
#==================================================================
~Curve
DEPT .m                   : DEPTH
Lithology_geolink ._      : Lithology_geolink
CALI .in                  : CALI
DRHO .g/cm3               : DRHO
NPHI .m3/m3               : NPHI
RHOB .g/cm3               : RHOB
GR .gAPI                  : GR
DTC .us/ft                : DTC
RDEP .ohm.m               : RDEP
SP .mV                    : SP
RSHA .ohm.m               : RSHA
RMED .ohm.m               : RMED
~Parameter
#==================================================================
~Ascii
# ...
 1678.5255127  -999.250000 16.745000839 0.0059951926 0.5805676579 1.8830000162 31.840667725 178.00070190 0.6218990088 91.665000916 0.6285905242 0.6285905242
 1678.6778564  -999.250000 16.858999252 -0.000001601 0.5776087046 1.8609999418 31.253505707 178.12850952 0.6037700176 91.667808533 0.5557756424 0.5557756424
 1678.8303223  -999.250000 16.806999207 -0.002010417 0.5385543108 1.8569999933 31.885812759 178.75161743 0.5627374053 92.161796570 0.5158910751 0.5158910751
 1678.9826660  -999.250000 16.672000885 -0.015003202 0.5190720558 1.8409999609 33.566326141 178.99438477 0.5218597651 91.662193298 0.4989775717 0.4989775717
 1679.1351318  -999.250000 16.562000275 -0.019006409 0.5590572953 1.8420000076 34.159999847 177.99198914 0.4969231486 91.161796570 0.4950000048 0.4950000048
 1679.2874756  -999.250000 16.374000549 -0.026992789 0.5307560563 1.8329999447 34.765136719 176.75210571 0.4849719703 90.664978027 0.4950504899 0.4950504899
 1679.4399414  -999.250000 16.329000473 -0.017982386 0.5258448720 1.8470000029 31.942789078 177.13059998 0.4800128043 90.667419434 0.5040832758 0.5040832758
 1679.5922852  -999.250000 16.656999588 -0.006997596 0.5039401054 1.8710000515 30.362504959 177.99508667 0.4820392430 91.663002014 0.5170505047 0.5170505047
 1679.7447510  -999.250000 16.766000748 -0.004001602 0.5414891243 1.8869999647 30.991506577 177.12420654 0.4890640378 91.659790039 0.5260064006 0.5260064006
 1679.8970947  -999.250000 16.775999069 -0.005004807 0.5346919298 1.8860000372 32.169498444 176.99649048 0.4990392625 91.155395508 0.5270448923 0.5270448923
 1680.0495605  -999.250000 16.672000885 -0.011008007 0.5620115399 1.8700000048 34.555587769 176.37500000 0.5060384274 90.164176941 0.5350512862 0.5350512862
 1680.2019043  -999.250000 16.547000885 -0.015989585 0.5630213022 1.8509999514 33.395919800 176.37710571 0.5120224357 90.659805298 0.5430223942 0.5430223942
 1680.3542480  -999.250000 16.547000885 -0.003003203 0.6020402312 1.8660000563 31.611101151 176.74859619 0.5160279870 91.159797668 0.5469159484 0.5469159484
 1680.5067139  -999.250000 16.547000885 -0.006996795 0.5898137689 1.8810000420 31.980409622 176.49159241 0.5210337043 91.654167175 0.5318934321 0.5318934321
 1680.6590576  -999.250000 16.593999863 -0.003008807 0.5570983887 1.9220000505 31.336904526 175.00630188 0.5270112157 91.147392273 0.5130392313 0.5130392313
 1680.8115234  -999.250000 16.702999115 -0.013991186 0.5175776482 1.9520000219 30.051530838 176.12289429 0.5289775729 90.152976990 0.5201402307 0.5201402307
 1680.9638672  -999.250000 16.729000092 -0.003004003 0.5146683455 1.9639999866 25.348834991 175.75000000 0.5249494910 90.149002075 0.5450224280 0.5450224280
 1681.1163330  -999.250000 16.708000183 -0.007996796 0.5376027226 1.9259999990 23.566318512 175.76281738 0.5159230828 90.148979187 0.5489167571 0.5489167571
 1681.2686768  -999.250000 16.660999298 -0.003998398 0.5410184860 1.8880000114 26.552740097 177.75000000 0.5039495230 90.142166138 0.5358710289 0.5358710289
 1681.4211426  -999.250000 16.568000793 -0.001991994 0.5390858054 1.8660000563 24.745309830 177.74600220 0.4949487746 89.640975952 0.5129680037 0.5129680037
 1681.5734863  -999.250000 16.547000885 0.0029935897 0.5551725626 1.8609999418 26.499652863 177.12640381 0.4869551063 89.636985779 0.5080112219 0.5080112219
 1681.7259521  -999.250000 16.756000519 -0.005020816 0.5458468199 1.8450000286 26.468519211 177.36857605 0.4789935946 89.633979797 0.5099551678 0.5099551678
 1681.8782959  -999.250000 16.937999725 -0.017998397 0.5127031207 1.8279999495 31.209398270 176.37921143 0.4780111909 89.629951477 0.5029832125 0.5029832125
 1682.0307617  -999.250000 16.989999771 -0.016003203 0.5166445971 1.8389999866 32.344001770 177.13301086 0.4800192118 89.621978760 0.5000063777 0.5000063777
 1682.1831055  -999.250000 16.968000412 -0.017990384 0.5444159508 1.8480000496 32.340579987 178.37008667 0.4830224514 89.617950439 0.5010897517 0.5010897517
 1682.3354492  -999.250000 16.864999771 -0.006004003 0.5268216729 1.8680000305 31.737064362 177.50140381 0.4870223999 89.612754822 0.5170952678 0.5170952678
 1682.4879150  -999.250000 16.910999298 -0.010997596 0.4789937437 1.8600000143 32.280998230 177.75000000 0.4910168350 90.102348328 0.5340392590 0.5340392590
 1682.6401367  -999.250000 16.916999817 -0.008000000 0.4711900055 1.8600000143 32.270118713 177.75180054 0.4940240085 90.165000916 0.5410000086 0.5410000086
 1682.7926025  -999.250000 16.910999298 -0.004000000 0.5527299643 1.8679935932 30.002626419 178.12620544 0.4990144372 90.167404175 0.5409904122 0.5409904122
 1682.9449463  -999.250000 16.885000229 -0.006000000 0.6196300387 1.8699984550 27.257364273 178.37319946 0.5020143986 90.662597656 0.5389662981 0.5389662981
 1683.0974121  -999.250000 16.797000885 -0.010000000 0.6103500128 1.8560111523 32.094348907 178.00070190 0.5050055981 90.164978027 0.5319495797 0.5319495797
 1683.2497559  -999.250000 16.745000839 -0.012000000 0.5805699825 1.8460079432 32.158554077 178.12199402 0.5060048103 90.165809631 0.5229663253 0.5229663253
 1683.4020996  -999.250000 16.639999390 -0.013000000 0.5874000192 1.8400096893 32.670883179 177.49940491 0.5070048571 91.158599854 0.5160239935 0.5160239935
 1683.5545654  -999.250000 16.420999527 -0.010000000 0.5659199953 1.8509911299 29.133337021 177.37799072 0.5079951882 90.663406372 0.5210096240 0.5210096240
 1683.7069092  -999.250000 16.375999451 -0.006000000 0.5263699889 1.8749616146 30.867483139 177.99760437 0.5069808364 91.163406372 0.5230048299 0.5230048299
 1683.8593750  -999.250000 16.735000610 0.0140000004 0.5117200017 1.8989808559 32.616134644 177.50000000 0.5029904246 91.656173706 0.5239230394 0.5239230394
 1684.0117188  -999.250000 16.927000046 0.0219999999 0.4995099902 1.9089840651 30.777849197 177.49940491 0.5009999871 90.656997681 0.5079808235 0.5079808235
 1684.1641846  -999.250000 17.025999069 -0.008000000 0.5087900162 1.8690320253 30.124702454 177.37318420 0.5010048151 90.656997681 0.5039855838 0.5039855838
 1684.3165283  -999.250000 17.041000366 -0.021000000 0.4921900034 1.8630048037 30.054592133 177.00059509 0.5019903779 90.659378052 0.5010720491 0.5010720491
 1684.4689941  -999.250000 16.927000046 -0.027000001 0.5166000128 1.8679959774 28.338388443 177.13101196 0.4999952018 91.152999878 0.5160576701 0.5160576701
 1684.6213379  -999.250000 16.802000046 -0.017999999 0.5361300111 1.8799903393 33.594299316 178.37500000 0.4989952147 91.152976990 0.5280432105 0.5280432105
 1684.7738037  -999.250000 16.718999863 -0.002000000 0.5595700145 1.8919903040 33.655700684 178.36898804 0.4979999959 91.149002075 0.5369278789 0.5369278789
 1684.9261475  -999.250000 16.750000000 0.0199999996 0.5683599710 1.9059888124 33.565681458 177.12199402 0.4980096221 91.148979187 0.5219567418 0.5219567418
 1685.0786133  -999.250000 16.833000183 0.0370000005 0.5678699613 1.9199887514 27.689514160 176.49789429 0.5000000000 91.144973755 0.5130056143 0.5130056143
 1685.2309570  -999.250000 16.858999252 0.0160000008 0.5434600115 1.8890248537 25.311275482 176.12800598 0.5000095963 91.140975952 0.5140913725 0.5140913725
 1685.3834229  -999.250000 16.822999954 0.0000000000 0.5356400013 1.8540279865 28.285615921 176.75350952 0.5019999743 91.131378174 0.5330672264 0.5330672264
 1685.5357666  -999.250000 16.775999069 0.0049999999 0.5815399885 1.8559983969 31.774486542 177.37318420 0.5019999743 90.133979797 0.5450336933 0.5450336933
 1685.6881104  -999.250000 16.650999069 -0.001000000 0.5195299983 1.8540031910 33.525444031 177.00000000 0.5020048022 90.127555847 0.5519711375 0.5519711375
 1685.8405762  -999.250000 16.500000000 0.0080000004 0.5292999744 1.8879727125 32.360950470 176.99758911 0.5029951930 89.621978760 0.5459615588 0.5459615588
 1685.9929199  -999.250000 16.495000839 0.0049999999 0.4931600094 1.8919935226 29.459081650 176.50000000 0.5019903779 89.618293762 0.5379471183 0.5379471183
 1686.1453857  -999.250000 16.708000183 0.0199999996 0.5620099902 1.8999935389 30.736726761 176.50421143 0.4999903738 89.684829712 0.5270048380 0.5270048380
