# LAS format log file from PETREL
# Project units are specified as depth units
#==================================================================
~Version information
VERS.   2.0:
WRAP.   NO:
#==================================================================
~Well
STRT .m      986.78210449 :
STOP .m      4467.4443359 :
STEP .m     0.00000000 :
NULL .        -999.250000 :
COMP.           : COMPANY
WELL.  34/4-3   : WELL
FLD.            : FIELD
LOC.            : LOCATION
SRVC.           : SERVICE COMPANY
DATE.  2018-09-11 14:48:50   : Log Export Date {yyyy-MM-dd HH:mm:ss}
PROV.           : PROVINCE
UWI.   34/4-3   : UNIQUE WELL ID
API.            : API NUMBER
#==================================================================
~Curve
DEPT .m                   : DEPTH
Lithology_geolink ._      : Lithology_geolink
CALI .in                  : CALI
DRHO .g/cm3               : DRHO
NPHI .m3/m3               : NPHI
RHOB .g/cm3               : RHOB
GR .gAPI                  : GR
DTC .us/ft                : DTC
RDEP .ohm.m               : RDEP
SP .mV                    : SP
RSHA .ohm.m               : RSHA
RMED .ohm.m               : RMED
~Parameter
#==================================================================
~Ascii
# ...
 1219.9539795  -999.250000 17.608999252 0.0839999989 0.4541000128 2.2320001125 49.739994049 139.37899780 2.2318272591 88.719253540 1.7890321016 1.7890321016
 1220.1064453  -999.250000 17.608999252 0.0309999995 0.4340800047 2.1640000343 48.172569275 139.99438477 2.2048909664 89.219848633 1.7940064669 1.7940064669
 1220.2587891  -999.250000 17.608999252 0.0120000001 0.4340800047 2.1289999485 45.768592834 139.11138916 2.1879615784 88.731056213 1.7951664925 1.7951664925
 1220.4112549  -999.250000 17.608999252 0.0109999999 0.4150400162 2.1270000935 43.837390900 137.00000000 2.1819615364 88.742279053 1.8209935427 1.8209935427
 1220.5635986  -999.250000 17.635999680 0.0219999999 0.3930699825 2.1349999905 42.828411102 137.00961304 2.1761217117 89.247863770 1.8200577497 1.8200577497
 1220.7160645  -999.250000 17.702999115 0.0160000008 0.4096699953 2.1210000515 45.222007751 138.50961304 2.1950511932 88.764831543 1.8287564516 1.8287564516
 1220.8684082  -999.250000 17.697999954 0.0199999996 0.4155300260 2.1329998970 45.713214874 140.00239563 2.2028784752 89.204055786 1.7910192013 1.7910192013
 1221.0208740  -999.250000 17.656000137 0.0280000009 0.4794900119 2.1429998875 49.653846741 140.36058044 2.1839230061 89.215225220 1.7942243814 1.7942243814
 1221.1732178  -999.250000 17.797000885 0.0480000004 0.4423799813 2.1760001183 54.103984833 138.11138916 2.1719744205 89.716049194 1.8293395042 1.8293395042
 1221.3256836  -999.250000 17.833000183 0.0399999991 0.4243199825 2.1700000763 50.835987091 136.00480652 2.1679742336 89.719848633 1.8818910122 1.8818910122
 1221.4780273  -999.250000 17.593999863 0.0179999992 0.3676800132 2.1410000324 49.543560028 136.75640869 2.1641025543 89.224197388 1.8646669388 1.8646669388
 1221.6303711  -999.250000 17.589000702 0.0099999998 0.3974599838 2.1229999065 41.733726501 137.74789429 2.1801066399 88.171806335 1.8127475977 1.8127475977
 1221.7828369  -999.250000 17.583000183 -0.001000000 0.3842800260 2.0940001011 44.340995789 137.37339783 2.1989164352 88.668998718 1.7677627802 1.7677627802
 1221.9351807  -999.250000 17.593999863 0.0060000001 0.4023400247 2.1070001125 43.934246063 137.10978699 2.1859233379 88.665794373 1.7310768366 1.7310768366
 1222.0876465  -999.250000 17.614999771 -0.007000000 0.3920899928 2.1050000191 53.135017395 134.71394348 2.1740641594 88.168998718 1.7431602478 1.7431602478
 1222.2399902  -999.250000 17.677000046 -0.001000000 0.4858399928 2.1289999485 54.694602966 129.11378479 2.1840705872 88.168998718 1.7681921721 1.7681921721
 1222.3924561  -999.250000 17.718999863 -0.003000000 0.4628900290 2.1540000439 55.691154480 127.36979675 2.1951794624 88.168540955 1.7982243299 1.7982243299
 1222.5447998  -999.250000 17.708000183 0.0299999993 0.4628900290 2.2209999561 51.372200012 126.53618622 2.2231857777 88.101158142 1.8333330154 1.8333330154
 1222.6972656  -999.250000 17.708000183 0.0359999985 0.3769499958 2.2290000916 50.927379608 122.37620544 2.2522244453 88.591377258 1.8854486942 1.8854486942
 1222.8496094  -999.250000 17.870000839 0.0460000001 0.3696300089 2.2300000191 49.294013977 122.57061005 2.2871985435 88.652206421 1.9551857710 1.9551857710
 1223.0020752  -999.250000 18.010000229 0.0219999999 0.3486299813 2.1889998913 51.316402435 123.76923370 2.3178653717 89.148979187 1.9838845730 1.9838845730
 1223.1544189  -999.250000 17.770999908 0.0289999992 0.3857400119 2.1970000267 51.819984436 126.76280212 2.2962377071 89.141769409 1.9657565355 1.9657565355
 1223.3068848  -999.250000 17.693000793 0.0240000002 0.3994100094 2.1889998913 48.066352844 128.76441956 2.1766602993 88.644180298 1.9278076887 1.9278076887
 1223.4592285  -999.250000 17.666999817 0.0209999997 0.4155300260 2.1840000153 43.776996613 131.00320435 1.9673923254 89.140182495 1.8979295492 1.8979295492
 1223.6115723  -999.250000 17.650999069 0.0370000005 0.3583999872 2.2269999981 43.151268005 131.47686768 1.7171924114 89.636787415 1.8863493204 1.8863493204
 1223.7640381  -999.250000 17.760000229 0.0439999998 0.3613300025 2.2320001125 42.304584503 127.35576630 1.5739294291 90.129974365 1.7689167261 1.7689167261
 1223.9163818  -999.250000 17.660999298 0.0430000015 0.3320299983 2.2360000610 40.992595673 124.37100220 1.5631537437 90.125946045 1.4442257881 1.4442257881
 1224.0688477  -999.250000 17.489999771 0.0109999999 0.3588899970 2.1840000153 39.875648499 123.74519348 1.5871089697 90.108329773 1.1686602831 1.1686602831
 1224.2211914  -999.250000 17.516000748 0.0109999999 0.3530300260 2.1860001087 44.785602570 123.01641083 1.6039999723 88.606750488 1.1175308228 1.1175308228
 1224.3736572  -999.250000 17.531000137 0.0160000008 0.3872100115 2.1889998913 45.503807068 125.57061005 1.6039487123 88.102401733 1.3572372198 1.3572372198
 1224.5260010  -999.250000 17.520999908 0.0130000003 0.3701200187 2.1840000153 46.080589294 126.75640106 1.5965123177 88.168205261 1.7050760984 1.7050760984
 1224.6784668  -999.250000 17.556999207 0.0080000004 0.3847700059 2.1840000153 43.989780426 127.74880219 1.6775704622 88.661796570 1.8722949028 1.8722949028
 1224.8308105  -999.250000 17.662000656 0.0189999994 0.4223600030 2.1930000782 42.415210724 127.58181763 1.9223066568 88.161796570 1.9180576801 1.9180576801
 1224.9832764  -999.250000 17.895999908 0.0370000005 0.4218800068 2.2149999142 43.833179474 130.53205872 2.1256024837 87.661819458 1.9268461466 1.9268461466
 1225.1356201  -999.250000 17.843000412 0.0410000011 0.4321300089 2.1930000782 42.179019928 135.51200867 2.2192242146 87.172172546 1.9026029110 1.9026029110
 1225.2880859  -999.250000 17.822999954 0.0160000008 0.3437500000 2.1579999924 45.770633698 137.37901306 2.2536730766 87.665000916 1.8404358625 1.8404358625
 1225.4404297  -999.250000 17.885000229 0.0020000001 0.3974599838 2.1310000420 49.010032654 138.01521301 2.2027246952 87.661827087 1.7523146868 1.7523146868
 1225.5927734  -999.250000 17.593999863 -0.005000000 0.4404299855 2.1189999580 55.377803802 140.37500000 2.1599776745 87.168998718 1.6456017494 1.6456017494
 1225.7452393  -999.250000 17.593999863 -0.007000000 0.4604499936 2.1089999676 55.868991852 140.36698914 2.1558909416 87.172180176 1.5750513077 1.5750513077
 1225.8975830  -999.250000 17.593999863 -0.006000000 0.4287099838 2.1129999161 54.951610565 139.12260437 2.1389102936 87.668205261 1.5835891962 1.5835891962
 1226.0500488  -999.250000 17.620000839 -0.002000000 0.4013700187 2.1459999084 57.042366028 138.73077393 2.1249487400 88.168205261 1.6757307053 1.6757307053
 1226.2023926  -999.250000 17.666999817 0.0010000000 0.4135699868 2.1700000763 53.819183350 135.73239136 2.1169872284 88.661796570 1.7893331051 1.7893331051
 1226.3548584  -999.250000 17.656000137 -0.006000000 0.4291999936 2.1819999218 49.948566437 132.98156738 2.1151154041 88.161796570 1.8409230709 1.8409230709
 1226.5072021  -999.250000 17.645999908 -0.016000001 0.3999000192 2.1540000439 46.798412323 130.11218262 2.1330831051 87.665000916 1.8288526535 1.8288526535
 1226.6596680  -999.250000 17.604000092 -0.012000000 0.4111299813 2.1459999084 49.516826630 128.14022827 2.1458525658 87.665000916 1.8056923151 1.8056923151
 1226.8120117  -999.250000 17.572999954 -0.004000000 0.4311500192 2.1429998875 52.120597839 130.50399780 2.1226987839 87.665000916 1.7577246428 1.7577246428
 1226.9644775  -999.250000 17.599000931 0.0149999997 0.4106400013 2.1659998894 51.454025269 131.11378479 2.0754742622 87.668205261 1.7149294615 1.7149294615
 1227.1168213  -999.250000 17.604000092 0.0130000003 0.4277299941 2.1659998894 53.952007294 129.37100220 1.9935003519 88.165000916 1.7040127516 1.7040127516
 1227.2692871  -999.250000 17.568000793 0.0240000002 0.4140599966 2.1700000763 56.126602173 128.76441956 1.9158333540 88.165000916 1.7058845758 1.7058845758
 1227.4216309  -999.250000 17.541999817 0.0240000002 0.4262699783 2.1579999924 56.382404327 131.02162170 1.8900320530 88.161796570 1.6874619722 1.6874619722
 1227.5740967  -999.250000 17.572999954 0.0189999994 0.4570299983 2.1480000019 57.521785736 134.41827393 1.8952051401 87.665000916 1.6035383940 1.6035383940
