# LAS format log file from PETREL
# Project units are specified as depth units
#==================================================================
~Version information
VERS.   2.0:
WRAP.   NO:
#==================================================================
~Well
STRT .m      986.78210449 :
STOP .m      4467.4443359 :
STEP .m     0.00000000 :
NULL .        -999.250000 :
COMP.           : COMPANY
WELL.  34/4-3   : WELL
FLD.            : FIELD
LOC.            : LOCATION
SRVC.           : SERVICE COMPANY
DATE.  2018-09-11 14:48:50   : Log Export Date {yyyy-MM-dd HH:mm:ss}
PROV.           : PROVINCE
UWI.   34/4-3   : UNIQUE WELL ID
API.            : API NUMBER
#==================================================================
~Curve
DEPT .m                   : DEPTH
Lithology_geolink ._      : Lithology_geolink
CALI .in                  : CALI
DRHO .g/cm3               : DRHO
NPHI .m3/m3               : NPHI
RHOB .g/cm3               : RHOB
GR .gAPI                  : GR
DTC .us/ft                : DTC
RDEP .ohm.m               : RDEP
SP .mV                    : SP
RSHA .ohm.m               : RSHA
RMED .ohm.m               : RMED
~Parameter
#==================================================================
~Ascii
# ...
 2378.0410156  -999.250000 13.788999557 0.0529999994 0.3925800025 2.3490736485 54.289279938 115.39031219 1.7037916183 86.106246948 1.6895929575 1.6895929575
 2378.1936035  -999.250000 13.791000366 0.0320000015 0.4006600082 2.2969999313 54.998737335 116.71518707 1.6385433674 85.565895081 1.5624951124 1.5624951124
 2378.3459473  -999.250000 13.960000038 0.0120000001 0.3774000108 2.2660000324 54.962860107 114.09407806 1.5435007811 86.777648926 1.4577167034 1.4577167034
 2378.4982910  -999.250000 13.890999794 0.0120000001 0.3993000090 2.2540192604 58.884445190 120.52418518 1.4398590326 85.044395447 1.3988782167 1.3988782167
 2378.6506348  -999.250000 14.185998917 0.0130000003 0.4108599722 2.2450141907 62.434192657 117.14906311 1.3959326744 84.544425964 1.3609646559 1.3609646559
 2378.8032227  -999.250000 14.392999649 0.0390000008 0.4537099898 2.2790000439 59.370891571 113.74531555 1.3750385046 84.059257507 1.3501586914 1.3501586914
 2378.9555664  -999.250000 13.774999619 0.0340000018 0.4578599930 2.2799999714 56.643611908 113.40641022 1.3832112551 84.731918335 1.3829568624 1.3829568624
 2379.1079102  -999.250000 13.522000313 0.0240000002 0.4634000063 2.2839934826 53.673908234 115.56745911 1.4271090031 84.299949646 1.3740576506 1.3740576506
 2379.2602539  -999.250000 13.454000473 0.0010000000 0.4660400152 2.2580416203 58.011150360 116.02907562 1.4610576630 84.277702332 1.3919614553 1.3919614553
 2379.4125977  -999.250000 13.772999763 -0.004000000 0.4811199903 2.2629919052 61.805717468 118.53101349 1.4790576696 82.328079224 1.3802372217 1.3802372217
 2379.5651855  -999.250000 14.109000206 0.0000000000 0.4537200034 2.2809998989 66.695579529 115.72751617 1.4970144033 84.866584778 1.4542691708 1.4542691708
 2379.7175293  -999.250000 13.989000320 0.0049999999 0.4136900008 2.2929806709 67.216384888 114.17234802 1.5001056194 89.935905457 1.5102735758 1.5102735758
 2379.8698730  -999.250000 13.911999702 0.0120000001 0.3963899910 2.2979919910 64.592803955 112.99996185 1.5221409798 85.973007202 1.5670288801 1.5670288801
 2380.0222168  -999.250000 14.147999763 0.0109999999 0.4122000039 2.2850208282 61.726413727 112.98603058 1.5661057234 84.731422424 1.5758813620 1.5758813620
 2380.1748047  -999.250000 14.411999702 0.0120000001 0.4288800061 2.2860000134 59.691432953 111.75492096 1.5991250277 84.241188049 1.5392547846 1.5392547846
 2380.3271484  -999.250000 14.685999870 0.0160000008 0.4237900078 2.2850000858 62.492603302 112.13410950 1.6250864267 84.487030029 1.5918896198 1.5918896198
 2380.4794922  -999.250000 14.609000206 0.0140000004 0.4633899927 2.2760143280 66.769233704 108.01537323 1.6429808140 84.495391846 1.5691281557 1.5691281557
 2380.6318359  -999.250000 14.965000153 0.0240000002 0.4729299843 2.2779970169 68.380767822 109.37503815 1.6369422674 85.240783691 1.6088845730 1.6088845730
 2380.7844238  -999.250000 15.571999550 0.0179999992 0.4690900147 2.2769999504 63.324813843 109.38978577 1.6190335751 85.484817505 1.5730720758 1.5730720758
 2380.9367676  -999.250000 15.079000473 0.0309999995 0.4254299998 2.2939999104 61.833122253 110.60109711 1.6259952784 85.241233826 1.5877792835 1.5877792835
 2381.0891113  -999.250000 14.133999825 0.0289999992 0.4181300104 2.2880096436 61.040149689 113.50885773 1.6250096560 85.500747681 1.5421186686 1.5421186686
 2381.2414551  -999.250000 13.896000862 0.0350000001 0.3989399970 2.2949888706 64.486480713 108.81709290 1.6279840469 86.661010742 1.5789551735 1.5789551735
 2381.3937988  -999.250000 13.876999855 0.0500000007 0.3908900023 2.3179631233 57.785335541 114.75690460 1.6230705976 85.416801453 1.5651154518 1.5651154518
 2381.5463867  -999.250000 14.045000076 0.0500000007 0.3619300127 2.3220000267 55.399616241 115.33393860 1.6449855566 84.730560303 1.6008127928 1.6008127928
 2381.6987305  -999.250000 14.000000000 0.0299999993 0.3737500012 2.2920479774 54.916866302 112.22138214 1.6420159340 84.220184326 1.5620064735 1.5620064735
 2381.8510742  -999.250000 14.385999680 0.0060000001 0.4037400186 2.2580544949 58.626132965 115.11988831 1.6470512152 82.717597961 1.5640224218 1.5640224218
 2382.0034180  -999.250000 14.619999886 -0.003000000 0.4280300140 2.2619936466 64.270896912 109.17147064 1.6629871130 81.056678772 1.5710705519 1.5710705519
 2382.1560059  -999.250000 14.225999832 0.0130000003 0.4570800066 2.3029999733 66.093162537 107.77067566 1.6590144634 87.178512573 1.5931731462 1.5931731462
 2382.3083496  -999.250000 14.276000023 0.0280000009 0.4505099952 2.3350000381 63.615047455 109.34951019 1.6621439457 87.493461609 1.6291919947 1.6291919947
 2382.4606934  -999.250000 14.361000061 0.0299999993 0.4569200277 2.3549680710 58.013153076 107.38450623 1.6920897961 88.010406494 1.6690962315 1.6690962315
 2382.6130371  -999.250000 14.248000145 0.0419999994 0.4500199854 2.3530030251 53.714794159 108.15761566 1.7200417519 90.010322571 1.6989582777 1.6989582777
 2382.7656250  -999.250000 14.560000420 0.0430000015 0.4257000089 2.2980000973 56.147602081 105.54727173 1.7331490517 91.951728821 1.6858221292 1.6858221292
 2382.9179688  -999.250000 14.487000465 0.0469999984 0.3991500139 2.2290000916 57.922012329 104.35412598 1.7639377117 86.711494446 1.6493504047 1.6493504047
 2383.0703125  -999.250000 14.210000038 0.0419999994 0.3785699904 2.1870672703 56.664745331 102.70983887 1.7509583235 84.740791321 1.7220833302 1.7220833302
 2383.2226563  -999.250000 14.173000336 0.0270000007 0.3764400184 2.1870000362 51.913043976 99.259262085 1.7379903793 84.986816406 1.7482435703 1.7482435703
 2383.3750000  -999.250000 14.310000420 0.0390000008 0.3860599995 2.2209453583 49.750278473 105.56044006 1.7349487543 84.931793213 1.8237019777 1.8237019777
 2383.5275879  -999.250000 14.555999756 0.0410000011 0.3906600177 2.2430000305 49.851325989 105.38983917 1.7188367844 85.491180420 1.7308607101 1.7308607101
 2383.6799316  -999.250000 14.706000328 0.0599999987 0.4009500146 2.2689585686 52.824291229 106.61464691 1.6849935055 85.735198975 1.7017692327 1.7017692327
 2383.8322754  -999.250000 14.513000488 0.0480000004 0.4239099920 2.2660048008 53.849716187 111.16458893 1.6829037666 85.485214233 1.6296890974 1.6296890974
 2383.9846191  -999.250000 14.486000061 0.0309999995 0.4050199986 2.2610080242 54.398532867 109.16480255 1.6528301239 85.242622375 1.5328845978 1.5328845978
 2384.1372070  -999.250000 14.892000198 0.0160000008 0.3808700144 2.2539999485 59.235004425 107.26655579 1.5998125076 85.752960205 1.4967403412 1.4967403412
 2384.2895508  -999.250000 14.958999634 0.0109999999 0.3530899882 2.2579998970 60.483512878 113.38966370 1.5609952211 86.984764099 1.4429423809 1.4429423809
 2384.4418945  -999.250000 14.986000061 0.0070000002 0.3944699764 2.2560031414 61.614112854 114.56314850 1.5600031614 86.725799561 1.4310096502 1.4310096502
 2384.5942383  -999.250000 15.118000031 0.0189999994 0.4349499941 2.2719743252 57.909130096 114.62735748 1.5610288382 85.728584290 1.4341827631 1.4341827631
 2384.7468262  -999.250000 14.637000084 0.0410000011 0.4547300041 2.3059999943 55.476757050 120.31101990 1.5701683760 84.968955994 1.4913990498 1.4913990498
 2384.8991699  -999.250000 13.991998672 0.0619999990 0.4402799904 2.3450000286 58.531196594 115.33177185 1.6051151752 83.489692688 1.5741535425 1.5741535425
 2385.0515137  -999.250000 13.932999611 0.0520000011 0.4089199901 2.3410065174 58.575839996 111.95528412 1.6290479898 78.889572144 1.6061506271 1.6061506271
 2385.2038574  -999.250000 14.010999680 0.0460000001 0.3816500008 2.3290193081 59.766971588 108.00159454 1.6441282034 86.858459473 1.6529390812 1.6529390812
 2385.3564453  -999.250000 14.104999542 0.0430000015 0.3486100137 2.3210000992 58.522674561 108.18510437 1.6840432882 91.951683044 1.6341441870 1.6341441870
 2385.5087891  -999.250000 13.925999641 0.0579999983 0.3468900025 2.3399999142 60.321323395 108.00005341 1.6930816174 86.697700500 1.6640048027 1.6640048027
 2385.6611328  -999.250000 14.317000389 0.0599999987 0.3751699924 2.3439936638 61.014057159 108.01792908 1.7100256681 83.945762634 1.6651121378 1.6651121378
