# LAS format log file from PETREL
# Project units are specified as depth units
#==================================================================
~Version information
VERS.   2.0:
WRAP.   NO:
#==================================================================
~Well
STRT .m      1948.1618652 :
STOP .m      3612.0659180 :
STEP .m     0.00000000 :
NULL .        -999.250000 :
COMP.           : COMPANY
WELL.  34/4-2   : WELL
FLD.            : FIELD
LOC.            : LOCATION
SRVC.           : SERVICE COMPANY
DATE.  2018-09-11 14:48:50   : Log Export Date {yyyy-MM-dd HH:mm:ss}
PROV.           : PROVINCE
UWI.   34/4-2   : UNIQUE WELL ID
API.            : API NUMBER
#==================================================================
~Curve
DEPT .m                   : DEPTH
Lithology_geolink ._      : Lithology_geolink
CALI .in                  : CALI
BS .in                    : BS
DRHO .g/cm3               : DRHO
NPHI .m3/m3               : NPHI
RHOB .g/cm3               : RHOB
GR .gAPI                  : GR
DTC .us/ft                : DTC
RDEP .ohm.m               : RDEP
SP .mV                    : SP
RSHA .ohm.m               : RSHA
RMED .ohm.m               : RMED
~Parameter
#==================================================================
~Ascii
# ...
 2277.3459473  -999.250000 13.750000000  -999.250000 0.0179999992 0.3100599945 2.3480000496 47.778297424 107.99999237 1.4720432758 58.391750336 1.6097499132 1.6097499132
 2277.4985352  -999.250000 13.913999557  -999.250000 0.0170000009 0.3149400055 2.3340001106 43.451919556 110.18448639 1.4670159817 58.779747009 1.4853974581 1.4853974581
 2277.6508789  -999.250000 13.890999794  -999.250000 0.0309999995 0.3266600072 2.3570001125 40.260219574 114.17520142 1.4759711027 58.780998230 1.3942917585 1.3942917585
 2277.8032227  -999.250000 13.890999794  -999.250000 0.0240000002 0.3291000128 2.3499999046 44.517276764 112.38081360 1.4530736208 58.796951294 1.4438397884 1.4438397884
 2277.9555664  -999.250000 13.875000000  -999.250000 0.0080000004 0.3481400013 2.3320000172 46.086498260 112.00120544 1.4151823521 59.045799255 1.4569376707 1.4569376707
 2278.1081543  -999.250000 13.812999725  -999.250000 0.0060000001 0.3364300132 2.3299999237 43.882110596 111.56371307 1.3920736313 59.280246735 1.4849102497 1.4849102497
 2278.2604980  -999.250000 13.772999763  -999.250000  -999.250000 0.3203099966 2.3280000687 41.601314545 111.37560272 1.3830288649 59.280998230 1.4680545330 1.4680545330
 2278.4128418  -999.250000 13.640999794  -999.250000 0.0049999999 0.2890599966 2.3459999561 39.943305969 112.18539429 1.3700417280 58.798553467 1.4490609169 1.4490609169
 2278.5651855  -999.250000 13.531000137  -999.250000  -999.250000 0.2954100072 2.3359999657 42.083652496 110.56821442 1.3769663572 58.672599792 1.4639279842 1.4639279842
 2278.7175293  -999.250000 13.515999794  -999.250000 -0.003000000 0.2968800068 2.3320000172 43.307140350 111.37239838 1.3809808493 58.190326691 1.4590240717 1.4590240717
 2278.8701172  -999.250000 13.656000137  -999.250000  -999.250000 0.3295899928 2.3399999142 46.146884918 112.37339783 1.3790063858 58.202949524 1.4340801239 1.4340801239
 2279.0224609  -999.250000 13.663999557  -999.250000 0.0030000000 0.3344699740 2.3480000496 48.367889404 110.19499207 1.3690320253 57.814250946 1.4330031872 1.4330031872
 2279.1748047  -999.250000 13.625000000  -999.250000 0.0219999999 0.3403300047 2.3629999161 46.820495605 110.74819946 1.3660144806 58.076728821 1.4489232302 1.4489232302
 2279.3271484  -999.250000 13.585999489  -999.250000 0.0240000002 0.3398400247 2.3519999981 47.310596466 111.37299347 1.3460961580 57.596328735 1.4569615126 1.4569615126
 2279.4797363  -999.250000 13.578000069  -999.250000 0.0140000004 0.3349599838 2.3359999657 44.571815491 110.56430817 1.3420128822 57.858150482 1.4231089354 1.4231089354
 2279.6320801  -999.250000 13.961000443  -999.250000 0.0030000000 0.3408200145 2.3199999332 44.406501770 115.54700470 1.3469840288 57.594852448 1.4140288830 1.4140288830
 2279.7844238  -999.250000 13.961000443  -999.250000 -0.006000000 0.3217800260 2.3110001087 43.316501617 114.00501251 1.3489935398 57.702648163 1.3890801668 1.3890801668
 2279.9367676  -999.250000 13.968999863  -999.250000 -0.006000000 0.3247100115 2.3090000153 42.659152985 113.00319672 1.3549711704 57.812473297 1.4098991156 1.4098991156
 2280.0893555  -999.250000 14.038999557  -999.250000 0.0000000000 0.3164100051 2.3239998817 44.307689667 113.99839783 1.3659647703 57.080356598 1.4199678898 1.4199678898
 2280.2416992  -999.250000 13.781000137  -999.250000 0.0080000004 0.3295899928 2.3380000591 43.814601898 111.75719452 1.3620128632 58.215343475 1.4489070177 1.4489070177
 2280.3940430  -999.250000 13.616998672  -999.250000 0.0209999997 0.3427700102 2.3650000095 44.466899872 111.74999237 1.3639935255 57.984752655 1.4828910828 1.4828910828
 2280.5463867  -999.250000 13.633000374  -999.250000 0.0070000002 0.3310500085 2.3359999657 44.002250671 111.00240326 1.3679808378 58.621921539 1.4949424267 1.4949424267
 2280.6987305  -999.250000 13.633000374  -999.250000 0.0030000000 0.3232400119 2.3340001106 42.943103790 109.75400543 1.3819326162 58.609077454 1.4830577374 1.4830577374
 2280.8513184  -999.250000 13.695000648  -999.250000 -0.008000000 0.3090800047 2.3320000172 41.909305573 112.55400085 1.4069198370 58.843250275 1.4321634769 1.4321634769
 2281.0036621  -999.250000 13.961000443  -999.250000 -0.002000000 0.3173800111 2.3770000935 45.488479614 113.37239838 1.4179646969 58.656600952 1.4419679642 1.4419679642
 2281.1560059  -999.250000 13.961000443  -999.250000 0.0070000002 0.3071299791 2.3980000019 44.349552155 109.38782501 1.4130239487 59.542724609 1.4798176289 1.4798176289
 2281.3083496  -999.250000 14.008000374  -999.250000 0.0280000009 0.3027299941 2.3980000019 46.987232208 110.55919647 1.4139952660 59.173805237 1.5586202145 1.5586202145
 2281.4609375  -999.250000 13.921999931  -999.250000 0.0199999996 0.3100599945 2.3570001125 42.826419830 109.75130463 1.3980512619 59.312549591 1.5889037848 1.5889037848
 2281.6132813  -999.250000 13.812999725  -999.250000 0.0219999999 0.3266600072 2.3459999561 45.522285461 108.37940216 1.3830480576 59.078750610 1.5192244053 1.5192244053
 2281.7656250  -999.250000 13.836000443  -999.250000 0.0199999996 0.3212900162 2.3359999657 41.768150330 115.97556305 1.4009135962 58.223125458 1.4294320345 1.4294320345
 2281.9179688  -999.250000 13.609000206  -999.250000 0.0140000004 0.3178700209 2.3320000172 41.221553802 112.01281738 1.3880624771 58.482727051 1.3911827803 1.3911827803
 2282.0705566  -999.250000 13.680000305  -999.250000 0.0010000000 0.3066399992 2.3199999332 39.785606384 111.37599945 1.3830159903 57.721454620 1.3880096674 1.3880096674
 2282.2229004  -999.250000 13.944999695  -999.250000 0.0040000002 0.3125000000 2.3280000687 44.266574860 115.17579651 1.3979519606 57.703048706 1.4189007282 1.4189007282
 2282.3752441  -999.250000 13.991998672  -999.250000 0.0160000008 0.2988300025 2.3420000076 43.720802307 110.39042664 1.3830480576 57.345153809 1.4578748941 1.4578748941
 2282.5275879  -999.250000 13.772999763  -999.250000 0.0359999985 0.3032200038 2.3650000095 43.625450134 111.37179565 1.3849903345 57.452476501 1.4659615755 1.4659615755
 2282.6799316  -999.250000 13.875000000  -999.250000 0.0320000015 0.3076199889 2.3519999981 38.057891846 115.73597717 1.3909711838 57.189273834 1.4749567509 1.4749567509
 2282.8325195  -999.250000 13.875000000  -999.250000 0.0120000001 0.3198200166 2.3299999237 39.526191711 111.20259857 1.3820288181 57.405300140 1.4540673494 1.4540673494
 2282.9848633  -999.250000 13.883000374  -999.250000 0.0089999996 0.3418000042 2.3299999237 40.527793884 113.74179077 1.3800064325 57.515647888 1.4470224380 1.4470224380
 2283.1372070  -999.250000 13.875000000  -999.250000 0.0040000002 0.3579100072 2.3359999657 46.907245636 113.56360626 1.3839807510 57.267200470 1.4519760609 1.4519760609
 2283.2895508  -999.250000 13.977000237  -999.250000 -0.003000000 0.3798799813 2.3299999237 46.532955170 111.00821686 1.3750432730 57.902919769 1.4738942385 1.4738942385
 2283.4421387  -999.250000 13.859000206  -999.250000 -0.011000000 0.3461900055 2.3159999847 46.064498901 114.55729675 1.3959326744 58.030597687 1.4211698771 1.4211698771
 2283.5944824  -999.250000 14.015999794  -999.250000 -0.008000000 0.3232400119 2.3259999752 43.446414948 115.18599701 1.4089583158 58.794544220 1.4339582920 1.4339582920
 2283.7468262  -999.250000 13.961000443  -999.250000 -0.001000000 0.3032200038 2.3259999752 44.525753021 112.57141876 1.4070096016 58.672599792 1.4379807711 1.4379807711
 2283.8991699  -999.250000 13.968999863  -999.250000 -0.001000000 0.3359400034 2.3239998817 46.614933014 113.99539185 1.4050096273 59.309917450 1.5255769491 1.5255769491
 2284.0517578  -999.250000 13.961000443  -999.250000 -0.007000000 0.3291000128 2.3159999847 43.977516174 112.19091034 1.4089871645 59.078750610 1.5319807529 1.5319807529
 2284.2041016  -999.250000 13.944999695  -999.250000 -0.001000000 0.3349599838 2.3589999676 40.666618347 112.18800354 1.4149807692 59.218551636 1.4901345968 1.4901345968
 2284.3564453  -999.250000 13.875000000  -999.250000 0.0030000000 0.3344699740 2.3980000019 41.092597961 113.18479919 1.4299519062 59.483150482 1.4620897770 1.4620897770
 2284.5087891  -999.250000 13.671999931  -999.250000 0.0070000002 0.3530300260 2.4019999504 45.354450226 109.38722992 1.4240288734 59.499923706 1.4828991890 1.4828991890
