# LAS format log file from PETREL
# Project units are specified as depth units
#==================================================================
~Version information
VERS.   2.0:
WRAP.   NO:
#==================================================================
~Well
STRT .m      1948.1618652 :
STOP .m      3612.0659180 :
STEP .m     0.00000000 :
NULL .        -999.250000 :
COMP.           : COMPANY
WELL.  34/4-2   : WELL
FLD.            : FIELD
LOC.            : LOCATION
SRVC.           : SERVICE COMPANY
DATE.  2018-09-11 14:48:50   : Log Export Date {yyyy-MM-dd HH:mm:ss}
PROV.           : PROVINCE
UWI.   34/4-2   : UNIQUE WELL ID
API.            : API NUMBER
#==================================================================
~Curve
DEPT .m                   : DEPTH
Lithology_geolink ._      : Lithology_geolink
CALI .in                  : CALI
BS .in                    : BS
DRHO .g/cm3               : DRHO
NPHI .m3/m3               : NPHI
RHOB .g/cm3               : RHOB
GR .gAPI                  : GR
DTC .us/ft                : DTC
RDEP .ohm.m               : RDEP
SP .mV                    : SP
RSHA .ohm.m               : RSHA
RMED .ohm.m               : RMED
~Parameter
#==================================================================
~Ascii
# ...
 2496.8022461  -999.250000 13.727000237  -999.250000 0.0109999999 0.3227500021 2.4240000248 42.462600708 103.74880219 1.4769295454 61.909702301 1.6051504612 1.6051504612
 2496.9545898  -999.250000 13.727000237  -999.250000 0.0230000000 0.3085899949 2.4340000153 44.556289673 104.74839783 1.4899582863 61.797351837 1.5780864954 1.5780864954
 2497.1069336  -999.250000 13.718998909  -999.250000 0.0209999997 0.3085899949 2.4319999218 46.117504120 105.37400055 1.4900000095 61.672599792 1.5819808245 1.5819808245
 2497.2592773  -999.250000 13.703000069  -999.250000 0.0240000002 0.2905299962 2.4319999218 45.533855438 105.37500000 1.4790529013 61.812320709 1.5969278812 1.5969278812
 2497.4118652  -999.250000 13.703000069  -999.250000 0.0120000001 0.3076199889 2.4159998894 41.793018341 105.18829346 1.4700288773 61.703350067 1.6009870768 1.6009870768
 2497.5642090  -999.250000 13.703000069  -999.250000 0.0089999996 0.3095700145 2.4040000439 46.952373505 105.18799591 1.4630224705 61.563449860 1.5970128775 1.5970128775
 2497.7165527  -999.250000 13.695000648  -999.250000 0.0089999996 0.3237300217 2.4119999409 51.167747498 105.74909973 1.4630000591 60.676277161 1.5800817013 1.5800817013
 2497.8688965  -999.250000 13.695000648  -999.250000 0.0130000003 0.3105500042 2.4159998894 53.488883972 105.99919891 1.4600144625 61.511940002 1.5700480938 1.5700480938
 2498.0214844  -999.250000 13.695000648  -999.250000 0.0109999999 0.3125000000 2.4240000248 45.182743073 106.00000000 1.4580063820 61.655548096 1.5640192032 1.5640192032
 2498.1738281  -999.250000 13.695000648  -999.250000 0.0049999999 0.2890599966 2.4159998894 42.010116577 105.75040436 1.4520192146 61.655998230 1.5709775686 1.5709775686
 2498.3261719  -999.250000 13.695000648  -999.250000 -0.005000000 0.2973600030 2.4079999924 41.407901764 105.37560272 1.4380447865 63.416339874 1.5769808292 1.5769808292
 2498.4785156  -999.250000 13.695000648  -999.250000 -0.004000000 0.2954100072 2.3929998875 47.688697815 105.56270599 1.4131200314 62.426799774 1.5730191469 1.5730191469
 2498.6308594  -999.250000 13.695000648  -999.250000 -0.010000000 0.3183600008 2.3689999580 49.802932739 105.74940491 1.3841394186 62.437923431 1.5650385618 1.5650385618
 2498.7834473  -999.250000 13.695000648  -999.250000 -0.006000000 0.3281300068 2.3670001030 51.774688721 106.37400055 1.3481154442 63.574348450 1.5390833616 1.5390833616
 2498.9357910  -999.250000 13.703000069  -999.250000 -0.005000000 0.3418000042 2.3729999065 49.133514404 107.18669891 1.3111186028 63.095558167 1.4781955481 1.4781955481
 2499.0881348  -999.250000 13.695000648  -999.250000 -0.002000000 0.3442400098 2.3910000324 46.419048309 108.56079865 1.2731823921 63.451271057 1.3944032192 1.3944032192
 2499.2404785  -999.250000 13.687999725  -999.250000 0.0099999998 0.3471699953 2.3910000324 44.851512909 109.74620056 1.2401586771 62.675758362 1.3303077221 1.3303077221
 2499.3930664  -999.250000 13.687999725  -999.250000 0.0060000001 0.3554700017 2.3870000839 45.404197693 110.56169891 1.2100962400 63.061748505 1.2990993261 1.2990993261
 2499.5454102  -999.250000 13.687999725  -999.250000 0.0109999999 0.3593800068 2.3910000324 44.502902985 110.99929810 1.1860768795 63.202548981 1.2960096598 1.2960096598
 2499.6977539  -999.250000 13.687999725  -999.250000 -0.004000000 0.3427700102 2.3870000839 42.509601593 111.00000000 1.1700767279 62.425750732 1.2969952822 1.2969952822
 2499.8500977  -999.250000 13.687999725  -999.250000 -0.002000000 0.3339799941 2.3929998875 44.801879883 111.18740082 1.1590529680 62.064723969 1.3069519997 1.3069519997
 2500.0026855  -999.250000 13.687999725 12.250000954 -0.003000000 0.3212900162 2.3959999084 45.716098785 111.00029755 1.1530191898 61.797851563 1.3269358873 1.3269358873
 2500.1550293  -999.250000 13.687999725 12.250000954 0.0030000000 0.3232400119 2.3980000019 45.719001770 110.75040436 1.1510064602 61.672401428 1.3539134264 1.3539134264
 2500.3073730  -999.250000 13.687999725 12.250000954 0.0020000001 0.3266600072 2.3959999084 41.202522278 110.56330109 1.1539903879 61.937149048 1.3669582605 1.3669582605
 2500.4597168  -999.250000 13.687999725 12.250000954 0.0130000003 0.3349599838 2.4019999504 45.417598724 110.18859863 1.1639519930 61.455326080 1.3530672789 1.3530672789
 2500.6120605  -999.250000 13.687999725 12.250000954 0.0140000004 0.3305699825 2.4159998894 48.050380707 110.37440491 1.1848989725 61.935668945 1.3330961466 1.3330961466
 2500.7646484  -999.250000 13.687999725 12.250000954 0.0010000000 0.3286100030 2.4000000954 46.100311279 110.37500000 1.2149038315 60.800659180 1.3310064077 1.3310064077
 2500.9169922  -999.250000 13.687999725 12.250000954 0.0010000000 0.3173800111 2.4000000954 40.954524994 109.75099945 1.2528781891 62.541389465 1.3658878803 1.3658878803
 2501.0693359  -999.250000 13.687999725 12.250000954 -0.008000000 0.3203099966 2.3949999809 43.052799225 108.75160217 1.3027600050 61.784675598 1.4376543760 1.4376543760
 2501.2216797  -999.250000 13.687999725 12.250000954 -0.005000000 0.3037100136 2.4319999218 46.203826904 107.56680298 1.3547500372 62.402992249 1.5156250000 1.5156250000
 2501.3742676  -999.250000 13.671999931 12.250000954 0.0000000000 0.3276399970 2.4790000916 50.953777313 103.75611115 1.3998557329 62.671150208 1.6326249838 1.6326249838
 2501.5266113  -999.250000 13.671999931 12.250000954 0.0140000004 0.3330099881 2.4879999161 49.504707336 101.37880707 1.4428621531 62.298202515 1.7615865469 1.7615865469
 2501.6789551  -999.250000 13.680000305 12.250000954 0.0170000009 0.3251999915 2.4630000591 50.495201111 101.18830109 1.4718607664 62.810523987 1.8744575977 1.8744575977
 2501.8312988  -999.250000 13.671999931 12.250000954 -0.004000000 0.2963899970 2.4059998989 45.119991302 99.568206787 1.4859325886 62.827922821 1.8451442719 1.8451442719
 2501.9838867  -999.250000 13.680000305 12.250000954 -0.005000000 0.2890599966 2.3980000019 39.642528534 103.55659485 1.4979615211 62.439250946 1.7562853098 1.7562853098
 2502.1362305  -999.250000 13.671999931 12.250000954 -0.001000000 0.2968800068 2.3959999084 40.746395111 103.74970245 1.4950096607 63.200546265 1.6304038763 1.6304038763
 2502.2885742  -999.250000 13.671999931 12.250000954  -999.250000 0.2895500064 2.4040000439 42.432590485 104.99799347 1.4640992880 62.969749451 1.5422821045 1.5422821045
 2502.4409180  -999.250000 13.663999557 12.250000954 0.0120000001 0.2958999872 2.4240000248 49.248153687 105.56210327 1.4271776676 63.201877594 1.4892543554 1.4892543554
 2502.5935059  -999.250000 13.663999557 12.250000954 0.0040000002 0.2919899821 2.4079999924 46.727214813 106.18700409 1.3801506758 63.172096252 1.4830192327 1.4830192327
 2502.7458496  -999.250000 13.663999557 12.250000954 -0.001000000 0.3007799983 2.3829998970 46.314300537 106.74909210 1.3341474533 62.440353394 1.4700417519 1.4700417519
 2502.8981934  -999.250000 13.663999557 12.250000954 -0.008000000 0.2915000021 2.3670001030 39.926532745 107.99798584 1.2971186638 61.705356598 1.4430865049 1.4430865049
 2503.0505371  -999.250000 13.671999931 12.250000954 -0.005000000 0.2978500128 2.3710000515 39.222297668 108.74879456 1.2681392431 63.056476593 1.4071727991 1.4071727991
 2503.2028809  -999.250000 13.663999557 12.250000954 -0.001000000 0.3144499958 2.3870000839 38.534305573 109.74680328 1.2431201935 62.082733154 1.3791345358 1.3791345358
 2503.3554688  -999.250000 13.671999931 12.250000954 0.0010000000 0.3198200166 2.3959999084 39.153995514 110.37400055 1.2220673561 62.187648773 1.3700288534 1.3700288534
 2503.5078125  -999.250000 13.680000305 12.250000954 -0.002000000 0.3418000042 2.4000000954 44.990619659 110.56270599 1.2030304670 61.797630310 1.3560224771 1.3560224771
 2503.6601563  -999.250000 13.671999931 12.250000954 -0.002000000 0.3486299813 2.3829998970 43.907752991 110.74970245 1.1910191774 61.921798706 1.3440191746 1.3440191746
 2503.8125000  -999.250000 13.680000305 12.250000954 -0.003000000 0.3398400247 2.3750000000 43.937896729 111.18659973 1.1820288897 61.813346863 1.3410096169 1.3410096169
 2503.9650879  -999.250000 13.656000137 12.250000954 0.0020000001 0.3276399970 2.3829998970 40.255908966 111.00029755 1.1730144024 61.531448364 1.3439952135 1.3439952135
