# LAS format log file from PETREL
# Project units are specified as depth units
#==================================================================
~Version information
VERS.   2.0:
WRAP.   NO:
#==================================================================
~Well
STRT .m      986.78210449 :
STOP .m      4467.4443359 :
STEP .m     0.00000000 :
NULL .        -999.250000 :
COMP.           : COMPANY
WELL.  34/4-3   : WELL
FLD.            : FIELD
LOC.            : LOCATION
SRVC.           : SERVICE COMPANY
DATE.  2018-09-11 14:48:50   : Log Export Date {yyyy-MM-dd HH:mm:ss}
PROV.           : PROVINCE
UWI.   34/4-3   : UNIQUE WELL ID
API.            : API NUMBER
#==================================================================
~Curve
DEPT .m                   : DEPTH
Lithology_geolink ._      : Lithology_geolink
CALI .in                  : CALI
DRHO .g/cm3               : DRHO
NPHI .m3/m3               : NPHI
RHOB .g/cm3               : RHOB
GR .gAPI                  : GR
DTC .us/ft                : DTC
RDEP .ohm.m               : RDEP
SP .mV                    : SP
RSHA .ohm.m               : RSHA
RMED .ohm.m               : RMED
~Parameter
#==================================================================
~Ascii
# ...
 4227.8715820 5.0000000000 10.883001328 0.0000000000 0.3529999852 2.8070127964 71.931999207 75.058998108 4.7550001144 139.13200378 5.7270002365 5.7270002365
 4228.0239258 5.0000000000 10.843999863 0.0070000002 0.3346599936 2.8020160198 73.940002441 73.266998291 5.0000000000 138.66000366 6.6479997635 6.6479997635
 4228.1762695 5.0000000000 10.772999763 0.0219999999 0.3240399957 2.7870481014 78.182998657 72.721000671 5.2410001755 138.66099548 7.9330000877 7.9330000877
 4228.3291016 5.0000000000 10.712999344 0.0329999998 0.3308282495 2.7479999065 82.115997314 73.774002075 5.4819998741 138.66099548 9.4770002365 9.4770002365
 4228.4814453 6.0000000000 10.701000214 0.0509999990 0.3396108150 2.6930000782 86.049003601 76.469001770 5.8289999962 139.27499390 10.711000443 10.711000443
 4228.6337891 6.0000000000 10.715000153 0.0829999968 0.3398627043 2.6259999275 89.995002747 79.408996582 6.3000001907 139.36500549 10.248999596 10.248999596
 4228.7861328 6.0000000000 10.737999916 0.1169999987 0.3375810385 2.5592141151 93.179000854 82.339996338 6.7699999809 138.93800354 9.3059997559 9.3059997559
 4228.9384766 6.0000000000 10.753000259 0.1350000054 0.3347943425 2.4912178516 94.247001648 83.319000244 7.2399997711 139.03599548 8.4750003815 8.4750003815
 4229.0908203 5.0000000000 10.718000412 0.1059999987 0.3330300152 2.4301955700 92.841003418 82.847999573 7.7100000381 139.45500183 8.0030002594 8.0030002594
 4229.2431641 5.0000000000 10.645000458 0.0509999990 0.3254800141 2.4110608101 88.976997375 80.968002319 8.1800003052 139.21000671 8.1590003967 8.1590003967
 4229.3955078 5.0000000000 10.588000298 0.0130000003 0.3004599810 2.4428975582 86.444000244 78.434005737 8.6459999084 138.19099426 8.6289997101 8.6289997101
 4229.5483398 5.0000000000 10.534999847 0.0049999999 0.2661351562 2.5190000534 84.637001038 75.901000977 8.8680000305 137.67100525 9.2130002975 9.2130002975
 4229.7006836 5.0000000000 10.501000404 0.0160000008 0.2303797901 2.5869998932 84.100997925 74.188003540 8.9420003891 138.51199341 9.9010000229 9.9010000229
 4229.8530273 5.0000000000 10.473999977 0.0299999993 0.2210222334 2.6300001144 83.880996704 73.623001099 8.8750000000 139.02299500 10.442999840 10.442999840
 4230.0053711 5.0000000000 10.451999664 0.0280000009 0.2342052609 2.6259999275 84.401000977 74.214996338 8.8750000000 139.19900513 10.593000412 10.593000412
 4230.1577148 5.0000000000 10.425999641 0.0120000001 0.2483101487 2.6070609093 85.058998108 74.924003601 8.8369998932 138.53500366 10.510999680 10.510999680
 4230.3100586 5.0000000000 10.407999992 0.0010000000 0.2576871812 2.6040096283 85.777999878 75.429992676 8.7320003510 137.87100220 10.434000015 10.434000015
 4230.4624023 5.0000000000 10.409000397 0.0020000001 0.2568100095 2.6119742393 86.385002136 75.676002502 8.6269998550 137.87100220 10.434000015 10.434000015
 4230.6147461 5.0000000000 10.409998894 0.0060000001 0.2515500188 2.6239616871 86.894996643 75.922996521 8.4879999161 137.75100708 10.413000107 10.413000107
 4230.7670898 5.0000000000 10.406999588 0.0089999996 0.2465600073 2.6319742203 88.044998169 76.168998718 8.2860002518 137.48599243 10.357000351 10.357000351
 4230.9199219 5.0000000000 10.397999763 0.0089999996 0.2431552857 2.6359999180 89.427001953 76.376991272 8.0989999771 137.14799500 10.342000008 10.342000008
 4231.0722656 5.0000000000 10.387000084 0.0099999998 0.2385682762 2.6380000114 87.750000000 76.545989990 8.0290002823 136.80700684 10.342000008 10.342000008
 4231.2246094 5.0000000000 10.378000259 0.0130000003 0.2349244356 2.6419999599 86.707000732 76.782997131 7.8350000381 136.68200684 10.371000290 10.371000290
 4231.3769531 5.0000000000 10.373000145 0.0230000000 0.2363057584 2.6449904442 86.358001709 77.348999023 7.6440000534 136.69599915 10.413000107 10.413000107
 4231.5292969 6.0000000000 10.373999596 0.0359999985 0.2381029278 2.6400160789 87.827003479 77.792991638 7.4590001106 136.78799438 10.050999641 10.050999641
 4231.6816406 6.0000000000 10.368000031 0.0359999985 0.2390200049 2.6290352345 89.456001282 78.195007324 7.3099999428 136.88000488 9.5760002136 9.5760002136
 4231.8339844 6.0000000000 10.336999893 0.0260000005 0.2409700006 2.6200287342 90.956001282 78.119010925 7.2199997902 137.00000000 9.2069997787 9.2069997787
 4231.9863281 6.0000000000 10.256999969 0.0219999999 0.2484900057 2.6229903698 91.205001831 77.930999756 7.2199997902 137.08000183 9.0270004272 9.0270004272
 4232.1386719 6.0000000000 10.142999649 0.0199999996 0.2621400058 2.6289806366 90.133003235 77.408996582 7.2199997902 137.08000183 9.0290002823 9.0290002823
 4232.2915039 6.0000000000 10.065999985 0.0219999999 0.2645499110 2.6329998970 89.388000488 76.772003174 7.2410001755 137.08099365 9.2299995422 9.2299995422
 4232.4438477 6.0000000000 10.024998665 0.0320000015 0.2551649809 2.6389999390 89.500999451 76.245002747 7.2859997749 137.04899597 9.2589998245 9.2589998245
 4232.5961914 6.0000000000 10.008999825 0.0460000001 0.2474059910 2.6570000648 90.399002075 76.005996704 7.2859997749 136.86500549 8.7500000000 8.7500000000
 4232.7485352 6.0000000000 10.005000114 0.0560000017 0.2524071634 2.6689615250 91.591003418 75.972999573 7.2859997749 136.68099976 8.2849998474 8.2849998474
 4232.9008789 6.0000000000 10.008999825 0.0560000017 0.2608710229 2.6699969769 91.844001770 76.151000977 7.2859997749 136.51100159 8.1040000916 8.1040000916
 4233.0532227 6.0000000000 10.012999535 0.0540000014 0.2674399912 2.6690030098 91.210998535 76.445999146 7.1550002098 136.74299622 8.0069999695 8.0069999695
 4233.2055664 6.0000000000 10.017000198 0.0560000017 0.2637000084 2.6719903946 90.016998291 76.912994385 7.0170001984 137.19999695 7.9720001221 7.9720001221
 4233.3579102 6.0000000000 10.021000862 0.0540000014 0.2572999895 2.6739935875 89.427001953 77.404998779 6.8699998856 137.87500000 7.9720001221 7.9720001221
 4233.5107422 6.0000000000 10.024998665 0.0419999994 0.2519773841 2.6659998894 90.044998169 77.582000732 6.7160000801 137.69999695 7.9879999161 7.9879999161
 4233.6630859 6.0000000000 10.029000282 0.0289999992 0.2511719167 2.6549999714 92.615997314 77.712997437 6.6350002289 136.87500000 8.0080003738 8.0080003738
 4233.8154297 6.0000000000 10.032999992 0.0240000002 0.2549006939 2.6449999809 95.185997009 77.844001770 6.6069998741 136.67799377 8.0270004272 8.0270004272
 4233.9677734 6.0000000000 10.036999702 0.0250000004 0.2613456249 2.6340000629 96.366996765 78.033996582 6.6469998360 136.50700378 8.0550003052 8.0550003052
 4234.1201172 6.0000000000 10.041000366 0.0289999992 0.2662037015 2.6270225048 95.389999390 78.231002808 6.7140002251 136.64399719 8.1230001450 8.1230001450
 4234.2724609 6.0000000000 10.045001030 0.0340000018 0.2673248649 2.6299905777 92.667999268 77.986000061 6.7960000038 137.04299927 8.1909999847 8.1909999847
 4234.4248047 6.0000000000 10.045001030 0.0399999991 0.2594799995 2.6379742622 90.853996277 77.781997681 6.8769998550 137.12199402 8.4949998856 8.4949998856
 4234.5771484 6.0000000000 10.031000137 0.0439999998 0.2492799908 2.6439807415 89.818000793 77.637001038 7.0329999924 136.72399902 8.7250003815 8.7250003815
 4234.7294922 6.0000000000 10.001999855 0.0469999984 0.2404000163 2.6509776115 88.696998596 77.339996338 7.2259998322 136.37800598 8.8369998932 8.8369998932
 4234.8823242 5.0000000000 9.9729995728 0.0469999984 0.2418646067 2.6540000439 86.008003235 76.733001709 7.7160000801 136.58799744 8.9499998093 8.9499998093
 4235.0346680 5.0000000000 9.9469995499 0.0399999991 0.2464061379 2.6540000439 83.318000793 75.217010498 8.3479995728 137.04600525 9.3990001678 9.3990001678
 4235.1870117 5.0000000000 9.9219999313 0.0320000015 0.2451770604 2.6480000019 80.438003540 73.623001099 8.9790000916 137.22799683 10.361000061 10.361000061
 4235.3393555 5.0000000000 9.8970003128 0.0329999998 0.2379983515 2.6499936581 77.319000244 72.033996582 9.4849996567 136.64999390 11.230999947 11.230999947
 4235.4916992 5.0000000000 9.8800001144 0.0439999998 0.2250113487 2.6569776535 75.750999451 71.144996643 9.7969999313 136.29200745 11.748000145 11.748000145
