# LAS format log file from PETREL
# Project units are specified as depth units
#==================================================================
~Version information
VERS.   2.0:
WRAP.   NO:
#==================================================================
~Well
STRT .m      3631.9968262 :
STOP .m      4250.8930664 :
STEP .m     0.00000000 :
NULL .        -999.250000 :
COMP.           : COMPANY
WELL.  34/4-10 R   : WELL
FLD.            : FIELD
LOC.            : LOCATION
SRVC.           : SERVICE COMPANY
DATE.  2018-09-11 14:48:50   : Log Export Date {yyyy-MM-dd HH:mm:ss}
PROV.           : PROVINCE
UWI.   34/4-10 R   : UNIQUE WELL ID
API.            : API NUMBER
#==================================================================
~Curve
DEPT .m                   : DEPTH
Lithology_geolink ._      : Lithology_geolink
CALI .in                  : CALI
BS .in                    : BS
ROP .m/h                  : ROP
DRHO .g/cm3               : DRHO
NPHI .m3/m3               : NPHI
RHOB .g/cm3               : RHOB
PEF .b/e                  : PEF
GR .gAPI                  : GR
DTC .us/ft                : DTC
DTS .us/ft                : DTS
RDEP .ohm.m               : RDEP
RMED .ohm.m               : RMED
~Parameter
#==================================================================
~Ascii
# ...
 4201.9726563 6.0000000000 8.2316713333 8.5000000000 12.910058975 -0.033773702 0.3076372147 2.4198250771 5.6573667526 113.30449677 91.599761963 266.48339844 0.9967725277 1.4263210297
 4202.1250000 6.0000000000 8.2331104279 8.5000000000 13.393199921 -0.034962248 0.2952584922 2.4230246544 5.6971817017 113.46309662 89.256042480 267.47302246 0.9967725277 1.4263210297
 4202.2773438 6.0000000000 8.2342786789 8.5000000000 14.953437805 -0.033474416 0.3005711138 2.4346299171 5.5091834068 104.09580231 90.532676697 266.66262817 0.9967725277 1.4263210297
 4202.4296875 6.0000000000 8.2377004623 8.5000000000 33.511669159 -0.019108618 0.2907831073 2.4735698700 5.8049540520 101.28769684 91.866836548 267.76571655 1.0010851622 1.4100193977
 4202.5820313 6.0000000000 8.2357177734 8.5000000000 48.638324738 -0.022101959 0.2993763983 2.4814240932 5.6549396515 104.83000183 92.250610352 272.69287109 1.0656813383 1.1658329964
 4202.7343750 6.0000000000 8.2342777252 8.5000000000 51.808101654 -0.018028529 0.2866534889 2.4882678986 5.6448588371 106.95290375 89.793556213 270.63714600 1.0658890009 1.1650480032
 4202.8872070 6.0000000000 8.2322149277 8.5000000000 47.940990448 -0.016051590 0.2888576984 2.4793050289 5.7128372192 111.69920349 90.475349426 268.81320190 1.0698100328 1.1675299406
 4203.0395508 7.0000000000 8.2296895981 8.5000000000 46.143600464 -0.018527649 0.2870582938 2.4802899361 5.9458317757 126.60030365 90.968536377 271.06860352 1.1219309568 1.2013430595
 4203.1918945 7.0000000000 8.2299604416 8.5000000000 46.143600464 -0.019757921 0.2958259881 2.4787631035 5.7592716217 151.82670593 91.146507263 273.39169312 1.0770050287 1.1874630451
 4203.3442383 7.0000000000 8.2316722870 8.5000000000 46.143600464 -0.016452361 0.2838639021 2.4772260189 5.3628253937 156.02490234 91.457481384 258.24310303 1.0394890308 1.2075699568
 4203.4965820 7.0000000000 8.2296895981 8.5000000000 53.256065369 -0.014316800 0.2880614996 2.4782600403 5.3274831772 139.91369629 91.706680298 250.76448059 1.0497889519 1.1856083870
 4203.6489258 7.0000000000 8.2325677872 8.5000000000 52.679962158 -0.013071820 0.2955085933 2.4727931023 5.4913630486 112.92649841 92.367378235 247.19888306 1.0522322655 1.1511077881
 4203.8012695 6.0000000000 8.2385959625 8.5000000000 48.174270630 -0.006112229 0.2951709032 2.4743509293 5.3719820976 101.71669769 93.132438660 249.42442322 1.0309494734 1.1652212143
 4203.9536133 6.0000000000 8.2388687134 8.5000000000 46.923599243 0.0008106828 0.3056212068 2.4748330116 5.3149719238 102.49510193 93.122482300 252.65783691 1.0245443583 1.1598923206
 4204.1059570 6.0000000000 8.2391414642 8.5000000000 44.180171967 0.0028687720 0.3012566864 2.4746890068 5.7225179672 105.09110260 92.911018372 250.37338257 1.0209255219 1.1749794483
 4204.2587891 6.0000000000 8.2474260330 8.5000000000 43.586891174 0.0073158741 0.3010511100 2.4919478893 6.2819924355 107.57910156 92.890502930 251.58160400 1.0818220377 1.2150100470
 4204.4111328 6.0000000000 8.2647724152 8.5000000000 43.207263947 -0.020303208 0.2896634936 2.4706730843 6.1801729202 107.50299835 92.065071106 257.74951172 1.1604110003 1.2402019501
 4204.5634766 6.0000000000 8.2670345306 8.5000000000 42.612552643 -0.022967409 0.2961413860 2.4794580936 5.6763935089 107.31179810 91.217742920 265.76278687 1.1611020565 1.2361619473
 4204.7158203 6.0000000000 8.2630596161 8.5000000000 40.445735931 -0.041756630 0.2826642990 2.4657359123 5.5805115700 109.77690125 90.272560120 271.20266724 1.1361678839 1.2361401320
 4204.8681641 6.0000000000 8.2638816833 8.5000000000 34.336318970 -0.046421658 0.2812876999 2.4607739449 5.5725708008 114.92109680 90.131271362 271.40899658 1.1014453173 1.1764848232
 4205.0205078 6.0000000000 8.2636070251 8.5000000000 29.356466293 -0.053140290 0.2819516957 2.4434270859 5.5679874420 112.87999725 91.340667725 262.23898315 1.0502332449 1.1422853470
 4205.1728516 6.0000000000 8.2633333206 8.5000000000 28.152301788 -0.031175541 0.3046020865 2.4531450272 5.3809871674 110.54199982 92.295722961 257.05398560 0.9698796272 1.1112812757
 4205.3251953 6.0000000000 8.2642250061 8.5000000000 28.152301788 -0.040949568 0.3080970049 2.4254739285 5.3456692696 99.183616638 93.650787354 262.89578247 0.9592190385 1.1000916958
 4205.4775391 6.0000000000 8.2636079788 8.5000000000 28.152301788 -0.030274570 0.3215821981 2.4291510582 5.3005104065 99.671279907 95.015220642 257.75985718 0.9564177990 1.0788791180
 4205.6303711 6.0000000000 8.2633333206 8.5000000000 33.421295166 -0.029752750 0.3066641986 2.4295110703 5.2193045616 99.636596680 95.667037964 259.87728882 0.9284902811 1.1115390062
 4205.7827148 6.0000000000 8.2618942261 8.5000000000 35.895000458 -0.023805210 0.2933973968 2.4529330730 5.2058653831 105.83760071 94.889511108 251.99241638 0.9747827053 1.1198240519
 4205.9350586 6.0000000000 8.2627859116 8.5000000000 35.895000458 -0.020888800 0.2813790143 2.4757380486 5.2391500473 104.23650360 93.118713379 249.45368958 1.0123800039 1.1464840174
 4206.0874023 6.0000000000 8.2653217316 8.5000000000 35.895000458 -0.011419620 0.2722201943 2.5051159859 5.2984938622 103.77249908 91.412437439 249.15853882 1.0990093946 1.2200740576
 4206.2397461 6.0000000000 8.2653217316 8.5000000000 35.895000458 -0.015217210 0.2883560956 2.5192313194 5.4457731247 101.86419678 91.134773254 251.42231750 1.1122851372 1.2447773218
 4206.3920898 6.0000000000 8.2624425888 8.5000000000 35.895000458 -0.011928590 0.3027358055 2.5348730087 5.4217948914 103.82920074 96.088157654 253.03016663 1.1186696291 1.2727552652
 4206.5444336 6.0000000000 8.2618942261 8.5000000000 35.895000458 -0.013530630 0.3174754083 2.5332329273 5.4911499023 106.07240295 104.89299774 259.40112305 1.1373031139 1.3142498732
 4206.6967773 6.0000000000 8.2618942261 8.5000000000 35.895000458 -0.014084000 0.3278220892 2.5335578918 5.6073589325 125.33370209 103.65180206 256.46588135 1.1363921165 1.3206757307
 4206.8496094 6.0000000000 8.2618942261 8.5000000000 87.456108093 -0.017438799 0.3146991134 2.5308330059 5.8597106934 158.09620667 102.42829895 256.68609619 1.1287729740 1.3160820007
 4207.0019531 6.0000000000 8.2607288361 8.5000000000 111.66320038 -0.010909850 0.3224925995 2.5424399376 5.6296958923 201.41259766 100.85320282 256.19900513 1.1434309483 1.3349210024
 4207.1542969 6.0000000000 8.2621688843 8.5000000000 111.66320038 -0.009540480 0.3120285869 2.5454139709 5.3236322403 214.14970398 99.707687378 257.67739868 1.1857700348 1.3643549681
 4207.3066406 7.0000000000 8.2618942261 8.5000000000 334.00378418 -0.008378563 0.3315851986 2.5481660366 5.4765396118 197.09419250 98.190231323 261.40869141 1.2202069759 1.3798840046
 4207.4589844 7.0000000000 8.2688140869 8.5000000000 438.88140869 -0.001371503 0.3367302120 2.5629520416 6.1196498871 172.27749634 95.906448364 260.06134033 1.2663391829 1.4026869535
 4207.6113281 7.0000000000 8.2857456207 8.5000000000 195.09608459 0.0023788810 0.3712263107 2.5558059216 6.1707768440 182.56539917 95.955513000 260.16445923 1.3150229454 1.3884061575
 4207.7636719 7.0000000000 8.2854700089 8.5000000000 59.407176971 0.0021117330 0.3691149056 2.5341219902 5.1289463043 211.23710632 96.699630737 261.97348022 1.2974011898 1.3997025490
 4207.9160156 7.0000000000 8.2857456207 8.5000000000 42.513782501 0.0001993775 0.3337686062 2.5029149055 4.5774154663 233.03370667 91.037078857 257.23056030 1.2403253317 1.3653137684
 4208.0683594 7.0000000000 8.2860212326 8.5000000000 28.905439377 0.0036930440 0.2889614105 2.4927709103 4.8990039825 222.35690308 84.719306946 246.86697388 1.1353440285 1.3018746376
 4208.2211914 7.0000000000 8.2837543488 8.5000000000 19.882783890 0.0071610808 0.2516511083 2.5061969757 5.7099018097 192.84770203 85.416831970 244.88711548 1.1172579527 1.3156869411
 4208.3735352 7.0000000000 8.2849178314 8.5000000000 17.915500641 0.0083131790 0.2453228980 2.5184190273 6.0268139839 159.88679504 86.066268921 238.62057495 1.1154650450 1.3282589912
 4208.5258789 7.0000000000 8.2837543488 8.5000000000 15.557543755 0.0168388505 0.2253354043 2.5414950848 5.7384281158 136.78610229 86.013656616 235.26892090 1.1175320148 1.3689579964
