# LAS format log file from PETREL
# Project units are specified as depth units
#==================================================================
~Version information
VERS.   2.0:
WRAP.   NO:
#==================================================================
~Well
STRT .m      1948.1618652 :
STOP .m      3612.0659180 :
STEP .m     0.00000000 :
NULL .        -999.250000 :
COMP.           : COMPANY
WELL.  34/4-2   : WELL
FLD.            : FIELD
LOC.            : LOCATION
SRVC.           : SERVICE COMPANY
DATE.  2018-09-11 14:48:50   : Log Export Date {yyyy-MM-dd HH:mm:ss}
PROV.           : PROVINCE
UWI.   34/4-2   : UNIQUE WELL ID
API.            : API NUMBER
#==================================================================
~Curve
DEPT .m                   : DEPTH
Lithology_geolink ._      : Lithology_geolink
CALI .in                  : CALI
BS .in                    : BS
DRHO .g/cm3               : DRHO
NPHI .m3/m3               : NPHI
RHOB .g/cm3               : RHOB
GR .gAPI                  : GR
DTC .us/ft                : DTC
RDEP .ohm.m               : RDEP
SP .mV                    : SP
RSHA .ohm.m               : RSHA
RMED .ohm.m               : RMED
~Parameter
#==================================================================
~Ascii
# ...
 3491.6699219 6.0000000000 9.1630001068 8.5000000000 0.0460000001 0.1487399936 2.5969998837 56.217998505 72.345001221 4.9190001488 73.069000244 5.9660000801 5.9660000801
 3491.8222656 6.0000000000 9.1499996185 8.5000000000 0.0410000011 0.1549800038 2.5789999962 56.368999481 73.469001770 4.9899997711 72.660003662 5.4390001297 5.4390001297
 3491.9746094 6.0000000000 9.1389999390 8.5000000000 0.0340000018 0.1629099995 2.5699999332 58.258998871 74.455001831 5.1360001564 73.819999695 5.1739997864 5.1739997864
 3492.1271973 3.0000000000 9.1300001144 8.5000000000 0.0209999997 0.1762299985 2.5639998913 59.265998840 76.358001709 5.2979998589 73.954002380 5.0679998398 5.0679998398
 3492.2795410 3.0000000000 9.1260004044 8.5000000000 0.0099999998 0.1813199967 2.5520000458 57.583999634 75.055999756 5.3819999695 72.472999573 5.1710000038 5.1710000038
 3492.4318848 3.0000000000 9.0760002136 8.5000000000 -0.002000000 0.1816900074 2.5420000553 50.367000580 72.140998840 5.4099998474 71.347000122 5.6189999580 5.6189999580
 3492.5842285 3.0000000000 8.9949998856 8.5000000000 -0.010000000 0.1579599977 2.5320000648 43.055000305 68.921997070 5.3810000420 70.361999512 6.5570001602 6.5570001602
 3492.7365723 3.0000000000 8.8450002670 8.5000000000 -0.015000000 0.1281899959 2.5250000954 36.736999512 66.938003540 5.3179998398 69.938003540 7.8229999542 7.8229999542
 3492.8891602 3.0000000000 8.5649995804 8.5000000000 -0.013000000 0.1070500016 2.5139999390 34.680000305 67.501998901 5.3260002136 71.783996582 8.1359996796 8.1359996796
 3493.0415039 3.0000000000 8.2790002823 8.5000000000 -0.010000000 0.1029900014 2.5079998970 34.638000488 70.407997131 5.4910001755 71.143997192 6.5040001869 6.5040001869
 3493.1938477 3.0000000000 8.2170000076 8.5000000000 -0.006000000 0.1052999943 2.5109999180 32.500999451 72.375000000 5.6710000038 71.157997131 4.8610000610 4.8610000610
 3493.3461914 3.0000000000 8.3579998016 8.5000000000 -0.001000000 0.1006599963 2.5199999809 32.717998505 71.919998169 5.7199997902 69.831001282 4.5710000992 4.5710000992
 3493.4987793 3.0000000000 8.5469999313 8.5000000000 0.0060000001 0.0877600014 2.5250000954 32.495998383 70.217002869 5.6710000038 69.877998352 5.4829998016 5.4829998016
 3493.6511230 3.0000000000 8.6450004578 8.5000000000 0.0140000004 0.0779300034 2.5199999809 34.165000916 68.430000305 5.5760002136 69.674003601 7.1570000648 7.1570000648
 3493.8034668 3.0000000000 8.6470003128 8.5000000000 0.0070000002 0.0757099986 2.5060000420 35.382999420 66.484001160 5.5310001373 69.316001892 8.1379995346 8.1379995346
 3493.9558105 3.0000000000 8.6140003204 8.5000000000 -0.008000000 0.0861400068 2.4920001030 39.382999420 67.719001770 5.4250001907 68.472000122 7.3039999008 7.3039999008
 3494.1083984 3.0000000000 8.5749998093 8.5000000000 -0.026000001 0.0998300016 2.4730000496 42.977001190 69.357002258 5.1459999084 67.642997742 6.1750001907 6.1750001907
 3494.2607422 3.0000000000 8.5399999619 8.5000000000 -0.045000002 0.1146399975 2.4579999447 42.187000275 70.889999390 4.7369999886 67.986999512 5.7449998856 5.7449998856
 3494.4130859 3.0000000000 8.4989995956 8.5000000000 -0.050999999 0.1198299974 2.4619998932 41.585998535 70.297996521 4.3109998703 67.064002991 5.5159997940 5.5159997940
 3494.5654297 3.0000000000 8.3680000305 8.5000000000 -0.045000002 0.1228300035 2.4749999046 43.505001068 71.579002380 3.9030001163 65.041000366 4.9369997978 4.9369997978
 3494.7177734 3.0000000000 8.2040004730 8.5000000000 -0.034000002 0.1385200024 2.4660000801 48.048000336 73.206001282 3.5789999962 64.106002808 3.9570000172 3.9570000172
 3494.8703613 3.0000000000 8.1239995956 8.5000000000 -0.029999999 0.1559399962 2.4379999638 47.948001862 75.114997864 3.3640000820 65.367996216 3.2339999676 3.2339999676
 3495.0227051 5.0000000000 8.0880002975 8.5000000000 -0.029999999 0.1725700051 2.4119999409 46.930000305 76.859001160 3.1670000553 66.675003052 3.0539999008 3.0539999008
 3495.1750488 5.0000000000 8.0640001297 8.5000000000 -0.030999999 0.1769499928 2.4100000858 49.194999695 77.328002930 2.9920001030 64.722000122 3.2090001106 3.2090001106
 3495.3273926 5.0000000000 8.0640001297 8.5000000000 -0.032000002 0.1743600070 2.4330000877 52.609001160 77.859001160 2.8719999790 64.268997192 3.4300000668 3.4300000668
 3495.4799805 5.0000000000 8.0640001297 8.5000000000 -0.032000002 0.1734600067 2.4489998817 55.284999847 78.078002930 2.7939999104 65.642997742 3.5090000629 3.5090000629
 3495.6323242 5.0000000000 8.0579996109 8.5000000000 -0.033000000 0.1799300015 2.4419999123 50.888999939 77.750000000 2.7449998856 66.408996582 3.4260001183 3.4260001183
 3495.7846680 5.0000000000 8.0520000458 8.5000000000 -0.035000000 0.1883600056 2.4260001183 49.076999664 77.703002930 2.7119998932 65.533996582 3.2869999409 3.2869999409
 3495.9370117 5.0000000000 8.0459995270 8.5000000000 -0.037000000 0.1879299879 2.4159998894 48.879001617 77.468002319 2.6649999619 65.268997192 3.1979999542 3.1979999542
 3496.0895996 5.0000000000 8.0399999619 8.5000000000 -0.037000000 0.1771999896 2.4189999104 52.131000519 76.935997009 2.5969998837 65.394996643 3.1319999695 3.1319999695
 3496.2419434 3.0000000000 8.0340003967 8.5000000000 -0.037000000 0.1648299992 2.4200000763 49.694000244 76.139999390 2.5260000229 66.278999329 3.0529999733 3.0529999733
 3496.3942871 3.0000000000 8.0290002823 8.5000000000 -0.035999998 0.1521399915 2.4130001068 42.030998230 76.250000000 2.4549999237 66.605003357 2.9119999409 2.9119999409
 3496.5466309 3.0000000000 8.0229997635 8.5000000000 -0.035000000 0.1467199922 2.4119999409 34.555000305 76.890998840 2.3719999790 65.097000122 2.7960000038 2.7960000038
 3496.6989746 3.0000000000 8.0290002823 8.5000000000 -0.032000002 0.1430099905 2.4189999104 34.199001312 76.609001160 2.3010001183 63.660003662 2.7560000420 2.7560000420
 3496.8515625 3.0000000000 8.0349998474 8.5000000000 -0.028999999 0.1425599903 2.4249999523 39.152000427 76.813003540 2.2500000000 63.314994812 2.7530000210 2.7530000210
 3497.0039063 3.0000000000 8.0410003662 8.5000000000 -0.028999999 0.1423899978 2.4170000553 43.236000061 77.188003540 2.2170000076 63.019001007 2.6860001087 2.6860001087
 3497.1562500 3.0000000000 8.0139999390 8.5000000000 -0.033000000 0.1421300024 2.3989999294 44.520999908 77.859992981 2.1979999542 62.728004456 2.6099998951 2.6099998951
 3497.3085938 3.0000000000 8.0100002289 8.5000000000 -0.035000000 0.1422500014 2.3849999905 42.216999054 78.030998230 2.1970000267 61.541999817 2.6329998970 2.6329998970
 3497.4611816 3.0000000000 8.0209999084 8.5000000000 -0.034000002 0.1449199915 2.3870000839 40.379001617 77.310997009 2.2179999352 61.331001282 2.7360000610 2.7360000610
 3497.6135254 3.0000000000 8.0329999924 8.5000000000 -0.034000002 0.1478800029 2.3949999809 38.429000854 76.357002258 2.2730000019 60.986999512 2.7939999104 2.7939999104
 3497.7658691 3.0000000000 8.0399999619 8.5000000000 -0.039000001 0.1498599946 2.4010000229 37.632999420 75.750000000 2.3650000095 60.909000397 2.7990000248 2.7990000248
 3497.9182129 3.0000000000 8.0340003967 8.5000000000 -0.041999999 0.1498900056 2.4019999504 37.140998840 75.359001160 2.4869999886 61.066001892 2.8299999237 2.8299999237
 3498.0708008 3.0000000000 8.0270004272 8.5000000000 -0.041000001 0.1487500072 2.4079999924 40.840999603 73.736000061 2.6259999275 60.611999512 2.9690001011 2.9690001011
 3498.2231445 3.0000000000 8.0340003967 8.5000000000 -0.035999998 0.1474400014 2.4140000343 43.729000092 72.328002930 2.7479999065 60.902000427 3.2780001163 3.2780001163
 3498.3754883 3.0000000000 8.0889997482 8.5000000000 -0.032000002 0.1459099948 2.4200000763 44.763000488 72.030998230 2.8380000591 61.198001862 3.7139999866 3.7139999866
 3498.5278320 3.0000000000 8.1339998245 8.5000000000 -0.029999999 0.1466600001 2.4260001183 41.686000824 72.221000671 2.9100000858 61.222000122 4.1469998360 4.1469998360
 3498.6801758 3.0000000000 8.0950002670 8.5000000000 -0.034000002 0.1504599899 2.4240000248 40.147998810 74.281997681 2.9590001106 61.424999237 4.0999999046 4.0999999046
 3498.8327637 3.0000000000 8.0389995575 8.5000000000 -0.039000001 0.1553100049 2.4159998894 39.731998444 74.720001221 2.9900000095 62.037998199 3.7709999084 3.7709999084
