# LAS format log file from PETREL
# Project units are specified as depth units
#==================================================================
~Version information
VERS.   2.0:
WRAP.   NO:
#==================================================================
~Well
STRT .m      986.78210449 :
STOP .m      4467.4443359 :
STEP .m     0.00000000 :
NULL .        -999.250000 :
COMP.           : COMPANY
WELL.  34/4-3   : WELL
FLD.            : FIELD
LOC.            : LOCATION
SRVC.           : SERVICE COMPANY
DATE.  2018-09-11 14:48:50   : Log Export Date {yyyy-MM-dd HH:mm:ss}
PROV.           : PROVINCE
UWI.   34/4-3   : UNIQUE WELL ID
API.            : API NUMBER
#==================================================================
~Curve
DEPT .m                   : DEPTH
Lithology_geolink ._      : Lithology_geolink
CALI .in                  : CALI
DRHO .g/cm3               : DRHO
NPHI .m3/m3               : NPHI
RHOB .g/cm3               : RHOB
GR .gAPI                  : GR
DTC .us/ft                : DTC
RDEP .ohm.m               : RDEP
SP .mV                    : SP
RSHA .ohm.m               : RSHA
RMED .ohm.m               : RMED
~Parameter
#==================================================================
~Ascii
# ...
 2836.6125488  -999.250000 13.503999710 0.0170000009 0.3467499912 2.4739952087 63.922958374 101.18001556 1.6239454746 95.740798950 1.9101313353 1.9101313353
 2836.7648926  -999.250000 13.551999092 0.0060000001 0.3285399973 2.4769904613 62.658905029 100.56460571 1.6069390774 95.990791321 1.9510288239 1.9510288239
 2836.9174805  -999.250000 13.625000000 -0.002000000 0.2903400064 2.4650192261 60.133186340 100.75511932 1.5879182816 96.237014771 1.9597356319 1.9597356319
 2837.0698242  -999.250000 13.550999641 -0.009000000 0.2906399965 2.4390416145 58.288318634 101.19786835 1.5709232092 96.241180420 1.9047311544 1.9047311544
 2837.2221680  -999.250000 13.538999557 -0.005000000 0.3065100014 2.4389998913 54.001491547 102.00001526 1.5549454689 96.486976624 1.8488141298 1.8488141298
 2837.3745117  -999.250000 13.565999985 -0.002000000 0.3312599957 2.4320223331 54.154716492 102.00579071 1.5379263163 96.478607178 1.7909294367 1.7909294367
 2837.5270996  -999.250000 13.476999283 0.0060000001 0.3525600135 2.4469759464 54.107055664 102.56304932 1.5149037838 95.730606079 1.7688750029 1.7688750029
 2837.6794434  -999.250000 13.430999756 0.0109999999 0.3725000024 2.4519917965 62.412086487 102.57766724 1.4949232340 95.233657837 1.7429711819 1.7429711819
 2837.8317871  -999.250000 13.430000305 0.0170000009 0.3711099923 2.4629824162 65.343276978 103.75437927 1.4789903164 94.956115723 1.7369967699 1.7369967699
 2837.9841309  -999.250000 13.430000305 0.0299999993 0.3703900278 2.4799728394 68.531280518 104.18260956 1.4760223627 94.992599487 1.7360320091 1.7360320091
 2838.1364746  -999.250000 13.430000305 0.0250000004 0.3705599904 2.4690353870 65.821685791 103.74997711 1.4830480814 95.493690491 1.7461282015 1.7461282015
 2838.2890625  -999.250000 13.430000305 0.0089999996 0.3735100031 2.4510288239 66.640274048 103.74043274 1.4981057644 96.022224426 1.7862019539 1.7862019539
 2838.4414063  -999.250000 13.430000305 -0.006000000 0.3746599853 2.4220464230 62.972801208 103.00185394 1.5201151371 96.278572083 1.8281583786 1.8281583786
 2838.5937500  -999.250000 13.437000275 -0.009000000 0.3867100179 2.4130144119 63.346939087 103.17581940 1.5440962315 97.018989563 1.8610479832 1.8610479832
 2838.7460938  -999.250000 13.454999924 -0.005000000 0.3883499801 2.4139969349 63.644538879 102.18538666 1.5740929842 97.015098572 1.8761442900 1.8761442900
 2838.8986816  -999.250000 13.461000443 -0.003000000 0.3772200048 2.4289758205 65.362457275 101.99199677 1.6031395197 96.734794617 1.9212596416 1.9212596416
 2839.0510254  -999.250000 13.454000473 0.0070000002 0.3581300080 2.4599504471 64.412528992 101.36423492 1.6320959330 96.484764099 1.9751968384 1.9751968384
 2839.2033691  -999.250000 13.436000824 0.0000000000 0.3518999815 2.4570047855 62.238231659 100.37660217 1.6520479918 96.225776672 2.0160353184 2.0160353184
 2839.3557129  -999.250000 13.430000305 0.0049999999 0.3377899826 2.4579968452 61.067310333 100.56459045 1.6670577526 95.218582153 2.0269646645 2.0269646645
 2839.5083008  -999.250000 13.430000305 -0.002000000 0.3084499836 2.4360353947 61.477027893 100.74712372 1.6850335598 93.544548035 2.0159616470 2.0159616470
 2839.6606445  -999.250000 13.430000305 0.0040000002 0.3078399897 2.4419903755 62.091720581 100.56809235 1.6920096874 95.541107178 2.0079326630 2.0079326630
 2839.8129883  -999.250000 13.430000305 0.0070000002 0.3333700299 2.4509856701 59.537986755 101.00160980 1.6940000057 99.697654724 1.9940063953 1.9940063953
 2839.9653320  -999.250000 13.430000305 0.0189999994 0.3628099859 2.4719662666 57.037994385 101.18800354 1.6939743757 96.166625977 1.9959679842 1.9959679842
 2840.1176758  -999.250000 13.430000305 0.0250000004 0.3715800047 2.4749903679 54.866226196 101.18956757 1.6859743595 95.430519104 1.9859678745 1.9859678745
 2840.2702637  -999.250000 13.430000305 0.0199999996 0.3732799888 2.4660143852 56.795795441 101.35933685 1.6779807806 95.906890869 1.9758031368 1.9758031368
 2840.4226074  -999.250000 13.430000305 0.0160000008 0.3665599823 2.4660000801 55.499599457 100.18360901 1.6739519835 96.919372559 1.9349999428 1.9349999428
 2840.5749512  -999.250000 13.440999985 0.0140000004 0.3524399996 2.4610080719 52.272407532 99.752799988 1.6589487791 96.411819458 1.9350640774 1.9350640774
 2840.7272949  -999.250000 13.473999977 0.0099999998 0.3493500054 2.4619967937 54.260150909 100.00160217 1.6429519653 95.422210693 1.9550609589 1.9550609589
 2840.8798828  -999.250000 13.511000633 0.0070000002 0.3592599928 2.4530143738 52.461578369 100.18804932 1.6279519796 95.178352356 1.9738460779 1.9738460779
 2841.0322266  -999.250000 13.534998894 0.0010000000 0.3707400262 2.4480080605 56.722896576 100.20764923 1.6179232597 95.459030151 1.9417264462 1.9417264462
 2841.1845703  -999.250000 13.538001060 -0.004000000 0.3560699821 2.4280319214 57.127155304 102.00319672 1.6019582748 95.672317505 1.8848749399 1.8848749399
 2841.3369141  -999.250000 13.539999962 -0.010000000 0.3291299939 2.4130480289 60.596904755 102.37660980 1.5889263153 95.464492798 1.8459326029 1.8459326029
 2841.4895020  -999.250000 13.539999962 -0.006000000 0.3354000151 2.4239823818 60.861511230 102.56807709 1.5659470558 96.241165161 1.8249759674 1.8249759674
 2841.6418457  -999.250000 13.536999702 -0.001000000 0.3367100060 2.4379775524 57.455558777 102.99682617 1.5549182892 96.480621338 1.8200097084 1.8200097084
 2841.7941895  -999.250000 13.511000633 0.0000000000 0.3429499865 2.4290142059 58.816261292 102.75435638 1.5380064249 95.986907959 1.8218781948 1.8218781948
 2841.9465332  -999.250000 13.484000206 0.0030000000 0.3409099877 2.3970513344 59.217418671 103.17143250 1.5400255919 95.958793640 1.7842564583 1.7842564583
 2842.0988770  -999.250000 13.444000244 0.0040000002 0.3686000109 2.3919999599 61.833122253 101.75000000 1.5480064154 96.205986023 1.8639166355 1.8639166355
 2842.2514648  -999.250000 13.430000305 0.0060000001 0.3875999749 2.4119999409 60.939720154 101.75318146 1.5500191450 96.199455261 1.8382592201 1.8382592201
 2842.4038086  -999.250000 13.430000305 0.0099999998 0.3918299973 2.4539999962 61.086723328 101.99723053 1.5540256500 95.669517517 1.8918204308 1.8918204308
 2842.5561523  -999.250000 13.430000305 0.0120000001 0.3898699880 2.4579999447 60.391403198 101.76118469 1.5620224476 95.209808350 1.8360673189 1.8360673189
 2842.7084961  -999.250000 13.430000305 0.0209999997 0.3764500022 2.4630000591 64.559188843 102.74999237 1.5690032244 95.464378357 1.8569647074 1.8569647074
 2842.8610840  -999.250000 13.430000305 0.0089999996 0.3751699924 2.4379999638 64.303390503 102.74520874 1.5700962543 96.202789307 1.8460479975 1.8460479975
 2843.0134277  -999.250000 13.430000305 0.0010000000 0.3701699972 2.4219999313 63.529384613 102.37310028 1.5900720358 95.949653625 1.8560767174 1.8560767174
 2843.1657715  -999.250000 13.430000305 0.0000000000 0.3766700029 2.4200000763 57.799968719 102.18538666 1.6050159931 95.464492798 1.8720929623 1.8720929623
 2843.3181152  -999.250000 13.430000305 0.0049999999 0.3767800033 2.4419999123 56.551738739 101.99460602 1.6100417376 96.240776062 1.9010512829 1.9010512829
 2843.4707031  -999.250000 13.430000305 0.0149999997 0.3722900152 2.4739999771 58.347908020 101.56011963 1.6230865717 96.480606079 1.9171251059 1.9171251059
 2843.6230469  -999.250000 13.430000305 0.0060000001 0.3788900077 2.4630000591 60.812999725 101.37977600 1.6409616470 95.983520508 1.9430816174 1.9430816174
 2843.7753906  -999.250000 13.430000305 -0.003000000 0.3619900048 2.4340000153 60.812988281 101.74739838 1.6330256462 95.677787781 1.9599871635 1.9599871635
 2843.9277344  -999.250000 13.437000275 -0.008000000 0.3449000120 2.4149999619 60.797370911 101.56041718 1.6409840584 95.922309875 1.9560128450 1.9560128450
 2844.0803223  -999.250000 13.454999924 -0.010000000 0.3348599970 2.4210000038 57.178066254 101.38397980 1.6359567642 95.709213257 1.9599375725 1.9599375725
 2844.2326660  -999.250000 13.475000381 -0.011000000 0.3293199837 2.4309999943 56.576374054 102.00187683 1.6270431280 95.962371826 1.9469472170 1.9469472170
