# LAS format log file from PETREL
# Project units are specified as depth units
#==================================================================
~Version information
VERS.   2.0:
WRAP.   NO:
#==================================================================
~Well
STRT .m      3631.9968262 :
STOP .m      4250.8930664 :
STEP .m     0.00000000 :
NULL .        -999.250000 :
COMP.           : COMPANY
WELL.  34/4-10 R   : WELL
FLD.            : FIELD
LOC.            : LOCATION
SRVC.           : SERVICE COMPANY
DATE.  2018-09-11 14:48:50   : Log Export Date {yyyy-MM-dd HH:mm:ss}
PROV.           : PROVINCE
UWI.   34/4-10 R   : UNIQUE WELL ID
API.            : API NUMBER
#==================================================================
~Curve
DEPT .m                   : DEPTH
Lithology_geolink ._      : Lithology_geolink
CALI .in                  : CALI
BS .in                    : BS
ROP .m/h                  : ROP
DRHO .g/cm3               : DRHO
NPHI .m3/m3               : NPHI
RHOB .g/cm3               : RHOB
PEF .b/e                  : PEF
GR .gAPI                  : GR
DTC .us/ft                : DTC
DTS .us/ft                : DTS
RDEP .ohm.m               : RDEP
RMED .ohm.m               : RMED
~Parameter
#==================================================================
~Ascii
# ...
 3752.6977539 13.000000000 8.4652042389 8.5000000000 3.2877440453 -0.014731020 0.2015767992 2.5509979725 4.5940766335 77.982917786 93.844902039 210.10710144 1.6169960499 1.4932760000
 3752.8500977 13.000000000 8.4649133682 8.5000000000 3.3386282921 -0.009411992 0.2255299985 2.5547020435 4.6005911827 72.922637939 92.271049500 212.16041565 1.6094690561 1.5271650553
 3753.0024414 13.000000000 8.4649133682 8.5000000000 3.2885897160 -0.007294416 0.2342388034 2.5601320267 4.9555392265 68.951721191 91.372619629 207.71470642 1.4751499891 1.6435099840
 3753.1547852 13.000000000 8.4663496017 8.5000000000 3.2449998856 -0.003755093 0.2221436948 2.5574989319 5.3326330185 63.893718719 89.542587280 205.25219727 1.5471470356 1.7191289663
 3753.3073730 13.000000000 8.4695291519 8.5000000000 3.3219759464 -0.003929675 0.1962665021 2.5528039932 5.2747902870 60.642879486 89.074432373 201.30490112 1.6730250120 1.8033770323
 3753.4597168 13.000000000 8.4649133682 8.5000000000 3.6007089615 -0.009088512 0.1757650971 2.5469338894 5.1350603104 60.545318604 86.494285583 196.43820190 1.9702190161 1.9453829527
 3753.6120605 13.000000000 8.4649133682 8.5000000000 4.0477089882 -0.006917238 0.1595688015 2.5513629913 5.3075323105 59.082901001 84.536361694 191.22842407 2.1876790524 2.0368449688
 3753.7644043 13.000000000 8.4660596848 8.5000000000 4.2045998573 -0.006903648 0.1751865000 2.5473608971 5.6837615967 57.795600891 83.608306885 187.56109619 2.2839920521 2.0699539185
 3753.9167480 13.000000000 8.4649133682 8.5000000000 4.4965076447 -0.012747029 0.1842527986 2.5445706844 5.6430978775 55.338539124 85.270118713 184.27441406 2.2317988873 2.0643548965
 3754.0693359 13.000000000 8.4654932022 8.5000000000 4.3842320442 -0.015318530 0.1971661001 2.5437850952 5.3935632706 57.906040192 84.953559875 177.57150269 1.5473400354 1.7776930332
 3754.2216797 13.000000000 8.4663496017 8.5000000000 4.1707243919 -0.014421580 0.1901503950 2.5488779545 5.2868332863 60.132278442 87.220146179 173.69290161 1.2941880226 1.7038580179
 3754.3740234 13.000000000 8.4663496017 8.5000000000 4.1403126717 -0.020625429 0.2039828002 2.5369699001 5.8228559494 63.125980377 90.520774841 170.57429504 1.3464410305 1.7205599546
 3754.5263672 13.000000000 8.4637670517 8.5000000000 4.0346407890 -0.022329541 0.2160208970 2.5298318863 6.1858429909 66.248756409 91.556312561 170.47419739 1.5516560078 1.7651660442
 3754.6789551 13.000000000 8.4652032852 8.5000000000 3.9814999104 -0.022096351 0.2332164049 2.5245420933 5.9008955956 72.121353149 92.299484253 172.25660706 1.9082709551 1.8840379715
 3754.8312988 13.000000000 8.4649133682 8.5000000000 4.3319115639 -0.016469071 0.2315815985 2.5344250202 5.6891298294 76.560020447 90.489135742 174.23289490 2.0294559002 1.9352699518
 3754.9836426 13.000000000 8.4654941559 8.5000000000 4.4972000122 -0.016343219 0.2092382014 2.5294311047 5.4152765274 75.648902893 89.998847961 180.28689575 2.0484158993 1.9626870155
 3755.1359863 13.000000000 8.4672203064 8.5000000000 4.2381796837 -0.013864980 0.1895706058 2.5361781120 5.4222240448 68.383819580 88.324592590 184.47489929 2.0429849625 2.0283200741
 3755.2885742 13.000000000 8.4652032852 8.5000000000 4.0484080315 -0.009120743 0.1737466007 2.5422520638 5.2360119820 64.046920776 86.274711609 188.10600281 2.0769560337 2.0718259811
 3755.4409180 13.000000000 8.4646244049 8.5000000000 4.3659243584 -0.009109449 0.1647036970 2.5457260609 5.2464203835 60.682861328 83.972023010 189.44450378 2.0769810677 2.0587689877
 3755.5932617 13.000000000 8.4649133682 8.5000000000 4.5307002068 -0.011512970 0.1662472934 2.5394630432 5.3814678192 63.793251038 84.877960205 186.29010010 2.0708229542 2.0469129086
 3755.7456055 13.000000000 8.4649143219 8.5000000000 4.6884770393 -0.015826279 0.1857407987 2.5304338932 5.5784692764 63.045249939 87.084243774 182.42010498 1.8245309591 1.9294470549
 3755.8979492 13.000000000 8.4692211151 8.5000000000 4.4212536812 -0.016250061 0.2131997943 2.5434141159 5.8904724121 65.629203796 88.544525146 175.57049561 1.4084889889 1.7878270149
 3756.0505371 13.000000000 8.4663486481 8.5000000000 4.2921957970 -0.023434442 0.2382919043 2.5431509018 5.9693226814 70.920387268 90.546760559 171.62359619 1.4444240332 1.7600419521
 3756.2028809 13.000000000 8.4677848816 8.5000000000 4.2269845009 -0.022364151 0.2385744005 2.5561420918 5.9819664955 79.417510986 91.281860352 172.84669495 1.6073269844 1.8208750486
 3756.3552246 13.000000000 8.4689311981 8.5000000000 4.2021460533 -0.026103970 0.2261908948 2.5492799282 5.7128167152 81.733993530 90.952491760 175.86598206 1.7139699459 1.8905940056
 3756.5075684 13.000000000 8.4660596848 8.5000000000 4.6284952164 -0.025151771 0.2073509991 2.5576980114 5.7972483635 74.841300964 89.192214966 182.58929443 1.7543829679 1.9168319702
 3756.6601563 13.000000000 8.4703655243 8.5000000000 4.7395243645 -0.026950100 0.1893624067 2.5498909950 5.9281988144 64.531127930 86.252441406 186.52630615 1.8385399580 1.9291440248
 3756.8125000 13.000000000 8.4674959183 8.5000000000 4.6985001564 -0.020684550 0.1706869006 2.5545020103 6.1323919296 58.589321136 84.315193176 188.26698303 2.0772790909 1.9774039984
 3756.9648438 13.000000000 8.4660596848 8.5000000000 4.7095756531 -0.019417740 0.1557381004 2.5547831059 6.1904854774 55.451419830 83.161300659 186.20880127 2.2072238922 1.9970940351
 3757.1171875 16.000000000 8.4677848816 8.5000000000 4.5160498619 -0.020414719 0.1725461930 2.5518391132 6.2747664452 55.352058411 83.327537537 183.20730591 2.1540520191 1.9517879486
 3757.2697754 16.000000000 8.4680757523 8.5000000000 4.3466839790 -0.015105040 0.2191957980 2.5610220432 6.5690412521 55.233558655 85.917098999 177.10000610 2.1034018993 1.8625439405
 3757.4221191 16.000000000 8.4663496017 8.5000000000 4.3111000061 -0.007904957 0.2634635866 2.5757260323 6.8121056557 62.113449097 89.713462830 174.65899658 2.0326759815 1.7548520565
 3757.5744629 16.000000000 8.4663496017 8.5000000000 4.3882894516 -0.002233088 0.2724072933 2.5757260323 6.3569874763 72.468841553 92.853324890 172.67730713 1.5835390091 1.5777360201
 3757.7268066 16.000000000 8.4789800644 8.5000000000 4.7151808739 -0.009416850 0.2664481997 2.5559968948 5.9065241814 84.224563599 95.307891846 170.92793274 1.1613750458 1.3433389664
 3757.8793945 16.000000000 8.4979333878 8.5000000000 4.8522000313 -0.000980483 0.2808724940 2.5376479626 5.4407386780 89.600303650 97.905899048 172.20631409 1.0388280153 1.2186379433
 3758.0317383 16.000000000 8.5200395584 8.5000000000 4.2098546028 -0.002782226 0.2794997990 2.5315279961 5.7449688911 90.310127258 99.145278931 176.44779968 1.0329990387 1.2015860081
 3758.1840820 16.000000000 8.5226287842 8.5000000000 3.8831496239 -0.001225691 0.2820498049 2.5329489708 5.8043327332 91.066642761 98.991256714 183.42990112 1.0455509424 1.1903150082
 3758.3364258 16.000000000 8.5464344025 8.5000000000 4.0338702202 -0.016444011 0.2618797123 2.5181729794 6.2751369476 94.753143311 98.407485962 190.86160278 1.0585349798 1.1900399923
 3758.4887695 16.000000000 8.5498647690 8.5000000000 4.2584648132 -0.009312026 0.2641246915 2.5289359093 6.6242375374 94.596321106 97.733360291 201.09730530 1.0535680056 1.1959270239
 3758.6413574 16.000000000 8.5640001297 8.5000000000 4.4718847275 -0.018442800 0.2554219961 2.5255188942 7.1646294594 91.848159790 96.890647888 207.59759521 1.0526789427 1.2217199802
 3758.7937012 13.000000000 8.5742874146 8.5000000000 4.6257357597 -0.018879740 0.2575204968 2.5685379505 7.1316623688 84.253356934 95.981155396 215.29611206 1.0957080126 1.3046389818
 3758.9460449 13.000000000 8.5918016434 8.5000000000 5.3019609451 -0.018776260 0.2564266920 2.6159780025 6.0763826370 76.786903381 94.423210144 216.74859619 1.1794509888 1.3811609745
 3759.0983887 13.000000000 8.5490074158 8.5000000000 5.6375365257 -0.013649880 0.2173696011 2.6690499783 5.3387923241 71.171943665 91.025115967 214.88818359 1.4537700415 1.4686540365
 3759.2509766 13.000000000 8.5610742569 8.5000000000 5.6553001404 -0.011143260 0.1855532974 2.6545178890 5.1639380455 67.700782776 89.166984558 213.01721191 1.7441020012 1.6012550592
