# LAS format log file from PETREL
# Project units are specified as depth units
#==================================================================
~Version information
VERS.   2.0:
WRAP.   NO:
#==================================================================
~Well
STRT .m      986.78210449 :
STOP .m      4467.4443359 :
STEP .m     0.00000000 :
NULL .        -999.250000 :
COMP.           : COMPANY
WELL.  34/4-3   : WELL
FLD.            : FIELD
LOC.            : LOCATION
SRVC.           : SERVICE COMPANY
DATE.  2018-09-11 14:48:50   : Log Export Date {yyyy-MM-dd HH:mm:ss}
PROV.           : PROVINCE
UWI.   34/4-3   : UNIQUE WELL ID
API.            : API NUMBER
#==================================================================
~Curve
DEPT .m                   : DEPTH
Lithology_geolink ._      : Lithology_geolink
CALI .in                  : CALI
DRHO .g/cm3               : DRHO
NPHI .m3/m3               : NPHI
RHOB .g/cm3               : RHOB
GR .gAPI                  : GR
DTC .us/ft                : DTC
RDEP .ohm.m               : RDEP
SP .mV                    : SP
RSHA .ohm.m               : RSHA
RMED .ohm.m               : RMED
~Parameter
#==================================================================
~Ascii
# ...
 2144.8691406  -999.250000 18.631000519 0.0329999998 0.4179700017 2.3010401726 33.634117126 124.75460815 0.9811345935 85.693626404 1.0640385151 1.0640385151
 2145.0217285  -999.250000 18.712999344 0.0540000014 0.3857400119 2.3159999847 36.474411011 126.17057800 1.0231394768 86.202400208 1.0760288239 1.0760288239
 2145.1740723  -999.250000 18.297000885 0.0509999990 0.3911100030 2.3110001087 37.588600159 122.56990051 1.0520768166 86.700035095 1.0821248293 1.0821248293
 2145.3264160  -999.250000 18.229000092 0.0379999988 0.3881800175 2.2790513039 36.454429626 124.00380707 1.0680832863 86.706420898 1.1080353260 1.1080353260
 2145.4787598  -999.250000 18.162000656 0.0250000004 0.3833000064 2.2600305080 31.925455093 125.18098450 1.0940544605 86.214172363 1.1189551353 1.1189551353
 2145.6313477  -999.250000 18.229000092 0.0320000015 0.3911100030 2.2439999580 33.008563995 122.99308014 1.1110240221 85.644996643 1.1049952507 1.1049952507
 2145.7836914  -999.250000 18.239999771 0.0350000001 0.3608399928 2.2230000496 34.766971588 121.58701324 1.1161152124 85.644996643 1.1040191650 1.1040191650
 2145.9360352  -999.250000 18.541999817 0.0160000008 0.3813499808 2.1820654869 31.855693817 126.54518127 1.1399935484 85.644973755 1.1082372665 1.1082372665
 2146.0883789  -999.250000 18.437000275 0.0170000009 0.3784199953 2.1929824352 30.831956863 121.00180817 1.1379647255 85.638603210 1.1820256710 1.1820256710
 2146.2407227  -999.250000 18.438999176 0.0109999999 0.4204100072 2.2209551334 32.070812225 121.57082367 1.1269870996 86.136978149 1.1902276278 1.1902276278
 2146.3933105  -999.250000 19.135999680 0.0570000000 0.3989300132 2.2660000324 34.519050598 123.99520111 1.1230384111 86.129997253 1.2604479790 1.2604479790
 2146.5456543  -999.250000 19.180999756 0.0590000004 0.4189499915 2.2420384884 38.464794159 123.01521301 1.1310064793 86.129974365 1.1458781958 1.1458781958
 2146.6979980  -999.250000 18.327999115 0.0410000011 0.4282199740 2.1970720291 37.163009644 127.73397064 1.1329840422 86.123580933 1.1078686714 1.1078686714
 2146.8503418  -999.250000 18.052000046 0.0350000001 0.4350599945 2.2049870491 39.346004486 122.76361847 1.1279808283 86.615577698 1.0671955347 1.0671955347
 2147.0029297  -999.250000 18.590999603 0.0219999999 0.4277299941 2.1989998817 39.963443756 126.98347473 1.1220096350 87.105964661 1.1281201839 1.1281201839
 2147.1552734  -999.250000 18.976999283 0.0199999996 0.4238300025 2.2109999657 38.812999725 123.55910492 1.1239135265 87.093162537 1.1529711485 1.1529711485
 2147.3076172  -999.250000 18.037000656 0.0060000001 0.4526399970 2.2050094604 38.818206787 122.76281738 1.1060384512 86.089347839 1.1470352411 1.1470352411
 2147.4599609  -999.250000 18.422000885 -0.006000000 0.4458000064 2.2149839401 40.441902161 126.74298096 1.1180930138 85.575195313 1.1580641270 1.1580641270
 2147.6125488  -999.250000 18.489000320 -0.004000000 0.4287099838 2.2300000191 41.651191711 124.55158234 1.1468989849 85.637001038 1.1782451868 1.1782451868
 2147.7648926  -999.250000 18.141000748 -0.006000000 0.3710900247 2.2500000000 40.625553131 122.20420074 1.1260048151 85.639366150 1.2287216187 1.2287216187
 2147.9172363  -999.250000 18.266000748 0.0140000004 0.3955099881 2.2699680328 34.314701080 125.57081604 1.1270705462 86.129974365 1.1709166765 1.1709166765
 2148.0695801  -999.250000 18.406000137 0.0270000007 0.4067400098 2.2769887447 34.854618073 127.98837280 1.1489679813 86.122001648 1.1448686123 1.1448686123
 2148.2221680  -999.250000 18.229000092 0.0219999999 0.4668000042 2.2560000420 38.183643341 124.39723969 1.1388894320 86.129173279 1.1041682959 1.1041682959
 2148.3745117  -999.250000 18.141000748 0.0289999992 0.4370099902 2.2439999580 43.917552948 129.00660706 1.1160144806 87.609161377 1.1390624046 1.1390624046
 2148.5268555  -999.250000 18.191999435 0.0049999999 0.4267599881 2.2230336666 46.294269562 130.35636902 1.1189486980 86.605979919 1.1520736217 1.1520736217
 2148.6791992  -999.250000 18.104999542 0.0280000009 0.4360400140 2.2269935608 40.459983826 124.57722473 1.1029199362 86.596572876 1.1749006510 1.1749006510
 2148.8315430  -999.250000 18.233999252 -0.008000000 0.4506800175 2.1660976410 37.649990082 128.99598694 1.0780544281 86.152999878 1.1440160275 1.1440160275
 2148.9841309  -999.250000 18.177999496 0.0270000007 0.4599599838 2.1740000248 35.781448364 127.73768616 1.0949519873 86.152999878 1.1488173008 1.1488173008
 2149.1364746  -999.250000 18.804000854 0.0149999997 0.4301800132 2.1540319920 35.892547607 125.20689392 1.0850192308 86.157798767 1.1109231710 1.1109231710
 2149.2888184  -999.250000 19.458000183 0.0309999995 0.3842800260 2.1989278793 39.522384644 129.11297607 1.0890512466 87.156204224 1.0950256586 1.0950256586
 2149.4411621  -999.250000 19.143999100 0.0109999999 0.3535200059 2.2149741650 36.860828400 125.37299347 1.1049326658 88.151382446 1.1029423475 1.1029423475
 2149.5937500  -999.250000 18.218000412 0.0080000004 0.3647499979 2.2269999981 42.082130432 124.74729919 1.0839855671 87.648979187 1.0853029490 1.0853029490
 2149.7460938  -999.250000 18.261999130 0.0410000011 0.3632799983 2.2520000935 39.635200500 124.19280243 1.0810143948 87.637794495 1.1481103897 1.1481103897
 2149.8984375  -999.250000 18.530000687 0.0209999997 0.3701200187 2.2190527916 41.734977722 125.18739319 1.0839647055 86.149787903 1.1710833311 1.1710833311
 2150.0507813  -999.250000 18.202999115 0.0500000007 0.3847700059 2.2399663925 37.062896729 125.01642609 1.0730223656 87.642585754 1.1968493462 1.1968493462
 2150.2033691  -999.250000 18.233999252 0.0320000015 0.4008800089 2.2339999676 37.044670105 130.11959839 1.0800673962 88.134582520 1.1499711275 1.1499711275
 2150.3557129  -999.250000 18.120000839 0.0370000005 0.3901399970 2.2379999161 39.888652802 128.98649597 1.0939663649 87.631584167 1.1437745094 1.1437745094
 2150.5080566  -999.250000 18.166999817 0.0209999997 0.3891600072 2.2419936657 42.715095520 126.19501495 1.0869423151 87.128372192 1.0971025229 1.0971025229
 2150.6604004  -999.250000 18.469999313 0.0089999996 0.3754900098 2.2360095978 41.510818481 128.36097717 1.0689871311 86.618774414 1.1290320158 1.1290320158
 2150.8127441  -999.250000 18.875000000 0.0350000001 0.3881800175 2.2679486275 44.867790222 124.01142120 1.0649520159 85.615577698 1.1389744282 1.1389744282
 2150.9653320  -999.250000 18.735000610 0.0350000001 0.4140599966 2.2579998970 42.614330292 127.56210327 1.0499663353 86.105964661 1.1308028698 1.1308028698
 2151.1176758  -999.250000 18.702999115 0.0370000005 0.4150400162 2.2579998970 40.384399414 127.36720276 1.0430191755 86.095565796 1.0899088383 1.0899088383
 2151.2700195  -999.250000 18.447999954 0.0640000030 0.4316400290 2.2929439545 35.920524597 125.75260925 1.0469871759 85.590950012 1.0710833073 1.0710833073
 2151.4223633  -999.250000 18.506000519 0.0560000017 0.3862300217 2.2770256996 40.441604614 126.56301117 1.0429871082 85.576797485 1.0970962048 1.0970962048
 2151.5749512  -999.250000 18.620000839 0.0439999998 0.3916000128 2.2479999065 41.560443878 126.54948425 1.0390192270 86.139373779 1.1270529032 1.1270529032
 2151.7272949  -999.250000 18.840000153 0.0120000001 0.3813499808 2.2190001011 41.020198822 123.75959778 1.0430480242 86.629997253 1.1377503872 1.1377503872
 2151.8796387  -999.250000 19.045000076 0.0160000008 0.4213899970 2.2209968567 38.790214539 125.75521088 1.0530384779 86.629974365 1.0860352516 1.0860352516
 2152.0319824  -999.250000 18.364000320 0.0219999999 0.4472700059 2.2539470196 41.646781921 127.36418152 1.0650129318 86.623580933 1.0970641375 1.0970641375
 2152.1845703  -999.250000 18.391000748 0.0379999988 0.4272499979 2.2460000515 38.789112091 124.01052094 1.0690336227 87.111595154 1.1171971560 1.1171971560
 2152.3369141  -999.250000 18.566999435 0.0299999993 0.3881800175 2.2379999161 40.450252533 126.18500519 1.0760480165 86.613960266 1.1581487656 1.1581487656
 2152.4892578  -999.250000 18.919000626 0.0350000001 0.3823199868 2.2360031605 36.567302704 125.56119537 1.0860352516 86.610778809 1.1889519691 1.1889519691
