# LAS format log file from PETREL
# Project units are specified as depth units
#==================================================================
~Version information
VERS.   2.0:
WRAP.   NO:
#==================================================================
~Well
STRT .m      3631.9968262 :
STOP .m      4250.8930664 :
STEP .m     0.00000000 :
NULL .        -999.250000 :
COMP.           : COMPANY
WELL.  34/4-10 R   : WELL
FLD.            : FIELD
LOC.            : LOCATION
SRVC.           : SERVICE COMPANY
DATE.  2018-09-11 14:48:50   : Log Export Date {yyyy-MM-dd HH:mm:ss}
PROV.           : PROVINCE
UWI.   34/4-10 R   : UNIQUE WELL ID
API.            : API NUMBER
#==================================================================
~Curve
DEPT .m                   : DEPTH
Lithology_geolink ._      : Lithology_geolink
CALI .in                  : CALI
BS .in                    : BS
ROP .m/h                  : ROP
DRHO .g/cm3               : DRHO
NPHI .m3/m3               : NPHI
RHOB .g/cm3               : RHOB
PEF .b/e                  : PEF
GR .gAPI                  : GR
DTC .us/ft                : DTC
DTS .us/ft                : DTS
RDEP .ohm.m               : RDEP
RMED .ohm.m               : RMED
~Parameter
#==================================================================
~Ascii
# ...
 4041.0383301 6.0000000000 8.2278728485 8.5000000000 9.2529001236 -0.011320850 0.2216079980 2.5869989395 7.5501379967 114.58339691 85.720222473 170.63929749 2.7007389069 3.1163549423
 4041.1909180 6.0000000000 8.2293109894 8.5000000000 10.363475800 -0.018531000 0.2162604928 2.5801539421 7.8453674316 117.15260315 85.799507141 169.25309753 2.7130401134 3.1022179127
 4041.3432617 6.0000000000 8.2293109894 8.5000000000 10.700192451 -0.016507139 0.2120434046 2.5761539936 7.4140968323 115.52169800 85.631370544 169.91670227 2.7355999947 3.1500980854
 4041.4956055 6.0000000000 8.2580623627 8.5000000000 10.428291321 -0.024947640 0.2119729072 2.5581009388 7.2192635536 110.72429657 85.485023499 168.55780029 2.7530109882 3.1890950203
 4041.6479492 6.0000000000 8.2583360672 8.5000000000 9.9720306396 -0.029384980 0.2170902938 2.5245800018 7.1286907196 108.12830353 85.543876648 168.45509338 2.7893519402 3.2583448887
 4041.8005371 6.0000000000 8.2580623627 8.5000000000 10.296239853 -0.029557191 0.2194633037 2.5166730881 7.1304097176 105.83100128 85.496559143 168.09880066 2.8346219063 3.2772490978
 4041.9528809 6.0000000000 8.2603225708 8.5000000000 10.586110115 -0.031027270 0.2235642970 2.5236859322 7.0128417015 106.62090302 85.612968445 167.48739624 2.8997778893 3.2796049118
 4042.1052246 6.0000000000 8.2605962753 8.5000000000 9.8850126266 -0.017406370 0.2245827019 2.5636990070 6.3444385529 106.92649841 85.752624512 166.79380798 2.8653171062 3.3459219933
 4042.2575684 6.0000000000 8.2580623627 8.5000000000 9.5644912720 -0.018220831 0.2312484980 2.5730950832 6.1829400063 109.30490112 86.028617859 166.25108337 2.8215219975 3.2352650166
 4042.4101563 6.0000000000 8.2580623627 8.5000000000 9.1307201385 -0.011944300 0.2285435945 2.5840620995 6.3493547440 108.95220184 86.269927979 165.48660278 2.7738289833 3.2417910099
 4042.5625000 6.0000000000 8.2580623627 8.5000000000 8.4662075043 -0.009453412 0.2305610031 2.5896658897 7.0438256264 107.65470123 86.424530029 165.08911133 2.6984999180 3.1992480755
 4042.7148438 6.0000000000 8.2580623627 8.5000000000 8.0877799988 -0.011713900 0.2283331007 2.5897169113 6.9714713097 104.74410248 86.487388611 165.92280579 2.6746690273 3.1795289516
 4042.8671875 6.0000000000 8.2582807541 8.5000000000 8.0106000900 -0.016645970 0.2304915041 2.5875530243 6.4449810982 106.78289795 86.516510010 166.96189880 2.6859920025 3.1880490780
 4043.0195313 6.0000000000 8.2583360672 8.5000000000 7.9946327209 -0.010175480 0.2320387959 2.5980229378 6.4502682686 108.51210022 86.468666077 167.58929443 2.6585791111 3.1543529034
 4043.1721191 6.0000000000 8.2580623627 8.5000000000 7.9949884415 -0.013939700 0.2380425930 2.5892291069 6.8925461769 113.07790375 86.402694702 168.11251831 2.7096590996 3.1999990940
 4043.3244629 6.0000000000 8.2580623627 8.5000000000 7.9207625389 -0.021606861 0.2454539984 2.5775079727 7.2602634430 110.71579742 86.321380615 168.46649170 2.7351698875 3.2240910530
 4043.4768066 6.0000000000 8.2608699799 8.5000000000 7.8839998245 -0.022063119 0.2460643947 2.5716080666 6.8204836845 111.84780121 86.275581360 169.26480103 2.7351698875 3.2240910530
 4043.6291504 6.0000000000 8.2603225708 8.5000000000 8.2986907959 -0.023153629 0.2389561981 2.5717411041 5.9765448570 111.33209991 86.191116333 169.37298584 2.7351698875 3.2240910530
 4043.7817383 6.0000000000 8.2588834763 8.5000000000 8.2463035583 -0.027468890 0.2405724972 2.5711948872 5.5045886040 111.78369904 86.151374817 169.69726563 2.6585800648 3.2241520882
 4043.9340820 6.0000000000 8.2649087906 8.5000000000 8.2378425598 -0.030112570 0.2385541052 2.5705780983 5.4778523445 113.96320343 86.204032898 169.74139404 2.6584630013 3.1728019714
 4044.0864258 6.0000000000 8.2701110840 8.5000000000 8.6126756668 -0.018673889 0.2314057052 2.5820190907 5.8343229294 113.81150055 86.295860291 169.81010437 2.6699490547 3.2037880421
 4044.2387695 6.0000000000 8.2718229294 8.5000000000 8.7653999329 -0.003274679 0.2257851958 2.5909190178 5.8981771469 115.00489807 86.358230591 169.61549377 2.7029399872 3.2190101147
 4044.3913574 6.0000000000 8.2720985413 8.5000000000 8.8325834274 -0.012662090 0.2314796001 2.5781912804 5.6372556686 115.78900146 86.364929199 169.44371033 2.7285490036 3.2291660309
 4044.5437012 6.0000000000 8.2672328949 8.5000000000 8.9330320358 -0.007405833 0.2346556932 2.5824389458 5.4541535378 114.74620056 86.247428894 169.13250732 2.7268118858 3.3151140213
 4044.6960449 6.0000000000 8.2666845322 8.5000000000 8.9654998779 -0.002926335 0.2347736061 2.5935280323 5.5338244438 115.23629761 86.047744751 168.95510864 2.7417690754 3.3359279633
 4044.8483887 6.0000000000 8.2679185867 8.5000000000 9.3461484909 0.0015681360 0.2376087010 2.6026740074 5.6909270287 113.58689880 85.654243469 169.01690674 2.7883980274 3.3907549381
 4045.0007324 6.0000000000 8.2715482712 8.5000000000 10.450345993 -0.007593903 0.2361443043 2.5987439156 5.4653787613 115.38569641 84.907066345 168.61759949 2.8172369003 3.5139350891
 4045.1533203 6.0000000000 8.2666864395 8.5000000000 11.321904182 0.0106093297 0.2349268049 2.6178190708 5.3884654045 114.10569763 84.370979309 168.11621094 2.9075419903 3.6019520760
 4045.3056641 6.0000000000 8.2666864395 8.5000000000 12.549360275 0.0246331599 0.2264185995 2.6338191032 5.5978679657 108.99970245 84.109855652 167.14599609 3.0987141132 3.6659440994
 4045.4580078 5.0000000000 8.2683982849 8.5000000000 14.064928055 0.0308138505 0.2257566005 2.6358499527 5.8398203850 105.56950378 83.438850403 165.38459778 3.1322538853 3.7681610584
 4045.6103516 5.0000000000 8.2681236267 8.5000000000 14.552299500 0.0330724195 0.2212744951 2.6405110359 5.8116307259 102.64769745 82.596000671 163.55979919 3.1930220127 3.9428679943
 4045.7629395 5.0000000000 8.2695608139 8.5000000000 15.962211609 0.0806946531 0.2220011055 2.6861000061 5.5307826996 102.37180328 81.956871033 161.62190247 3.2959859371 3.8981020451
 4045.9152832 5.0000000000 8.2720985413 8.5000000000 16.694803238 0.0542110205 0.2213083953 2.6630730629 5.5157155991 100.33339691 81.350082397 160.18220520 3.3807129860 3.9227030277
 4046.0676270 5.0000000000 8.2688493729 8.5000000000 16.727399826 0.0240215398 0.2154124975 2.6310110092 5.4357142448 100.49849701 80.846679688 158.94859314 3.4406020641 4.0662240982
 4046.2199707 5.0000000000 8.2712726593 8.5000000000 18.457645416 0.0142287603 0.2114064991 2.6222159863 5.2589497566 101.73290253 80.512962341 157.47569275 3.4852130413 4.1417131424
 4046.3725586 5.0000000000 8.2686710358 8.5000000000 18.400203705 0.0101679601 0.2043212056 2.6147799492 5.2087616920 101.48210144 80.374420166 156.78268433 3.5524408817 4.2147588730
 4046.5249023 5.0000000000 8.2701101303 8.5000000000 17.676807404 0.0106287589 0.2018970996 2.6077570915 5.2610569000 101.91690063 80.454696655 153.71739197 3.6721398830 4.2439541817
 4046.6772461 5.0000000000 8.2666845322 8.5000000000 15.777373314 0.0088381767 0.2058064938 2.6114780903 5.7166557312 100.20459747 80.509193420 152.70458984 3.7035660744 4.2535591125
 4046.8295898 5.0000000000 8.2672338486 8.5000000000 14.681618690 0.0142677398 0.2116919011 2.6159920692 5.6536111832 100.59390259 80.623466492 152.29779053 3.5948181152 4.3492140770
 4046.9821777 5.0000000000 8.2666845322 8.5000000000 13.847016335 0.0088682761 0.2146952003 2.6227359772 5.5217223167 101.99720001 80.933715820 152.08790588 3.5716528893 4.3545341492
 4047.1345215 5.0000000000 8.2669591904 8.5000000000 12.636120796 0.0013758540 0.2183330059 2.6125879288 5.4304738045 104.57530212 81.145439148 151.54318237 3.5791211128 4.1768741608
 4047.2868652 5.0000000000 8.2669601440 8.5000000000 12.203378677 -0.025165370 0.2170836031 2.5937340260 5.6472082138 103.96710205 81.325279236 151.78160095 3.5126190186 4.1329751015
 4047.4392090 5.0000000000 8.2709341049 8.5000000000 11.961639404 -0.002512942 0.2183997035 2.6071360111 5.7944030762 107.23120117 81.553207397 152.83309937 3.4386510849 4.1542148590
 4047.5913086 5.0000000000 8.2698354721 8.5000000000 11.852070808 -0.012955798 0.2301969975 2.5986766815 5.7934103012 108.92839813 81.804603577 152.88700867 3.3782260418 4.0393605232
