# LAS format log file from PETREL
# Project units are specified as depth units
#==================================================================
~Version information
VERS.   2.0:
WRAP.   NO:
#==================================================================
~Well
STRT .m      1948.1618652 :
STOP .m      3612.0659180 :
STEP .m     0.00000000 :
NULL .        -999.250000 :
COMP.           : COMPANY
WELL.  34/4-2   : WELL
FLD.            : FIELD
LOC.            : LOCATION
SRVC.           : SERVICE COMPANY
DATE.  2018-09-11 14:48:50   : Log Export Date {yyyy-MM-dd HH:mm:ss}
PROV.           : PROVINCE
UWI.   34/4-2   : UNIQUE WELL ID
API.            : API NUMBER
#==================================================================
~Curve
DEPT .m                   : DEPTH
Lithology_geolink ._      : Lithology_geolink
CALI .in                  : CALI
BS .in                    : BS
DRHO .g/cm3               : DRHO
NPHI .m3/m3               : NPHI
RHOB .g/cm3               : RHOB
GR .gAPI                  : GR
DTC .us/ft                : DTC
RDEP .ohm.m               : RDEP
SP .mV                    : SP
RSHA .ohm.m               : RSHA
RMED .ohm.m               : RMED
~Parameter
#==================================================================
~Ascii
# ...
 2606.5300293 3.0000000000 11.788999557 12.250000954 0.0060000001 0.4428699911 2.2209999561 38.954002380 143.12620544 0.8739616275 52.603523254 0.9489567876 0.9489567876
 2606.6826172 3.0000000000 11.805000305 12.250000954 -0.013000000 0.4462900162 2.2090001106 39.467399597 142.75120544 0.8839679360 53.231948853 0.9539839625 0.9539839625
 2606.8349609 3.0000000000 11.805000305 12.250000954 -0.005000000 0.4409199953 2.2090001106 40.402996063 142.37620544 0.8949646950 53.842044830 0.9510095716 0.9510095716
 2606.9873047 3.0000000000 11.796998978 12.250000954 -0.009000000 0.4458000064 2.2090001106 41.247295380 142.74879456 0.9079583287 56.444637299 0.9470128417 0.9470128417
 2607.1396484 3.0000000000 11.796998978 12.250000954 -0.004000000 0.4238300025 2.2109999657 41.219150543 141.75480652 0.9209375978 61.538471222 0.9489904046 0.9489904046
 2607.2919922 3.0000000000 11.796998978 12.250000954 -0.007000000 0.4155300260 2.2049999237 37.113834381 141.75000000 0.9359278679 61.577926636 0.9539759755 0.9539759755
 2607.4445801 3.0000000000 11.805000305 12.250000954 -0.006000000 0.4331099987 2.1970000267 36.626502991 140.50401306 0.9499551058 61.796298981 0.9659615755 0.9659615755
 2607.5969238 3.0000000000 11.852000237 12.250000954 -0.004000000 0.4511699975 2.1970000267 38.867790222 139.75241089 0.9659487605 61.812950134 0.9839423299 0.9839423299
 2607.7492676 3.0000000000 11.953000069 12.250000954 -0.004000000 0.4370099902 2.2009999752 48.982250214 139.50120544 0.9859039783 61.905551910 0.9919615984 0.9919615984
 2607.9016113 5.0000000000 12.102000237 12.250000954 0.0000000000 0.4350599945 2.2170000076 51.736927032 138.75360107 1.0088893175 62.264266968 0.9890144467 0.9890144467
 2608.0541992 5.0000000000 12.125000000 12.250000954 -0.005000000 0.3896499872 2.2269999981 52.653095245 137.75320435 1.0299326181 62.390598297 0.9939839840 0.9939839840
 2608.2065430 5.0000000000 12.102000237 12.250000954 -0.001000000 0.4028300047 2.2460000515 47.547424316 135.50721741 1.0499358177 62.405948639 1.0239038467 1.0239038467
 2608.3588867 5.0000000000 12.102000237 12.250000954 0.0089999996 0.3789099753 2.2560000420 45.943103790 134.00480652 1.0659487247 62.375099182 1.0808172226 1.0808172226
 2608.5112305 5.0000000000 12.125000000 12.250000954 0.0130000003 0.4238300025 2.2579998970 48.891750336 133.00480652 1.0779423714 62.623798370 1.1337455511 1.1337455511
 2608.6638184 5.0000000000 12.147998810 12.250000954 0.0149999997 0.4243199825 2.2599999905 48.656799316 133.00000000 1.0869711637 62.391750336 1.1489520073 1.1489520073
 2608.8161621 5.0000000000 12.125000000 12.250000954 0.0010000000 0.4477500021 2.2639999390 46.382312775 133.49839783 1.0909870863 62.390998840 1.1310577393 1.1310577393
 2608.9685059 5.0000000000 12.039000511 12.250000954 0.0099999998 0.4414099753 2.2829999924 44.506008148 133.99839783 1.0880097151 62.405948639 1.1020929813 1.1020929813
 2609.1208496 5.0000000000 12.039000511 12.250000954 0.0260000005 0.4536100030 2.3029999733 44.904048920 134.74639893 1.0790431499 62.405998230 1.0751296282 1.0751296282
 2609.2731934 4.0000000000 11.977001190 12.250000954 0.0299999993 0.4355500042 2.3050000668 46.741134644 134.37680054 1.0700433254 60.680335999 1.0521106720 1.0521106720
 2609.4257813 4.0000000000 11.944999695 12.250000954 0.0270000007 0.4331099987 2.3090000153 44.631809235 134.49960327 1.0650160313 56.280120850 1.0410352945 1.0410352945
 2609.5781250 4.0000000000 11.921999931 12.250000954 0.0040000002 0.4111299813 2.2909998894 42.600509644 135.49679565 1.0630064011 56.156349182 1.0380096436 1.0380096436
 2609.7304688 4.0000000000 11.913999557 12.250000954 0.0040000002 0.3969699740 2.2990000248 40.540901184 135.00239563 1.0629999638 56.529197693 1.0539232492 1.0539232492
 2609.8828125 4.0000000000 11.866999626 12.250000954 0.0010000000 0.3701200187 2.2950000763 43.143379211 135.74639893 1.0679758787 57.760063171 1.0878366232 1.0878366232
 2610.0354004 4.0000000000 11.875000954 12.250000954 0.0280000009 0.3740200102 2.3420000076 44.028194427 136.12379456 1.0749776363 60.756381989 1.1189006567 1.1189006567
 2610.1877441 4.0000000000 11.866999626 12.250000954 0.0340000018 0.3916000128 2.3540000916 44.996894836 135.50199890 1.0869615078 61.777744293 1.1269743443 1.1269743443
 2610.3400879 4.0000000000 11.921999931 12.250000954 0.0250000004 0.4130899906 2.3519999981 43.318405151 134.37860107 1.1039454937 61.376300812 1.1170320511 1.1170320511
 2610.4924316 5.0000000000 11.937999725 12.250000954 0.0080000004 0.4252899885 2.3299999237 44.276351929 134.12620544 1.1199232340 61.748199463 1.1070480347 1.1070480347
 2610.6450195 5.0000000000 12.007999420 12.250000954 0.0099999998 0.4326200187 2.3380000591 47.957180023 133.00360107 1.1289710999 61.999198914 1.1129808426 1.1129808426
 2610.7973633 5.0000000000 12.039000511 12.250000954 0.0099999998 0.4306600094 2.3399999142 46.473808289 132.12780762 1.1270064116 61.875400543 1.1359263659 1.1359263659
 2610.9497070 5.0000000000 12.046999931 12.250000954 0.0109999999 0.4252899885 2.3299999237 44.226211548 132.49879456 1.1200224161 62.264743805 1.1399871111 1.1399871111
 2611.1020508 5.0000000000 12.116999626 12.250000954 0.0070000002 0.4081999958 2.3090000153 44.902702332 132.74879456 1.1070623398 62.514793396 1.1151200533 1.1151200533
 2611.2543945 5.0000000000 11.836000443 12.250000954 0.0020000001 0.4296900034 2.2790000439 53.396980286 133.12319946 1.0940624475 63.028518677 1.0741971731 1.0741971731
 2611.4069824 6.0000000000 11.805000305 12.250000954 0.0040000002 0.4379900098 2.2709999084 58.297374725 135.11859131 1.0850288868 62.875503540 1.0401089191 1.0401089191
 2611.5593262 6.0000000000 11.805000305 12.250000954 0.0040000002 0.4511699975 2.2699999809 60.088294983 139.48597717 1.0780223608 62.766349792 1.0200641155 1.0200641155
 2611.7116699 6.0000000000 11.852000237 12.250000954 0.0120000001 0.4301800132 2.2909998894 56.144050598 138.13160706 1.0750144720 63.014797211 1.0110431910 1.0110431910
 2611.8640137 6.0000000000 11.977001190 12.250000954 -0.002000000 0.4047900140 2.2790000439 53.481769562 140.73738098 1.0849519968 63.155330658 1.0090095997 1.0090095997
 2612.0166016 6.0000000000 11.984001160 12.250000954 -0.005000000 0.3920899928 2.2679998875 52.658603668 140.00241089 1.1029423475 63.529796600 1.0149807930 1.0149807930
 2612.1689453 6.0000000000 12.046999931 12.250000954 -0.002000000 0.3925800025 2.2790000439 54.058490753 135.51441956 1.1259263754 63.671546936 1.0459007025 1.0459007025
 2612.3212891 6.0000000000 12.086001396 12.250000954 0.0080000004 0.3720700145 2.3010001183 55.741901398 116.46679688 1.1459040642 62.676803589 1.1266112328 1.1266112328
 2612.4736328 5.0000000000 12.015999794 12.250000954 0.0189999994 0.3686500192 2.3299999237 54.661258698 109.59575653 1.1639134884 62.780475616 1.2265192270 1.2265192270
 2612.6262207 5.0000000000 11.875000954 12.250000954 0.0010000000 0.3496099710 2.3029999733 50.762519836 104.39163208 1.1859294176 62.625499725 1.2917916775 1.2917916775
 2612.7785645 5.0000000000 11.819999695 12.250000954 -0.004000000 0.4111299813 2.2890000343 48.164310455 109.17257690 1.2159037590 61.628204346 1.2620961666 1.2620961666
 2612.9309082 5.0000000000 11.805000305 12.250000954 -0.008000000 0.4145500064 2.2869999409 47.533000946 125.69691467 1.2528814077 62.372596741 1.1882371902 1.1882371902
 2613.0832520 5.0000000000 11.796998978 12.250000954 0.0040000002 0.4233399928 2.3180000782 49.055644989 136.94599915 1.2818607092 61.628601074 1.1173408031 1.1173408031
 2613.2355957 5.0000000000 11.930000305 12.250000954 0.0089999996 0.3950199783 2.3499999046 49.591449738 137.37319946 1.2919520140 62.122596741 1.1040624380 1.1040624380
 2613.3881836 5.0000000000 11.843999863 12.250000954 0.0189999994 0.4106400013 2.3729999065 47.506710052 136.37820435 1.2800384760 62.125000000 1.1309134960 1.1309134960
 2613.5405273 5.0000000000 11.805000305 12.250000954 0.0049999999 0.4145500064 2.3550000191 47.936595917 130.02043152 1.2570736408 61.144153595 1.1658878326 1.1658878326
 2613.6928711 5.0000000000 11.828000069 12.250000954 0.0010000000 0.4106400013 2.3259999752 46.445198059 117.62270355 1.2380912304 61.763000488 1.1819232702 1.1819232702
