# LAS format log file from PETREL
# Project units are specified as depth units
#==================================================================
~Version information
VERS.   2.0:
WRAP.   NO:
#==================================================================
~Well
STRT .m      986.78210449 :
STOP .m      4467.4443359 :
STEP .m     0.00000000 :
NULL .        -999.250000 :
COMP.           : COMPANY
WELL.  34/4-3   : WELL
FLD.            : FIELD
LOC.            : LOCATION
SRVC.           : SERVICE COMPANY
DATE.  2018-09-11 14:48:50   : Log Export Date {yyyy-MM-dd HH:mm:ss}
PROV.           : PROVINCE
UWI.   34/4-3   : UNIQUE WELL ID
API.            : API NUMBER
#==================================================================
~Curve
DEPT .m                   : DEPTH
Lithology_geolink ._      : Lithology_geolink
CALI .in                  : CALI
DRHO .g/cm3               : DRHO
NPHI .m3/m3               : NPHI
RHOB .g/cm3               : RHOB
GR .gAPI                  : GR
DTC .us/ft                : DTC
RDEP .ohm.m               : RDEP
SP .mV                    : SP
RSHA .ohm.m               : RSHA
RMED .ohm.m               : RMED
~Parameter
#==================================================================
~Ascii
 986.78210449  -999.250000 18.864999771 -1.327000022 0.5263699889 1.1799999475 76.548980713 125.98718262 2.9627501965 90.948394775 2.4166662693 2.4166662693
 986.93444824  -999.250000 18.864999771 -1.250000000 0.4853500128 1.2869999409 74.412170410 123.99512482 2.9236094952 90.699996948 2.5197296143 2.5197296143
 987.08685303  -999.250000 18.854000092 -1.182999969 0.4990200102 1.3789999485 80.550605774 123.20227814 2.8585793972 90.703002930 2.4747054577 2.4747054577
 987.23925781  -999.250000 18.870000839 -1.335000038 0.5078099966 1.2730000019 78.506011963 125.58743286 2.7888398170 91.204803467 2.4249365330 2.4249365330
 987.39166260  -999.250000 18.858999252 -1.565999985 0.5966799855 1.1380000114 79.410369873 129.38540649 2.7635834217 91.951599121 2.2598333359 2.2598333359
 987.54406738  -999.250000 18.858999252 -1.657999992 0.6420900226 1.1610000134 75.131813049 131.01121521 2.6986603737 92.201599121 2.2334489822 2.2334489822
 987.69647217  -999.250000 18.858999252 -1.605000019 0.5927699804 1.3070000410 76.194007874 132.77162170 2.6458013058 92.456405640 2.1477501392 2.1477501392
 987.84887695  -999.250000 18.854000092 -1.460999966 0.5258800387 1.5030000210 77.105377197 136.12739563 2.6147117615 93.454803467 2.1084296703 2.1084296703
 988.00128174  -999.250000 18.843999863 -1.555999994 0.4663099945 1.4359999895 74.084228516 136.51441956 2.5698268414 94.206405640 2.0201730728 2.0201730728
 988.15368652  -999.250000 18.854000092 -1.488000035 0.4975599945 1.4780000448 77.345367432 138.76040649 2.5432114601 95.204605103 2.0472114086 2.0472114086
 988.30609131  -999.250000 18.864999771 -1.462000012 0.5039100051 1.4859999418 72.749603271 140.34376526 2.5762369633 95.919395447 2.0806791782 2.0806791782
 988.45849609  -999.250000 18.843999863 -1.406999946 0.5288100243 1.5590000153 72.637939453 135.47357178 2.6133522987 95.982604980 2.1863846779 2.1863846779
 988.61090088  -999.250000 18.849000931 -1.452999949 0.5341799855 1.5080000162 64.883010864 131.36459351 2.6687369347 96.229598999 2.2469034195 2.2469034195
 988.76330566  -999.250000 18.854000092 -1.564000010 0.5752000213 1.4220000505 66.147026062 129.72317505 2.7837753296 96.010200500 2.3877241611 2.3877241611
 988.91571045  -999.250000 18.849000931 -1.621999979 0.5581099987 1.3589999676 69.581024170 125.53096771 2.9043269157 95.729400635 2.5006279945 2.5006279945
 989.06805420  -999.250000 18.864999771 -1.565999985 0.5898399949 1.4750000238 72.397529602 120.57877350 2.9555284977 95.480819702 2.5977056026 2.5977056026
 989.22045898  -999.250000 18.864999771 -1.674000025 0.5566400290 1.3589999676 76.116737366 123.19626617 3.0435168743 95.445487976 2.5492343903 2.5492343903
 989.37286377  -999.250000 18.843999863 -1.570999980 0.5483400226 1.4620000124 74.732376099 124.54257202 3.1291601658 94.693588257 2.5875706673 2.5875706673
 989.52526855  -999.250000 18.843999863 -1.422999978 0.5312500000 1.6250000000 71.989585876 121.39543152 3.1541538239 93.687179565 2.5210511684 2.5210511684
 989.67767334  -999.250000 18.843999863 -1.226999998 0.4692400098 1.7929999828 70.370193481 124.54898071 3.1783268452 91.690383911 2.5290384293 2.5290384293
 989.83007813  -999.250000 18.854000092 -1.095000029 0.4814499915 1.8409999609 69.621398926 122.37500000 3.2290706635 90.198394775 2.5351409912 2.5351409912
 989.98248291  -999.250000 18.864999771 -1.166000009 0.4824199975 1.6519999504 69.075416565 122.37740326 3.2400383949 89.951599121 2.5569870472 2.5569870472
 990.13488770  -999.250000 18.854000092 -1.220999956 0.5434600115 1.4769999981 71.004409790 122.74880219 3.2458910942 90.198593140 2.5550832748 2.5550832748
 990.28729248  -999.250000 18.864999771 -1.312999964 0.5629900098 1.3109999895 71.728050232 122.56420135 3.2290065289 89.984207153 2.5677118301 2.5677118301
 990.43969727  -999.250000 18.849000931 -1.231999993 0.5541999936 1.3389999866 77.923980713 122.75000000 3.2299680710 90.485610962 2.5229871273 2.5229871273
 990.59210205  -999.250000 18.870000839 -1.243999958 0.5820299983 1.3409999609 75.727973938 122.75280762 3.2250831127 91.201599121 2.5207307339 2.5207307339
 990.74450684  -999.250000 18.875000000 -1.312999964 0.5644500256 1.2779999971 72.290573120 123.19040680 3.2379999161 91.453201294 2.4790832996 2.4790832996
 990.89691162  -999.250000 18.854000092 -1.327999949 0.5708000064 1.2740000486 68.798179626 123.55939484 3.2380511761 91.951599121 2.4920642376 2.4920642376
 991.04925537  -999.250000 18.879999161 -1.299999952 0.5302699804 1.3090000153 66.530036926 122.99511719 3.2459158897 92.207504272 2.5018618107 2.5018618107
 991.20166016  -999.250000 18.891000748 -1.261000037 0.5410200357 1.3589999676 71.527046204 122.18424988 3.2319340706 93.453376770 2.4792644978 2.4792644978
 991.35406494  -999.250000 18.885000229 -1.340000033 0.5263699889 1.2749999762 76.025627136 121.56581116 3.2209486961 94.015007019 2.5231409073 2.5231409073
 991.50646973  -999.250000 18.858999252 -1.358000040 0.5004900098 1.2569999695 79.976371765 122.00480652 3.2130129337 94.477600098 2.5451986790 2.5451986790
 991.65887451  -999.250000 18.822999954 -1.549000025 0.5229499936 1.0629999638 76.274559021 122.75000000 3.2149870396 93.954803467 2.5760257244 2.5760257244
 991.81127930  -999.250000 18.818000793 -1.514000058 0.5009800196 1.1380000114 70.331024170 122.75400543 3.2131857872 94.704803467 2.5797884464 2.5797884464
 991.96368408  -999.250000 18.822999954 -1.690000057 0.5537099838 1.0230000019 73.138618469 123.37099457 3.2421154976 95.453399658 2.5470128059 2.5470128059
 992.11608887  -999.250000 18.827999115 -1.620000005 0.4931600094 1.2569999695 75.265625000 122.75400543 3.2600512505 95.977798462 2.5489103794 2.5489103794
 992.26849365  -999.250000 18.858999252 -1.993000031 0.5522499681 1.0880000591 77.641143799 123.37099457 3.2680191994 95.479202271 2.5353782177 2.5353782177
 992.42089844  -999.250000 18.827999115 -2.012000084 0.5224599838 1.2810000181 70.369796753 122.74519348 3.2711153030 95.199996948 2.5938014984 2.5938014984
 992.57330322  -999.250000 18.766000748 -1.348000050 0.5717800260 2.0160000324 69.565803528 121.98718262 3.2888975143 95.195190430 2.5629615784 2.5629615784
 992.72570801  -999.250000 18.766000748 -1.146000028 0.5078099966 2.1579999924 69.996795654 120.00000000 3.2729871273 94.449996948 2.5565962791 2.5565962791
 992.87811279  -999.250000 18.760000229 -1.128999949 0.4931600094 2.1129999161 69.510414124 120.01001740 3.2710382938 94.441986084 2.4942243099 2.4942243099
 993.03051758  -999.250000 18.760000229 -1.439000010 0.5009800196 1.7189999819 71.106575012 121.55299377 3.2769870758 93.195388794 2.5293011665 2.5293011665
 993.18286133  -999.250000 18.781000137 -1.350999951 0.5576199889 1.7630000114 68.266517639 120.00826263 3.2750000954 92.474807739 2.5763905048 2.5763905048
 993.33526611  -999.250000 18.781000137 -1.335000038 0.5673800111 1.7079999447 70.998878479 121.37500000 3.2750842571 91.449996948 2.6410660744 2.6410660744
 993.48767090  -999.250000 18.770999908 -1.417999983 0.5683599710 1.5779999495 70.817810059 121.36739349 3.2889358997 91.448394775 2.6519293785 2.6519293785
 993.64007568  -999.250000 18.750000000 -1.690000057 0.5239300132 1.3129999638 71.568206787 120.20441437 3.2790896893 91.199996948 2.6408205032 2.6408205032
 993.79248047  -999.250000 18.739999771 -1.705000043 0.5312500000 1.3389999866 72.358177185 122.73598480 3.2929742336 91.201599121 2.6129741669 2.6129741669
 993.94488525  -999.250000 18.597999573 -1.715000033 0.5043900013 1.3739999533 69.743995667 120.56700897 3.2889230251 91.454803467 2.6087884903 2.6087884903
 994.09729004  -999.250000 18.358999252 -1.587000012 0.5083000064 1.5180000067 68.817405701 121.18159485 3.2769999504 92.196990967 2.5759229660 2.5759229660
 994.24969482  -999.250000 18.291000366 -1.241000056 0.5122100115 1.8229999542 69.509613037 120.18158722 3.2769038677 91.729400635 2.5642306805 2.5642306805
 994.40209961  -999.250000 18.093000412 -0.734000027 0.5258800387 2.2620000839 71.030433655 119.20963287 3.2619230747 91.479400635 2.5999741554 2.5999741554
