# LAS format log file from PETREL
# Project units are specified as depth units
#==================================================================
~Version information
VERS.   2.0:
WRAP.   NO:
#==================================================================
~Well
STRT .m      986.78210449 :
STOP .m      4467.4443359 :
STEP .m     0.00000000 :
NULL .        -999.250000 :
COMP.           : COMPANY
WELL.  34/4-3   : WELL
FLD.            : FIELD
LOC.            : LOCATION
SRVC.           : SERVICE COMPANY
DATE.  2018-09-11 14:48:50   : Log Export Date {yyyy-MM-dd HH:mm:ss}
PROV.           : PROVINCE
UWI.   34/4-3   : UNIQUE WELL ID
API.            : API NUMBER
#==================================================================
~Curve
DEPT .m                   : DEPTH
Lithology_geolink ._      : Lithology_geolink
CALI .in                  : CALI
DRHO .g/cm3               : DRHO
NPHI .m3/m3               : NPHI
RHOB .g/cm3               : RHOB
GR .gAPI                  : GR
DTC .us/ft                : DTC
RDEP .ohm.m               : RDEP
SP .mV                    : SP
RSHA .ohm.m               : RSHA
RMED .ohm.m               : RMED
~Parameter
#==================================================================
~Ascii
# ...
 1911.6973877  -999.250000 17.818000793 0.0280000009 0.4448199868 2.1370000839 38.749851227 139.98558044 0.9641153812 94.697013855 0.9950432777 0.9950432777
 1911.8497314  -999.250000 17.812999725 0.0099999998 0.4848600030 2.1229999065 38.737915039 136.98619080 0.9881008267 94.700019836 1.0041680336 1.0041680336
 1912.0021973  -999.250000 17.858999252 0.0000000000 0.4433599710 2.1229999065 42.669071198 134.12620544 1.0091153383 94.707427979 1.0391587019 1.0391587019
 1912.1545410  -999.250000 17.906000137 -0.001000000 0.4711900055 2.1500000954 45.380107880 134.35758972 1.0331104994 95.210029602 1.0722354650 1.0722354650
 1912.3070068  -999.250000 17.985000610 0.0000000000 0.4096699953 2.1740000248 46.424179077 130.74038696 1.0561298132 95.211227417 1.1211779118 1.1211779118
 1912.4593506  -999.250000 18.025999069 0.0219999999 0.4223600030 2.2090001106 43.579509735 128.76260376 1.0831584930 94.218231201 1.1580288410 1.1580288410
 1912.6118164  -999.250000 17.916999817 0.0289999992 0.3745099902 2.2090001106 47.000148773 131.36358643 1.1161442995 93.227294922 1.1640192270 1.1640192270
 1912.7641602  -999.250000 17.910999298 0.0370000005 0.4228500128 2.2170000076 47.036560059 129.00360107 1.1461586952 92.666999817 1.1679999828 1.1679999828
 1912.9166260  -999.250000 17.931999207 0.0170000009 0.3925800025 2.1989998817 48.165756226 129.74440002 1.1790616512 92.669799805 1.1681232452 1.1681232452
 1913.0689697  -999.250000 18.041999817 -0.002000000 0.4067400098 2.1840000153 44.208034515 128.72596741 1.1899567842 93.164596558 1.1902500391 1.1902500391
 1913.2213135  -999.250000 18.322999954 0.0089999996 0.3710900247 2.2009999752 41.921485901 123.75780487 1.1809279919 92.669403076 1.2423506975 1.2423506975
 1913.3737793  -999.250000 18.756000519 0.0140000004 0.4106400013 2.1989998817 38.513523102 125.36718750 1.1659375429 93.169410706 1.3149231672 1.3149231672
 1913.5261230  -999.250000 18.936000824 0.0430000015 0.4106400013 2.2090001106 41.320804596 123.77522278 1.1530047655 93.670402527 1.2985292673 1.2985292673
 1913.6785889  -999.250000 18.208000183 0.0399999991 0.3950199783 2.1700000763 42.937999725 129.03906250 1.1540192366 94.165596008 1.2005000114 1.2005000114
 1913.8309326  -999.250000 17.818000793 0.0289999992 0.4189499915 2.1389999390 42.940700531 137.11718750 1.1579327583 93.667991638 1.0968606472 1.0968606472
 1913.9833984  -999.250000 17.858999252 0.0410000011 0.4243199825 2.1500000954 43.500301361 135.49519348 1.1438702345 93.669403076 1.0680480003 1.0680480003
 1914.1357422  -999.250000 17.895999908 0.0170000009 0.4838899970 2.1429998875 43.568248749 134.50120544 1.1168606281 94.169403076 1.0782785416 1.0782785416
 1914.2882080  -999.250000 18.304000854 0.0379999988 0.4706999958 2.1740000248 44.628807068 134.74038696 1.0879279375 94.669403076 1.1361395121 1.1361395121
 1914.4405518  -999.250000 18.961999893 0.0120000001 0.4545899928 2.1270000935 39.008708954 132.76622009 1.0730096102 95.166999817 1.1647117138 1.1647117138
 1914.5930176  -999.250000 18.243999481 0.0189999994 0.4580099881 2.1129999161 40.845001221 136.13641357 1.0750913620 95.169395447 1.1048654318 1.1048654318
 1914.7453613  -999.250000 18.136999130 0.0140000004 0.4379900098 2.1040000916 47.491535187 138.48678589 1.0940817595 95.668403625 1.0771490335 1.0771490335
 1914.8978271  -999.250000 18.597999573 0.0280000009 0.4335900247 2.1480000019 52.136909485 135.73107910 1.1111063957 96.166000366 1.1080728769 1.1080728769
 1915.0501709  -999.250000 18.224000931 0.0299999993 0.3896499872 2.1760001183 48.726264954 132.36538696 1.1300673485 96.161186218 1.1211346388 1.1211346388
 1915.2025146  -999.250000 18.135999680 0.0179999992 0.3754900098 2.1970000267 43.779521942 130.34918213 1.1440769434 95.165000916 1.1490864754 1.1490864754
 1915.3549805  -999.250000 18.197999954 -0.001000000 0.4043000042 2.1949999332 36.854515076 124.99218750 1.1600673199 95.164993286 1.1673462391 1.1673462391
 1915.5073242  -999.250000 18.292999268 0.0130000003 0.4418900013 2.2379999161 39.014183044 123.37110138 1.1740624905 95.164001465 1.2394851446 1.2394851446
 1915.6597900  -999.250000 18.693000793 0.0199999996 0.4863300025 2.2560000420 35.555488586 122.55639648 1.1870625019 95.159187317 1.3400144577 1.3400144577
 1915.8121338  -999.250000 18.745000839 0.0230000000 0.4550800025 2.2439999580 40.624702454 121.21112061 1.2001874447 94.158187866 1.3426398039 1.3426398039
 1915.9645996  -999.250000 18.639999390 0.0219999999 0.4106400013 2.2420001030 40.562999725 126.00000000 1.2390528917 93.163406372 1.2677884102 1.2677884102
 1916.1169434  -999.250000 18.181999207 0.0080000004 0.4096699953 2.2249999046 40.582363129 125.98348999 1.2500913143 93.660995483 1.2240096331 1.2240096331
 1916.2694092  -999.250000 18.125999451 0.0299999993 0.4013700187 2.2679998875 44.583034515 122.57171631 1.2690818310 93.662399292 1.2260912657 1.2260912657
 1916.4217529  -999.250000 18.222999573 0.0080000004 0.4331099987 2.2379999161 42.299339294 124.35009003 1.2859855890 94.163795471 1.2452834845 1.2452834845
 1916.5742188  -999.250000 17.989999771 0.0070000002 0.3769499958 2.2379999161 39.463443756 119.18228912 1.2829519510 95.160392761 1.3043029308 1.3043029308
 1916.7265625  -999.250000 18.047000885 0.0020000001 0.3935500085 2.2230000496 38.321414948 118.02763367 1.2731683254 95.661796570 1.3671250343 1.3671250343
 1916.8790283  -999.250000 18.083000183 0.0299999993 0.3764599860 2.2599999905 40.091724396 123.74124908 1.3081512451 96.652183533 1.3931232691 1.3931232691
 1917.0313721  -999.250000 17.974000931 0.0540000014 0.4081999958 2.2679998875 45.174179077 122.19551086 1.3352116346 96.153327942 1.4145721197 1.4145721197
 1917.1838379  -999.250000 17.983999252 0.0329999998 0.3867200017 2.2560000420 42.316322327 123.74895477 1.3793138266 96.221046448 1.3263082504 1.3263082504
 1917.3361816  -999.250000 17.995000839 0.0040000002 0.4028300047 2.2209999561 42.873100281 123.54467010 1.4351153374 96.228698730 1.3811202049 1.3811202049
 1917.4885254  -999.250000 18.025999069 -0.004000000 0.3803699911 2.2269999981 36.035675049 119.74039459 1.4590480328 96.166999817 1.4067013264 1.4067013264
 1917.6409912  -999.250000 18.041999817 0.0149999997 0.3706099987 2.2400000095 30.347879410 117.73558044 1.4691394567 96.164596558 1.5523269176 1.5523269176
 1917.7933350  -999.250000 18.031000137 0.0250000004 0.3535200059 2.2579998970 24.739931107 114.75390625 1.4981297255 95.666999817 1.6199760437 1.6199760437
 1917.9458008  -999.250000 18.035999298 0.0379999988 0.3930699825 2.2769999504 25.989130020 115.56510162 1.5250768661 95.669395447 1.6149423122 1.6149423122
 1918.0981445  -999.250000 18.052000046 0.0140000004 0.4106400013 2.2599999905 30.147521973 116.00570679 1.5410192013 96.166000366 1.6029136181 1.6029136181
 1918.2506104  -999.250000 18.068000793 0.0049999999 0.4316400290 2.2339999676 28.379732132 117.19761658 1.5449711084 96.163597107 1.5849759579 1.5849759579
 1918.4029541  -999.250000 18.334999084 0.0109999999 0.3984400034 2.2379999161 26.035217285 119.20030975 1.5389472246 95.665992737 1.5797406435 1.5797406435
 1918.5554199  -999.250000 18.561000824 0.0149999997 0.3935500085 2.2460000515 23.610452652 121.74638367 1.5279134512 95.669807434 1.5257115364 1.5257115364
 1918.7077637  -999.250000 18.004999161 0.0189999994 0.3789099753 2.2699999809 27.029438019 121.00180054 1.5099135637 96.664993286 1.4657645226 1.4657645226
 1918.8602295  -999.250000 18.016000748 -0.001000000 0.3745217323 2.2579998970 29.809917450 121.37199402 1.4919663668 96.656784058 1.4171298742 1.4171298742
 1919.0125732  -999.250000 18.072999954 -0.004000000 0.3818153441 2.2479999065 29.158102036 120.74519348 1.4849711657 95.163002014 1.4440913200 1.4440913200
 1919.1650391  -999.250000 18.118999481 -0.005000000 0.3510864079 2.2520000935 26.297113419 119.74439240 1.4789831638 95.165802002 1.4631121159 1.4631121159
 1919.3173828  -999.250000 17.983999252 -0.009000000 0.3613397777 2.2300000191 29.150817871 118.74819946 1.4760673046 95.661994934 1.4830962420 1.4830962420
