# LAS format log file from PETREL
# Project units are specified as depth units
#==================================================================
~Version information
VERS.   2.0:
WRAP.   NO:
#==================================================================
~Well
STRT .m      1948.1618652 :
STOP .m      3612.0659180 :
STEP .m     0.00000000 :
NULL .        -999.250000 :
COMP.           : COMPANY
WELL.  34/4-2   : WELL
FLD.            : FIELD
LOC.            : LOCATION
SRVC.           : SERVICE COMPANY
DATE.  2018-09-11 14:48:50   : Log Export Date {yyyy-MM-dd HH:mm:ss}
PROV.           : PROVINCE
UWI.   34/4-2   : UNIQUE WELL ID
API.            : API NUMBER
#==================================================================
~Curve
DEPT .m                   : DEPTH
Lithology_geolink ._      : Lithology_geolink
CALI .in                  : CALI
BS .in                    : BS
DRHO .g/cm3               : DRHO
NPHI .m3/m3               : NPHI
RHOB .g/cm3               : RHOB
GR .gAPI                  : GR
DTC .us/ft                : DTC
RDEP .ohm.m               : RDEP
SP .mV                    : SP
RSHA .ohm.m               : RSHA
RMED .ohm.m               : RMED
~Parameter
#==================================================================
~Ascii
# ...
 2833.3015137 3.0000000000 9.8389997482 8.5000000000 -0.004000000 0.2343299985 2.4119999409 43.161258698 90.357177734 2.0228285789 55.688796997 2.0430064201 2.0430064201
 2833.4538574 3.0000000000 9.5419998169 8.5000000000 -0.008000000 0.2171199918 2.3919999599 42.333335876 88.827453613 2.1208429337 56.833168030 2.2446761131 2.2446761131
 2833.6062012 3.0000000000 9.3489999771 8.5000000000 -0.008000000 0.2053000033 2.3829998970 38.194641113 87.315429688 2.2128527164 58.952602386 2.5215561390 2.5215561390
 2833.7585449 3.0000000000 9.3050003052 8.5000000000 -0.007000000 0.1926700026 2.3829998970 35.488666534 86.004203796 2.2807822227 62.849498749 2.7572445869 2.7572445869
 2833.9111328 3.0000000000 9.2889995575 8.5000000000 -0.007000000 0.1818500012 2.3870000839 33.850616455 85.750404358 2.3299214840 64.983596802 2.8728156090 2.8728156090
 2834.0634766 3.0000000000 9.3129997253 8.5000000000 -0.010000000 0.1755699962 2.3929998875 40.315620422 85.840858459 2.3559582233 65.472221375 2.8889741898 2.8889741898
 2834.2158203 3.0000000000 9.3520002365 8.5000000000 -0.010000000 0.1793499887 2.4059998989 42.710174561 88.324020386 2.3659839630 64.410697937 2.8091282845 2.8091282845
 2834.3681641 3.0000000000 9.3819999695 8.5000000000 -0.011000000 0.1848399937 2.4219999313 44.171321869 88.282142639 2.3739745617 62.490161896 2.6186113358 2.6186113358
 2834.5207520 3.0000000000 9.3769998550 8.5000000000 -0.015000000 0.1845000088 2.4189999104 39.768077850 88.609474182 2.3700063229 58.633178711 2.4362916946 2.4362916946
 2834.6730957 3.0000000000 9.2729997635 8.5000000000 -0.018999999 0.1819700003 2.4000000954 35.574718475 88.357406616 2.3620128632 56.172939301 2.3641154766 2.3641154766
 2834.8254395 3.0000000000 9.0629997253 8.5000000000 -0.023000000 0.1838699877 2.3849999905 34.507701874 87.488403320 2.3949470520 53.636066437 2.3749823570 2.3749823570
 2834.9777832 3.0000000000 8.8310003281 8.5000000000 -0.020000000 0.1881299913 2.3800001144 34.710342407 88.169799805 2.4378623962 54.655712128 2.3281505108 2.3281505108
 2835.1303711 3.0000000000 8.7950000763 8.5000000000 -0.016000001 0.1893700063 2.3829998970 35.997932434 86.471733093 2.4649567604 53.988075256 2.3619453907 2.3619453907
 2835.2827148 3.0000000000 8.8319997787 8.5000000000 -0.011000000 0.1853400022 2.3910000324 34.563308716 83.441864014 2.4729871750 55.001369476 2.6355607510 2.6355607510
 2835.4350586 3.0000000000 8.9200000763 8.5000000000 -0.008000000 0.1784499884 2.4079999924 36.544815063 83.826385498 2.4700047970 55.291538239 2.9924278259 2.9924278259
 2835.5874023 3.0000000000 9.0220003128 8.5000000000 -0.004000000 0.1711400002 2.4300000668 40.064353943 82.704803467 2.4290657043 55.956932068 2.9460754395 2.9460754395
 2835.7397461 3.0000000000 9.1610002518 8.5000000000 -0.001000000 0.1636000127 2.4440000057 48.195915222 83.422698975 2.3811535835 57.420303345 2.6589214802 2.6589214802
 2835.8923340 6.0000000000 9.3649997711 8.5000000000 0.0020000001 0.1619800031 2.4449999332 51.619544983 85.995872498 2.3210961819 57.503875732 2.4353573322 2.4353573322
 2836.0446777 6.0000000000 9.7010002136 8.5000000000 0.0049999999 0.1736000031 2.4330000877 52.461658478 86.688896179 2.2521107197 58.142974854 2.2093622684 2.2093622684
 2836.1970215 6.0000000000 10.055999756 8.5000000000 0.0060000001 0.1907500029 2.4170000553 55.565021515 90.197372437 2.1551554203 58.682136536 2.0812051296 2.0812051296
 2836.3493652 6.0000000000 10.279000282 8.5000000000 0.0020000001 0.2112700045 2.4019999504 59.900100708 95.342498779 2.0443551540 59.251174927 1.8567199707 1.8567199707
 2836.5019531 6.0000000000 10.419999123 8.5000000000 -0.004000000 0.2356299907 2.4059998989 65.179550171 97.246971130 1.9511489868 59.549522400 1.7811201811 1.7811201811
 2836.6542969 6.0000000000 10.471000671 8.5000000000 -0.005000000 0.2627400160 2.4309999943 65.453575134 95.752403259 1.8701298237 59.962337494 1.6981329918 1.6981329918
 2836.8066406 6.0000000000 10.471000671 8.5000000000 -0.002000000 0.2792200148 2.4509999752 63.264514923 96.313102722 1.8080992699 60.846580505 1.7379359007 1.7379359007
 2836.9589844 6.0000000000 10.354999542 8.5000000000 -0.005000000 0.2861700058 2.4440000057 57.387855530 96.588119507 1.8010224104 61.704250336 1.7330160141 1.7330160141
 2837.1115723 5.0000000000 10.345999718 8.5000000000 -0.007000000 0.2905099988 2.4270000458 51.682128906 94.384544373 1.8229646683 62.189224243 1.6531281471 1.6531281471
 2837.2639160 5.0000000000 10.392000198 8.5000000000 -0.005000000 0.2962599993 2.4210000038 52.098316193 100.45924377 1.8329839706 61.308414459 1.6829519272 1.6829519272
 2837.4162598 5.0000000000 10.461999893 8.5000000000 -0.004000000 0.3009999990 2.4230000973 51.918289185 99.599395752 1.8270096779 61.003486633 1.7518893480 1.7518893480
 2837.5686035 5.0000000000 10.463000298 8.5000000000 -0.005000000 0.2956599891 2.4260001183 54.581722260 95.989791870 1.8469679356 60.948089600 1.9666554928 1.9666554928
 2837.7209473 5.0000000000 10.364999771 8.5000000000 -0.004000000 0.2807199955 2.4270000458 52.701049805 93.928596497 1.9058111906 61.244049072 1.9979008436 1.9979008436
 2837.8735352 5.0000000000 10.314001083 8.5000000000 -0.001000000 0.2643699944 2.4260001183 55.300819397 89.569992065 1.9798814058 61.369796753 1.8093029261 1.8093029261
 2838.0258789 5.0000000000 10.300000191 8.5000000000 0.0000000000 0.2665899992 2.4179999828 54.942581177 88.319000244 2.0249280930 61.408939362 1.7600785494 1.7600785494
 2838.1782227 5.0000000000 10.300998688 8.5000000000 0.0010000000 0.2810899913 2.4059998989 49.943023682 85.523483276 1.9331474304 61.198341370 1.9776506424 1.9776506424
 2838.3305664 5.0000000000 10.326999664 8.5000000000 -0.002000000 0.2882600129 2.4089999199 48.234458923 90.412292480 1.7964384556 60.427471161 2.1713790894 2.1713790894
 2838.4831543 5.0000000000 10.375000000 8.5000000000 -0.001000000 0.2707000077 2.4360001087 52.153701782 96.755844116 1.6492356062 60.589736938 1.9952836037 1.9952836037
 2838.6354980 6.0000000000 10.439000130 8.5000000000 0.0040000002 0.2470600009 2.4630000591 57.337688446 99.839073181 1.4992402792 61.080215454 1.6545464993 1.6545464993
 2838.7878418 6.0000000000 10.444999695 8.5000000000 0.0099999998 0.2361599952 2.4630000591 62.636508942 110.49889374 1.3702067137 60.876327515 1.3894246817 1.3894246817
 2838.9401855 6.0000000000 10.416999817 8.5000000000 0.0109999999 0.2543199956 2.4189999104 65.786911011 121.04420471 1.2952399254 60.379592896 1.2065855265 1.2065855265
 2839.0927734 6.0000000000 10.347999573 8.5000000000 0.0020000001 0.2872000039 2.3740000725 72.520210266 125.22734070 1.2600561380 61.056907654 1.0352740288 1.0352740288
 2839.2451172 6.0000000000 10.329000473 8.5000000000 -0.013000000 0.3226800263 2.3550000191 76.665359497 130.02830505 1.2430273294 62.320976257 0.8892339468 0.8892339468
 2839.3974609 6.0000000000 10.394000053 8.5000000000 -0.016000001 0.3610399961 2.3719999790 75.966133118 124.50388336 1.2430000305 62.861137390 0.9039759636 0.9039759636
 2839.5498047 6.0000000000 10.432999611 8.5000000000 -0.011000000 0.3875699937 2.4089999199 71.846603394 118.00441742 1.2519855499 62.206054688 1.0767227411 1.0767227411
 2839.7021484 6.0000000000 10.463999748 8.5000000000 -0.004000000 0.3843999803 2.4379999638 66.970634460 109.61290741 1.2908751965 61.350742340 1.3979696035 1.3979696035
 2839.8547363 6.0000000000 10.487000465 8.5000000000 0.0040000002 0.3430500031 2.4579999447 60.561260223 100.53952026 1.4058157206 62.581020355 1.7384550571 1.7384550571
 2840.0070801 6.0000000000 10.470000267 8.5000000000 0.0109999999 0.2953700125 2.4760000706 57.403053284 94.445755005 1.5966938734 64.775482178 1.8757804632 1.8757804632
 2840.1594238 6.0000000000 10.447999954 8.5000000000 0.0160000008 0.2635399997 2.4909999371 56.524402618 93.002296448 1.7996746302 66.578109741 1.9259198904 1.9259198904
 2840.3117676 5.0000000000 10.411000252 8.5000000000 0.0170000009 0.2535000145 2.5020000935 54.631072998 92.813606262 1.9883952141 63.147029877 2.0515968800 2.0515968800
 2840.4643555 5.0000000000 10.371999741 8.5000000000 0.0089999996 0.2557200193 2.5009999275 54.602039337 89.302635193 2.1477451324 60.148796082 2.2087485790 2.2087485790
