# LAS format log file from PETREL
# Project units are specified as depth units
#==================================================================
~Version information
VERS.   2.0:
WRAP.   NO:
#==================================================================
~Well
STRT .m      986.78210449 :
STOP .m      4467.4443359 :
STEP .m     0.00000000 :
NULL .        -999.250000 :
COMP.           : COMPANY
WELL.  34/4-3   : WELL
FLD.            : FIELD
LOC.            : LOCATION
SRVC.           : SERVICE COMPANY
DATE.  2018-09-11 14:48:50   : Log Export Date {yyyy-MM-dd HH:mm:ss}
PROV.           : PROVINCE
UWI.   34/4-3   : UNIQUE WELL ID
API.            : API NUMBER
#==================================================================
~Curve
DEPT .m                   : DEPTH
Lithology_geolink ._      : Lithology_geolink
CALI .in                  : CALI
DRHO .g/cm3               : DRHO
NPHI .m3/m3               : NPHI
RHOB .g/cm3               : RHOB
GR .gAPI                  : GR
DTC .us/ft                : DTC
RDEP .ohm.m               : RDEP
SP .mV                    : SP
RSHA .ohm.m               : RSHA
RMED .ohm.m               : RMED
~Parameter
#==================================================================
~Ascii
# ...
 4461.0434570  -999.250000 8.7609996796 0.0270000007 0.2382999957 2.5580449104 92.658996582 72.333000183 4.4819998741 138.35699463 6.2290000916 6.2290000916
 4461.1958008  -999.250000 8.7589998245 0.0199999996 0.2372800112 2.5390608311 92.663002014 72.333999634 4.4770002365 137.34500122 6.2270002365 6.2270002365
 4461.3481445  -999.250000 8.7569999695 0.0160000008 0.2356299907 2.5320224762 92.666999817 72.334999084 4.4720001221 136.90899658 6.2340002060 6.2340002060
 4461.5009766  -999.250000 8.7539997101 0.0250000004 0.2322600037 2.5580000877 92.670997620 72.334999084 4.4660000801 137.09300232 6.2459998131 6.2459998131
 4461.6533203  -999.250000 8.7519998550 0.0549999997 0.2193399966 2.5910000801 92.675003052 72.335998535 4.4609999657 138.26400757 6.2579998970 6.2579998970
 4461.8056641  -999.250000 8.7489995956 0.0630000010 0.2031700015 2.6110000610 92.678001404 72.336997986 4.4640002251 139.33500671 6.2699999809 6.2699999809
 4461.9580078  -999.250000 8.7469997406 0.0560000017 0.1870000064 2.6000349522 92.681999207 72.336997986 4.5960001945 140.38400269 6.2820000648 6.2820000648
 4462.1103516  -999.250000 8.7440004349 0.0350000001 0.1787499934 2.5681025982 92.685997009 72.337997437 4.7270002365 140.70899963 6.2940001488 6.2940001488
 4462.2626953  -999.250000 8.7419996262 0.0170000009 0.1824900061 2.5380961895 92.690002441 72.338996887 4.8200001717 139.18499756 6.3060002327 6.3060002327
 4462.4150391  -999.250000 8.7390003204 0.0160000008 0.1865200102 2.5370030403 92.694000244 72.338996887 4.8829998970 138.01699829 6.3179998398 6.3179998398
 4462.5673828  -999.250000 8.7370004654 0.0299999993 0.1900600046 2.5439774990 92.696998596 72.339996338 4.8990001678 139.23899841 6.3299999237 6.3299999237
 4462.7197266  -999.250000 8.7340002060 0.0329999998 0.1917300075 2.5499806404 92.700996399 72.341003418 4.8810000420 140.12300110 6.3420000076 6.3420000076
 4462.8725586  -999.250000 8.7320003510 0.0350000001 0.1915900111 2.5580000877 92.705001831 72.341003418 4.8629999161 138.80999756 6.3540000916 6.3540000916
 4463.0249023  -999.250000 8.7290000916 0.0370000005 0.1914499998 2.5650000572 92.708999634 72.342002869 4.8639998436 137.53100586 6.3619999886 6.3619999886
 4463.1772461  -999.250000 8.7270002365 0.0399999991 0.1913100034 2.5739998817 92.712997437 72.343002319 4.8699998856 137.82200623 6.3590002060 6.3590002060
 4463.3295898  -999.250000 8.7239999771 0.0430000015 0.1911800057 2.5809776783 92.717002869 72.343002319 4.8769998550 138.56900024 6.3559999466 6.3559999466
 4463.4819336  -999.250000 8.7220001221 0.0430000015 0.1910399944 2.5839905739 92.720001221 72.344001770 4.8829998970 138.59899902 6.3530001640 6.3530001640
 4463.6342773  -999.250000 8.7189998627 0.0410000011 0.1908999979 2.5830030441 92.723999023 72.345001221 4.8889999390 137.20100403 6.3499999046 6.3499999046
 4463.7866211  -999.250000 8.7170000076 0.0379999988 0.1907600015 2.5770192146 92.727996826 72.345001221 4.9239997864 136.52900696 6.3470001221 6.3470001221
 4463.9389648  -999.250000 8.7139997482 0.0370000005 0.1906200051 2.5670318604 92.732002258 72.346000671 4.7480001450 137.65600586 6.3449997902 6.3449997902
 4464.0917969  -999.250000 8.7119998932 0.0359999985 0.1904800087 2.5559999943 92.736000061 72.347000122 3.6819999218 138.58999634 6.3420000076 6.3420000076
 4464.2441406  -999.250000 8.7089996338 0.0350000001 0.1903399974 2.5469999313 92.739997864 72.347000122 2.3910000324 138.74499512 6.3390002251 6.3390002251
 4464.3964844  -999.250000 8.7069997787 0.0329999998 0.1902000010 2.5469999313 92.742996216 72.347999573 1.9429999590 137.83000183 6.3359999657 6.3359999657
 4464.5488281  -999.250000 8.7040004730 0.0309999995 0.1902099997 2.5529999733 92.747001648 72.348999023 1.9149999619 136.47200012 6.3330001831 6.3330001831
 4464.7011719  -999.250000 8.7019996643 0.0270000007 0.1903399974 2.5549936295 92.750999451 72.348999023 1.9129999876 137.25999451 6.3299999237 6.3299999237
 4464.8535156  -999.250000 8.6990003586 0.0219999999 0.1904599965 2.5480225086 92.754997253 72.349998474 1.9110000134 139.27999878 6.3270001411 6.3270001411
 4465.0058594  -999.250000 8.6969995499 0.0219999999 0.1905899942 2.5470030308 92.759002686 72.350997925 1.9079999924 140.79100037 6.3239998817 6.3239998817
 4465.1582031  -999.250000 8.6940002441 0.0260000005 0.1907099932 2.5529806614 92.762001038 72.350997925 1.9060000181 139.80799866 6.3210000992 6.3210000992
 4465.3105469  -999.250000 8.6920003891 0.0309999995 0.1908399910 2.5609743595 92.765998840 72.351997375 1.9029999971 138.08000183 6.3189997673 6.3189997673
 4465.4633789  -999.250000 8.6909999847 0.0340000018 0.1909604222 2.5680000782 92.769996643 72.352996826 1.8999999762 138.43400574 6.3159999847 6.3159999847
 4465.6157227  -999.250000 8.6929998398 0.0370000005 0.1910904050 2.5750000477 92.774002075 72.352996826 1.8980000019 139.84199524 6.3130002022 6.3130002022
 4465.7680664  -999.250000 8.6940002441 0.0410000011 0.1912203878 2.5769999027 92.777999878 72.353996277 1.8949999809 140.73899841 6.3099999428 6.3099999428
 4465.9204102  -999.250000 8.6960000992 0.0430000015 0.1913393736 2.5670318604 92.781997681 72.355003357 1.8930000067 139.86700439 6.3070001602 6.3070001602
 4466.0727539  -999.250000 8.6979999542 0.0399999991 0.1911389679 2.5321123600 92.785003662 72.355003357 1.8899999857 31.624000549 6.3039999008 6.3039999008
 4466.2250977  -999.250000 8.6999998093 0.0370000005 0.1908200085 2.4841537476  -999.250000  -999.250000  -999.250000  -999.250000  -999.250000  -999.250000
 4466.3774414  -999.250000 8.5970001221 0.1829999983 0.1908200085 2.4471185207  -999.250000  -999.250000  -999.250000  -999.250000  -999.250000  -999.250000
 4466.5297852  -999.250000 7.7480001450 0.2500000000 0.1919899881 2.6044936180  -999.250000  -999.250000  -999.250000  -999.250000  -999.250000  -999.250000
 4466.6826172  -999.250000 6.1259999275 0.2500000000 0.2077760249 2.8780000210  -999.250000  -999.250000  -999.250000  -999.250000  -999.250000  -999.250000
 4466.8349609  -999.250000 4.8289999962 0.2500000000 0.2314573973 2.9969999790  -999.250000  -999.250000  -999.250000  -999.250000  -999.250000  -999.250000
 4466.9873047  -999.250000 3.3580000401 0.2500000000 0.2430977225 3.2130000591  -999.250000  -999.250000  -999.250000  -999.250000  -999.250000  -999.250000
 4467.1396484  -999.250000 2.9099998474 0.2500000000 0.2455005050 3.2320001125  -999.250000  -999.250000  -999.250000  -999.250000  -999.250000  -999.250000
 4467.2919922  -999.250000 3.7360000610 0.2500000000 0.2456610054 3.2320001125  -999.250000  -999.250000  -999.250000  -999.250000  -999.250000  -999.250000
 4467.4443359  -999.250000 5.7170000076 0.2500000000 0.2459709793 3.2329969406  -999.250000  -999.250000  -999.250000  -999.250000  -999.250000  -999.250000
