# LAS format log file from PETREL
# Project units are specified as depth units
#==================================================================
~Version information
VERS.   2.0:
WRAP.   NO:
#==================================================================
~Well
STRT .m      1948.1618652 :
STOP .m      3612.0659180 :
STEP .m     0.00000000 :
NULL .        -999.250000 :
COMP.           : COMPANY
WELL.  34/4-2   : WELL
FLD.            : FIELD
LOC.            : LOCATION
SRVC.           : SERVICE COMPANY
DATE.  2018-09-11 14:48:50   : Log Export Date {yyyy-MM-dd HH:mm:ss}
PROV.           : PROVINCE
UWI.   34/4-2   : UNIQUE WELL ID
API.            : API NUMBER
#==================================================================
~Curve
DEPT .m                   : DEPTH
Lithology_geolink ._      : Lithology_geolink
CALI .in                  : CALI
BS .in                    : BS
DRHO .g/cm3               : DRHO
NPHI .m3/m3               : NPHI
RHOB .g/cm3               : RHOB
GR .gAPI                  : GR
DTC .us/ft                : DTC
RDEP .ohm.m               : RDEP
SP .mV                    : SP
RSHA .ohm.m               : RSHA
RMED .ohm.m               : RMED
~Parameter
#==================================================================
~Ascii
# ...
 2387.0742188  -999.250000 14.078000069  -999.250000 -0.002000000 0.3579100072 2.3610000610 47.281097412 116.37149811 1.1460112333 60.031200409 1.2580112219 1.2580112219
 2387.2265625  -999.250000 14.070000648  -999.250000 0.0070000002 0.3681600094 2.3689999580 50.271396637 116.74879456 1.1380256414 59.922348022 1.2709584236 1.2709584236
 2387.3789063  -999.250000 14.133000374  -999.250000 0.0189999994 0.3559600115 2.3829998970 46.543018341 113.38581848 1.1350096464 60.140296936 1.2690064907 1.2690064907
 2387.5312500  -999.250000 14.125000000  -999.250000 0.0270000007 0.3408200145 2.3810000420 45.939899445 117.98516846 1.1459647417 59.782150269 1.2660096884 1.2660096884
 2387.6835938  -999.250000 14.140999794  -999.250000 0.0230000000 0.3418000042 2.3910000324 41.701622009 114.38662720 1.1469967365 59.625499725 1.2819486856 1.2819486856
 2387.8361816  -999.250000 14.133000374  -999.250000 0.0399999991 0.3315399885 2.4200000763 44.927600861 113.75199890 1.1599583626 60.139347076 1.2869839668 1.2869839668
 2387.9885254  -999.250000 14.125000000  -999.250000 0.0270000007 0.3418000042 2.4159998894 42.476913452 116.36658478 1.1649839878 60.016399384 1.3129166365 1.3129166365
 2388.1408691  -999.250000 14.147999763  -999.250000 0.0439999998 0.3481400013 2.4319999218 42.562698364 112.76161957 1.1669936180 60.778545380 1.3279519081 1.3279519081
 2388.2932129  -999.250000 14.116999626  -999.250000 0.0140000004 0.3374000192 2.3789999485 41.472507477 113.99599457 1.1749743223 61.030197144 1.3429520130 1.3429520130
 2388.4458008  -999.250000 14.116999626  -999.250000 0.0260000005 0.3334999979 2.3810000420 43.527694702 114.00000000 1.1879791021 61.046974182 1.3280240297 1.3280240297
 2388.5981445  -999.250000 14.116999626  -999.250000 0.0060000001 0.3139599860 2.3589999676 45.026199341 113.19060516 1.1870032549 61.171600342 1.3419551849 1.3419551849
 2388.7504883  -999.250000 14.093998909  -999.250000 0.0209999997 0.3266600072 2.3910000324 42.820110321 113.56179810 1.1979646683 61.312549591 1.3260512352 1.3260512352
 2388.9028320  -999.250000 14.265999794  -999.250000 0.0209999997 0.3203099966 2.4119999409 46.986579895 114.74619293 1.2079678774 61.452548981 1.3439422846 1.3439422846
 2389.0554199  -999.250000 14.194999695  -999.250000 0.0170000009 0.3261699975 2.4000000954 47.030948639 115.18729401 1.2119935751 61.812423706 1.3200385571 1.3200385571
 2389.2077637  -999.250000 14.258000374  -999.250000 -0.008000000 0.3198200166 2.4040000439 46.564498901 115.18799591 1.2100064754 61.827949524 1.3369456530 1.3369456530
 2389.3601074  -999.250000 14.194999695  -999.250000 -0.020000000 0.3247100115 2.4140000343 41.765426636 117.36798859 1.2129904032 61.547901154 1.3210512400 1.3210512400
 2389.5124512  -999.250000 14.359000206  -999.250000 -0.009000000 0.3266600072 2.4800000191 37.731922150 109.77443695 1.2010384798 61.313751221 1.3778172731 1.3778172731
 2389.6647949  -999.250000 14.265999794  -999.250000 0.0099999998 0.3452099860 2.4609999657 40.803081512 109.56360626 1.1940224171 60.829551697 1.3859744072 1.3859744072
 2389.8173828  -999.250000 14.202999115  -999.250000 0.0170000009 0.3574199975 2.4409999847 37.759799957 110.55980682 1.1900128126 60.921699524 1.4218848944 1.4218848944
 2389.9697266  -999.250000 14.211000443  -999.250000 -0.002000000 0.3408200145 2.3750000000 39.089694977 109.56620789 1.1880064011 60.314952850 1.3203269243 1.3203269243
 2390.1220703  -999.250000 14.453000069  -999.250000 -0.001000000 0.3305699825 2.3829998970 37.567905426 117.53736115 1.1820192337 60.405700684 1.2641795874 1.2641795874
 2390.2744141  -999.250000 14.336000443  -999.250000 -0.002000000 0.2983399928 2.3710000515 37.531101227 116.00501251 1.1700384617 59.643451691 1.2450609207 1.2450609207
 2390.4270020  -999.250000 14.343999863  -999.250000 0.0120000001 0.3261699975 2.3829998970 39.153392792 115.18930054 1.1520287991 60.140197754 1.2879310846 1.2879310846
 2390.5793457  -999.250000 14.304999352  -999.250000 0.0170000009 0.3286100030 2.3889999390 38.657596588 115.56180573 1.1400383711 59.532951355 1.3268752098 1.3268752098
 2390.7316895  -999.250000 14.438000679  -999.250000 0.0340000018 0.3456999958 2.4040000439 44.262969971 115.56300354 1.1350159645 59.904796600 1.2881250381 1.2881250381
 2390.8840332  -999.250000 14.383001328  -999.250000 0.0370000005 0.3183600008 2.4119999409 45.277793884 115.00180817 1.1340031624 59.672752380 1.2730480433 1.2730480433
 2391.0366211  -999.250000 14.366999626  -999.250000 0.0379999988 0.3193399906 2.4100000858 46.436145782 114.75040436 1.1359968185 59.890647888 1.2290705442 1.2290705442
 2391.1889648  -999.250000 14.383001328  -999.250000 0.0140000004 0.2998000085 2.3810000420 39.179302216 117.36660004 1.1350032091 60.279750824 1.2509295940 1.2509295940
 2391.3413086  -999.250000 14.438000679  -999.250000 0.0160000008 0.3281300068 2.3829998970 37.723606110 114.75841522 1.1300159693 60.654796600 1.2709358931 1.2709358931
 2391.4936523  -999.250000 14.343999863  -999.250000 0.0040000002 0.3559600115 2.3629999161 35.600811005 114.75000000 1.1240191460 60.921150208 1.2869486809 1.2869486809
 2391.6459961  -999.250000 14.336000443  -999.250000 0.0140000004 0.3754900098 2.3770000935 39.799476624 113.37940979 1.1279871464 60.766498566 1.3159070015 1.3159070015
 2391.7985840  -999.250000 14.430000305  -999.250000 0.0130000003 0.3588899970 2.3750000000 37.227302551 115.18219757 1.1379680634 60.983303070 1.2950671911 1.2950671911
 2391.9509277  -999.250000 14.359000206  -999.250000 0.0099999998 0.3437500000 2.3750000000 41.766376495 114.56501007 1.1459743977 60.734802246 1.2660930157 1.2660930157
 2392.1032715  -999.250000 14.375000000  -999.250000 0.0010000000 0.3388700187 2.3710000515 38.136718750 114.74939728 1.1579614878 61.855396271 1.2809519768 1.2809519768
 2392.2556152  -999.250000 14.430000305  -999.250000 -0.011000000 0.3237300217 2.3550000191 42.236778259 114.99919891 1.1589968204 61.609802246 1.2869807482 1.2869807482
 2392.4082031  -999.250000 14.438000679  -999.250000 -0.003000000 0.3100599945 2.3650000095 38.630809784 113.75200653 1.1619951725 61.827648163 1.3079663515 1.3079663515
 2392.5605469  -999.250000 14.438000679  -999.250000 0.0120000001 0.3295899928 2.3789999485 42.705902100 113.99919891 1.1699743271 61.813049316 1.3159743547 1.3159743547
 2392.7128906  -999.250000 14.413999557  -999.250000 0.0199999996 0.3540000021 2.3770000935 38.607223511 114.37380219 1.1749839783 61.578750610 1.3130096197 1.3130096197
 2392.8652344  -999.250000 14.406000137  -999.250000 0.0209999997 0.3603500128 2.3829998970 40.805889130 113.37820435 1.1730064154 61.469352722 1.3199776411 1.3199776411
 2393.0178223  -999.250000 14.296999931  -999.250000 0.0070000002 0.3515599966 2.3670001030 39.970355988 114.37340546 1.1779919863 61.453025818 1.2970368862 1.2970368862
 2393.1701660  -999.250000 14.359000206  -999.250000 0.0140000004 0.3452099860 2.3959999084 41.526000977 113.37819672 1.1750096083 60.472148895 1.2940096855 1.2940096855
 2393.3225098  -999.250000 14.531000137  -999.250000 0.0109999999 0.3461900055 2.3810000420 37.824916840 114.74559021 1.1720097065 61.200645447 1.2621024847 1.2621024847
 2393.4748535  -999.250000 15.030999184  -999.250000 0.0219999999 0.3291000128 2.3810000420 37.750202179 114.18980408 1.1670160294 60.424503326 1.2749582529 1.2749582529
 2393.6271973  -999.250000 15.030999184  -999.250000 0.0199999996 0.3320299983 2.3710000515 42.453876495 114.74819946 1.1630128622 60.687149048 1.2431025505 1.2431025505
 2393.7797852  -999.250000 15.319999695  -999.250000 0.0230000000 0.3237300217 2.3789999485 48.605300903 115.37300110 1.1560224295 60.079952240 1.2499775887 1.2499775887
 2393.9321289  -999.250000 14.656001091  -999.250000 0.0099999998 0.3349599838 2.3770000935 49.777294159 114.56560516 1.1569967270 59.969352722 1.2290673256 1.2290673256
 2394.0844727  -999.250000 14.468998909  -999.250000 0.0149999997 0.3491199911 2.3870000839 46.199516296 115.55979919 1.1500223875 60.980747223 1.2688719034 1.2688719034
 2394.2368164  -999.250000 15.180000305  -999.250000 0.0010000000 0.3632799983 2.3750000000 47.246597290 113.38201141 1.1589711905 60.844451904 1.2699967623 1.2699967623
