# LAS format log file from PETREL
# Project units are specified as depth units
#==================================================================
~Version information
VERS.   2.0:
WRAP.   NO:
#==================================================================
~Well
STRT .m      3544.0620117 :
STOP .m      3899.9160156 :
STEP .m     0.00000000 :
NULL .        -999.250000 :
COMP.           : COMPANY
WELL.  34/5-1 S   : WELL
FLD.            : FIELD
LOC.            : LOCATION
SRVC.           : SERVICE COMPANY
DATE.  2018-09-11 14:48:51   : Log Export Date {yyyy-MM-dd HH:mm:ss}
PROV.           : PROVINCE
UWI.   34/5-1 S   : UNIQUE WELL ID
API.            : API NUMBER
#==================================================================
~Curve
DEPT .m                   : DEPTH
Lithology_geolink ._      : Lithology_geolink
DCAL .in                  : DCAL
CALI .in                  : CALI
BS .in                    : BS
ROP .m/h                  : ROP
DRHO .g/cm3               : DRHO
THOR .ppm                 : THOR
NPHI .m3/m3               : NPHI
RHOB .g/cm3               : RHOB
PEF .b/e                  : PEF
GR .gAPI                  : GR
URAN .ppm                 : URAN
DTC .us/ft                : DTC
DTS .us/ft                : DTS
RDEP .ohm.m               : RDEP
RMED .ohm.m               : RMED
~Parameter
#==================================================================
~Ascii
# ...
 3566.6171875 6.0000000000  -999.250000  -999.250000 12.250000954 37.369750977  -999.250000 6.2460999489 0.3713429868  -999.250000  -999.250000 121.43399811 2.8382000923 82.148994446 168.56109619 1.9563000202 2.0517001152
 3566.7695313 6.0000000000  -999.250000  -999.250000 12.250000954 35.004261017  -999.250000 5.9517998695 0.3726190031  -999.250000  -999.250000 120.81749725 2.9435999393 81.304199219 167.63169861 1.9599000216 2.0490999222
 3566.9218750 6.0000000000  -999.250000  -999.250000 12.250000954 32.498031616  -999.250000 6.3024001122 0.3839530051  -999.250000  -999.250000 121.49790192 2.8127999306 82.721000671 165.59240723 1.9476000071 2.0485999584
 3567.0744629 6.0000000000  -999.250000  -999.250000 12.250000954 29.540351868  -999.250000 7.1236000061 0.3981409967  -999.250000  -999.250000 117.89019775 2.6098999977 85.604492188 166.06930542 1.9402999878 2.0434000492
 3567.2268066 6.0000000000  -999.250000  -999.250000 12.250000954 26.298229218  -999.250000 7.3807001114 0.4011659920  -999.250000  -999.250000 116.41699982 2.5071001053 89.131393433 168.00860596 1.9385999441 2.0364999771
 3567.3791504 6.0000000000  -999.250000  -999.250000 12.250000954 24.800519943  -999.250000 7.2354001999 0.3979569972  -999.250000  -999.250000 117.66179657 2.6472001076 90.762008667 171.34669495 1.9328000546 2.0193998814
 3567.5314941 6.0000000000  -999.250000  -999.250000 12.250000954 27.297237396  -999.250000 7.5107002258 0.3758279979  -999.250000  -999.250000 117.12580109 2.8059999943 90.841598511 174.29739380 1.8944000006 1.9665999413
 3567.6840820 7.0000000000  -999.250000  -999.250000 12.250000954 33.149280548  -999.250000 7.2582001686 0.3768239915  -999.250000  -999.250000 118.08860016 2.9381999969 91.991302490 177.06340027 1.8207000494 1.8912999630
 3567.8364258 7.0000000000  -999.250000  -999.250000 12.250000954 37.459320068  -999.250000 7.1658000946 0.3965550065  -999.250000  -999.250000 120.16369629 2.8636999130 93.642898560 179.21400452 1.7594000101 1.8404999971
 3567.9887695 7.0000000000  -999.250000  -999.250000 12.250000954 37.172569275  -999.250000 7.0412998199 0.4205340147  -999.250000  -999.250000 124.97339630 2.7737998962 94.511001587 182.02632141 1.7139999866 1.8227000237
 3568.1411133 7.0000000000  -999.250000  -999.250000 12.250000954 32.953739166  -999.250000 7.7603001595 0.4263580143  -999.250000  -999.250000 128.27619934 2.4230999947 95.075988770 183.11650085 1.6905000210 1.7723000050
 3568.2937012 7.0000000000  -999.250000  -999.250000 12.250000954 29.791667938  -999.250000 8.4486999512 0.4322679937  -999.250000  -999.250000 128.14169312 2.0873000622 93.227897644 184.11930847 1.6677000523 1.7480000257
 3568.4460449 7.0000000000  -999.250000  -999.250000 12.250000954 32.296260834  -999.250000 8.6414003372 0.4469990134  -999.250000  -999.250000 127.93460083 2.0192999840 90.923500061 184.46659851 1.6525000334 1.7396999598
 3568.5983887 7.0000000000  -999.250000  -999.250000 12.250000954 37.844158173  -999.250000 8.9771995544 0.4499939978  -999.250000  -999.250000 128.23699951 1.8072999716 90.404098511 185.53269958 1.6747000217 1.7677999735
 3568.7507324 7.0000000000  -999.250000  -999.250000 12.250000954 39.017059326  -999.250000 8.6022996902 0.4342670143  -999.250000  -999.250000 129.01739502 1.9042999744 90.069694519 184.82110596 1.6812000275 1.7784999609
 3568.9030762 7.0000000000  -999.250000  -999.250000 12.250000954 37.137470245  -999.250000 8.1700000763 0.4346159995  -999.250000  -999.250000 128.63040161 2.1077001095 88.653694153 182.07209778 1.6761000156 1.7768000364
 3569.0556641 7.0000000000  -999.250000  -999.250000 12.250000954 34.132549286  -999.250000 7.5722999573 0.4424059987  -999.250000  -999.250000 127.71459961 2.1359999180 88.187606812 178.80599976 1.6829999685 1.7892999649
 3569.2080078 7.0000000000  -999.250000  -999.250000 12.250000954 30.364168167  -999.250000 7.6646003723 0.4355930090  -999.250000  -999.250000 128.03779602 1.8746999502 88.625289917 177.26759338 1.7057000399 1.8054000139
 3569.3603516 7.0000000000  -999.250000  -999.250000 12.250000954 27.340879440  -999.250000 8.8159999847 0.4049269855  -999.250000  -999.250000 128.72329712 1.5123000145 88.577903748 178.35520935 1.7253999710 1.8222999573
 3569.5126953 7.0000000000  -999.250000  -999.250000 12.250000954 25.257869720  -999.250000 10.051199913 0.4017539918  -999.250000  -999.250000 127.46320343 1.5205999613 88.942001343 179.55540466 1.7231999636 1.8205000162
 3569.6652832 7.0000000000  -999.250000  -999.250000 12.250000954 22.882869720  -999.250000 10.753499985 0.4096120000  -999.250000  -999.250000 124.70539856 1.5944999456 90.347496033 181.30830383 1.7066999674 1.7812999487
 3569.8176270 7.0000000000  -999.250000  -999.250000 12.250000954 21.270669937  -999.250000 10.762900352 0.4209949970  -999.250000  -999.250000 122.44599915 1.8643000126 91.181701660 182.50329590 1.6563999653 1.7365000248
 3569.9699707 7.0000000000  -999.250000  -999.250000 12.250000954 21.623359680  -999.250000 11.099100113 0.4110299945  -999.250000  -999.250000 123.98400116 1.8616000414 91.416107178 182.52209473 1.6294000149 1.7132999897
 3570.1223145 7.0000000000  -999.250000  -999.250000 12.250000954 23.270669937  -999.250000 10.747799873 0.4267849922  -999.250000  -999.250000 127.63849640 1.9053000212 91.564903259 182.20500183 1.6196999550 1.6984000206
 3570.2749023 7.0000000000  -999.250000  -999.250000 12.250000954 24.159780502  -999.250000 9.5186004639 0.4392409921  -999.250000  -999.250000 131.39840698 2.0885999203 91.802612305 181.93519592 1.6097999811 1.6951999664
 3570.4272461 7.0000000000  -999.250000  -999.250000 12.250000954 22.996389389  -999.250000 8.8316001892 0.4411650002  -999.250000  -999.250000 133.21980286 2.0766000748 92.477691650 181.97399902 1.6086000204 1.6979999542
 3570.5795898 7.0000000000  -999.250000  -999.250000 12.250000954 21.308399200  -999.250000 9.0024995804 0.4331159890  -999.250000  -999.250000 131.87629700 2.1505999565 92.227401733 182.59910583 1.6141999960 1.7010999918
 3570.7319336 7.0000000000  -999.250000  -999.250000 12.250000954 21.002620697  -999.250000 10.254899979 0.4221259952  -999.250000  -999.250000 131.20239258 1.9624999762 91.718696594 183.30189514 1.6144000292 1.6957999468
 3570.8842773 7.0000000000  -999.250000  -999.250000 12.250000954 25.014440536  -999.250000 10.824600220 0.4133810103  -999.250000  -999.250000 125.47979736 1.8792999983 91.435897827 183.73249817 1.6036000252 1.6665999889
 3571.0368652 7.0000000000  -999.250000  -999.250000 12.250000954 28.379917145  -999.250000 10.410400391 0.3826360106  -999.250000  -999.250000 123.46869659 1.8596999645 90.978401184 183.66520691 1.5735000372 1.6466000080
 3571.1892090 7.0000000000  -999.250000  -999.250000 12.250000954 29.885173798  -999.250000 9.7764997482 0.3607969880  -999.250000  -999.250000 123.31379700 1.7431000471 89.340698242 183.58059692 1.5499000549 1.6366000175
 3571.3415527 7.0000000000  -999.250000  -999.250000 12.250000954 31.535106659  -999.250000 9.1656999588 0.3734529912  -999.250000  -999.250000 124.82369995 1.7194000483 89.822998047 183.81669617 1.5525000095 1.6352000237
 3571.4938965 7.0000000000  -999.250000  -999.250000 12.250000954 35.039699554  -999.250000 8.9774999619 0.4060010016  -999.250000  -999.250000 128.89500427 1.7479000092 90.698799133 183.76759338 1.5572999716 1.6421999931
 3571.6464844 7.0000000000  -999.250000  -999.250000 12.250000954 36.524929047  -999.250000 9.0165004730 0.4520770013  -999.250000  -999.250000 128.92829895 1.7055000067 91.035102844 183.55029297 1.5512000322 1.6337000132
 3571.7988281 7.0000000000  -999.250000  -999.250000 12.250000954 33.466861725  -999.250000 9.3105001450 0.4608789980  -999.250000  -999.250000 133.01770020 1.5460000038 91.784301758 183.59010315 1.5226000547 1.6277999878
 3571.9511719 7.0000000000  -999.250000  -999.250000 12.250000954 29.273622513  -999.250000 9.4414997101 0.4479809999  -999.250000  -999.250000 134.80090332 1.1232999563 91.249496460 183.83529663 1.5084999800 1.5935000181
 3572.1035156 7.0000000000  -999.250000  -999.250000 12.250000954 26.438320160  -999.250000 9.2238998413 0.4236460030  -999.250000  -999.250000 134.00880432 0.8881000280 91.944900513 184.53149414 1.4758000374 1.5635000467
