# LAS format log file from PETREL
# Project units are specified as depth units
#==================================================================
~Version information
VERS.   2.0:
WRAP.   NO:
#==================================================================
~Well
STRT .m      3544.0620117 :
STOP .m      3899.9160156 :
STEP .m     0.00000000 :
NULL .        -999.250000 :
COMP.           : COMPANY
WELL.  34/5-1 S   : WELL
FLD.            : FIELD
LOC.            : LOCATION
SRVC.           : SERVICE COMPANY
DATE.  2018-09-11 14:48:51   : Log Export Date {yyyy-MM-dd HH:mm:ss}
PROV.           : PROVINCE
UWI.   34/5-1 S   : UNIQUE WELL ID
API.            : API NUMBER
#==================================================================
~Curve
DEPT .m                   : DEPTH
Lithology_geolink ._      : Lithology_geolink
DCAL .in                  : DCAL
CALI .in                  : CALI
BS .in                    : BS
ROP .m/h                  : ROP
DRHO .g/cm3               : DRHO
THOR .ppm                 : THOR
NPHI .m3/m3               : NPHI
RHOB .g/cm3               : RHOB
PEF .b/e                  : PEF
GR .gAPI                  : GR
URAN .ppm                 : URAN
DTC .us/ft                : DTC
DTS .us/ft                : DTS
RDEP .ohm.m               : RDEP
RMED .ohm.m               : RMED
~Parameter
#==================================================================
~Ascii
# ...
 3893.6677246 3.0000000000 -0.211499989 8.2884998322 8.5000000000 235.58099365 0.0371140018  -999.250000 0.2351060063 2.5051133633 0.1000000015 36.269500732  -999.250000  -999.250000  -999.250000 2.1914000511 2.1891000271
 3893.8200684 3.0000000000 -0.211600006 8.2883996964 8.5000000000 244.86323547 0.0384109989  -999.250000 0.2353949994 2.4976119995 0.1000000015 36.955699921  -999.250000  -999.250000  -999.250000 2.2160000801 2.2135000229
 3893.9724121 3.0000000000 -0.213999987 8.2860002518 8.5000000000 206.26640320 0.0407340005  -999.250000 0.2322950065 2.4972007275 0.1000000015 38.680698395  -999.250000  -999.250000  -999.250000 2.3152000904 2.3519999981
 3894.1247559 3.0000000000 -0.204500020 8.2954998016 8.5000000000 167.85499573 0.0444890000  -999.250000 0.2288729995 2.4993927479 0.1000000015 35.863601685  -999.250000  -999.250000  -999.250000 2.9523999691 3.1380000114
 3894.2773438 3.0000000000 -0.205300003 8.2946996689 8.5000000000 121.04988861 0.0493770018  -999.250000 0.2267149985 2.4991004467 0.1000000015 50.683300018  -999.250000  -999.250000  -999.250000 3.5694999695 3.9184000492
 3894.4296875 3.0000000000 -0.218400002 8.2815999985 8.5000000000 87.608917236 0.0543560013  -999.250000 0.2213259935 2.4965040684 0.1000000015 59.042198181  -999.250000  -999.250000  -999.250000 3.2876000404 3.5594999790
 3894.5820313 7.0000000000 -0.217999995 8.2819995880 8.5000000000 67.488189697 0.0586199984  -999.250000 0.2196000069 2.4950022697 0.1000000015 101.17279816  -999.250000  -999.250000  -999.250000 3.1624999046 3.3173000813
 3894.7343750 7.0000000000 -0.220799997 8.2791996002 8.5000000000 66.954071045 0.0620700009  -999.250000 0.2242570072 2.4962959290 0.1000000015 121.27500153  -999.250000  -999.250000  -999.250000 3.6038999557 3.8362998962
 3894.8869629 7.0000000000 -0.218099996 8.2819004059 8.5000000000 72.554130554 0.0654750019  -999.250000 0.2298620045 2.4986960888 0.1000000015 109.20279694  -999.250000  -999.250000  -999.250000 4.3559999466 5.0651998520
 3895.0393066 7.0000000000 -0.225999996 8.2740001678 8.5000000000 72.481956482 0.0688510016  -999.250000 0.2295639962 2.4997982979 0.1000000015 95.414199829  -999.250000  -999.250000  -999.250000 4.8063001633 5.7421998978
 3895.1916504 6.0000000000 -0.209500000 8.2904996872 8.5000000000 64.147636414 0.0728460029  -999.250000 0.2301300019 2.5015971661 0.1000000015 85.208503723  -999.250000  -999.250000  -999.250000 4.6746001244 5.5525999069
 3895.3439941 6.0000000000 -0.210800007 8.2891998291 8.5000000000 60.524608612 0.0770009980  -999.250000 0.2289640009 2.5047948360 0.1000000015 77.537498474  -999.250000  -999.250000  -999.250000 4.1315999031 4.7941999435
 3895.4963379  -999.250000 -0.226199999 8.2737998962 8.5000000000 69.285430908 0.0716639981  -999.250000 0.2344339937 2.4944331646 0.1000000015 74.252700806  -999.250000  -999.250000  -999.250000 3.4804000854 3.8740999699
 3895.6489258  -999.250000 -0.217999995 8.2819995880 8.5000000000 91.864501953 0.0663210005  -999.250000 0.2359209955 2.4825191498 0.1000000015 77.572303772  -999.250000  -999.250000  -999.250000 3.1872000694 3.4456000328
 3895.8012695  -999.250000 -0.227699995 8.2722997665 8.5000000000 115.49568939 0.0519490018  -999.250000 0.2387830019 2.4603354931 0.1000000015 75.775596619  -999.250000  -999.250000  -999.250000 3.2795000076 3.5039999485
 3895.9536133  -999.250000 -0.222800002 8.2771997452 8.5000000000 110.57319641 0.0477060005  -999.250000 0.2401800007 2.4526124001 0.1000000015 67.869300842  -999.250000  -999.250000  -999.250000 3.3699998856 3.5880000591
 3896.1059570  -999.250000 -0.213499993 8.2864999771 8.5000000000 91.728347778 0.0563890003  -999.250000 0.2418999970 2.4612720013 0.1000000015 65.424400330  -999.250000  -999.250000  -999.250000 3.2808001041 3.3882000446
 3896.2585449  -999.250000 -0.219500005 8.2805004120 8.5000000000 69.475067139 0.0651109964  -999.250000 0.2471040040 2.4702856541 0.1000000015 66.205299377  -999.250000  -999.250000  -999.250000 3.0829000473 3.1115999222
 3896.4108887  -999.250000 -0.212400004 8.2875995636 8.5000000000 52.834640503 0.0566419996  -999.250000 0.2451799959 2.4573206902 0.1000000015 64.588996887  -999.250000  -999.250000  -999.250000 2.8259999752 2.8106999397
 3896.5632324  -999.250000 -0.206499994 8.2934999466 8.5000000000 42.867130280 0.0298110005  -999.250000 0.2388850003 2.4243528843 0.1000000015 64.851799011  -999.250000  -999.250000  -999.250000 2.6651000977 2.6473999023
 3896.7155762  -999.250000 -0.222000003 8.2779998779 8.5000000000 39.559711456 0.0105290003  -999.250000 0.2297209948 2.3997786045 0.1000000015 60.830200195  -999.250000  -999.250000  -999.250000 2.6340000629 2.6473999023
 3896.8681641  -999.250000 -0.225600019 8.2743997574 8.5000000000 43.159450531 0.0058690002  -999.250000 0.2317920029 2.3934099674 0.1000000015 59.328201294  -999.250000  -999.250000  -999.250000 2.6631999016 2.6861000061
 3897.0205078  -999.250000 -0.239500001 8.2604999542 8.5000000000 49.911090851 0.0049859998  -999.250000 0.2367260009 2.3913033009 0.1000000015 61.575801849  -999.250000  -999.250000  -999.250000 2.6208999157 2.6621000767
 3897.1728516  -999.250000 -0.226899981 8.2730998993 8.5000000000 56.518039703 0.0037420001  -999.250000 0.2371309996 2.3864078522 0.1000000015 60.607601166  -999.250000  -999.250000  -999.250000 2.5466001034 2.6047000885
 3897.3251953  -999.250000 -0.233600006 8.2664003372 8.5000000000 62.930770874 0.0038719999  -999.250000 0.2327950001 2.3842036724 0.1000000015 65.707603455  -999.250000  -999.250000  -999.250000 2.4700000286 2.5527999401
 3897.4775391  -999.250000 -0.224799991 8.2751998901 8.5000000000 73.109909058 0.0049680001  -999.250000 0.2323289961 2.3836019039 0.1000000015 61.256599426  -999.250000  -999.250000  -999.250000 2.4228999615 2.5048999786
 3897.6301270  -999.250000 -0.221800014 8.2782001495 8.5000000000 83.866470337 0.0069920002  -999.250000  -999.250000 2.3861958981 0.1000000015 57.780700684  -999.250000  -999.250000  -999.250000 2.4142999649 2.4830000401
 3897.7824707  -999.250000 -0.235600010 8.2643995285 8.5000000000 85.947830200 0.0090290001  -999.250000  -999.250000 2.3890955448 0.1000000015 57.584999084  -999.250000  -999.250000  -999.250000 2.4393000603 2.4716999531
 3897.9348145  -999.250000 -0.232300013 8.2677001953 8.5000000000 89.070213318 0.0101359999  -999.250000  -999.250000 2.3893995285 0.1000000015 62.195301056  -999.250000  -999.250000  -999.250000 2.5144999027 2.4914000034
 3898.0871582  -999.250000 -0.233199984 8.2667999268 8.5000000000 105.92810059 0.0095279999  -999.250000  -999.250000 2.3835189342 0.1000000015 64.185798645  -999.250000  -999.250000  -999.250000 2.5717000961 2.5513000488
 3898.2397461  -999.250000 -0.239000008 8.2609996796 8.5000000000 128.83790588 0.0072969999  -999.250000  -999.250000 2.3700215816 0.1000000015 68.662696838  -999.250000  -999.250000  -999.250000 2.6575999260 2.6208999157
 3898.3920898  -999.250000 -0.220799997 8.2791996002 8.5000000000 127.17259216 0.0050340001  -999.250000  -999.250000 2.3577198982 0.1000000015 66.468696594  -999.250000  -999.250000  -999.250000 2.7925999165 2.6937999725
 3898.5444336  -999.250000 -0.219699979 8.2803001404 8.5000000000 121.53639984 0.0039180000  -999.250000  -999.250000 2.3526082039 0.1000000015 58.672100067  -999.250000  -999.250000  -999.250000 2.9047000408 2.8145000935
 3898.6967773  -999.250000 -0.219500005 8.2805004120 8.5000000000 121.49668884 0.0038600001  -999.250000  -999.250000 2.3531980515 0.1000000015 54.555698395  -999.250000  -999.250000  -999.250000 3.0220000744 2.8766000271
 3898.8493652  -999.250000 -0.229799971 8.2701997757 8.5000000000 121.24669647 0.0048940000  -999.250000  -999.250000 2.3514027596 0.1001996771 49.606899261  -999.250000  -999.250000  -999.250000 3.0023999214 2.8089001179
 3899.0017090  -999.250000 -0.235100016 8.2649002075 8.5000000000 107.22210693 0.0064920001  -999.250000  -999.250000 2.3479056358 0.1118812487 45.982299805  -999.250000  -999.250000  -999.250000 2.9296998978 2.7079999447
 3899.1540527  -999.250000 -0.227299988 8.2727003098 8.5000000000 85.612213135 0.0107199997  -999.250000  -999.250000 2.3476004601 0.1839842945 47.837001801  -999.250000  -999.250000  -999.250000 2.7205998898 2.4956998825
