# LAS format log file from PETREL
# Project units are specified as depth units
#==================================================================
~Version information
VERS.   2.0:
WRAP.   NO:
#==================================================================
~Well
STRT .m      3544.0620117 :
STOP .m      3899.9160156 :
STEP .m     0.00000000 :
NULL .        -999.250000 :
COMP.           : COMPANY
WELL.  34/5-1 S   : WELL
FLD.            : FIELD
LOC.            : LOCATION
SRVC.           : SERVICE COMPANY
DATE.  2018-09-11 14:48:51   : Log Export Date {yyyy-MM-dd HH:mm:ss}
PROV.           : PROVINCE
UWI.   34/5-1 S   : UNIQUE WELL ID
API.            : API NUMBER
#==================================================================
~Curve
DEPT .m                   : DEPTH
Lithology_geolink ._      : Lithology_geolink
DCAL .in                  : DCAL
CALI .in                  : CALI
BS .in                    : BS
ROP .m/h                  : ROP
DRHO .g/cm3               : DRHO
THOR .ppm                 : THOR
NPHI .m3/m3               : NPHI
RHOB .g/cm3               : RHOB
PEF .b/e                  : PEF
GR .gAPI                  : GR
URAN .ppm                 : URAN
DTC .us/ft                : DTC
DTS .us/ft                : DTS
RDEP .ohm.m               : RDEP
RMED .ohm.m               : RMED
~Parameter
#==================================================================
~Ascii
# ...
 3662.4765625 6.0000000000 0.8086000085 9.3086004257 8.5000000000  -999.250000 -0.002742000 11.174500465 0.2632110119 2.4361007214 3.6507036686 87.645545959 2.1454000473 88.808227539 168.03298950 2.7992260456 2.8395090103
 3662.6291504 6.0000000000 0.7208999991 9.2208995819 8.5000000000  -999.250000 -0.004771000 11.289999962 0.2686069906 2.4305090904 3.6685714722 87.978660583 2.0297999382 88.659637451 167.94543457 2.7899150848 2.8394999504
 3662.7814941 6.0000000000 0.7082999945 9.2082996368 8.5000000000  -999.250000 -0.007566000 11.744700432 0.2784120142 2.4245095253 3.6544227600 89.551773071 2.0471999645 89.045684814 167.74542236 2.7828114033 2.8294162750
 3662.9338379 6.0000000000 0.7120000124 9.2119998932 8.5000000000  -999.250000 -0.009322000 12.292499542 0.2769100070 2.4227027893 3.6142644882 90.144554138 1.9530000687 89.395538330 167.35592651 2.7698206902 2.8121275902
 3663.0861816 6.0000000000 0.7400000095 9.2399997711 8.5000000000  -999.250000 -0.009236000 12.301500320 0.2771210074 2.4273850918 3.5764212608 89.370285034 1.9931001663 89.609512329 166.89378357 2.7750830650 2.8168847561
 3663.2387695 6.0000000000 0.7225999832 9.2225999832 8.5000000000  -999.250000 -0.006818000 11.903900146 0.2737669945 2.4384820461 3.5453495979 88.970138550 1.8684999943 89.989891052 166.68302917 2.8144369125 2.8564364910
 3663.3911133 6.0000000000 0.7238000035 9.2237997055 8.5000000000  -999.250000 -0.002893000 11.585300446 0.2723250091 2.4509799480 3.5311226845 89.046081543 1.9496998787 90.187187195 167.31947327 2.8629221916 2.9048225880
 3663.5434570 6.0000000000 0.7142000198 9.2142000198 8.5000000000  -999.250000 -0.000378000 11.007300377 0.2607479990 2.4545943737 3.5259082317 88.942466736 1.9888000488 90.208770752 168.01028442 2.8511190414 2.8871285915
 3663.6958008 6.0000000000 0.6737999916 9.1738004684 8.5000000000  -999.250000 -0.000993000 10.599399567 0.2580080032 2.4468250275 3.5480289459 87.019470215 1.9259001017 90.288841248 168.16241455 2.8058452606 2.8363628387
 3663.8483887 6.0000000000 0.6276999712 9.1276998520 8.5000000000  -999.250000 -0.002158000 10.407099724 0.2641940117 2.4419078827 3.5591821671 87.923736572 2.2328000069 90.535301208 168.25334167 2.8101928234 2.8355011940
 3664.0007324 6.0000000000 0.6535999179 9.1535997391 8.5000000000  -999.250000 -0.000882000 10.781800270 0.2772780061 2.4459934235 3.5757732391 90.940666199 2.3145000935 90.737579346 168.28385925 2.8433468342 2.8638544083
 3664.1530762 6.0000000000 0.6808000207 9.1808004379 8.5000000000  -999.250000 0.0008980000 11.725500107 0.2768259943 2.4490950108 3.5680124760 92.400466919 2.0650999546 91.014556885 168.05097961 2.8310198784 2.8494231701
 3664.3054199 6.0000000000 0.7167999148 9.2167997360 8.5000000000  -999.250000 0.0008320000 12.046199799 0.2715809941 2.4435091019 3.5613107681 91.240470886 2.0394001007 91.019294739 167.91262817 2.7994506359 2.8134577274
 3664.4580078 6.0000000000 0.7303999662 9.2304000854 8.5000000000  -999.250000 -0.003123000 12.036899567 0.2725900114 2.4255287647 3.5881569386 89.424407959 1.9358999729 90.916770935 167.97799683 2.7907137871 2.8051133156
 3664.6103516 6.0000000000 0.6822000146 9.1822004318 8.5000000000  -999.250000 -0.005332000 11.929800034 0.2761749923 2.4195096493 3.6146576405 87.966835022 1.8628000021 90.673278809 168.23928833 2.7926969528 2.8100919724
 3664.7626953 6.0000000000 0.6764000654 9.1764001846 8.5000000000  -999.250000 -0.004517000 12.018099785 0.2759520113 2.4299831390 3.5860459805 87.678359985 1.8324999809 90.352119446 168.35700989 2.7923007011 2.8135943413
 3664.9150391 6.0000000000 0.6826000214 9.1826000214 8.5000000000  -999.250000 -0.002078000 12.218400002 0.2701210082 2.4468727112 3.5069267750 87.734611511 1.8812999725 90.226791382 168.34085083 2.7906026840 2.8211877346
 3665.0673828 6.0000000000 0.6342999935 9.1343002319 8.5000000000  -999.250000 -0.000637000 12.770099640 0.2763920128 2.4550738335 3.4580564499 89.743049622 1.8020000458 90.630706787 168.24559021 2.7642843723 2.8013637066
 3665.2199707 6.0000000000 0.6212999821 9.1212997437 8.5000000000  -999.250000 0.0000280000 13.135299683 0.2814869881 2.4551000595 3.4966378212 91.467147827 1.8277000189 91.236831665 168.25668335 2.7135813236 2.7577698231
 3665.3723145 6.0000000000 0.6646999717 9.1646995544 8.5000000000  -999.250000 0.0007850000 13.104900360 0.2854569852 2.4555993080 3.5935444832 90.988868713 1.9005000591 92.007362366 168.14347839 2.6959280968 2.7481155396
 3665.5246582 6.0000000000 0.6506000161 9.1506004333 8.5000000000  -999.250000 0.0023530000 13.453399658 0.2696610093 2.4626884460 3.7094142437 89.157341003 1.5132999420 92.571403503 168.27658081 2.6872138977 2.7474012375
 3665.6770020 6.0000000000 0.6355999112 9.1356000900 8.5000000000  -999.250000 0.0014480000 13.187100410 0.2459950000 2.4619026184 3.8082830906 87.896835327 1.4622999430 92.818305969 168.42413330 2.6670646667 2.7322485447
 3665.8295898 6.0000000000 0.6197999120 9.1197996140 8.5000000000  -999.250000 -0.000453000 12.551699638 0.2313220054 2.4561092854 3.8623137474 89.283363342 1.8604999781 92.687705994 168.62286377 2.6497275829 2.7177231312
 3665.9819336 6.0000000000 0.6279000044 9.1279001236 8.5000000000  -999.250000 -0.001259000 12.286700249 0.2360409945 2.4533045292 3.8578073978 91.080017090 2.2330000401 91.673423767 168.56939697 2.6344244480 2.7014262676
 3666.1342773 6.0000000000 0.6036000252 9.1035995483 8.5000000000  -999.250000 -0.000587000 11.568499565 0.2505899966 2.4575932026 3.7823212147 91.114250183 2.3522999287 90.792610168 168.34027100 2.6211211681 2.6834287643
 3666.2866211 6.0000000000 0.6212999821 9.1212997437 8.5000000000  -999.250000 -0.001065000 10.448699951 0.2486129999 2.4557061195 3.6767385006 89.241111755 2.2465000153 89.902755737 168.31278992 2.6194055080 2.6775188446
 3666.4392090 6.0000000000 0.6352999806 9.1352996826 8.5000000000  -999.250000 -0.002915000 9.9375000000 0.2462430000 2.4478125572 3.5616841316 87.620796204 2.2992000580 89.492958069 168.32786560 2.6450588703 2.6970684528
 3666.5915527 6.0000000000 0.6033999920 9.1034002304 8.5000000000  -999.250000 -0.003130000 10.017999649 0.2470770031 2.4430077076 3.4947073460 88.309494019 2.4347999096 89.542617798 168.74212646 2.6807427406 2.7242562771
 3666.7438965 6.0000000000 0.6129000187 9.1128997803 8.5000000000  -999.250000 -0.000506000 9.8634996414 0.2547180057 2.4510872364 3.5112733841 89.907234192 2.6231000423 90.225898743 169.31628418 2.6948773861 2.7329862118
 3666.8962402 6.0000000000 0.6169000268 9.1169004440 8.5000000000  -999.250000 0.0005850000 9.3900003433 0.2528040111 2.4573900700 3.6124377251 90.056961060 2.7811999321 90.913101196 169.97125244 2.6833186150 2.7169258595
 3667.0485840 6.0000000000 0.6610000134 9.1610002518 8.5000000000  -999.250000 -0.000099000 8.6303997040 0.2557530105 2.4616861343 3.7663064003 88.845489502 2.9314999580 91.109672546 170.81907654 2.6640617847 2.6909832954
 3667.2011719 6.0000000000 0.6510000825 9.1510000229 8.5000000000  -999.250000 -0.000658000 7.7880005836 0.2607020140 2.4679899216 3.8804175854 87.597496033 3.2021000385 91.149536133 171.56361389 2.6426343918 2.6666388512
 3667.3535156 6.0000000000 0.6521999836 9.1521997452 8.5000000000  -999.250000 0.0001070000 7.2690000534 0.2686859965 2.4751884937 3.8709154129 86.835418701 3.1863000393 90.612663269 171.60153198 2.6174402237 2.6420392990
 3667.5058594 6.0000000000 0.6425999403 9.1426000595 8.5000000000  -999.250000 0.0007620000 7.6234998703 0.2781490088 2.4813899994 3.7613756657 89.359748840 3.1110999584 90.481109619 171.30387878 2.6187977791 2.6420998573
 3667.6582031 6.0000000000 0.6025000215 9.1024999619 8.5000000000  -999.250000 0.0002040000 8.1073999405 0.2837300003 2.4835927486 3.6106832027 89.930381775 2.8420999050 90.849510193 171.00067139 2.6491026878 2.6721036434
 3667.8107910 6.0000000000 0.5713000298 9.0712995529 8.5000000000  -999.250000 -0.000248000 8.7378997803 0.2799780071 2.4848978519 3.5130560398 91.741096497 2.9202001095 90.833427429 170.99649048 2.6701664925 2.6928668022
 3667.9631348 6.0000000000 0.5486000180 9.0486001968 8.5000000000  -999.250000 -0.000716000 8.3937997818 0.2697460055 2.4833025932 3.4695696831 90.041931152 3.4275000095 90.961692810 170.79891968 2.6732950211 2.6943976879
