# LAS format log file from PETREL
# Project units are specified as depth units
#==================================================================
~Version information
VERS.   2.0:
WRAP.   NO:
#==================================================================
~Well
STRT .m      2119.3232422 :
STOP .m      4394.3505859 :
STEP .m     0.00000000 :
NULL .        -999.250000 :
COMP.           : COMPANY
WELL.  34/5-1 A   : WELL
FLD.            : FIELD
LOC.            : LOCATION
SRVC.           : SERVICE COMPANY
DATE.  2018-09-11 14:48:50   : Log Export Date {yyyy-MM-dd HH:mm:ss}
PROV.           : PROVINCE
UWI.   34/5-1 A   : UNIQUE WELL ID
API.            : API NUMBER
#==================================================================
~Curve
DEPT .m                   : DEPTH
Lithology_geolink ._      : Lithology_geolink
CALI .in                  : CALI
BS .in                    : BS
ROP .m/h                  : ROP
DRHO .g/cm3               : DRHO
NPHI .m3/m3               : NPHI
RHOB .g/cm3               : RHOB
PEF .b/e                  : PEF
GR .gAPI                  : GR
DTC .us/ft                : DTC
DTS .us/ft                : DTS
RDEP .ohm.m               : RDEP
RMED .ohm.m               : RMED
~Parameter
#==================================================================
~Ascii
# ...
 4385.8159180 7.0000000000 8.6405000687 8.5000000000 37.875984192 0.0118000004 0.2460000068 2.5357999802 9.1076002121 121.63680267  -999.250000  -999.250000 3.1867001057 2.9879000187
 4385.9687500 6.0000000000 8.6646995544 8.5000000000 35.320869446 0.0161000006 0.2647916675 2.5371000767 9.4987001419 119.70747375  -999.250000  -999.250000 3.2344999313 3.0329999924
 4386.1210938 6.0000000000 8.5767002106 8.5000000000 32.065944672 0.0115999999 0.2933455110 2.5288000107 8.9674997330 116.43569183  -999.250000  -999.250000 3.3001999855 3.1184000969
 4386.2734375 6.0000000000 8.5025997162 8.5000000000 28.305120468 0.0153999999 0.3075374961 2.5385999680 9.5474004745 117.21475983  -999.250000  -999.250000 3.3329999447 3.1710000038
 4386.4257813 6.0000000000 8.4071998596 8.5000000000 28.514436722 0.0092000002 0.3191791773 2.5750000477 10.265199661 117.88205719  -999.250000  -999.250000 3.3698000908 3.2286000252
 4386.5781250 6.0000000000 8.4759998322 8.5000000000 28.918964386 -0.017000001 0.3126865923 2.5801000595 11.486700058 116.23593903  -999.250000  -999.250000 3.3626999855 3.2263998985
 4386.7304688 6.0000000000 8.7632999420 8.5000000000 27.615486145 0.0044999998 0.3084999919 2.5913000107 10.684000015 120.67669678  -999.250000  -999.250000 3.3073999882 3.1840000153
 4386.8828125 6.0000000000 8.7362003326 8.5000000000 25.113843918 0.0114000002 0.3195999861 2.5336999893 10.142299652 126.03549957  -999.250000  -999.250000 3.2049999237 3.1112999916
 4387.0351563 6.0000000000 8.6190996170 8.5000000000 24.222114563 0.0063000000 0.3348999918 2.4848999977 10.379400253 120.62570190  -999.250000  -999.250000 3.0713000298 2.9874000549
 4387.1879883 6.0000000000 8.5687999725 8.5000000000 28.138122559 -0.016300000 0.3420147598 2.4742000103 10.585700035 126.15695190  -999.250000  -999.250000 2.8682000637 2.7811999321
 4387.3403320 6.0000000000 8.4935998917 8.5000000000 37.783794403 0.0070000002 0.3465894163 2.5596001148 10.289699554 123.81457520  -999.250000  -999.250000 2.5789000988 2.4626998901
 4387.4926758 6.0000000000 8.5809001923 8.5000000000 52.871715546 -0.000600000 0.3432586789 2.5706999302 10.807900429 115.52410889  -999.250000  -999.250000 2.4172999859 2.2852001190
 4387.6450195 6.0000000000 8.5630998611 8.5000000000 86.348098755 0.0155999996 0.3302801251 2.5952999592 11.130000114 122.07361603  -999.250000  -999.250000 2.3928999901 2.2599999905
 4387.7973633 6.0000000000 8.5305004120 8.5000000000 101.40190887 0.0076000001 0.2929381430 2.5580000877 11.137599945 136.07162476  -999.250000  -999.250000 2.3315999508 2.1977999210
 4387.9497070 6.0000000000 8.4828996658 8.5000000000 109.01738739 0.0038999999 0.2735993564 2.5843999386 11.342599869 135.71791077  -999.250000  -999.250000 2.2887001038 2.1433000565
 4388.1020508 7.0000000000 8.6434001923 8.5000000000 95.223426819 -0.000600000 0.2422000021 2.5847001076 11.507300377 129.72740173  -999.250000  -999.250000 2.1953999996 2.0838999748
 4388.2543945 7.0000000000 8.7318000793 8.5000000000 100.56069946 0.0077000000 0.2198999971 2.5476999283 9.8052997589 114.16010284  -999.250000  -999.250000 2.1061000824 2.0394001007
 4388.4067383 7.0000000000 8.7483997345 8.5000000000 100.91699982 0.0087000001 0.2109999955 2.4900000095 8.9906997681 104.32430267  -999.250000  -999.250000 2.0007998943 1.9335999489
 4388.5595703 2.0000000000 8.7290000916 8.5000000000 84.124015808 0.0103000002 0.2110964656 2.4711000919 8.8111000061 89.015647888  -999.250000  -999.250000 1.8909000158 1.8008999825
 4388.7119141 2.0000000000 8.7253999710 8.5000000000 75.522308350 0.0156999994 0.2099983841 2.4684000015 8.7075996399 87.085769653  -999.250000  -999.250000 1.8287999630 1.6438000202
 4388.8642578 2.0000000000 8.6922998428 8.5000000000 70.256896973 0.0107000005 0.2094483972 2.4583001137 8.4278001785 81.602317810  -999.250000  -999.250000 1.8001999855 1.4938000441
 4389.0166016 2.0000000000 8.6203002930 8.5000000000 68.034446716 0.0091000004 0.1933692247 2.4563000202 8.3226003647 81.765525818  -999.250000  -999.250000 3.3559000492 2.9519999027
 4389.1689453 2.0000000000 8.5600004196 8.5000000000 73.510826111 0.0098999999 0.1837846637 2.4723999500 8.4223003387 82.654830933  -999.250000  -999.250000 3.6484000683 3.2637000084
 4389.3212891 2.0000000000 8.5120000839 8.5000000000 68.297897339 0.0092000002 0.1790000051 2.5081000328 8.9451999664 86.066802979  -999.250000  -999.250000 3.6886000633 3.7068998814
 4389.4736328 2.0000000000 8.5488004684 8.5000000000 53.825786591 0.0092000002 0.1714999974 2.5322000980 9.6284999847 94.797302246  -999.250000  -999.250000 3.7067000866 3.7076001167
 4389.6259766 2.0000000000 8.5594997406 8.5000000000 43.541339874 0.0129000004 0.1877000034 2.5664999485 10.059499741 90.944000244  -999.250000  -999.250000 3.5696001053 3.6359999180
 4389.7783203 2.0000000000 8.6806001663 8.5000000000 38.267063141 0.0055999998 0.2110999972 2.5388000011 9.4919996262 89.143798828  -999.250000  -999.250000 3.6549000740 3.6391999722
 4389.9311523 2.0000000000 8.6953001022 8.5000000000 39.166667938 0.0124000004 0.2168086618 2.5243999958 9.2110996246 87.574966431  -999.250000  -999.250000 3.7184998989 3.5883998871
 4390.0834961 2.0000000000 8.6561002731 8.5000000000 42.177822113 0.0098999999 0.2194968015 2.4886000156 8.6897001266 86.197364807  -999.250000  -999.250000 3.8794999123 3.7000999451
 4390.2358398 2.0000000000 8.5501003265 8.5000000000 47.803478241 0.0135000004  -999.250000 2.4907999039 8.7061996460 95.989273071  -999.250000  -999.250000 3.8006000519 3.6396999359
 4390.3881836 2.0000000000 8.5579996109 8.5000000000 49.408138275 0.0179999992  -999.250000 2.5494000912 9.1719999313 98.296440125  -999.250000  -999.250000 3.4309999943 3.2362000942
 4390.5405273 2.0000000000 8.5888004303 8.5000000000 49.304134369 0.0076000001  -999.250000 2.5576000214 9.3882999420 102.74517059  -999.250000  -999.250000 3.1322000027 2.8986001015
 4390.6928711 2.0000000000 8.6234998703 8.5000000000 43.690288544 0.0131999999  -999.250000 2.5585999489 9.3340997696 109.41239929  -999.250000  -999.250000 3.0322000980 2.8213000298
 4390.8452148 5.0000000000 8.6289997101 8.5000000000 39.603019714 0.0115000000  -999.250000 2.5432999134 9.0427999496 113.84269714  -999.250000  -999.250000 3.0422000885 2.8224000931
 4390.9975586 5.0000000000 8.5893001556 8.5000000000 40.558727264 0.0078999996  -999.250000 2.5427000523 9.4153003693 111.82319641  -999.250000  -999.250000 3.0903000832 2.8557000160
 4391.1503906 5.0000000000 8.4940996170 8.5000000000 46.242782593 0.0115000000  -999.250000 2.5754001141 9.2847995758 103.05152130  -999.250000  -999.250000 3.3915998936 3.1140999794
 4391.3027344 5.0000000000 8.5860004425 8.5000000000 47.394683838 0.0087000001  -999.250000 2.5799999237 9.5811996460 102.85533905  -999.250000  -999.250000 3.6545000076 3.3817999363
 4391.4550781 5.0000000000 8.6794996262 8.5000000000 45.270668030 0.0205000006  -999.250000 2.5836999416 9.6268997192 107.84290314  -999.250000  -999.250000 3.8136999607 3.5557000637
 4391.6074219 4.0000000000 8.6202001572 8.5000000000 42.283790588 0.0171000008  -999.250000 2.5755000114 9.9153995514 98.300354004  -999.250000  -999.250000 4.2346000671 4.1015000343
 4391.7597656 4.0000000000 8.5672998428 8.5000000000 39.625328064 0.0165999997  -999.250000 2.5824000835 9.9405002594 99.059387207  -999.250000  -999.250000 4.2554001808 4.1630001068
 4391.9121094 4.0000000000 8.5964002609 8.5000000000 39.182743073 0.0212999992  -999.250000 2.6173000336 10.095299721 97.684196472  -999.250000  -999.250000 4.3488001823 4.2713999748
 4392.0644531 4.0000000000 8.6986999512 8.5000000000 40.306102753 0.0237000007  -999.250000 2.6056001186 9.6199998856 96.116798401  -999.250000  -999.250000 4.6319999695 4.6304998398
 4392.2167969 4.0000000000 8.7095003128 8.5000000000 41.927822113 0.0151000004  -999.250000 2.5566000938 9.1497001648 95.964103699  -999.250000  -999.250000 4.7579002380 4.8007001877
 4392.3691406 4.0000000000 8.6051998138 8.5000000000 45.815616608 0.0137000000  -999.250000 2.5366001129 9.1026000977 95.633796692  -999.250000  -999.250000 4.7814998627 4.9085001945
