# LAS format log file from PETREL
# Project units are specified as depth units
#==================================================================
~Version information
VERS.   2.0:
WRAP.   NO:
#==================================================================
~Well
STRT .m      2119.3232422 :
STOP .m      4394.3505859 :
STEP .m     0.00000000 :
NULL .        -999.250000 :
COMP.           : COMPANY
WELL.  34/5-1 A   : WELL
FLD.            : FIELD
LOC.            : LOCATION
SRVC.           : SERVICE COMPANY
DATE.  2018-09-11 14:48:50   : Log Export Date {yyyy-MM-dd HH:mm:ss}
PROV.           : PROVINCE
UWI.   34/5-1 A   : UNIQUE WELL ID
API.            : API NUMBER
#==================================================================
~Curve
DEPT .m                   : DEPTH
Lithology_geolink ._      : Lithology_geolink
CALI .in                  : CALI
BS .in                    : BS
ROP .m/h                  : ROP
DRHO .g/cm3               : DRHO
NPHI .m3/m3               : NPHI
RHOB .g/cm3               : RHOB
PEF .b/e                  : PEF
GR .gAPI                  : GR
DTC .us/ft                : DTC
DTS .us/ft                : DTS
RDEP .ohm.m               : RDEP
RMED .ohm.m               : RMED
~Parameter
#==================================================================
~Ascii
# ...
 2132.7346191  -999.250000 13.231900215 17.500000000 42.131557465 0.0302105770  -999.250000  -999.250000  -999.250000 87.705589294  -999.250000  -999.250000  -999.250000  -999.250000
 2132.8869629  -999.250000 13.139300346 17.500000000 38.647415161 0.0367866978  -999.250000  -999.250000  -999.250000 85.086463928  -999.250000  -999.250000  -999.250000  -999.250000
 2133.0393066  -999.250000 13.013400078 17.500000000 33.393486023 0.0285039991  -999.250000  -999.250000  -999.250000 87.467552185  -999.250000  -999.250000  -999.250000  -999.250000
 2133.1916504  -999.250000 12.954500198 17.500000000 30.597764969 0.0309999995  -999.250000  -999.250000  -999.250000 110.21260071  -999.250000  -999.250000  -999.250000  -999.250000
 2133.3439941  -999.250000 12.972100258 17.500000000 29.540355682 0.0262000002  -999.250000  -999.250000  -999.250000 106.17569733  -999.250000  -999.250000  -999.250000  -999.250000
 2133.4965820  -999.250000 12.895799637 17.500000000 32.655792236 0.0003068910  -999.250000  -999.250000  -999.250000 99.997482300  -999.250000  -999.250000  -999.250000  -999.250000
 2133.6489258  -999.250000 12.712599754 17.500000000 37.942520142 0.0046030399  -999.250000  -999.250000  -999.250000 97.610244751  -999.250000  -999.250000  -999.250000  -999.250000
 2133.8012695  -999.250000 12.656300545 17.500000000 38.516407013 0.0065000001  -999.250000  -999.250000  -999.250000 91.460998535  -999.250000  -999.250000  -999.250000  -999.250000
 2133.9536133  -999.250000 12.582699776 17.500000000 33.059055328 0.0068999999  -999.250000  -999.250000  -999.250000 85.524803162  -999.250000  -999.250000  -999.250000  -999.250000
 2134.1062012  -999.250000 12.675000191 17.500000000 29.078432083 0.0009866988 0.4274609089 2.1372671127 6.8694338799 85.360832214  -999.250000  -999.250000  -999.250000  -999.250000
 2134.2585449  -999.250000 12.932000160 17.500000000 27.250043869 -0.007292800 0.4031088054 2.1167130470 7.2642779350 99.083908081 134.37882996 306.08691406  -999.250000  -999.250000
 2134.4108887  -999.250000 12.879400253 17.500000000 26.867780685 -0.002800000 0.4086000025 2.1249001026 7.3751997948 97.777496338 133.71020508 306.08691406  -999.250000  -999.250000
 2134.5632324  -999.250000 12.735199928 17.500000000 24.513452530 0.0052999998 0.4444999993 2.1503000259 7.4064002037 103.63179779 132.70500183 306.08691406  -999.250000  -999.250000
 2134.7155762  -999.250000 12.665599823 17.500000000 23.239173889 0.0062000002 0.4456999898 2.1575999260 7.2600998878 102.57150269 132.69479370 314.43231201  -999.250000  -999.250000
 2134.8679199  -999.250000 12.422900200 17.500000000 18.092847824 0.0052000000 0.4088999927 2.1696000099 6.6456999779 94.295097351 130.98210144 322.77758789  -999.250000  -999.250000
 2135.0202637  -999.250000 12.446200371 12.250000954 6.2923226357 0.0085000005 0.4146000147 2.1784999371 6.5718002319 87.807601929 130.46000671 324.02590942  -999.250000  -999.250000
 2135.1728516  -999.250000 12.457799911 12.250000954 291.15847778 0.0100999996 0.4090999961 2.1830000877 6.5356001854 72.672798157 130.07769775 323.18399048  -999.250000  -999.250000
 2135.3251953  -999.250000 12.455299377 12.250000954 215.17979431 0.0157999992 0.3860000074 2.1851000786 6.8053002357 71.536102295 130.74630737 319.63690186  -999.250000  -999.250000
 2135.4775391  -999.250000 12.376299858 12.250000954 186.17060852 0.0130000003 0.4074999988 2.1774001122 6.8916001320 73.696502686 131.05729675 321.49578857 0.9991000295 1.0492000580
 2135.6298828  -999.250000 12.346400261 12.250000954 163.39074707 0.0083999997 0.4126000106 2.1682999134 6.9759998322 73.135200500 132.01310730 322.67089844 0.8748000264 0.9297000170
 2135.7824707  -999.250000 12.395799637 12.250000954 95.770339966 -0.000600000 0.4404000044 2.1572000980 6.8273000717 74.600097656 132.28829956 323.23348999 0.8744999766 0.9210000038
 2135.9348145  -999.250000 12.549300194 12.250000954 68.735893250 0.0004000000 0.4422999918 2.1538999081 6.9696002007 76.747596741 133.11050415 327.60739136 0.8748000264 0.9341999888
 2136.0871582  -999.250000 12.514399529 12.250000954 63.369426727 0.0074999998 0.4194000065 2.1554999352 7.3109998703 74.006500244 134.25019836 329.72363281 0.8876000047 0.9341999888
 2136.2395020  -999.250000 12.419700623 12.250000954 63.489501953 0.0087000001 0.4415000081 2.1517999172 7.4211997986 72.981498718 134.07730103 333.46759033 0.8876000047 0.9530000091
 2136.3920898  -999.250000 12.533799171 12.250000954 59.777233124 0.0052999998 0.4393999875 2.1556000710 7.1489000320 75.074996948 134.19549561 325.51239014 0.9203000069 0.9530000091
 2136.5444336  -999.250000 12.515299797 12.250000954 41.108592987 0.0076000001 0.4266000092 2.1717998981 7.0051999092 75.096000671 133.09669495 320.16848755 0.9203000069 0.9844999909
 2136.6967773  -999.250000 12.414199829 12.250000954 15.708662033 0.0099999998 0.4208000004 2.1912999153 6.6431999207 77.103797913 134.55000305 317.07470703 0.9193000197 0.9738000035
 2136.8491211  -999.250000 12.357299805 12.250000954 8.8838577271 0.0082000000 0.4129000008 2.2002999783 6.0858998299 74.861900330 135.82730103 323.49609375 0.8906000257 0.9415000081
 2137.0014648  -999.250000 12.405300140 12.250000954 11.987860680 0.0197000001 0.4144000113 2.1993000507 6.7712998390 72.724296570 134.92489624 321.60870361 0.8723000288 0.9092000127
 2137.1540527  -999.250000 12.354499817 12.250000954 14.768371582 0.0148000000 0.4180999994 2.1963999271 6.6505999565 76.496101379 133.40640259 315.34048462 0.8416000009 0.9092000127
 2137.3063965  -999.250000 12.418999672 12.250000954 18.883857727 0.0104000000 0.4417000115 2.1951999664 6.5782999992 76.856697083 134.27749634 311.82238770 0.8416000009 0.9072999954
 2137.4587402  -999.250000 12.378600121 12.250000954 36.230968475 0.0165999997 0.4370999932 2.2053000927 6.6473999023 74.342498779 135.01350403 314.73748779 0.8414999843 0.9085999727
 2137.6110840  -999.250000 12.088199615 12.250000954 79.395668030 0.0085000005 0.4465000033 2.1960000992 6.0873999596 71.924102783 136.57679749 308.18530273 0.8417999744 0.9053999782
 2137.7636719  -999.250000 12.068599701 12.250000954 100.01345062 0.0041000000 0.4596999884 2.1923000813 6.0086998940 71.173797607 136.09140015 312.62991333 0.8174999952 0.9053999782
 2137.9160156  -999.250000 12.091199875 12.250000954 90.670272827 -0.001400000 0.4268000126 2.1921000481 5.8432998657 70.807197571 135.90159607 316.34698486 0.7932000160 0.9053999782
 2138.0683594  -999.250000 12.111000061 12.250000954 13.289370537 0.0055000000 0.4390000105 2.2046999931 5.7210001945 75.338203430 135.94299316 315.21780396 0.7932000160 0.8664000034
 2138.2207031  -999.250000 12.140600204 12.250000954 20.138778687 0.0059000002 0.4408999979 2.2058999538 5.7224001884 75.542999268 134.40420532 305.29159546 0.7860000134 0.8664000034
 2138.3732910  -999.250000 12.178099632 12.250000954 23.399934769 0.0068000001 0.4377000034 2.2074000835 5.7453999519 77.305198669 133.97149658 294.65545654 0.7860000134 0.8734999895
 2138.5256348  -999.250000 12.175299644 12.250000954 24.940946579 0.0129000004 0.4275000095 2.2200999260 5.8582000732 76.670303345 134.42230225 312.52969360 0.7868000269 0.8730999827
 2138.6779785  -999.250000 12.181999207 12.250000954 27.138452530 0.0135000004 0.4282000065 2.2219998837 5.8717999458 76.720596313 134.72250366 323.36813354 0.7868000269 0.8733999729
 2138.8303223  -999.250000 12.279500008 12.250000954 28.652561188 0.0175000001 0.4208000004 2.2367999554 5.9093999863 76.952201843 135.52479553 319.21109009 0.7943999767 0.8871999979
 2138.9826660  -999.250000 12.403500557 12.250000954 24.162075043 0.0173000004 0.4133000076 2.2211000919 6.0748000145 77.449897766 136.66969299 314.39495850 0.7926999927 0.8884000182
 2139.1352539  -999.250000 12.288200378 12.250000954 20.925525665 0.0265999995 0.4221000075 2.2293000221 6.8432998657 75.643096924 136.57429504 310.96060181 0.7917000055 0.8827999830
 2139.2875977  -999.250000 12.207699776 12.250000954 25.445865631 0.0231999997 0.4156000018 2.2372999191 6.7850999832 77.149398804 135.61450195 304.22332764 0.7624999881 0.8608000278
