# LAS format log file from PETREL
# Project units are specified as depth units
#==================================================================
~Version information
VERS.   2.0:
WRAP.   NO:
#==================================================================
~Well
STRT .m      3544.0620117 :
STOP .m      3899.9160156 :
STEP .m     0.00000000 :
NULL .        -999.250000 :
COMP.           : COMPANY
WELL.  34/5-1 S   : WELL
FLD.            : FIELD
LOC.            : LOCATION
SRVC.           : SERVICE COMPANY
DATE.  2018-09-11 14:48:51   : Log Export Date {yyyy-MM-dd HH:mm:ss}
PROV.           : PROVINCE
UWI.   34/5-1 S   : UNIQUE WELL ID
API.            : API NUMBER
#==================================================================
~Curve
DEPT .m                   : DEPTH
Lithology_geolink ._      : Lithology_geolink
DCAL .in                  : DCAL
CALI .in                  : CALI
BS .in                    : BS
ROP .m/h                  : ROP
DRHO .g/cm3               : DRHO
THOR .ppm                 : THOR
NPHI .m3/m3               : NPHI
RHOB .g/cm3               : RHOB
PEF .b/e                  : PEF
GR .gAPI                  : GR
URAN .ppm                 : URAN
DTC .us/ft                : DTC
DTS .us/ft                : DTS
RDEP .ohm.m               : RDEP
RMED .ohm.m               : RMED
~Parameter
#==================================================================
~Ascii
# ...
 3707.5871582 7.0000000000 0.2786000073 8.7785997391 8.5000000000 34.725719452 -0.013246001 11.501199722 0.2927139997 2.5188977718 3.5833120346 100.47777557 3.7363998890 95.899299622 179.35719299 2.9275999069 2.8903999329
 3707.7395020 7.0000000000 0.2815999985 8.7815999985 8.5000000000 31.715549469 -0.013419000 11.924799919 0.2823880017 2.5173048973 3.6082198620 98.427368164 3.3698000908 95.611602783 179.39581299 2.9472000599 2.8968000412
 3707.8920898 7.0000000000 0.2779000103 8.7778997421 8.5000000000 33.268371582 -0.006296000 12.792799950 0.2779119909 2.5165011883 3.6627128124 102.84489441 3.5590999126 95.397094727 179.44638062 2.9568998814 2.8952999115
 3708.0444336 7.0000000000 0.2786000073 8.7785997391 8.5000000000 38.947181702 -0.001289000 13.445099831 0.2699869871 2.5065159798 3.7554512024 105.29787445 3.6524000168 95.210998535 179.46969604 2.9598999023 2.8954999447
 3708.1967773 7.0000000000 0.3107999861 8.8107995987 8.5000000000 43.696189880 -0.000337000 13.682600021 0.2819530070 2.4946191311 3.8494493961 105.30849457 3.3557000160 95.148101807 179.48959351 3.0195000172 2.9446001053
 3708.3491211 7.0000000000 0.3176000416 8.8176002502 8.5000000000 42.320541382 -0.000553000 13.355500221 0.2981710136 2.4911057949 3.8986213207 102.19170380 2.9686000347 95.251197815 179.52879333 3.0905001163 3.0093998909
 3708.5014648 7.0000000000 0.3220000267 8.8219995499 8.5000000000 39.526901245 0.0004740000 13.081899643 0.3107360005 2.4984765053 3.8611207008 102.45902252 2.9544000626 95.367309570 179.55059814 3.1531000137 3.0618000031
 3708.6540527 7.0000000000 0.3246000111 8.8246002197 8.5000000000 37.583011627 0.0038810000 13.439800262 0.3112770021 2.5136756897 3.7813277245 104.56961060 2.8633999825 95.405700684 179.55720520 3.1831998825 3.0927000046
 3708.8063965 7.0000000000 0.2759999931 8.7760000229 8.5000000000 38.330711365 0.0052069998 14.190799713 0.3074800074 2.5212879181 3.6828577518 105.06151581 2.6846001148 95.353889465 179.57809448 3.1501998901 3.0641999245
 3708.9587402 7.0000000000 0.2544000149 8.7544002533 8.5000000000 37.387138367 0.0023640001 14.467100143 0.3049159944 2.5240955353 3.6051244736 102.03705597 2.2341001034 95.399696350 179.76350403 3.0871000290 3.0099999905
 3709.1110840 7.0000000000 0.2705999911 8.7706003189 8.5000000000 34.853668213 -0.003155000 14.778499603 0.3025600016 2.5193152428 3.5740990639 102.13576508 1.8761999607 95.270706177 181.34230042 3.0571999550 2.9923999310
 3709.2636719 7.0000000000 0.2775000036 8.7775001526 8.5000000000 33.218498230 -0.004580000 14.373000145 0.2956480086 2.5170035362 3.6144351959 102.29174805 1.8310999870 95.428497314 183.47229004 3.0543000698 3.0251998901
 3709.4160156 7.0000000000 0.2617000043 8.7616996765 8.5000000000 33.114170074 -0.002821000 14.559499741 0.2862519920 2.5134057999 3.6997630596 107.34558868 2.1400001049 95.416488647 184.94779968 3.1289000511 3.1056001186
 3709.5683594 7.0000000000 0.2703999877 8.7704000473 8.5000000000 33.260829926 -0.002864000 15.087300301 0.2998059988 2.5023179054 3.8383777142 110.36936188 2.0697000027 96.086105347 186.06719971 3.0968999863 3.0803999901
 3709.7207031 7.0000000000 0.2687999904 8.7687997818 8.5000000000 32.964889526 -0.006280000 15.754500389 0.3133789897 2.4895410538 3.9745633602 113.70680237 1.7813999653 96.444297791 186.79060364 2.9209001064 2.9084999561
 3709.8732910 7.0000000000 0.2242999971 8.7243003845 8.5000000000 29.975402832 -0.004180000 15.208000183 0.3258210123 2.4977867603 4.0051517487 111.37056732 1.7841000557 95.978698730 187.57029724 2.7379999161 2.7212998867
 3710.0256348 7.0000000000 0.1897000074 8.6897001266 8.5000000000 25.632219315 0.0013190000 15.110899925 0.3179419935 2.5174684525 3.8846933842 110.80260468 2.0230998993 95.281402588 187.77250671 2.6400001049 2.6143000126
 3710.1779785 7.0000000000 0.1817000061 8.6816997528 8.5000000000 22.224739075 0.0061150002 15.553500175 0.3160369992 2.5354712009 3.6980991364 110.70484924 2.0383999348 94.153900146 187.26489258 2.6154000759 2.5883998871
 3710.3303223 7.0000000000 0.1494999975 8.6494998932 8.5000000000 23.817260742 0.0042480002 15.280700684 0.3105750084 2.5307075977 3.5773932934 111.86223602 2.3176000118 94.224998474 185.69160461 2.7000999451 2.6642000675
 3710.4826660 7.0000000000 0.1428000033 8.6428003311 8.5000000000 30.576770782 0.0016070000 14.117899895 0.2992230058 2.5242207050 3.5060284138 109.69257355 2.5801000595 93.474601746 183.50810242 2.7818999290 2.7362000942
 3710.6352539 7.0000000000 0.1384000033 8.6384000778 8.5000000000 37.572509766 0.0004070000 12.641300201 0.2921400070 2.5236010551 3.4332165718 103.80324554 2.6075999737 92.299888611 180.97689819 2.7664000988 2.7320001125
 3710.7875977 7.0000000000 0.1347000003 8.6346998215 8.5000000000 43.155181885 0.0000790000 12.084699631 0.2883990109 2.5250976086 3.3641107082 98.755187988 2.3496999741 92.630897522 175.03739929 2.7762000561 2.7460000515
 3710.9399414 7.0000000000 0.1342999935 8.6343002319 8.5000000000 45.252300262 -0.000888000 11.903800011 0.2870500088 2.5177118778 3.3430335522 95.066207886 2.4486999512 92.766990662 170.12510681 2.9870998859 2.9351000786
 3711.0922852 7.0000000000 0.1178000048 8.6177997589 8.5000000000 42.817260742 -0.002115000 11.427300453 0.2789610028 2.5015516281 3.3702127934 93.834739685 2.6835000515 92.219703674 167.76600647 3.3169000149 3.2195000648
 3711.2448730 7.0000000000 0.0945999995 8.5945997238 8.5000000000 36.750000000 -0.001742000 11.802800179 0.2760930061 2.4941120148 3.3907670975 92.266311646 2.5836999416 91.441497803 164.51640320 3.4986000061 3.4077000618
 3711.3972168 7.0000000000 0.1031000018 8.6030998230 8.5000000000 27.983270645 -0.001643000 12.237999916 0.2813630104 2.4894075394 3.4354283810 92.350959778 2.6995000839 91.388198853 162.41238403 3.5467998981 3.4872000217
 3711.5495605 7.0000000000 0.0942000002 8.5942001343 8.5000000000 23.437339783 -0.003350000 12.643699646 0.2895230055 2.4847075939 3.5720806122 93.673675537 3.0262999535 91.123504639 161.42100525 3.5704998970 3.5239999294
 3711.7019043 7.0000000000 0.0864999965 8.5865001678 8.5000000000 25.171590805 -0.006550000 13.511699677 0.2850350142 2.4795167446 3.8285772800 99.761863708 3.3111999035 90.611602783 161.64970398 3.5683999062 3.5390000343
 3711.8544922 7.0000000000 0.0700000003 8.5699996948 8.5000000000 27.556760788 -0.007034000 14.879899979 0.2847729921 2.4956738949 4.2104883194 107.32369232 3.5536000729 90.090194702 161.34500122 3.5432000160 3.5344998837
 3712.0068359 7.0000000000 0.0469000041 8.5468997955 8.5000000000 30.131885529 -0.004840000 17.094699860 0.2939800024 2.5322413445 4.6586813927 115.57107544 3.5745999813 89.887702942 161.11740112 3.4630000591 3.5044999123
 3712.1591797 7.0000000000 0.0564999990 8.5565004349 8.5000000000 35.485889435 -0.003188000 17.388799667 0.3203690052 2.5734338760 5.1366343498 118.78715515 3.7105998993 89.162696838 161.24800110 3.3468000889 3.4149999619
 3712.3115234 7.0000000000 0.0958000049 8.5958003998 8.5000000000 41.214889526 -0.006775000 17.259300232 0.3368369937 2.5974617004 5.5453453064 118.58393860 4.0240001678 88.251197815 160.98899841 3.2534999847 3.2820000648
 3712.4638672 7.0000000000 0.0949999914 8.5950002670 8.5000000000 44.512470245 -0.007904000 17.361000061 0.3387860060 2.6203267574 5.7369866371 118.28067017 3.9677999020 86.880088806 160.38909912 3.1059000492 3.1112999916
 3712.6164551 7.0000000000 0.1199999973 8.6199998856 8.5000000000 51.181098938 -0.004299000 17.805000305 0.3163659871 2.6313824654 5.5894379616 117.98316956 3.5367000103 86.445190430 160.24029541 2.9911000729 2.9911000729
 3712.7687988 7.0000000000 0.1353999972 8.6353998184 8.5000000000 58.783466339 0.0005830000 18.371400833 0.2800450027 2.6128296852 5.1077728271 116.24668121 2.8771998882 85.914802551 160.55479431 2.9709000587 2.9779000282
 3712.9211426 7.0000000000 0.1671999991 8.6672000885 8.5000000000 66.631561279 0.0029239999 16.497699738 0.2571699917 2.5773570538 4.4980773926 110.43073273 2.7044999599 85.513099670 161.36810303 2.9707999229 2.9888000488
 3713.0734863 7.0000000000 0.1574000120 8.6574001312 8.5000000000 68.230636597 0.0029810001 14.711700439 0.2543540001 2.5511839390 4.0519289970 105.31887817 2.7572999001 85.192100525 161.98860168 2.8048000336 2.8183000088
