# LAS format log file from PETREL
# Project units are specified as depth units
#==================================================================
~Version information
VERS.   2.0:
WRAP.   NO:
#==================================================================
~Well
STRT .m      2119.3232422 :
STOP .m      4394.3505859 :
STEP .m     0.00000000 :
NULL .        -999.250000 :
COMP.           : COMPANY
WELL.  34/5-1 A   : WELL
FLD.            : FIELD
LOC.            : LOCATION
SRVC.           : SERVICE COMPANY
DATE.  2018-09-11 14:48:50   : Log Export Date {yyyy-MM-dd HH:mm:ss}
PROV.           : PROVINCE
UWI.   34/5-1 A   : UNIQUE WELL ID
API.            : API NUMBER
#==================================================================
~Curve
DEPT .m                   : DEPTH
Lithology_geolink ._      : Lithology_geolink
CALI .in                  : CALI
BS .in                    : BS
ROP .m/h                  : ROP
DRHO .g/cm3               : DRHO
NPHI .m3/m3               : NPHI
RHOB .g/cm3               : RHOB
PEF .b/e                  : PEF
GR .gAPI                  : GR
DTC .us/ft                : DTC
DTS .us/ft                : DTS
RDEP .ohm.m               : RDEP
RMED .ohm.m               : RMED
~Parameter
#==================================================================
~Ascii
# ...
 2434.4865723  -999.250000 12.133500099 12.250000954 114.50812531 0.0018145833 0.3737221062 2.3029127121 4.5546312332 85.811981201 121.47312164 261.21963501 0.9416000247 0.9965999722
 2434.6389160  -999.250000 12.175399780 12.250000954 101.16462708 0.0109012797 0.3874999881 2.3108005524 5.0101180077 87.913619995 121.48622894 262.93710327 0.9696000218 1.0335999727
 2434.7912598  -999.250000 12.160700798 12.250000954 91.294288635 0.0116999997 0.3874999881 2.3111000061 4.8963999748 85.744300842 120.76490021 263.67489624 1.0069999695 1.0421999693
 2434.9436035  -999.250000 12.150099754 12.250000954 110.70177460 0.0121999998 0.3616999984 2.3113999367 4.8145999908 84.331298828 118.61151123 259.25149536 1.0336999893 1.1008000374
 2435.0961914  -999.250000 12.099800110 12.250000954 125.81348419 0.0086966343 0.3633014262 2.3121020794 4.6439304352 83.751258850 118.34111786 261.46817017 1.0640000105 1.1008000374
 2435.2485352  -999.250000 12.087499619 12.250000954 137.36001587 0.0066028801 0.3642177582 2.3135061264 4.6004862785 88.959297180 118.48033142 266.36080933 1.0640000105 1.1138000488
 2435.4008789  -999.250000 12.197999954 12.250000954 140.08103943 0.0083999997 0.3752999902 2.3173999786 4.5920000076 88.959297180 118.43969727 262.62701416 1.0211999416 1.1096999645
 2435.5532227  -999.250000 12.124199867 12.250000954 144.80905151 0.0102000004 0.3752999902 2.3173999786 4.5549001694 82.220298767 118.47809601 257.52459717 1.0211999416 1.0554000139
 2435.7058105  -999.250000 12.116600037 12.250000954 152.11984253 0.0068966346 0.3572089672 2.3151853085 4.3726773262 88.285903931 118.69570160 260.66513062 0.9621999860 0.9600999951
 2435.8581543  -999.250000 12.104300499 12.250000954 149.31033325 0.0047971201 0.3628348708 2.3059968948 4.6703467369 92.961418152 119.50900269 268.09899902 0.8848999739 0.9824000001
 2436.0104980  -999.250000 12.149399757 12.250000954 148.88320923 0.0030000000 0.3846000135 2.3041000366 4.9492001534 90.791702271 119.82520294 269.76919556 0.8920999765 0.9416999817
 2436.1628418  -999.250000 12.081000328 12.250000954 151.25721741 0.0060000001 0.3864000142 2.3046000004 4.4956998825 88.618598938 120.66929626 263.79098511 0.8726000190 0.9047999978
 2436.3154297  -999.250000 12.081000328 12.250000954 150.02886963 0.0060113785 0.3726083338 2.3046257496 4.4960718155 89.118240356 121.40950775 266.23648071 0.8352165222 0.9014099836
 2436.4677734  -999.250000 12.185799599 12.250000954 143.06373596 0.0131000001 0.3778099120 2.3206999302 4.7279000282 93.190757751 122.41461182 271.65591431 0.8455371857 0.9076130986
 2436.6201172  -999.250000 12.185799599 12.250000954 132.46974182 0.0130945602 0.3839935958 2.3206903934 4.7277107239 91.785766602 122.98619080 279.75561523 0.8687147498 0.9158279896
 2436.7724609  -999.250000 12.122899055 12.250000954 116.66174316 0.0097000012 0.3799999952 2.3146998882 4.6094999313 87.517898560 123.42649841 278.07049561 0.8779000044 0.9333000183
 2436.9250488  -999.250000 12.089400291 12.250000954 111.81678009 0.0075971154 0.3790875077 2.3117952347 4.5304889679 83.930091858 123.11946106 268.57821655 0.8901081681 0.9475434422
 2437.0773926  -999.250000 12.097399712 12.250000954 135.28335571 0.0058065704 0.3712953627 2.3088159561 4.5866398811 79.939086914 122.09745789 264.96139526 0.8952856064 0.9746469855
 2437.2297363  -999.250000 12.179200172 12.250000954 171.01202393 0.0099033602 0.3683878481 2.3187012672 4.9228725433 82.367614746 121.13471985 264.22064209 0.9486261010 1.0039243698
 2437.3820801  -999.250000 12.134699821 12.250000954 182.60466003 0.0120000001 0.3607999980 2.3192999363 4.9682002068 87.743103027 120.52720642 261.44900513 0.9649000168 1.0190999508
 2437.5344238  -999.250000 12.110099792 12.250000954 204.18536377 0.0096000005 0.3822999895 2.3169999123 4.7342000008 83.377998352 120.56600189 256.21359253 0.9635000229 1.0197999477
 2437.6870117  -999.250000 12.137200356 12.250000954 181.93322754 0.0127020832 0.3658881485 2.3185982704 4.8743944168 91.222373962 119.79280090 235.70042419 0.9640169740 1.0208972692
 2437.8393555  -999.250000 12.144500732 12.250000954 153.38844299 0.0139969606 0.3585361540 2.3175017834 4.9330196381 94.068000793 118.85932922 245.95120239 0.9746000171 1.0191961527
 2437.9916992  -999.250000 12.170299530 12.250000954 137.83038330 0.0120999999 0.3810999990 2.3185000420 4.7582001686 90.262298584 117.87799835 258.68289185 0.9746000171 1.0168000460
 2438.1440430  -999.250000 12.091100693 12.250000954 141.67027283 0.0102000004 0.3711999953 2.3164000511 4.7905001640 86.450401306 115.78459930 265.58178711 0.9465000033 1.0104000568
 2438.2966309  -999.250000 12.069499016 12.250000954 136.92683411 0.0021078526 0.3725225925 2.3041200638 4.6134719849 82.644966125 117.69146729 265.75289917 0.9464711547 1.0018538237
 2438.4489746  -999.250000 12.147600174 12.250000954 129.75903320 0.0070096157 0.3865902126 2.3166162968 4.3470764160 86.608543396 118.35098267 268.43572998 0.9284863472 0.9730834961
 2438.6013184  -999.250000 12.194699287 12.250000954 125.57810974 0.0130016003 0.3804777563 2.3266956806 4.6446409225 85.883506775 118.84007263 264.79888916 0.9199633598 0.9627624154
 2438.7536621  -999.250000 12.184499741 12.250000954 124.97637939 0.0140000004 0.3666000068 2.3239998817 5.1694998741 85.448097229 119.69480133 267.90399170 0.8970999718 0.9393000007
 2438.9062500  -999.250000 12.240400314 12.250000954 152.55885315 0.0136088142 0.3627222478 2.3137035370 5.2117667198 84.447013855 120.96407318 273.91662598 0.8840769529 0.9392628074
 2439.0585938  -999.250000 12.201199532 12.250000954 159.79035950 0.0190977547 0.3766041696 2.3160104752 5.2530651093 86.380584717 120.50720215 272.75112915 0.8697016239 0.9160891175
 2439.2109375  -999.250000 12.175299644 12.250000954 155.47998047 0.0176958404 0.3792030513 2.3224935532 5.0442628860 82.210464478 119.57614899 269.09365845 0.8707023859 0.9093493223
 2439.3632813  -999.250000 12.177800179 12.250000954 138.48655701 0.0151000004 0.3810999990 2.3185000420 4.9586000443 89.051696777 119.04260254 267.14151001 0.8722000122 0.9401000142
 2439.5156250  -999.250000 12.170000076 12.250000954 136.26443481 0.0148999998 0.3788000047 2.3220000267 4.8990998268 81.986602783 117.70839691 265.09680176 0.8996999860 0.9660999775
 2439.6682129  -999.250000 12.163800240 12.250000954 151.02618408 0.0134961540 0.3804089725 2.3265030384 4.6897139549 82.111839294 118.88655853 276.08767700 0.9335235357 0.9982070327
 2439.8205566  -999.250000 12.161700249 12.250000954 138.29341125 0.0110843200 0.3859894574 2.3284778595 4.4489297867 78.285507202 119.11151886 275.13208008 0.9481985569 1.0026075840
 2439.9729004  -999.250000 12.000000000 12.250000954 130.56791687 0.0013000000 0.3794000149 2.3146998882 4.2803001404 84.341598511 118.75090790 275.05398560 0.9473000169 1.0074000359
 2440.1252441  -999.250000 12.090800285 12.250000954 123.55578613 -0.001000000 0.3743999898 2.3117001057 4.2607002258 89.238601685 118.59939575 269.13821411 0.9494000077 1.0077999830
 2440.2778320  -999.250000 12.138999939 12.250000954 147.74121094 0.0050027245 0.3628894091 2.3082990646 4.5608258247 84.056671143 118.81531525 267.41043091 0.9502275586 1.0085121393
 2440.4301758  -999.250000 12.141500473 12.250000954 150.82611084 0.0067157052 0.3563251495 2.3077347279 4.6394810677 84.662666321 119.20134735 264.80731201 0.9674000144 1.0161093473
 2440.5825195  -999.250000 12.205699921 12.250000954 134.29702759 0.0164974406 0.3719865680 2.3293900490 4.6899967194 85.271560669 119.22802734 263.42929077 0.9674374461 1.0219163895
 2440.7348633  -999.250000 12.185499191 12.250000954 155.23983765 0.0148999998 0.3635999858 2.3231999874 4.6879000664 87.618301392 119.37079620 259.36959839 0.9908000231 1.0320999622
 2440.8874512  -999.250000 12.175200462 12.250000954 145.60313416 0.0128104165 0.3568128049 2.3151128292 4.6668043137 90.529975891 118.36114502 259.89154053 0.9906039834 1.0419006348
 2441.0397949  -999.250000 12.252200127 12.250000954 142.02647400 0.0193094555 0.3648269176 2.3232069016 4.8565506935 85.271873474 118.01506805 269.80352783 0.9931012988 1.0423079729
