# LAS format log file from PETREL
# Project units are specified as depth units
#==================================================================
~Version information
VERS.   2.0:
WRAP.   NO:
#==================================================================
~Well
STRT .m      3544.0620117 :
STOP .m      3899.9160156 :
STEP .m     0.00000000 :
NULL .        -999.250000 :
COMP.           : COMPANY
WELL.  34/5-1 S   : WELL
FLD.            : FIELD
LOC.            : LOCATION
SRVC.           : SERVICE COMPANY
DATE.  2018-09-11 14:48:51   : Log Export Date {yyyy-MM-dd HH:mm:ss}
PROV.           : PROVINCE
UWI.   34/5-1 S   : UNIQUE WELL ID
API.            : API NUMBER
#==================================================================
~Curve
DEPT .m                   : DEPTH
Lithology_geolink ._      : Lithology_geolink
DCAL .in                  : DCAL
CALI .in                  : CALI
BS .in                    : BS
ROP .m/h                  : ROP
DRHO .g/cm3               : DRHO
THOR .ppm                 : THOR
NPHI .m3/m3               : NPHI
RHOB .g/cm3               : RHOB
PEF .b/e                  : PEF
GR .gAPI                  : GR
URAN .ppm                 : URAN
DTC .us/ft                : DTC
DTS .us/ft                : DTS
RDEP .ohm.m               : RDEP
RMED .ohm.m               : RMED
~Parameter
#==================================================================
~Ascii
# ...
 3617.3664551 6.0000000000 0.7932000160 9.2931995392 8.5000000000 34.022640228 -0.004006000 12.258999825 0.2809443176 2.5167996883 3.7544000149 87.952903748 1.3009999990 87.407608032 161.55580139 2.5399999619 2.5708999634
 3617.5187988 6.0000000000 0.7469000220 9.2468996048 8.5000000000 38.311019897 -0.002056000 11.979900360 0.2823750675 2.4939000607 3.8334999084 89.045898438 1.4371000528 86.467010498 161.54020691 2.6740999222 2.7135000229
 3617.6713867 6.0000000000 0.7638000250 9.2637996674 8.5000000000 33.854988098 0.0001520000 12.168899536 0.2767673433 2.4841001034 3.8842999935 88.626899719 1.5226999521 85.880599976 161.51339722 2.7690000534 2.8059999943
 3617.8237305 6.0000000000 0.7458001375 9.2458000183 8.5000000000 27.429132462 0.0009350000 11.292200089 0.2675151527 2.4809999466 3.8952000141 87.300598145 1.8845000267 85.544189453 161.48661804 2.8208000660 2.8538000584
 3617.9760742 6.0000000000 0.7153000236 9.2152996063 8.5000000000 23.308399200 0.0022110001 10.406399727 0.2601266205 2.4853000641 3.8954999447 85.836402893 2.0964000225 85.549209595 161.52209473 2.8519001007 2.8785998821
 3618.1284180 6.0000000000 0.7242000103 9.2242002487 8.5000000000 22.129259109 0.0011370000 10.076399803 0.2605067492 2.4839000702 3.9119000435 84.250701904 2.1048998833 85.262603760 161.39909363 2.9102001190 2.9240000248
 3618.2810059 6.0000000000 0.7303999662 9.2304000854 8.5000000000 25.552490234 0.0003800000 9.4966001511 0.2491338849 2.4869999886 3.9260001183 83.096099854 2.3506999016 85.096191406 161.07550049 3.0139000416 3.0076999664
 3618.4333496 6.0000000000 0.6826000214 9.1826000214 8.5000000000 36.740489960 -0.000529000 9.6493997574 0.2437925339 2.4946999550 3.9421000481 82.589897156 2.2146000862 85.102798462 160.96650696 3.1047999859 3.0801000595
 3618.5856934 6.0000000000 0.6937000155 9.1936998367 8.5000000000 52.791336060 -0.002144000 10.322099686 0.2397793382 2.5076999664 3.9786999226 84.532600403 1.9084000587 85.924598694 160.96339417 3.1308000088 3.0892000198
 3618.7380371 6.0000000000 0.7400000095 9.2399997711 8.5000000000 67.417976379 0.0005240000 10.633600235 0.2468702197 2.5251998901 4.0476999283 87.075103760 1.9113999605 86.756706238 160.61210632 3.1382999420 3.0824999809
 3618.8903809 6.0000000000 0.7225999832 9.2225999832 8.5000000000 64.723419189 0.0019290000 11.051300049 0.2607480884 2.5278000832 4.1669001579 90.477897644 2.0662000179 88.319992065 164.42689514 3.1459999084 3.0789000988
 3619.0429688 6.0000000000 0.7238000035 9.2237997055 8.5000000000 57.843170166 0.0017780000 11.279999733 0.2819978297 2.5164999962 4.3260002136 90.041198730 1.6998000145 89.913101196 167.58120728 3.1537001133 3.0811998844
 3619.1953125 6.0000000000 0.7153000236 9.2152996063 8.5000000000 55.686031342 -0.000670000 11.273599625 0.2838239968 2.5083999634 4.5050997734 91.001899719 1.5241999626 87.646591187 163.28559875 3.1519000530 3.0915000439
 3619.3476563 6.0000000000 0.7249000072 9.2249002457 8.5000000000 56.181098938 -0.003824000 10.477399826 0.2857017517 2.5114998817 4.6612000465 88.383903503 1.5001000166 85.786689758 161.01119995 3.1970000267 3.1447999477
 3619.5000000 6.0000000000 0.7641999722 9.2642002106 8.5000000000 53.731300354 -0.006776000 10.653400421 0.2880673707 2.5186998844 4.7221999168 87.697998047 1.3330999613 84.936599731 160.98849487 3.2850000858 3.2321999073
 3619.6525879 6.0000000000 0.7634000778 9.2634000778 8.5000000000 51.669620514 -0.007480000 10.781900406 0.3026092947 2.5118000507 4.6630997658 87.268501282 1.1212999821 85.560798645 160.93499756 3.2572999001 3.2309999466
 3619.8049316 6.0000000000 0.7892000079 9.2891998291 8.5000000000 52.821849823 -0.003684000 11.141300201 0.2983247340 2.5023999214 4.4876999855 86.482803345 0.8003000021 86.162002563 160.86410522 3.1203999519 3.1041998863
 3619.9572754 6.0000000000 0.8357999921 9.3358001709 8.5000000000 59.212600708 0.0012730000 11.909399986 0.2919298112 2.4937000275 4.2853999138 89.307899475 0.5971000195 86.958297729 160.82391357 2.9776000977 2.9553999901
 3620.1096191 6.0000000000 0.8346999884 9.3346996307 8.5000000000 74.872703552 0.0017270000 12.527799606 0.2837041914 2.4914000034 4.1189999580 91.652603149 0.7368999720 88.956108093 160.74310303 2.8980998993 2.8620998859
 3620.2622070 6.0000000000 0.8442000151 9.3442001343 8.5000000000 81.823806763 -0.000227000 12.571499825 0.2844441831 2.4969999790 4.0213999748 94.316902161 1.0604000092 89.291603088 160.68740845 2.8691000938 2.8238000870
 3620.4145508 6.0000000000 0.8843000531 9.3843002319 8.5000000000 75.420272827 -0.001014000 11.906999588 0.2823233008 2.5090000629 4.0117001534 94.157302856 1.3083000183 87.773704529 160.63499451 2.8459999561 2.7990999222
 3620.5668945 6.0000000000 0.9151999950 9.4152002335 8.5000000000 59.381225586 0.0000340000 12.144000053 0.2837696970 2.5141999722 4.0496001244 94.660598755 1.2038999796 86.815811157 160.67829895 2.7906000614 2.7553999424
 3620.7192383 6.0000000000 0.9231999516 9.4231996536 8.5000000000 41.752620697 0.0016850000 12.665699959 0.2904419899 2.5085000992 4.0451002121 94.784301758 1.3249000311 86.642700195 160.59860229 2.7081999779 2.6884000301
 3620.8715820 6.0000000000 0.9552000165 9.4552001953 8.5000000000 29.712930679 0.0025210001 12.736700058 0.2910633385 2.4972000122 3.9245998859 92.529998779 1.5828000307 86.613891602 160.52639771 2.6440000534 2.6277999878
 3621.0241699 6.0000000000 0.9535999298 9.4535999298 8.5000000000 32.958328247 0.0014740000 12.086500168 0.2912429273 2.4916999340 3.7300000191 88.594802856 1.5648000240 86.555900574 160.62948608 2.5801999569 2.5762999058
 3621.1765137 6.0000000000 0.9459000230 9.4458999634 8.5000000000 46.240810394 -0.001263000 11.723199844 0.2843563557 2.4862000942 3.5848999023 89.091201782 1.5180000067 86.487800598 159.85130310 2.5153999329 2.5272998810
 3621.3288574 6.0000000000 0.9297999144 9.4298000336 8.5000000000 66.090881348 -0.004313000 11.934599876 0.2808426619 2.4753000736 3.5615999699 90.533500671 1.6426999569 86.469406128 159.67799377 2.4869999886 2.5078001022
 3621.4812012 6.0000000000 0.9231999516 9.4232511520 8.5000000000 79.439308167 -0.006757000 11.576000214 0.2799891829 2.4644999504 3.5910999775 91.537002563 1.9144999981 86.763107300 159.65150452 2.4858999252 2.5195000172
 3621.6337891 6.0000000000 0.9555999637 9.4556474686 8.5000000000 83.042976379 -0.005900000 11.304400444 0.2707325220 2.4670999050 3.6047999859 93.406303406 2.2551000118 86.878196716 160.10769653 2.4956998825 2.5401000977
 3621.7861328 6.0000000000 0.9706000686 9.4706249237 8.5000000000 71.050529480 -0.008075000 10.784999847 0.2624775171 2.4763000011 3.5889999866 95.652000427 2.5636000633 87.917900085 160.29089355 2.4767999649 2.5181999207
 3621.9384766 6.0000000000 0.9859999418 9.4859600067 8.5000000000 55.831691742 -0.012290000 11.119000435 0.2578200996 2.4807999134 3.5845999718 98.187797546 2.5167999268 87.797309875 160.26449585 2.4484000206 2.4895000458
 3622.0908203 6.0000000000 0.9607999325 9.4607639313 8.5000000000 53.466213226 -0.013970000 11.618499756 0.2560189962 2.4784998894 3.6038000584 95.719703674 2.3108999729 92.160400391 160.24209595 2.4224998951 2.4602000713
 3622.2434082 6.0000000000 0.9381999969 9.4382152557 8.5000000000 59.798557281 -0.008936000 10.972000122 0.2572883964 2.4776000977 3.6512000561 89.193298340 2.3531000614 94.019599915 160.21870422 2.4170999527 2.4486000538
 3622.3957520 6.0000000000 0.9430000186 9.4430313110 8.5000000000 65.924873352 -0.002186000 9.7813997269 0.2648982108 2.4783000946 3.7609999180 83.464202881 2.3791000843 93.021209717 160.15737915 2.4414000511 2.4635000229
 3622.5480957 6.0000000000 0.9628999233 9.4629106522 8.5000000000 59.966205597 0.0002970000 9.4359998703 0.2712731361 2.4793000221 3.9347000122 80.583396912 2.1119000912 90.481399536 160.07220459 2.4725000858 2.4916000366
 3622.7004395 7.0000000000 0.9695000052 9.4694480896 8.5000000000 42.757221222 0.0010800000 10.370900154 0.2732087076 2.4844999313 4.1128001213 87.336700439 2.2521998882 88.437896729 159.36318970 2.4705998898 2.4913001060
 3622.8527832 7.0000000000 0.9375000596 9.4375019073 8.5000000000 30.099079132 0.0024600001 11.887100220 0.2668201625 2.4955999851 4.2227997780 96.173698425 2.7197999954 87.868698120 158.28507996 2.4240000248 2.4491000175
