# LAS format log file from PETREL
# Project units are specified as depth units
#==================================================================
~Version information
VERS.   2.0:
WRAP.   NO:
#==================================================================
~Well
STRT .m      2119.3232422 :
STOP .m      4394.3505859 :
STEP .m     0.00000000 :
NULL .        -999.250000 :
COMP.           : COMPANY
WELL.  34/5-1 A   : WELL
FLD.            : FIELD
LOC.            : LOCATION
SRVC.           : SERVICE COMPANY
DATE.  2018-09-11 14:48:50   : Log Export Date {yyyy-MM-dd HH:mm:ss}
PROV.           : PROVINCE
UWI.   34/5-1 A   : UNIQUE WELL ID
API.            : API NUMBER
#==================================================================
~Curve
DEPT .m                   : DEPTH
Lithology_geolink ._      : Lithology_geolink
CALI .in                  : CALI
BS .in                    : BS
ROP .m/h                  : ROP
DRHO .g/cm3               : DRHO
NPHI .m3/m3               : NPHI
RHOB .g/cm3               : RHOB
PEF .b/e                  : PEF
GR .gAPI                  : GR
DTC .us/ft                : DTC
DTS .us/ft                : DTS
RDEP .ohm.m               : RDEP
RMED .ohm.m               : RMED
~Parameter
#==================================================================
~Ascii
# ...
 3936.5410156  -999.250000 12.000000000 12.250000954 112.56562042 -0.009500000 0.3682918251 2.4958000183 6.4496998787 93.089660645 97.617782593 209.17277527 1.5599000454 1.5937999487
 3936.6933594  -999.250000 12.040399551 12.250000954 99.104331970 -0.011800000 0.3631897569 2.4923999310 6.3456001282 86.719673157 97.850402832 214.46061707 1.5315999985 1.5920000076
 3936.8457031  -999.250000 12.206300735 12.250000954 80.054466248 -0.004400000 0.3568163216 2.4943997860 6.4411001205 92.309043884 97.163002014 218.95481873 1.4966000319 1.5716999769
 3936.9980469  -999.250000 12.074999809 12.250000954 79.615158081 -0.003300000 0.3670046628 2.4925999641 6.9478998184 93.155685425 95.799156189 219.03091431 1.5098999739 1.5710999966
 3937.1506348  -999.250000 12.020399094 12.250000954 89.037734985 -0.009500000 0.3699022233 2.4821999073 7.1409997940 99.253349304 97.518875122 216.22726440 1.5105999708 1.5710999966
 3937.3029785  -999.250000 12.050101280 12.250000954 91.881561279 -0.013200000 0.3706111908 2.4704000950 6.8512001038 99.070724487 97.604934692 212.69680786 1.5111999512 1.5174000263
 3937.4553223  -999.250000 12.122098923 12.250000954 118.20669556 -0.012000000 0.3775690794 2.4697000980 6.8178000450 91.240959167 97.938255310 212.89495850 1.4732999802 1.5110000372
 3937.6076660  -999.250000 12.207500458 12.250000954 129.04167175 -0.001600000 0.3582884669 2.4716999531 7.5784001350 94.391311646 97.601585388 216.49346924 1.4562000036 1.5042999983
 3937.7602539  -999.250000 12.216400146 12.250000954 119.24540710 -0.000800000 0.3511127830 2.4704999924 7.6058998108 95.217247009 97.597518921 223.38551331 1.4142999649 1.4680000544
 3937.9125977  -999.250000 12.180000305 12.250000954 97.735565186 0.0027999999 0.3551009595 2.4730000496 7.0864000320 97.597686768 98.571655273 224.65814209 1.4581999779 1.4951000214
 3938.0649414  -999.250000 12.137200356 12.250000954 76.678474426 0.0015000000 0.3557285070 2.4679000378 6.9745998383 96.521896362 98.417961121 219.00439453 1.4895999432 1.5044000149
 3938.2172852  -999.250000 12.142101288 12.250000954 75.201446533 -0.003800000 0.3734897375 2.4697999954 6.4196000099 93.412368774 98.143592834 212.59295654 1.4519000053 1.4931000471
 3938.3698730  -999.250000 12.191999435 12.250000954 84.322830200 -0.002300000 0.3670817614 2.4670000076 6.9225997925 99.799064636 98.576789856 218.11396790 1.4709000587 1.5243999958
 3938.5222168  -999.250000 12.159999847 12.250000954 94.216209412 0.0011000000 0.3614232540 2.4667999744 7.4285001755 96.515480042 98.326614380 221.43760681 1.4609999657 1.5278999805
 3938.6745605  -999.250000 12.073100090 12.250000954 97.936355591 -0.003500000 0.3758735657 2.4612998962 6.5961999893 96.184005737 97.897239685 221.25537109 1.4630999565 1.5205999613
 3938.8269043  -999.250000 12.055399895 12.250000954 101.53477478 -0.009500000 0.3593921661 2.4561998844 5.8590002060 89.587638855 97.485046387 217.50453186 1.4706000090 1.5103000402
 3938.9792480  -999.250000 12.117300034 12.250000954 103.43963623 -0.009200000 0.3545288444 2.4581999779 5.9387001991 92.849815369 99.137496948 220.08047485 1.4555000067 1.5096999407
 3939.1318359  -999.250000 12.196599960 12.250000954 94.953742981 -0.002400000 0.3724830449 2.4616000652 6.5385999680 91.797988892 99.700065613 221.62219238 1.4370000362 1.5187000036
 3939.2841797  -999.250000 12.181799889 12.250000954 90.333992004 0.0052000000 0.3672060668 2.4886999130 7.1086997986 91.014610291 100.68552399 221.49378967 1.4355000257 1.5221999884
 3939.4365234  -999.250000 12.108598709 12.250000954 95.285102844 0.0030000000 0.3710016012 2.4872999191 7.2161998749 90.212669373 100.63780212 222.42042542 1.4769999981 1.5255000591
 3939.5888672  -999.250000 12.047699928 12.250000954 110.93602753 -0.011400000 0.3719888031 2.4623000622 6.5710000992 90.443389893 100.07948303 221.93652344 1.4365999699 1.5454000235
 3939.7414551  -999.250000 12.052599907 12.250000954 111.27985382 -0.020500001 0.3650035262 2.4477999210 6.0237002373 92.308120728 100.19459534 220.52322388 1.4880000353 1.5211000443
 3939.8937988  -999.250000 12.116199493 12.250000954 113.05609894 -0.016799999 0.3661091626 2.4561998844 6.0418000221 92.968093872 100.15840149 221.14965820 1.4656000137 1.5354000330
 3940.0461426  -999.250000 12.187299728 12.250000954 117.67913055 -0.000200000 0.3718067408 2.4790000916 6.1844000816 91.910766602 98.909637451 218.49511719 1.4641000032 1.5388000011
 3940.1984863  -999.250000 12.117400169 12.250000954 113.88780212 -0.002900000 0.3759926260 2.4739000797 6.0450000763 95.751991272 97.820129395 213.76815796 1.4603999853 1.5458999872
 3940.3510742  -999.250000 12.112299919 12.250000954 121.05641937 -0.007400000 0.3714031875 2.4651000500 6.0176000595 96.313217163 98.647354126 210.21182251 1.4903000593 1.5643999577
 3940.5034180  -999.250000 12.167099953 12.250000954 128.55445862 -0.004200000 0.3724036813 2.4590001106 8.1697998047 98.368629456 99.099739075 216.54464722 1.4886000156 1.5600999594
 3940.6557617  -999.250000 12.210700035 12.250000954 134.28741455 -0.001500000 0.3747060895 2.4640998840 8.5658998489 94.707382202 98.877609253 219.06683350 1.4710999727 1.5450999737
 3940.8081055  -999.250000 12.189900398 12.250000954 133.39337158 0.0052000000 0.3784905672 2.4825997353 8.7420997620 90.022308350 99.197769165 222.25663757 1.4249999523 1.5361000299
 3940.9604492  -999.250000 12.166600227 12.250000954 136.98785400 0.0031000001 0.3725905418 2.4788000584 8.6524000168 86.678009033 99.059654236 221.22669983 1.4673000574 1.5417000055
 3941.1130371  -999.250000 12.143300056 12.250000954 115.73655701 0.0010000000 0.3666638434 2.4749999046 8.5627002716 97.210021973 100.64685059 222.34469604 1.4708000422 1.5579999685
 3941.2653809  -999.250000 12.151498795 12.250000954 101.19258881 -0.000400000 0.3554296494 2.4855999947 8.1745004654 97.280082703 98.419898987 221.34187317 1.4817999601 1.5614999533
 3941.4177246  -999.250000 12.162699699 12.250000954 105.21720123 0.0003000000 0.3739278913 2.4890999794 8.2672996521 97.576744080 97.927551270 218.62829590 1.5163999796 1.5512000322
 3941.5700684  -999.250000 12.137599945 12.250000954 119.62564850 -0.001500000 0.3912737072 2.4821999073 8.4572000504 94.426467896 98.768646240 211.83505249 1.5163999796 1.5408999920
 3941.7226563  -999.250000 12.096799850 12.250000954 134.05511475 -0.013500000 0.3748939335 2.4403998852 7.5367999077 94.913253784 99.173851013 211.56475830 1.5177999735 1.5430999994
 3941.8750000  -999.250000 12.141301155 12.250000954 144.65287781 -0.018700000 0.3729911745 2.4270000458 6.7003002167 96.586219788 99.905738831 212.86639404 1.4634000063 1.5404000282
 3942.0273438  -999.250000 12.041199684 12.250000954 135.72900391 -0.009100000 0.3675083518 2.4677999020 7.3264999390 99.339256287 99.930709839 216.67137146 1.4414000511 1.5284999609
 3942.1796875  -999.250000 12.082698822 12.250000954 121.07020569 -0.011500000 0.3727045059 2.4618000984 7.3429999352 98.931663513 99.994293213 219.37902832 1.4368000031 1.5058000088
 3942.3322754  -999.250000 12.024900436 12.250000954 123.58171082 -0.006700000 0.3755313456 2.4732999802 7.7529001236 94.876350403 99.114784241 214.59678650 1.4487999678 1.5053000450
 3942.4846191  -999.250000 12.017499924 12.250000954 138.03608704 -0.006100000 0.3852942288 2.4746999741 7.7892999649 100.86531830 98.298934937 214.65182495 1.4551999569 1.5033999681
 3942.6369629  -999.250000 12.000000000 12.250000954 127.11318207 -0.016700000 0.3816668391 2.4618000984 6.9356999397 96.335739136 98.320793152 214.67080688 1.4256000519 1.5052000284
 3942.7893066  -999.250000 12.000000000 12.250000954 135.33233643 -0.016300000 0.3609830141 2.4667000771 6.7539000511 98.472618103 98.189636230 216.11119080 1.4309999943 1.5262999535
 3942.9416504  -999.250000 12.001700401 12.250000954 150.82250977 -0.014700000 0.3504407108 2.4749999046 7.0605998039 94.124710083 97.777633667 217.04295349 1.3974000216 1.5046000481
 3943.0942383  -999.250000 12.000900269 12.250000954 187.76017761 -0.015900001 0.3758022487 2.4698998928 7.2115998268 94.250396729 97.864929199 218.26277161 1.4026000500 1.5499000549
