# LAS format log file from PETREL
# Project units are specified as depth units
#==================================================================
~Version information
VERS.   2.0:
WRAP.   NO:
#==================================================================
~Well
STRT .m      2119.3232422 :
STOP .m      4394.3505859 :
STEP .m     0.00000000 :
NULL .        -999.250000 :
COMP.           : COMPANY
WELL.  34/5-1 A   : WELL
FLD.            : FIELD
LOC.            : LOCATION
SRVC.           : SERVICE COMPANY
DATE.  2018-09-11 14:48:50   : Log Export Date {yyyy-MM-dd HH:mm:ss}
PROV.           : PROVINCE
UWI.   34/5-1 A   : UNIQUE WELL ID
API.            : API NUMBER
#==================================================================
~Curve
DEPT .m                   : DEPTH
Lithology_geolink ._      : Lithology_geolink
CALI .in                  : CALI
BS .in                    : BS
ROP .m/h                  : ROP
DRHO .g/cm3               : DRHO
NPHI .m3/m3               : NPHI
RHOB .g/cm3               : RHOB
PEF .b/e                  : PEF
GR .gAPI                  : GR
DTC .us/ft                : DTC
DTS .us/ft                : DTS
RDEP .ohm.m               : RDEP
RMED .ohm.m               : RMED
~Parameter
#==================================================================
~Ascii
# ...
 3185.5136719  -999.250000 12.139200211 12.250000954 72.871063232 0.0013000000 0.3620907068 2.3894000053 6.0117001534 75.946357727 100.70819855 218.05827332 1.5848000050 1.6309000254
 3185.6660156  -999.250000 12.133700371 12.250000954 66.663383484 0.0004000000 0.3562940657 2.3900001049 6.0531997681 77.037254333 100.93620300 216.54084778 1.5974999666 1.6281000376
 3185.8186035  -999.250000 12.153800011 12.250000954 68.236221313 0.0016000000 0.3526009619 2.3936998844 6.1423001289 75.565704346 100.67659760 217.50367737 1.6153999567 1.6355999708
 3185.9709473  -999.250000 12.171198845 12.250000954 73.498359680 0.0024999999 0.3532128036 2.3961999416 6.2199997902 69.839561462 100.71350098 219.55285645 1.5987999439 1.6478999853
 3186.1232910  -999.250000 12.191499710 12.250000954 74.984909058 0.0055000000 0.3611804545 2.4056999683 6.3503999710 71.942955017 100.04579926 222.76307678 1.6040999889 1.6446000338
 3186.2756348  -999.250000 12.228399277 12.250000954 91.570541382 0.0065000001 0.3490093052 2.4080998898 6.4636998177 75.098121643 100.28430176 221.80827332 1.5817999840 1.6420999765
 3186.4282227  -999.250000 12.241099358 12.250000954 98.855972290 0.0059000002 0.3548252583 2.4054000378 6.4765000343 78.982780457 100.91510010 222.03190613 1.5716999769 1.6222000122
 3186.5805664  -999.250000 12.216300011 12.250000954 93.589233398 0.0046000001 0.3626841307 2.3947000504 6.4847002029 81.990447998 101.25810242 220.00558472 1.5777000189 1.6129000187
 3186.7329102  -999.250000 12.226599693 12.250000954 88.677497864 0.0060000001 0.3527966440 2.3914000988 6.5553998947 77.034515381 101.99230194 219.25186157 1.5583000183 1.5966999531
 3186.8852539  -999.250000 12.244400024 12.250000954 77.223426819 0.0085000005 0.3507067263 2.3931999207 6.5620999336 75.807022095 102.35269928 221.65832520 1.5226000547 1.5801999569
 3187.0378418  -999.250000 12.118200302 12.250000954 70.378608704 0.0001000000 0.3549153507 2.3717000484 6.3607997894 79.927658081 103.05310059 220.58972168 1.5151000023 1.5670000315
 3187.1901855  -999.250000 12.214899063 12.250000954 65.478675842 0.0005000000 0.3596951962 2.3742001057 6.3509001732 78.884635925 103.54599762 213.80445862 1.5197999477 1.5547000170
 3187.3425293  -999.250000 12.287199020 12.250000954 67.092849731 0.0008000000 0.3567408621 2.3761000633 6.3435001373 77.425094604 103.46679688 210.90638733 1.5291999578 1.5456000566
 3187.4948730  -999.250000 12.246100426 12.250000954 71.320869446 0.0132999998 0.3822176456 2.3947999477 6.5746998787 86.011970520 103.52510071 211.96121216 1.5025000572 1.5478999615
 3187.6474609  -999.250000 12.230400085 12.250000954 69.650924683 0.0103000002 0.3931280077 2.3901998997 6.5787000656 82.666534424 103.83039856 217.40072632 1.5085999966 1.5528999567
 3187.7998047  -999.250000 12.216699600 12.250000954 67.433731079 0.0076000001 0.3706890941 2.3861999512 6.5822000504 75.489135742 103.83979797 222.86193848 1.5210000277 1.5698000193
 3187.9521484  -999.250000 12.147100449 12.250000954 68.234909058 0.0023000001 0.3639017642 2.3787999153 6.2632999420 80.486282349 103.49819946 222.94223022 1.5063999891 1.5793999434
 3188.1044922  -999.250000 12.193901062 12.250000954 75.325134277 0.0017000000 0.3649790287 2.3780000210 6.1970000267 76.686340332 102.95140076 220.03456116 1.5177999735 1.5776000023
 3188.2568359  -999.250000 12.232899666 12.250000954 78.403221130 0.0015000000 0.3518950343 2.3785998821 6.1027002335 84.669944763 102.49449921 219.20759583 1.5315999985 1.5836999416
 3188.4094238  -999.250000 12.327799797 12.250000954 89.389106750 0.0130000003 0.3488153517 2.3970999718 6.3095998764 75.106063843 102.44519806 223.00918579 1.5392999649 1.5795999765
 3188.5617676  -999.250000 12.258399963 12.250000954 100.61089325 0.0114000002 0.3536025584 2.3936998844 6.2897000313 76.344734192 102.98909760 221.94596863 1.5045000315 1.5715999603
 3188.7141113  -999.250000 12.193300247 12.250000954 96.753608704 0.0060000001 0.3552004695 2.3854000568 6.1961998940 77.613166809 103.09149933 222.49337769 1.5556999445 1.5928000212
 3188.8664551  -999.250000 12.161399841 12.250000954 84.047576904 0.0030000000 0.3554783762 2.3807001114 6.2406001091 77.533340454 103.36869812 223.40992737 1.5420000553 1.6013000011
 3189.0190430  -999.250000 12.119899750 12.250000954 74.943237305 0.0000000000 0.3420211375 2.3754999638 6.2218999863 77.181892395 103.05561066 221.42556763 1.5470000505 1.5880999565
 3189.1713867  -999.250000 12.051300049 12.250000954 76.787071228 -0.001900000 0.3486214876 2.3703999519 6.2207999229 75.215049744 102.70330048 215.18544006 1.5180000067 1.5832999945
 3189.3237305  -999.250000 12.171899796 12.250000954 81.697502136 -0.001900000 0.3620003164 2.3733000755 6.0901999474 74.620079041 102.42569733 217.63969421 1.5476000309 1.5794999599
 3189.4760742  -999.250000 12.221199989 12.250000954 81.291992188 0.0057999999 0.3621869981 2.3889999390 6.1518998146 73.928489685 102.15209961 219.94451904 1.5326999426 1.5829000473
 3189.6286621  -999.250000 12.246399879 12.250000954 79.319229126 0.0073000002 0.3540935814 2.3914999962 6.0453000069 77.474304199 102.29679871 220.15065002 1.5726000071 1.5970000029
 3189.7810059  -999.250000 12.243599892 12.250000954 67.556755066 0.0125000002 0.3520806134 2.3933000565 6.1989002228 77.099464417 102.64640045 221.47332764 1.5546000004 1.6011999846
 3189.9333496  -999.250000 12.237199783 12.250000954 64.094161987 0.0110999998 0.3399884701 2.3898999691 6.2409000397 75.576889038 102.69680023 220.17478943 1.5225000381 1.5973000526
 3190.0856934  -999.250000 12.296899796 12.250000954 60.480640411 0.0066000000 0.3328163326 2.3864998817 6.2220997810 72.958534241 102.03620148 216.18093872 1.5537999868 1.6052999496
 3190.2380371  -999.250000 12.224599838 12.250000954 58.206035614 0.0088999998 0.3430054486 2.3861000538 6.2182002068 74.976974487 101.16649628 213.77189636 1.5671000481 1.6210000515
 3190.3906250  -999.250000 12.255400658 12.250000954 55.522312164 0.0071999999 0.3464284837 2.3842999935 6.3649001122 77.217727661 101.66027832 214.95600891 1.5592999458 1.6218999624
 3190.5429688  -999.250000 12.246600151 12.250000954 70.094161987 0.0115000000 0.3553165197 2.3973000050 6.5636000633 81.303039551 100.34612274 217.79998779 1.5575000048 1.6287000179
 3190.6953125  -999.250000 12.204098701 12.250000954 77.543632507 0.0104999999 0.3656094372 2.3942000866 6.5117998123 77.710968018 100.48289490 221.90762329 1.5420000553 1.6316000223
 3190.8476563  -999.250000 12.274700165 12.250000954 77.735893250 0.0125000002 0.3714509606 2.3921999931 6.5500998497 76.390968323 100.29684448 222.85414124 1.5491000414 1.6173000336
 3191.0002441  -999.250000 12.233599663 12.250000954 68.066604614 0.0049000001 0.3409115374 2.3847999573 6.2674999237 79.783493042 101.38542938 220.01776123 1.5585000515 1.6129000187
 3191.1525879  -999.250000 12.295300484 12.250000954 62.928470612 0.0055000000 0.3444952071 2.3838999271 6.2554998398 75.017875671 100.73486328 220.59048462 1.5710999966 1.6065000296
 3191.3049316  -999.250000 12.289401054 12.250000954 62.594490051 0.0063999998 0.3415105939 2.3822999001 6.2856998444 76.546844482 97.035247803 216.03764343 1.5923999548 1.6347999573
 3191.4572754  -999.250000 12.269599915 12.250000954 57.512798309 0.0040000002 0.3481139541 2.3826999664 6.4135999680 69.533340454 97.374572754 217.80099487 1.6265000105 1.6523000002
 3191.6098633  -999.250000 12.347000122 12.250000954 46.479660034 -0.002400000 0.3567875028 2.4154000282 6.9776000977 68.007980347 95.739974976 216.43766785 1.6310000420 1.7225999832
 3191.7622070  -999.250000 12.375399590 12.250000954 36.669292450 -0.013900000 0.3528956771 2.4602999687 7.7842998505 70.213912964 96.609413147 220.60276794 1.9005999565 1.9630000591
 3191.9145508  -999.250000 12.481599808 12.250000954 36.686351776 -0.018900000 0.3502173126 2.4913001060 8.2601995468 69.791763306 98.363098145 222.31118774 2.0374999046 2.0427999496
 3192.0668945  -999.250000 12.620300293 12.250000954 38.929134369 -0.006700000 0.3609648943 2.4835999012 6.9004001617 74.444915771 99.545822144 215.87574768 2.0525000095 1.9586000443
