# LAS format log file from PETREL
# Project units are specified as depth units
#==================================================================
~Version information
VERS.   2.0:
WRAP.   NO:
#==================================================================
~Well
STRT .m      3544.0620117 :
STOP .m      3899.9160156 :
STEP .m     0.00000000 :
NULL .        -999.250000 :
COMP.           : COMPANY
WELL.  34/5-1 S   : WELL
FLD.            : FIELD
LOC.            : LOCATION
SRVC.           : SERVICE COMPANY
DATE.  2018-09-11 14:48:51   : Log Export Date {yyyy-MM-dd HH:mm:ss}
PROV.           : PROVINCE
UWI.   34/5-1 S   : UNIQUE WELL ID
API.            : API NUMBER
#==================================================================
~Curve
DEPT .m                   : DEPTH
Lithology_geolink ._      : Lithology_geolink
DCAL .in                  : DCAL
CALI .in                  : CALI
BS .in                    : BS
ROP .m/h                  : ROP
DRHO .g/cm3               : DRHO
THOR .ppm                 : THOR
NPHI .m3/m3               : NPHI
RHOB .g/cm3               : RHOB
PEF .b/e                  : PEF
GR .gAPI                  : GR
URAN .ppm                 : URAN
DTC .us/ft                : DTC
DTS .us/ft                : DTS
RDEP .ohm.m               : RDEP
RMED .ohm.m               : RMED
~Parameter
#==================================================================
~Ascii
# ...
 3735.7812500 6.0000000000 0.3331999779 8.8332004547 8.5000000000 58.342845917 -0.002678000 11.120900154 0.2449170053 2.5123200417 3.5283844471 93.169403076 3.3910000324 86.191299438 152.39700317 3.2595999241 3.2967998981
 3735.9335938 6.0000000000 0.3337999880 8.8338003159 8.5000000000 53.453075409 -0.002462000 11.999899864 0.2443740070 2.5087056160 3.4448339939 99.093002319 3.3324999809 85.620193481 154.25300598 3.1078000069 3.1340999603
 3736.0859375 7.0000000000 0.3312000036 8.8311996460 8.5000000000 43.419620514 -0.002166000 12.255299568 0.2439199984 2.5128867626 3.4251627922 104.21309662 3.7955000401 84.215591431 155.82919312 2.9907999039 3.0102000237
 3736.2385254 7.0000000000 0.4088999927 8.9089002609 8.5000000000 33.265090942 -0.002565000 11.883000374 0.2542890012 2.5160946846 3.5162537098 103.08619690 3.7981998920 83.805900574 155.04580688 2.8821001053 2.8917000294
 3736.3908691 7.0000000000 0.4699999988 8.9700002670 8.5000000000 28.800199509 -0.003270000 11.809800148 0.2559179962 2.5178971291 3.6771421432 103.47090149 3.6182000637 83.553596497 155.03900146 2.7848000526 2.7888000011
 3736.5432129 7.0000000000 0.4861999452 8.9862003326 8.5000000000 29.033460617 -0.002778000 11.899600029 0.2617030144 2.5255875587 3.8056941032 103.70079803 3.4068999290 83.124298096 155.45689392 2.7711000443 2.7723000050
 3736.6955566 7.0000000000 0.3596999943 8.8597002029 8.5000000000 32.005580902 -0.001183000 12.201800346 0.2513479888 2.5343718529 3.8301222324 107.56030273 3.4224998951 83.304397583 155.61250305 2.7790000439 2.8289000988
 3736.8481445 7.0000000000 0.2682999969 8.7683000565 8.5000000000 35.535110474 -0.000602000 12.729399681 0.2430589944 2.5447833538 3.7996490002 112.21459961 3.4658000469 83.643096924 155.57769775 2.7772998810 2.8617000580
 3737.0004883 7.0000000000 0.2381999791 8.7382001877 8.5000000000 41.815940857 -0.000657000 12.206199646 0.2409189939 2.5509901047 3.7870202065 112.20520020 3.5899000168 84.094200134 154.46807861 2.7360999584 2.8543000221
 3737.1528320 7.0000000000 0.2628999949 8.7629003525 8.5000000000 51.110569000 -0.000150000 11.400600433 0.2474890053 2.5543944836 3.8425109386 108.77269745 3.2932999134 84.323600769 153.89399719 2.6991999149 2.8489999771
 3737.3051758 7.0000000000 0.2617000043 8.7616996765 8.5000000000 73.125328064 -0.000102000 10.575900078 0.2494910061 2.5420198441 3.9478311539 102.76399994 3.0906999111 84.328201294 153.52079773 2.6659998894 2.8752999306
 3737.4575195 7.0000000000 0.2702000141 8.7701997757 8.5000000000 82.317588806 0.0000670000 10.351799965 0.2415950000 2.5286431313 4.0018272400 101.00839996 3.0555000305 84.107894897 153.23808289 2.7056999207 2.9698998928
 3737.6101074 7.0000000000 0.2610000074 8.7609996796 8.5000000000 82.810691833 -0.000255000 9.6169004440 0.2433380038 2.5216112137 3.9499833584 101.93360138 3.6164000034 84.035598755 152.19830322 2.7915000916 3.0971999168
 3737.7624512 7.0000000000 0.2381999791 8.7382001877 8.5000000000 84.099403381 0.0008720000 9.3654003143 0.2551200092 2.5281894207 3.8339860439 103.41739655 3.8999001980 84.041900635 151.65589905 2.8973000050 3.2555000782
 3737.9147949 7.0000000000 0.2628999949 8.7629003525 8.5000000000 65.493438721 0.0008910000 9.0529003143 0.2680940032 2.5323932171 3.7315640450 103.37570190 4.1708998680 83.826301575 152.10458374 3.0739998817 3.4695000648
 3738.0671387 7.0000000000 0.2617000043 8.7616996765 8.5000000000 46.478019714 0.0013050000 8.8365001678 0.2711710036 2.5370850563 3.6950168610 104.14350128 4.3387999535 83.609298706 151.77729797 3.2000000477 3.4602000713
 3738.2197266 7.0000000000 0.2705999911 8.7706003189 8.5000000000 36.220470428 0.0021319999 8.9090995789 0.2718740106 2.5452868938 3.6842172146 104.80860138 4.5960998535 82.885200500 150.59140015 3.3373999596 3.4677999020
 3738.3720703 7.0000000000 0.2775000036 8.7775001526 8.5000000000 29.914037704 0.0012990000 9.8854999542 0.2661139965 2.5471968651 3.6965801716 106.16519928 4.2554001808 82.811996460 148.90530396 3.6020998955 3.5822000504
 3738.5244141 7.0000000000 0.2610000074 8.7609996796 8.5000000000 28.467849731 -0.001985000 10.405599594 0.2617239952 2.5334222317 3.7460205555 106.38420105 3.9233000278 83.113090515 146.32859802 4.0296998024 3.8243999481
 3738.6767578 7.0000000000 0.2368000001 8.7368001938 8.5000000000 34.875000000 -0.005181000 11.087400436 0.2478899956 2.5159559250 3.8137826920 109.36830139 3.9848999977 82.396507263 145.65649414 4.1178002357 3.6626999378
 3738.8293457 7.0000000000 0.1973000020 8.6972999573 8.5000000000 42.540679932 -0.004738000 11.481800079 0.2415850013 2.5131044388 3.8632211685 109.38339996 3.8819999695 81.658996582 146.42039490 4.0299000740 3.4997000694
 3738.9816895 7.0000000000 0.1898000091 8.6898002625 8.5000000000 45.544620514 -0.002091000 11.860899925 0.2466520071 2.5192899704 3.8722856045 110.91970062 3.6405999660 81.418601990 148.19320679 3.9734001160 3.3643999100
 3739.1340332 7.0000000000 0.1536000073 8.6535997391 8.5000000000 43.835960388 0.0002240000 11.778900146 0.2577350140 2.5224947929 3.8271725178 107.98909760 3.5857999325 81.845596313 149.28990173 3.9746999741 3.3022000790
 3739.2863770 7.0000000000 0.1592999995 8.6592998505 8.5000000000 39.396331787 0.0025380000 12.210599899 0.2697080076 2.5243968964 3.7749836445 107.67369843 3.1287000179 82.094802856 149.28599548 4.0212001801 3.3148999214
 3739.4387207 7.0000000000 0.1618999988 8.6618995667 8.5000000000 36.813980103 0.0035580001 12.312399864 0.2684989870 2.5271909237 3.7151916027 106.27850342 2.6707999706 82.042198181 148.94900513 3.9284999371 3.3182001114
 3739.5913086 7.0000000000 0.1421999931 8.6422004700 8.5000000000 35.993110657 0.0027540000 12.510199547 0.2573690116 2.5318922997 3.7077116966 106.60179901 2.3419001102 82.631401062 148.61929321 3.8468000889 3.4233000278
 3739.7436523 7.0000000000 0.1430999935 8.6430997849 8.5000000000 36.263130188 0.0003260000 12.587699890 0.2374230027 2.5463769436 3.7319612503 104.93440247 2.0671000481 82.034202576 149.30740356 3.9723000526 3.7211999893
 3739.8959961 7.0000000000 0.1546999961 8.6547002792 8.5000000000 36.715549469 -0.000395000 12.420700073 0.2257920057 2.5710604191 3.7671434879 102.35060120 1.9546000957 81.322196960 151.85231018 4.3531999588 4.4053001404
 3740.0483398 7.0000000000 0.1508000046 8.6507997513 8.5000000000 37.249668121 -0.000464000 12.139300346 0.2336020023 2.5855534077 3.7568333149 101.12229919 2.2544999123 80.850196838 151.51950073 4.5978999138 4.9229998589
 3740.2009277 7.0000000000 0.1710000038 8.6709995270 8.5000000000 36.117450714 -0.001663000 12.336199760 0.2438730001 2.5713229179 3.7293441296 103.56529999 2.4742999077 81.061408997 152.15280151 4.2832999229 4.6202001572
 3740.3532715 7.0000000000 0.1659000069 8.6659002304 8.5000000000 35.429458618 -0.001518000 12.414199829 0.2489179969 2.5543272495 3.6904621124 105.99210358 2.5097999573 81.032394409 152.65449524 3.7425999641 3.9080998898
 3740.5056152 7.0000000000 0.1589999944 8.6590003967 8.5000000000 37.122051239 -0.001665000 12.197899818 0.2523849905 2.5397233963 3.6750247478 105.19599915 2.6770999432 81.895004272 152.07389832 3.3993999958 3.4611001015
 3740.6579590 7.0000000000 0.1750999987 8.6751003265 8.5000000000 40.710960388 -0.001032000 11.965700150 0.2567059994 2.5384039879 3.6433017254 100.41390228 2.8187999725 83.059700012 150.50810242 3.3712000847 3.4089999199
 3740.8105469 7.0000000000 0.1823999882 8.6823997498 8.5000000000 43.044620514 -0.002108000 11.368900299 0.2557719946 2.5370020866 3.5999693871 96.765701294 2.8354001045 83.427101135 149.96620178 3.4595999718 3.4756000042
 3740.9628906 7.0000000000 0.1823999882 8.6823997498 8.5000000000 42.856628418 -0.002024000 11.491200447 0.2481819987 2.5414929390 3.5532748699 94.750701904 2.7776999474 83.414497375 149.18919373 3.5060999393 3.5487999916
 3741.1152344 7.0000000000 0.1823999882 8.6823997498 8.5000000000 41.879261017 -0.001081000 12.016099930 0.2452269942 2.5434968472 3.5175571442 95.081199646 2.9154000282 83.128700256 148.76280212 3.5878000259 3.6445999146
 3741.2675781 7.0000000000 0.1823999882 8.6823997498 8.5000000000 40.718509674 -0.001002000 12.611000061 0.2380809933 2.5357124805 3.5063178539 95.448699951 2.7681999207 81.388298035 148.98570251 3.5761001110 3.6898000240
