# LAS format log file from PETREL
# Project units are specified as depth units
#==================================================================
~Version information
VERS.   2.0:
WRAP.   NO:
#==================================================================
~Well
STRT .m      2119.3232422 :
STOP .m      4394.3505859 :
STEP .m     0.00000000 :
NULL .        -999.250000 :
COMP.           : COMPANY
WELL.  34/5-1 A   : WELL
FLD.            : FIELD
LOC.            : LOCATION
SRVC.           : SERVICE COMPANY
DATE.  2018-09-11 14:48:50   : Log Export Date {yyyy-MM-dd HH:mm:ss}
PROV.           : PROVINCE
UWI.   34/5-1 A   : UNIQUE WELL ID
API.            : API NUMBER
#==================================================================
~Curve
DEPT .m                   : DEPTH
Lithology_geolink ._      : Lithology_geolink
CALI .in                  : CALI
BS .in                    : BS
ROP .m/h                  : ROP
DRHO .g/cm3               : DRHO
NPHI .m3/m3               : NPHI
RHOB .g/cm3               : RHOB
PEF .b/e                  : PEF
GR .gAPI                  : GR
DTC .us/ft                : DTC
DTS .us/ft                : DTS
RDEP .ohm.m               : RDEP
RMED .ohm.m               : RMED
~Parameter
#==================================================================
~Ascii
# ...
 2280.2578125  -999.250000 12.210700035 12.250000954 175.33129883 0.0027147436 0.4490919709 2.2933058739 5.1135892868 80.746963501 130.60668945 290.57559204 0.7756000161 0.7949000001
 2280.4101563  -999.250000 12.178499222 12.250000954 179.36459351 0.0119003206 0.4440793097 2.2969999313 5.1070232391 79.175270081 130.47113037 296.74197388 0.8292000294 0.8335999846
 2280.5625000  -999.250000 12.174900055 12.250000954 167.13311768 0.0121011203 0.4311844707 2.2970001698 5.1217999458 83.707984924 130.85562134 298.83358765 0.8187000155 0.8493999839
 2280.7148438  -999.250000 12.159700394 12.250000954 153.15583801 0.0127999997 0.4214999974 2.2971999645 5.1841998100 86.192497253 129.18060303 292.79229736 0.7881000042 0.8500999808
 2280.8674316  -999.250000 12.256799698 12.250000954 143.07026672 0.0198990386 0.4113411903 2.3150932789 5.9303545952 87.658073425 128.77928162 288.71365356 0.7997999787 0.8449000120
 2281.0197754  -999.250000 12.270999908 12.250000954 116.71974945 0.0192979183 0.4369878173 2.3109877110 5.9643044472 86.520805359 128.70176697 286.56625366 0.8134999871 0.8382999897
 2281.1721191  -999.250000 12.298500061 12.250000954 102.76353455 0.0179934390 0.4294191897 2.3032717705 6.0281758308 84.847061157 128.86224365 285.28094482 0.7777000070 0.8341000080
 2281.3244629  -999.250000 12.145599365 12.250000954 92.377624512 0.0138999997 0.4413999915 2.2857000828 5.2019000053 87.316101074 129.13549805 280.12701416 0.7646999955 0.7997999787
 2281.4768066  -999.250000 12.145599365 12.250000954 98.924209595 0.0138999997 0.4483000040 2.2857000828 5.2019000053 89.789199829 129.54969788 273.04901123 0.7577000260 0.7926999927
 2281.6293945  -999.250000 12.261799812 12.250000954 95.779907227 0.0195043273 0.4239881337 2.2986018658 5.1237382889 89.528358459 129.14419556 262.73199463 0.7477999926 0.7872999907
 2281.7817383  -999.250000 12.285499573 12.250000954 91.500564575 0.0222014394 0.4166006148 2.2997958660 5.1477227211 91.675148010 129.02157593 269.06533813 0.7603999972 0.7863000035
 2281.9340820  -999.250000 12.224499702 12.250000954 80.389106750 0.0230999999 0.4169999957 2.2973001003 5.3492999077 86.777999878 128.63319397 290.80569458 0.7659000158 0.8521999717
 2282.0864258  -999.250000 12.187500000 12.250000954 75.308067322 0.0187999997 0.4234000146 2.2936999798 4.9243998528 85.292198181 128.69569397 297.13500977 0.8098000288 0.8533999920
 2282.2390137  -999.250000 12.109299660 12.250000954 85.706169128 0.0104878200 0.4173035026 2.2860057354 4.5254850388 89.289161682 128.52171326 287.68298340 0.8084999919 0.8558999896
 2282.3913574  -999.250000 12.064299583 12.250000954 107.46064758 0.0029024037 0.4195006490 2.2896249294 4.0184459686 89.697685242 129.58593750 278.82684326 0.7986999750 0.8586999774
 2282.5437012  -999.250000 12.050200462 12.250000954 112.16904449 0.0043995199 0.4198924899 2.3052248955 4.4844942093 86.186645508 129.73808289 284.79455566 0.7950000167 0.8647999763
 2282.6960449  -999.250000 12.025800705 12.250000954 111.40058899 0.0041000000 0.4151999950 2.3206999302 5.2919998169 78.662902832 128.79420471 291.12649536 0.7853000164 0.8574000001
 2282.8486328  -999.250000 12.115401268 12.250000954 100.69305420 -0.002606570 0.4254024029 2.3273975849 5.5533514023 84.418090820 127.16954041 290.96484375 0.8238999844 0.8700000048
 2283.0009766  -999.250000 12.191800117 12.250000954 83.810234070 -0.006695993 0.4268871844 2.3259711266 5.5229849815 86.957351685 125.26260376 285.25402832 0.8683000207 0.9178000093
 2283.1533203  -999.250000 12.330699921 12.250000954 77.413780212 -0.004167840 0.4188819230 2.3703629971 5.5138406754 83.056663513 123.89045715 283.64880371 0.8834999800 0.9546999931
 2283.3056641  -999.250000 12.363900185 12.250000954 94.447837830 0.0159000009 0.4075999856 2.4721000195 5.6015000343 77.850898743 122.36830139 284.21749878 0.7983000278 0.8665000200
 2283.4580078  -999.250000 13.121100426 12.250000954 113.67584991 0.0109999999 0.4255000055 2.3245999813 5.3743000031 71.009498596 123.48589325 286.85180664 0.8015000224 0.8506000042
 2283.6105957  -999.250000 12.903700829 12.250000954 105.86325836 0.0122059295 0.4324371815 2.3196825981 5.2848086357 79.370559692 125.55818939 285.53701782 0.8106999993 0.8715999722
 2283.7629395  -999.250000 12.145400047 12.250000954 103.06904602 0.0158996806 0.4555507004 2.3089172840 5.0411701202 82.147682190 126.73638916 281.75073242 0.8210999966 0.8715999722
 2283.9152832  -999.250000 12.092000008 12.250000954 121.79167175 0.0156999994 0.4248000085 2.3197000027 5.1472997665 79.576202393 126.29570007 277.59991455 0.8697999716 0.8715999722
 2284.0676270  -999.250000 12.205499649 12.250000954 137.52493286 0.0186000001 0.4185000062 2.3664999008 5.6744999886 81.814498901 125.06491089 274.93679810 0.8697999716 0.9104999900
 2284.2202148  -999.250000 12.204799652 12.250000954 138.83409119 0.0155866984 0.4425753355 2.3481185436 5.5684275627 85.349746704 126.99604034 277.60046387 0.7886000276 0.8762000203
 2284.3725586  -999.250000 12.202899933 12.250000954 153.05702209 0.0073259617 0.4271775484 2.2973008156 5.2740368843 92.540428162 128.89500427 279.63491821 0.7860000134 0.8206999898
 2284.5249023  -999.250000 12.331399918 12.250000954 187.38919067 0.0234999992 0.4132121503 2.2978000641 5.2969999313 91.622856140 129.27668762 278.65225220 0.7866423726 0.8343641162
 2284.6772461  -999.250000 12.331399918 12.250000954 205.46522522 0.0234999992 0.4208000004 2.2978000641 5.2969999313 91.093902588 128.70790100 282.54949951 0.8130999804 0.8744000196
 2284.8298340  -999.250000 12.331399918 12.250000954 203.19221497 0.0235152245 0.4152910411 2.2978355885 5.2977452278 89.887207031 127.11518097 283.75656128 0.8676929474 0.9088041782
 2284.9821777  -999.250000 12.363200188 12.250000954 168.18782043 0.0329977572 0.4097059369 2.3199932575 5.7619762421 88.277671814 124.98456573 284.41439819 0.8632758260 0.9114069343
 2285.1345215  -999.250000 12.339400291 12.250000954 154.59599304 0.0315979198 0.4134177566 2.3159153461 5.7468156815 90.866859436 124.83807373 278.60073853 0.8483078480 0.9158213139
 2285.2868652  -999.250000 12.243599892 12.250000954 164.75852966 0.0303000007 0.4244999886 2.3254001141 5.5693998337 83.356697083 125.25479889 274.12451172 0.9156000018 0.9915000200
 2285.4392090  -999.250000 12.652199745 12.250000954 163.44816589 0.0351000018 0.3864000142 2.3882999420 5.4499998093 73.937400818 126.37049866 272.05239868 1.0324000120 1.1124000549
 2285.5917969  -999.250000 12.504899979 12.250000954 132.84164429 0.0355980769 0.3628467917 2.4429817200 5.6080379486 76.683700562 124.52187347 274.90063477 0.9305387735 1.0186142921
 2285.7441406  -999.250000 12.148200035 12.250000954 80.342742920 0.0343313627 0.3920095861 2.4936378002 5.8803081512 84.355827332 120.58012390 279.88638306 0.8301188946 0.9028761387
 2285.8964844  -999.250000 12.315899849 12.250000954 59.394351959 -0.008500000 0.3980000019 2.2676000595 5.6357998848 90.488403320 120.77809906 275.63909912 0.8418999910 0.8880000114
 2286.0488281  -999.250000 12.314100266 12.250000954 45.016731262 -0.001000000 0.4327000082 2.2764999866 5.5406999588 90.779998779 120.55950165 274.77301025 0.8572000265 0.8838000298
 2286.2014160  -999.250000 12.302399635 12.250000954 46.804721832 0.0283875000 0.4265384674 2.3112051487 5.1702480316 86.739303589 121.71421814 283.94381714 0.8479570150 0.8736888170
 2286.3537598  -999.250000 12.226599693 12.250000954 82.219375610 0.0206230767 0.4504472911 2.3145058155 5.4499807358 82.877990723 124.59587860 284.32781982 0.8212155700 0.8667352796
 2286.5061035  -999.250000 12.269200325 12.250000954 143.07400513 0.0350140817 0.4175820947 2.3805546761 5.7495832443 83.120300293 125.14610291 282.44369507 0.8309489489 0.8887550235
 2286.6584473  -999.250000 12.215800285 12.250000954 151.17979431 0.0438000001 0.4063999951 2.4145998955 5.9264001846 83.120300293 127.32939911 270.77890015 0.8615000248 0.9230999947
 2286.8110352  -999.250000 12.244099617 12.250000954 127.57032013 0.0255982373 0.4217084944 2.4172866344 5.8845386505 80.493949890 127.63013458 269.77874756 0.8673621416 0.9105155468
