# LAS format log file from PETREL
# Project units are specified as depth units
#==================================================================
~Version information
VERS.   2.0:
WRAP.   NO:
#==================================================================
~Well
STRT .m      3544.0620117 :
STOP .m      3899.9160156 :
STEP .m     0.00000000 :
NULL .        -999.250000 :
COMP.           : COMPANY
WELL.  34/5-1 S   : WELL
FLD.            : FIELD
LOC.            : LOCATION
SRVC.           : SERVICE COMPANY
DATE.  2018-09-11 14:48:51   : Log Export Date {yyyy-MM-dd HH:mm:ss}
PROV.           : PROVINCE
UWI.   34/5-1 S   : UNIQUE WELL ID
API.            : API NUMBER
#==================================================================
~Curve
DEPT .m                   : DEPTH
Lithology_geolink ._      : Lithology_geolink
DCAL .in                  : DCAL
CALI .in                  : CALI
BS .in                    : BS
ROP .m/h                  : ROP
DRHO .g/cm3               : DRHO
THOR .ppm                 : THOR
NPHI .m3/m3               : NPHI
RHOB .g/cm3               : RHOB
PEF .b/e                  : PEF
GR .gAPI                  : GR
URAN .ppm                 : URAN
DTC .us/ft                : DTC
DTS .us/ft                : DTS
RDEP .ohm.m               : RDEP
RMED .ohm.m               : RMED
~Parameter
#==================================================================
~Ascii
# ...
 3594.8112793 7.0000000000 0.7935000062 9.2934999466 8.5000000000 29.721460342 -0.000194000 17.877399445 0.3460850120 2.5536894798 3.7326617241 133.45739746 3.7932999134 100.41709900 204.39199829 1.6239000559 1.6585999727
 3594.9636230 7.0000000000 0.7619999647 9.2620000839 8.5000000000 21.603019714 0.0000560000 17.431299210 0.3552179933 2.5529012680 3.7842173576 133.40100098 3.5929999352 100.19770050 206.94281006 1.6394000053 1.6734000444
 3595.1159668 7.0000000000 0.7229999900 9.2229995728 8.5000000000 12.019029617 -0.000746000 16.872100830 0.3841510117 2.5485141277 3.8227765560 131.40469360 3.5401999950 99.576896667 207.70712280 1.6447000504 1.6759999990
 3595.2685547 7.0000000000 0.7396000624 9.2396001816 8.5000000000 7.4294610023 -0.000084000 16.184200287 0.3790540099 2.5477011204 3.8127164841 129.98710632 3.7776999474 97.879501343 199.38090515 1.6593999863 1.6971000433
 3595.4208984 7.0000000000 0.7056999803 9.2056999207 8.5000000000 10.715220451 0.0007430000 15.356299400 0.3600639999 2.5531911850 3.7576882839 125.10959625 3.4163000584 94.708503723 195.60000610 1.6798000336 1.7250000238
 3595.5732422 7.0000000000 0.6832999587 9.1833000183 8.5000000000 19.554460526 0.0007600000 15.205900192 0.3263410032 2.5561952591 3.7934424877 121.97830200 3.2959001064 93.852500916 195.63058472 1.7121000290 1.7662999630
 3595.7255859 7.0000000000 0.6679000258 9.1679000854 8.5000000000 27.936021805 0.0006190000 15.255299568 0.3142839968 2.5545027256 4.0924201012 120.94969940 3.1417999268 94.058601379 195.69360352 1.7488000393 1.8091000319
 3595.8779297 7.0000000000 0.6922000051 9.1921997070 8.5000000000 28.331361771 0.0000680000 15.220399857 0.3144769967 2.5572910309 4.6117343903 122.62370300 3.1145000458 93.007598877 198.52189636 1.7690999508 1.8401000500
 3596.0305176 7.0000000000 0.6743999124 9.1744003296 8.5000000000 24.455709457 0.0008350000 15.641899109 0.3310309947 2.5654869080 4.9990811348 129.43400574 3.4421999454 92.129997253 199.72648621 1.7360999584 1.8018000126
 3596.1828613 7.0000000000 0.6521000266 9.1520996094 8.5000000000 21.523290634 0.0011099998 16.138200760 0.3421539962 2.5743856430 4.9523758888 129.52520752 3.2871000767 98.846801758 199.41239929 1.6979000568 1.7465000153
 3596.3352051 7.0000000000 0.6715999842 9.1716003418 8.5000000000 21.449470520 0.0018180000 16.850799561 0.3504779935 2.5784933567 4.5691151619 131.60910034 3.3782000542 98.992202759 199.35780334 1.6370999813 1.6696000099
 3596.4875488 7.0000000000 0.6344000101 9.1344003677 8.5000000000 23.581689835 0.0015730000 17.265399933 0.3511539996 2.5728182793 4.1633009911 130.38560486 3.2390000820 97.472198486 199.33399963 1.6528999805 1.6686999798
 3596.6401367 7.0000000000 0.6279000044 9.1279001236 8.5000000000 23.762790680 0.0011430000 18.808300018 0.3613339961 2.5608193874 3.9148967266 131.22709656 2.9653999805 99.595802307 199.63870239 1.7233999968 1.7426999807
 3596.7924805 7.0000000000 0.6036000252 9.1035995483 8.5000000000 21.536420822 0.0002410000 19.415399551 0.3798950016 2.5426290035 3.7941930294 128.74929810 2.7304000854 99.917800903 199.68870544 1.7998000383 1.8307000399
 3596.9448242 7.0000000000 0.6212999821 9.1212997437 8.5000000000 20.279199600 -0.001368000 19.902599335 0.3805029988 2.5265257359 3.7636487484 128.68400574 2.5736000538 99.608200073 200.72590637 1.8558000326 1.9270000458
 3597.0971680 7.0000000000 0.6363999844 9.1364002228 8.5000000000 21.697839737 -0.002884000 19.838399887 0.3710399866 2.5167315006 3.7947001457 129.89950562 2.9268000126 99.535797119 201.36149597 1.9175000191 2.0167000294
 3597.2497559 7.0000000000 0.6539999843 9.1540002823 8.5000000000 23.283460617 -0.003887000 19.656799316 0.3514769971 2.5144035816 3.8349356651 130.14270020 3.1603000164 98.767898560 198.13908386 2.0183999538 2.1259999275
 3597.4020996 7.0000000000 0.7258999944 9.2258996964 8.5000000000 20.507549286 -0.002516000 19.449300766 0.3400149941 2.5232856274 3.8346006870 128.64399719 3.1500000954 97.840400696 197.79138184 2.1428999901 2.2657999992
 3597.5544434 7.0000000000 0.7469000220 9.2468996048 8.5000000000 15.202428818 -0.000788000 19.506799698 0.3502619863 2.5311872959 3.7930667400 127.67800140 2.9990999699 98.293289185 197.54939270 2.1691999435 2.3171999454
 3597.7067871 7.0000000000 0.7351999879 9.2351999283 8.5000000000 9.2053804398 0.0015390000 19.934999466 0.3654119968 2.5375897884 3.7646455765 128.44099426 2.7597999573 99.600509644 199.35470581 2.1540000439 2.3266000748
 3597.8591309 7.0000000000 0.7315000296 9.2314996719 8.5000000000 7.0784125328 0.0023520000 19.400699615 0.3757759929 2.5368025303 3.7280175686 127.16670227 2.7688999176 100.52188873 201.02549744 2.0264999866 2.1977999210
 3598.0117188 7.0000000000 0.7307999730 9.2307996750 8.5000000000 11.486220360 0.0032599999 18.716199875 0.3704850078 2.5371992588 3.6761829853 129.00650024 2.9339001179 100.43979645 201.41220093 1.8509000540 2.0095999241
 3598.1640625 7.0000000000 0.6984000206 9.1983995438 8.5000000000 19.033460617 0.0031969999 18.711299896 0.3595260084 2.5366010666 3.5716676712 130.87539673 3.0845000744 99.538490295 201.15249634 1.7796000242 1.9471999407
 3598.3164063 7.0000000000 0.6830000281 9.1829996109 8.5000000000 24.854990005 0.0021520001 18.063600540 0.3611409962 2.5340039730 3.4414088726 132.31340027 3.3457000256 100.41381073 199.92520142 1.7925000191 1.9862999916
 3598.4687500 7.0000000000 0.6521000266 9.1520996094 8.5000000000 27.219160080 0.0010270000 16.388900757 0.3439779878 2.5319066048 3.3431148529 127.91600037 3.5448999405 101.43350220 199.13940430 1.8112000227 2.0369000435
 3598.6213379 7.0000000000 0.7017999887 9.2018003464 8.5000000000 26.213909149 0.0002150000 15.464400291 0.3325000107 2.5324990749 3.3057594299 123.14209747 3.6372001171 102.23100281 199.30479431 1.8638999462 2.1203000546
 3598.7736816 7.0000000000 0.7149000168 9.2149000168 8.5000000000 22.816600800 -0.000026000 15.598600388 0.3232200146 2.5403873920 3.3728921413 121.73509979 3.3877000809 102.14340210 199.96620178 1.8760999441 2.1431000233
 3598.9260254 7.0000000000 0.7071999907 9.2072000504 8.5000000000 20.677490234 -0.001158000 16.109699249 0.3572640121 2.5502839088 3.5457227230 122.39150238 2.8942999840 101.08200073 200.99998474 1.7956999540 2.0438001156
 3599.0783691 7.0000000000 0.6906999946 9.1906995773 8.5000000000 20.920930862 -0.000778000 16.507999420 0.3869459927 2.5634577274 3.7475528717 122.41600037 2.3861999512 99.384590149 203.24139404 1.7038999796 1.9369000196
 3599.2309570 7.0000000000 0.6682999730 9.1682996750 8.5000000000 21.879589081 0.0006030000 16.158000946 0.3885479867 2.5708880424 3.8346612453 122.20020294 2.2929999828 99.421699524 205.19039917 1.7230000496 1.9664000273
 3599.3833008 7.0000000000 0.7092000842 9.2091999054 8.5000000000 22.480640411 0.0024669999 15.710200310 0.3686400056 2.5725972652 3.7703034878 122.16519928 2.4105999470 99.817100525 205.30639648 1.8156000376 2.0926001072
 3599.5356445 7.0000000000 0.7153000236 9.2152996063 8.5000000000 23.139110565 0.0005440000 15.545399666 0.3564139903 2.5578236580 3.6684632301 123.75669861 2.4256999493 99.821701050 204.77799988 1.8657000065 2.1580998898
 3599.6879883 7.0000000000 0.7233999968 9.2234001160 8.5000000000 23.796590805 -0.001656000 16.615800858 0.3630509973 2.5433230400 3.6026053429 126.83999634 2.0852000713 99.618103027 203.90499878 1.8184000254 2.1003000736
 3599.8405762 7.0000000000 0.6986999512 9.1986999512 8.5000000000 24.395009995 -0.002847000 17.141199112 0.3863919973 2.5349133015 3.5316135883 129.90150452 1.8381999731 99.655799866 203.53529358 1.7532999516 1.9744999409
 3599.9929199 7.0000000000 0.6999000907 9.1998996735 8.5000000000 24.594490051 -0.002498000 17.107400894 0.3837429881 2.5376954079 3.4295635223 130.73730469 1.6253000498 99.681800842 203.54150391 1.6800999641 1.8451000452
 3600.1452637 7.0000000000 0.6909000278 9.1908998489 8.5000000000 23.677820206 -0.001807000 17.195299149 0.3788079917 2.5360026360 3.3611097336 131.30749512 1.5672999620 99.488403320 203.57479858 1.6219999790 1.7562999725
 3600.2976074 7.0000000000 0.6756000519 9.1756000519 8.5000000000 22.087600708 -0.002630000 17.302099228 0.3613469899 2.5239193439 3.3996379375 130.23950195 1.4507000446 99.360298157 203.36251831 1.6449999809 1.7384999990
