# LAS format log file from PETREL
# Project units are specified as depth units
#==================================================================
~Version information
VERS.   2.0:
WRAP.   NO:
#==================================================================
~Well
STRT .m      2119.3232422 :
STOP .m      4394.3505859 :
STEP .m     0.00000000 :
NULL .        -999.250000 :
COMP.           : COMPANY
WELL.  34/5-1 A   : WELL
FLD.            : FIELD
LOC.            : LOCATION
SRVC.           : SERVICE COMPANY
DATE.  2018-09-11 14:48:50   : Log Export Date {yyyy-MM-dd HH:mm:ss}
PROV.           : PROVINCE
UWI.   34/5-1 A   : UNIQUE WELL ID
API.            : API NUMBER
#==================================================================
~Curve
DEPT .m                   : DEPTH
Lithology_geolink ._      : Lithology_geolink
CALI .in                  : CALI
BS .in                    : BS
ROP .m/h                  : ROP
DRHO .g/cm3               : DRHO
NPHI .m3/m3               : NPHI
RHOB .g/cm3               : RHOB
PEF .b/e                  : PEF
GR .gAPI                  : GR
DTC .us/ft                : DTC
DTS .us/ft                : DTS
RDEP .ohm.m               : RDEP
RMED .ohm.m               : RMED
~Parameter
#==================================================================
~Ascii
# ...
 2582.0097656  -999.250000 12.253899574 12.250000954 136.47834778 0.0194000024 0.3474971056 2.3115999699 5.1992001534 83.529205322 112.68879700 241.09893799 1.3758000135 1.4420000315
 2582.1621094  -999.250000 12.294400215 12.250000954 132.67224121 0.0208000001 0.3456977606 2.3171000481 5.1284999847 80.918952942 112.70240021 240.12834167 1.3832000494 1.4342000484
 2582.3144531  -999.250000 12.223601341 12.250000954 110.79920959 0.0231999997 0.3442905545 2.3132998943 5.1813001633 84.192802429 112.32949829 239.52717590 1.3672000170 1.4279999733
 2582.4670410  -999.250000 12.384100914 12.250000954 96.687004089 0.0212999992 0.3384950459 2.3234000206 5.3007998466 84.188980103 111.84149933 240.12576294 1.3615000248 1.4163999557
 2582.6193848  -999.250000 12.315300941 12.250000954 88.160766602 0.0208000001 0.3680635989 2.3229000568 5.2452001572 82.996162415 111.73020172 240.36119080 1.3387999535 1.4196000099
 2582.7717285  -999.250000 12.244700432 12.250000954 89.465881348 0.0192000009 0.3453801274 2.3199000359 4.9656000137 82.037864685 112.67980194 239.17140198 1.3629000187 1.4189000130
 2582.9240723  -999.250000 12.251999855 12.250000954 74.453086853 0.0176999997 0.3330030441 2.3159000874 4.8024001122 83.075233459 111.77500153 239.17259216 1.3493000269 1.4385000467
 2583.0764160  -999.250000 12.213300705 12.250000954 60.184055328 0.0189999994 0.3349137604 2.3124001026 5.0792999268 82.906898499 109.75878906 238.91073608 1.3551000357 1.4563000202
 2583.2290039  -999.250000 12.296999931 12.250000954 51.463253021 0.0223999992 0.3434990346 2.3139998913 5.4454002380 80.341171265 108.62280273 238.43080139 1.3868000507 1.5180000067
 2583.3813477  -999.250000 12.221500397 12.250000954 43.328742981 0.0276999995 0.3431733847 2.3392000198 5.6918997765 77.433433533 107.91040039 238.09204102 1.4572999477 1.5484999418
 2583.5336914  -999.250000 12.434498787 12.250000954 37.451774597 0.0030000000 0.3266052604 2.3536999226 5.8396000862 77.204612732 108.93489838 239.12100220 1.4871000051 1.5499000549
 2583.6860352  -999.250000 13.403400421 12.250000954 31.574804306 0.0034000000 0.3299118578 2.3836998940 5.5362000465 76.779182434 110.18250275 239.79943848 1.4151999950 1.5305000544
 2583.8386230  -999.250000 13.355199814 12.250000954 23.028543472 0.0186999999 0.3373220861 2.3761000633 5.1308999062 78.709777832 111.78749847 237.70674133 1.3946000338 1.4815000296
 2583.9909668  -999.250000 12.391899109 12.250000954 25.928478241 0.0144999996 0.3441910148 2.3131999969 5.2179999352 82.063331604 110.99659729 236.94383240 1.3794000149 1.4723999500
 2584.1433105  -999.250000 12.498100281 12.250000954 31.302167892 0.0229000002 0.3386073709 2.3166000843 5.2757000923 79.893707275 110.40338898 237.84149170 1.4076000452 1.4725999832
 2584.2956543  -999.250000 12.156099319 12.250000954 34.145015717 0.0187999997 0.3431988657 2.3078999519 5.0805997849 74.544395447 109.32630157 239.45899963 1.3761999607 1.4578000307
 2584.4482422  -999.250000 12.174201012 12.250000954 36.877952576 0.0093000000 0.3425198495 2.3011999130 5.0686001778 76.173469543 109.37270355 240.13943481 1.4111000299 1.4553999901
 2584.6005859  -999.250000 12.223500252 12.250000954 45.361545563 0.0131000001 0.3487063944 2.3117001057 5.0707998276 79.745155334 109.95690155 239.67868042 1.4153000116 1.4601000547
 2584.7529297  -999.250000 12.261599541 12.250000954 81.262794495 0.0151000004 0.3526940644 2.3097999096 5.0169000626 79.097717285 110.72309875 236.61260986 1.4150999784 1.4696999788
 2584.9052734  -999.250000 12.299200058 12.250000954 140.68470764 0.0208000001 0.3490283787 2.3189001083 5.2308998108 81.794784546 111.86910248 235.93843079 1.4170999527 1.4766000509
 2585.0576172  -999.250000 12.262000084 12.250000954 118.60006714 0.0226000007 0.3666690588 2.3183000088 5.2691998482 85.463264465 112.61139679 233.90405273 1.4381999969 1.4816000462
 2585.2102051  -999.250000 12.239800453 12.250000954 97.962593079 0.0199999996 0.3473603427 2.3218998909 5.3962001801 86.418708801 112.25209808 234.25129700 1.4652999640 1.4995000362
 2585.3625488  -999.250000 12.217598915 12.250000954 97.890098572 0.0175000001 0.3350033760 2.3255000114 5.5230998993 80.905143738 111.44090271 234.73999023 1.4700000286 1.5198999643
 2585.5148926  -999.250000 12.142899513 12.250000954 120.07118988 0.0167999994 0.3370990455 2.3264000416 5.5934000015 79.552719116 110.90910339 232.54017639 1.4615999460 1.5250999928
 2585.6672363  -999.250000 12.011599541 12.250000954 106.98654938 0.0003000000 0.3364966214 2.3020999432 5.4885997772 73.832702637 109.99069977 232.15350342 1.4453999996 1.5192999840
 2585.8198242  -999.250000 12.062500954 12.250000954 96.649932861 -0.000500000 0.3344492912 2.3090000153 5.2027997971 72.367897034 109.13349152 232.09677124 1.4457000494 1.5092999935
 2585.9721680  -999.250000 12.074900627 12.250000954 91.027557373 0.0003000000 0.3497980535 2.3104000092 5.1266999245 81.343124390 107.82849884 230.90972900 1.4349000454 1.4925999641
 2586.1245117  -999.250000 12.168100357 12.250000954 97.414375305 0.0010000000 0.3485753238 2.3062996864 4.8973999023 85.087654114 109.58249664 233.61706543 1.4034999609 1.4793000221
 2586.2768555  -999.250000 12.112299919 12.250000954 96.091865540 0.0044000000 0.3332017660 2.3076999187 4.9574999809 79.267204285 111.13099670 236.70031738 1.4082000256 1.4793000221
 2586.4294434  -999.250000 12.086299896 12.250000954 91.567260742 0.0060999999 0.3342884779 2.3090000153 4.9344000816 81.317031860 111.44680023 235.27095032 1.4082000256 1.4654999971
 2586.5817871  -999.250000 12.074299812 12.250000954 82.006561279 0.0031999999 0.3307124972 2.3194999695 5.1066999435 78.342033386 111.64150238 234.54115295 1.3862999678 1.4558000565
 2586.7341309  -999.250000 12.134099960 12.250000954 70.506233215 0.0104999999 0.3385251462 2.3598001003 5.4823999405 80.987991333 110.55068970 233.75996399 1.3688999414 1.4207999706
 2586.8864746  -999.250000 12.107800484 12.250000954 61.961616516 0.0124000004 0.3541615307 2.4052000046 5.7933001518 84.710945129 109.23739624 234.60443115 1.3028999567 1.4157999754
 2587.0388184  -999.250000 12.141500473 12.250000954 60.463912964 0.0060999999 0.3301905394 2.4008998871 5.5619001389 80.565620422 108.52429962 233.12794495 1.2591999769 1.4148000479
 2587.1914063  -999.250000 12.221500397 12.250000954 58.888126373 0.0100999996 0.3243006170 2.4223999977 5.4930000305 79.108612061 106.73829651 230.79763794 1.2357000113 1.4603999853
 2587.3437500  -999.250000 12.325400352 12.250000954 50.392719269 -0.004800000 0.3244999945 2.4116001129 5.8305001259 68.082626343 102.60569763 233.83532715 1.4501999617 1.7326999903
 2587.4960938  -999.250000 12.634900093 12.250000954 36.826114655 0.0013000000 0.3243711591 2.4130001068 6.4510998726 65.356643677 97.967903137 236.90928650 1.7303999662 2.1675000191
 2587.6484375  -999.250000 12.597000122 12.250000954 29.339893341 0.0048000002 0.2441213131 2.4388000965 6.6349000931 64.702453613 98.822105408 236.23295593 2.0571000576 2.3691999912
 2587.8010254  -999.250000 12.191900253 12.250000954 33.423557281 -0.004000000 0.2573955357 2.4844999313 6.6809000969 65.615112305 104.31919861 244.94447327 2.0961999893 2.3434998989
 2587.9533691  -999.250000 12.875099182 12.250000954 87.312004089 -0.002100000 0.2560386360 2.5955998898 6.5486998558 66.534339905 107.35160065 248.85896301 1.9909000397 2.1480998993
 2588.1057129  -999.250000 13.094099998 12.250000954 195.06495667 -0.028600000 0.2801240385 2.4860000610 6.4893999100 73.302116394 107.35160065 248.14547729 1.6374000311 1.8718999624
 2588.2580566  -999.250000 12.801799774 12.250000954 212.50689697 -0.013700000 0.2951575220 2.3301999569 5.7940998077 83.095664978 111.53170013 247.13490295 1.5247999430 1.6045000553
 2588.4106445  -999.250000 12.159700394 12.250000954 174.92782593 0.0168999992 0.3310230374 2.3264000416 5.2589001656 84.626091003 115.11489105 244.83354187 1.3761999607 1.3789000511
 2588.5629883  -999.250000 12.173399925 12.250000954 166.64173889 0.0104999999 0.3382287025 2.3206000328 5.0061998367 83.742713928 114.96309662 245.21949768 1.3007999659 1.3049999475
