# LAS format log file from PETREL
# Project units are specified as depth units
#==================================================================
~Version information
VERS.   2.0:
WRAP.   NO:
#==================================================================
~Well
STRT .m      2119.3232422 :
STOP .m      4394.3505859 :
STEP .m     0.00000000 :
NULL .        -999.250000 :
COMP.           : COMPANY
WELL.  34/5-1 A   : WELL
FLD.            : FIELD
LOC.            : LOCATION
SRVC.           : SERVICE COMPANY
DATE.  2018-09-11 14:48:50   : Log Export Date {yyyy-MM-dd HH:mm:ss}
PROV.           : PROVINCE
UWI.   34/5-1 A   : UNIQUE WELL ID
API.            : API NUMBER
#==================================================================
~Curve
DEPT .m                   : DEPTH
Lithology_geolink ._      : Lithology_geolink
CALI .in                  : CALI
BS .in                    : BS
ROP .m/h                  : ROP
DRHO .g/cm3               : DRHO
NPHI .m3/m3               : NPHI
RHOB .g/cm3               : RHOB
PEF .b/e                  : PEF
GR .gAPI                  : GR
DTC .us/ft                : DTC
DTS .us/ft                : DTS
RDEP .ohm.m               : RDEP
RMED .ohm.m               : RMED
~Parameter
#==================================================================
~Ascii
# ...
 3634.7890625  -999.250000 12.173000336 12.250000954 56.071517944 -0.003100000 0.3041900694 2.4230000973 7.1180000305 80.113250732 92.477111816 184.70613098 1.9180999994 2.0237998962
 3634.9414063  -999.250000 12.105299950 12.250000954 35.733268738 -0.002400000 0.3011043072 2.4205000401 7.2385997772 76.114326477 92.202171326 185.83854675 1.9408999681 2.0494999886
 3635.0937500  -999.250000 12.182700157 12.250000954 18.293306351 -0.003000000 0.3037942052 2.4289000034 7.1549000740 77.571769714 92.185607910 186.18260193 1.9639999866 2.0590999126
 3635.2460938  -999.250000 12.216899872 12.250000954 6.7732944489 0.0005000000 0.3001866937 2.4289000034 7.3597998619 82.846885681 92.438179016 188.36819458 1.9812999964 2.0804998875
 3635.3984375  -999.250000 12.234499931 12.250000954 6.5246062279 0.0024999999 0.2918944061 2.4286999702 7.5359001160 83.274101257 92.673927307 187.86360168 1.9859000444 2.0892999172
 3635.5510254  -999.250000 12.322999954 12.250000954 10.506890297 0.0068999999 0.2883708775 2.4284000397 8.0883998871 82.582046509 92.879829407 188.29229736 2.0064001083 2.0940001011
 3635.7033691  -999.250000 12.236900330 12.250000954 26.218832016 0.0140000004 0.2793056071 2.4407000542 8.4370002747 79.795570374 93.013687134 186.29510498 2.0104999542 2.0827999115
 3635.8557129  -999.250000 12.189900398 12.250000954 43.677165985 0.0024999999 0.2828019261 2.4265000820 8.1304998398 82.578399658 93.195861816 184.80073547 1.9988000393 2.0585999489
 3636.0080566  -999.250000 12.208999634 12.250000954 48.185039520 -0.001100000 0.2839971185 2.4230999947 7.9590997696 82.206184387 94.417350769 183.45790100 1.9975999594 2.0492999554
 3636.1606445  -999.250000 12.269599915 12.250000954 49.672901154 0.0073000002 0.2821862400 2.4414000511 7.8316998482 82.882598877 94.760917664 186.64324951 2.0097999573 2.0248999596
 3636.3129883  -999.250000 12.229998589 12.250000954 51.849735260 0.0026000000 0.2779019475 2.4310998917 7.1918001175 83.687995911 95.078964233 190.43461609 1.9765000343 2.0146999359
 3636.4653320  -999.250000 12.178099632 12.250000954 52.775917053 0.0046000001 0.2790980637 2.4374001026 7.3826999664 81.192985535 96.117408752 194.70188904 1.9585000277 1.9961999655
 3636.6176758  -999.250000 12.247400284 12.250000954 52.297245026 0.0020000001 0.2778995335 2.4335000515 7.2627000809 80.928565979 97.059806824 197.25614929 1.8703999519 1.9958000183
 3636.7702637  -999.250000 12.268099785 12.250000954 53.447181702 0.0029000000 0.2775968015 2.4291000366 7.4460000992 75.592681885 98.068115234 200.41723633 1.8320000172 1.8434000015
 3636.9226074  -999.250000 12.207699776 12.250000954 59.100391388 -0.0000000000 0.2765993476 2.4240999222 7.0977997780 70.879226685 99.413871765 205.09790039 1.6160000563 1.8605999947
 3637.0749512  -999.250000 12.163100243 12.250000954 62.930122375 0.0031000001 0.2761966288 2.4212999344 6.9059000015 68.593139648 100.51693726 205.53514099 1.6313999891 1.6620999575
 3637.2272949  -999.250000 12.264399529 12.250000954 66.877952576 -0.001900000 0.2740992010 2.4088997841 6.4867000580 67.808395386 100.59947205 203.63124084 1.4244999886 1.5397000313
 3637.3796387  -999.250000 12.300700188 12.250000954 67.734909058 -0.007600000 0.2736040056 2.3943998814 6.1845998764 66.683723450 100.01959229 202.60090637 1.2649999857 1.4535000324
 3637.5322266  -999.250000 12.038200378 12.250000954 59.049205780 -0.012700000 0.2761121690 2.3761000633 5.8510999680 67.400840759 99.390449524 203.03785706 1.3528000116 1.3727999926
 3637.6845703  -999.250000 12.000000000 12.250000954 45.767387390 -0.012700000 0.2799139619 2.3868999481 5.9249000549 72.441780090 98.688560486 202.37274170 1.2977000475 1.4513000250
 3637.8369141  -999.250000 12.187100410 12.250000954 39.401245117 -0.004200000 0.2885939181 2.4077999592 6.3972001076 79.473182678 97.605148315 200.97824097 1.3523999453 1.5715999603
 3637.9892578  -999.250000 12.219699860 12.250000954 35.213581085 0.0062000002 0.2848065495 2.4263999462 6.8716001511 80.592514038 97.263374329 200.44723511 1.4847999811 1.5911999941
 3638.1418457  -999.250000 12.072400093 12.250000954 35.724739075 0.0057999999 0.2889374197 2.4277000427 6.8168997765 84.289001465 96.491157532 199.83226013 1.5379999876 1.6953999996
 3638.2941895  -999.250000 12.057499886 12.250000954 35.246391296 -0.001100000 0.3005813956 2.4272000790 6.5914001465 87.745971680 94.981254578 195.70388794 1.6130000353 1.7253999710
 3638.4465332  -999.250000 12.138099670 12.250000954 34.038715363 -0.007200000 0.2889698744 2.4240999222 6.5510997772 87.227661133 93.830543518 193.63354492 1.6339000463 1.8593000174
 3638.5988770  -999.250000 12.166900635 12.250000954 33.138450623 -0.001300000 0.2701929510 2.4281001091 7.0327000618 88.436706543 93.481506348 188.67341614 1.7732000351 1.8651000261
 3638.7514648  -999.250000 12.208700180 12.250000954 43.132873535 -0.001500000 0.2658227086 2.4344000816 6.8810000420 80.776809692 92.800781250 186.38963318 1.8099000454 1.9143999815
 3638.9038086  -999.250000 12.263899803 12.250000954 50.174213409 0.0020000001 0.2729014158 2.4426000118 6.9223999977 80.185455322 92.759284973 187.30552673 1.8334000111 1.9208999872
 3639.0561523  -999.250000 12.191300392 12.250000954 51.835956573 0.0041999999 0.2737783492 2.4393000603 6.9405999184 78.477409363 92.436264038 188.32096863 1.8507000208 1.9282000065
 3639.2084961  -999.250000 12.187600136 12.250000954 48.092517853 0.0020999999 0.2603328526 2.4328000546 6.9808001518 79.606292725 91.788482666 189.17692566 1.8574999571 1.9638999701
 3639.3608398  -999.250000 12.241600037 12.250000954 46.049869537 0.0031999999 0.2808051407 2.4363000393 7.0864000320 81.841186523 91.901992798 189.00505066 1.8325999975 1.9637999535
 3639.5134277  -999.250000 12.282299995 12.250000954 57.821189880 0.0085000005 0.2839881778 2.4472000599 7.2526998520 80.337265015 92.641403198 188.78129578 1.8251999617 1.9721000195
 3639.6657715  -999.250000 12.164999008 12.250000954 72.822174072 0.0098000001 0.2803003192 2.4467000961 7.3225998878 79.206199646 92.640014648 187.56056213 1.8294999599 1.9484000206
 3639.8181152  -999.250000 12.231499672 12.250000954 82.882217407 0.0020999999 0.2805047929 2.4405000210 6.5346999168 79.949028015 92.334999084 186.28651428 1.8521000147 1.9386999607
 3639.9704590  -999.250000 12.175200462 12.250000954 78.390419006 0.0041000000 0.2835030258 2.4467999935 6.5187997818 77.357955933 92.392501831 189.09780884 1.8447999954 1.9378000498
 3640.1230469  -999.250000 12.090100288 12.250000954 76.543632507 0.0052999998 0.2853900790 2.4519999027 6.4414000511 82.429298401 92.890785217 187.72407532 1.8385000229 1.9407999516
 3640.2753906  -999.250000 12.201899529 12.250000954 74.912399292 -0.006000000 0.2823068798 2.4275000095 6.2189002037 79.556106567 93.134559631 186.22160339 1.8430000544 1.9471000433
 3640.4277344  -999.250000 12.229800224 12.250000954 69.714897156 -0.001200000 0.2866011262 2.4310998917 6.2694001198 75.073074341 92.979606628 186.65997314 1.8476999998 1.9621000290
 3640.5800781  -999.250000 12.314499855 12.250000954 65.901908875 -0.002500000 0.2873055935 2.4265000820 6.1694002151 75.185035706 92.484252930 188.69219971 1.8912999630 1.9839999676
 3640.7326660  -999.250000 12.431099892 12.250000954 73.167320251 0.0099999998 0.2908191979 2.4388000965 7.3544001579 75.773796082 91.397041321 189.24797058 1.9139000177 2.0050001144
 3640.8850098  -999.250000 12.503399849 12.250000954 72.974411011 0.0176999997 0.2968035042 2.4449000359 7.8359999657 77.490829468 91.286643982 188.61584473 2.0088000298 2.0162000656
 3641.0373535  -999.250000 12.383800507 12.250000954 61.344814301 0.0206000004 0.2989926338 2.4428999424 8.6885004044 81.862411499 92.120681763 189.64555359 1.9871000051 2.0271000862
 3641.1896973  -999.250000 12.376800537 12.250000954 53.941272736 0.0165999997 0.2943958342 2.4456000328 8.4407997131 77.751121521 93.106384277 193.30590820 2.0002000332 2.0494999886
 3641.3420410  -999.250000 12.286600113 12.250000954 53.914699554 0.0135000004 0.2918173075 2.4386000633 8.5647001266 73.536407471 94.158172607 197.62068176 1.8816000223 1.9825999737
