# LAS format log file from PETREL
# Project units are specified as depth units
#==================================================================
~Version information
VERS.   2.0:
WRAP.   NO:
#==================================================================
~Well
STRT .m      2119.3232422 :
STOP .m      4394.3505859 :
STEP .m     0.00000000 :
NULL .        -999.250000 :
COMP.           : COMPANY
WELL.  34/5-1 A   : WELL
FLD.            : FIELD
LOC.            : LOCATION
SRVC.           : SERVICE COMPANY
DATE.  2018-09-11 14:48:50   : Log Export Date {yyyy-MM-dd HH:mm:ss}
PROV.           : PROVINCE
UWI.   34/5-1 A   : UNIQUE WELL ID
API.            : API NUMBER
#==================================================================
~Curve
DEPT .m                   : DEPTH
Lithology_geolink ._      : Lithology_geolink
CALI .in                  : CALI
BS .in                    : BS
ROP .m/h                  : ROP
DRHO .g/cm3               : DRHO
NPHI .m3/m3               : NPHI
RHOB .g/cm3               : RHOB
PEF .b/e                  : PEF
GR .gAPI                  : GR
DTC .us/ft                : DTC
DTS .us/ft                : DTS
RDEP .ohm.m               : RDEP
RMED .ohm.m               : RMED
~Parameter
#==================================================================
~Ascii
# ...
 3333.0368652  -999.250000 12.200799942 12.250000954 61.766407013 0.0017000000 0.3348913491 2.4128999710 6.9759998322 77.574394226 95.977203369 204.72860718 1.8133000135 1.8899999857
 3333.1894531  -999.250000 12.124099731 12.250000954 55.187995911 -0.000400000 0.3294810951 2.4110000134 7.0232000351 77.381416321 95.435798645 205.28897095 1.8246999979 1.9020999670
 3333.3417969  -999.250000 12.027699471 12.250000954 64.866470337 -0.005400000 0.3235822022 2.4033999443 7.0005002022 76.288894653 95.882598877 203.94000244 1.8250999451 1.9125000238
 3333.4941406  -999.250000 12.141699791 12.250000954 115.19683838 -0.002000000 0.3125202060 2.4172000885 6.8390998840 71.671821594 96.277496338 205.50404358 1.8451999426 1.9189000130
 3333.6464844  -999.250000 12.147800446 12.250000954 144.86219788 -0.001000000 0.3251006603 2.4137001038 6.7660999298 71.443420410 96.254096985 207.14221191 1.8488999605 1.9082000256
 3333.7988281  -999.250000 12.200699806 12.250000954 149.65420532 -0.000100000 0.3254921734 2.4148001671 6.6798000336 76.309761047 96.144699097 205.71177673 1.8358999491 1.9028999805
 3333.9514160  -999.250000 12.165900230 12.250000954 153.96784973 0.0057000001 0.3207024038 2.4265999794 6.8354001045 71.797103882 96.436500549 205.95355225 1.8274999857 1.8854999542
 3334.1037598  -999.250000 12.160499573 12.250000954 188.16436768 0.0022000000 0.3525838256 2.4193999767 6.7442002296 71.764312744 96.279899597 207.50279236 1.8022999763 1.8816000223
 3334.2561035  -999.250000 12.068099976 12.250000954 218.37698364 -0.002100000 0.3424882889 2.4091000557 6.4886999130 70.838119507 96.555801392 210.55513000 1.7883000374 1.8410999775
 3334.4084473  -999.250000 12.048600197 12.250000954 188.68798828 -0.003700000 0.3351972997 2.4061000347 6.4065999985 72.538452148 96.729896545 210.32756042 1.7473000288 1.8329000473
 3334.5610352  -999.250000 12.180500031 12.250000954 108.13188934 -0.004300000 0.3334872127 2.4061999321 6.4003000259 77.071090698 97.048301697 208.19583130 1.7592999935 1.8269000053
 3334.7133789  -999.250000 12.221799850 12.250000954 80.701438904 0.0037000000 0.3294850886 2.4144001007 6.7781000137 80.671897888 97.863403320 209.91348267 1.7446000576 1.8105000257
 3334.8657227  -999.250000 12.248499870 12.250000954 66.498031616 0.0063000000 0.3202126622 2.4093000889 6.8354997635 75.552673340 98.072097778 207.78126526 1.7300000191 1.8021999598
 3335.0180664  -999.250000 12.173399925 12.250000954 58.228343964 0.0035999999 0.3280996680 2.4084000587 7.1107997894 70.746116638 98.294403076 207.31852722 1.7009999752 1.7928999662
 3335.1706543  -999.250000 12.211399078 12.250000954 55.394355774 0.0012000001 0.3278900683 2.4036002159 7.1236000061 76.944847107 98.161796570 205.78260803 1.6908999681 1.7957999706
 3335.3229980  -999.250000 12.152700424 12.250000954 52.666996002 0.0055999998 0.3247969747 2.4103999138 7.0332999229 82.553359985 98.531997681 208.15972900 1.7036999464 1.7766000032
 3335.4753418  -999.250000 12.201100349 12.250000954 47.951118469 0.0060000001 0.3229097724 2.4163999557 6.7740998268 74.547866821 98.436500549 210.43103027 1.6662000418 1.7617000341
 3335.6276855  -999.250000 12.069801331 12.250000954 44.674869537 0.0054000001 0.3289915025 2.4210999012 6.7641000748 71.854583740 98.790397644 213.26065063 1.7075999975 1.7490999699
 3335.7800293  -999.250000 12.102600098 12.250000954 44.750328064 -0.009600000 0.3237030506 2.4047999382 6.3698000908 76.015625000 99.226303101 215.16296387 1.6977000237 1.7545000315
 3335.9326172  -999.250000 12.068300247 12.250000954 39.054790497 -0.007400000 0.3256057501 2.4028000832 6.5036997795 75.664047241 98.925201416 214.14398193 1.6885999441 1.7627999783
 3336.0849609  -999.250000 12.231200218 12.250000954 33.914699554 -0.003000000 0.3274140954 2.4028000832 6.7922000885 77.079917908 98.394500732 211.83430481 1.6993999481 1.7426999807
 3336.2373047  -999.250000 12.216099739 12.250000954 28.548885345 0.0041999999 0.3361911774 2.4102001190 6.9149999619 77.217811584 98.460296631 210.64762878 1.6930999756 1.7541999817
 3336.3896484  -999.250000 12.288100243 12.250000954 21.121719360 0.0016000000 0.3307037055 2.4024000168 6.6272997856 76.852485657 99.102500916 207.61802673 1.6914000511 1.7576999664
 3336.5422363  -999.250000 12.154998779 12.250000954 11.611876488 0.0037000000 0.3329980969 2.4058001041 6.7950000763 78.274665833 99.827400208 209.56788635 1.6876000166 1.7421000004
 3336.6945801  -999.250000 12.145099640 12.250000954 8.1519031525 0.0000000000 0.3324054480 2.4063000679 6.5011000633 77.053833008 99.723701477 209.56631470 1.6398999691 1.7372000217
 3336.8469238  -999.250000 12.093099594 12.250000954 17.423885345 -0.004400000 0.3358108997 2.4038999081 6.2892999649 79.884567261 99.921203613 211.07475281 1.6541999578 1.7264000177
 3336.9992676  -999.250000 12.070099831 12.250000954 26.020669937 -0.008900000 0.3426003158 2.4015998840 6.1518001556 84.164047241 100.71739960 214.09358215 1.6426000595 1.7161999941
 3337.1518555  -999.250000 12.321399689 12.250000954 30.094160080 -0.001300000 0.3427862227 2.4040999413 6.4822998047 86.354881287 100.86689758 213.33836365 1.6155999899 1.6579999924
 3337.3041992  -999.250000 12.337699890 12.250000954 29.520999908 0.0108000003 0.3384951949 2.4198999405 7.1255002022 80.741958618 101.82830048 214.97781372 1.5462000370 1.6209000349
 3337.4565430  -999.250000 12.292300224 12.250000954 34.142059326 0.0161000006 0.3354894221 2.4281001091 7.3944997787 81.344863892 101.94660187 215.12243652 1.4996999502 1.5903999805
 3337.6088867  -999.250000 12.248299599 12.250000954 47.742126465 0.0057000001 0.3289178014 2.4135000706 6.3530001640 85.307235718 101.34239960 214.71640015 1.4312000275 1.5334999561
 3337.7612305  -999.250000 12.251199722 12.250000954 57.146656036 0.0055999998 0.3400030434 2.4121999741 6.3386998177 82.905555725 100.65328979 214.91445923 1.4112999439 1.5175000429
 3337.9138184  -999.250000 12.259200096 12.250000954 76.714897156 0.0091000004 0.3418910205 2.4242000580 6.3592000008 85.669891357 100.32330322 217.87396240 1.3935999870 1.5126999617
 3338.0661621  -999.250000 12.215600014 12.250000954 83.834320068 0.0011000000 0.3390991986 2.4045999050 6.0276999474 82.528594971 100.80889893 216.70468140 1.3835999966 1.4945000410
 3338.2185059  -999.250000 12.168999672 12.250000954 98.218170166 0.0041000000 0.3385897577 2.4142999649 6.3474001884 87.506973267 100.59549713 214.95033264 1.3966000080 1.4816999435
 3338.3708496  -999.250000 12.208299637 12.250000954 122.09809875 0.0016000000 0.3322067261 2.4163999557 6.3506999016 85.983932495 100.11322784 213.66960144 1.3686000109 1.4706000090
 3338.5234375  -999.250000 12.174999237 12.250000954 171.54855347 0.0026000000 0.3363926411 2.4170999527 6.4033999443 79.537422180 99.632095337 215.28736877 1.4127000570 1.5020999908
 3338.6757813  -999.250000 12.030500412 12.250000954 195.38943481 0.0020999999 0.3340980709 2.4203000069 6.2122001648 83.720245361 99.383087158 215.62266541 1.4356000423 1.5213999748
 3338.8281250  -999.250000 12.071100235 12.250000954 188.26115417 -0.012200000 0.3328950107 2.3791000843 6.1907000542 85.044898987 99.002510071 217.78102112 1.4694999456 1.5410000086
 3338.9804688  -999.250000 12.022000313 12.250000954 164.59121704 -0.011400000 0.3297972977 2.3812003136 6.1505999565 78.380493164 99.067474365 216.54501343 1.4695999622 1.5607999563
 3339.1330566  -999.250000 12.000000000 12.250000954 145.99769592 -0.011100000 0.3280958235 2.3821001053 6.1325998306 80.305152893 98.180381775 212.86024475 1.4469000101 1.5579999685
 3339.2854004  -999.250000 12.133899689 12.250000954 135.83628845 -0.004200000 0.3267999887 2.4059000015 5.9777002335 80.385612488 98.361770630 207.54057312 1.4617999792 1.5525000095
 3339.4377441  -999.250000 12.112199783 12.250000954 141.68273926 -0.002900000 0.3268092871 2.4082000256 6.0037999153 82.324150085 98.593482971 207.65733337 1.4444999695 1.5537999868
 3339.5900879  -999.250000 12.116600037 12.250000954 122.30315399 -0.002300000 0.3325714767 2.4065001011 6.1914000511 82.919982910 97.901046753 206.61801147 1.4450999498 1.5571000576
