# LAS format log file from PETREL
# Project units are specified as depth units
#==================================================================
~Version information
VERS.   2.0:
WRAP.   NO:
#==================================================================
~Well
STRT .m      3544.0620117 :
STOP .m      3899.9160156 :
STEP .m     0.00000000 :
NULL .        -999.250000 :
COMP.           : COMPANY
WELL.  34/5-1 S   : WELL
FLD.            : FIELD
LOC.            : LOCATION
SRVC.           : SERVICE COMPANY
DATE.  2018-09-11 14:48:51   : Log Export Date {yyyy-MM-dd HH:mm:ss}
PROV.           : PROVINCE
UWI.   34/5-1 S   : UNIQUE WELL ID
API.            : API NUMBER
#==================================================================
~Curve
DEPT .m                   : DEPTH
Lithology_geolink ._      : Lithology_geolink
DCAL .in                  : DCAL
CALI .in                  : CALI
BS .in                    : BS
ROP .m/h                  : ROP
DRHO .g/cm3               : DRHO
THOR .ppm                 : THOR
NPHI .m3/m3               : NPHI
RHOB .g/cm3               : RHOB
PEF .b/e                  : PEF
GR .gAPI                  : GR
URAN .ppm                 : URAN
DTC .us/ft                : DTC
DTS .us/ft                : DTS
RDEP .ohm.m               : RDEP
RMED .ohm.m               : RMED
~Parameter
#==================================================================
~Ascii
# ...
 3871.1123047 5.0000000000 -0.185700014 8.3142995834 8.5000000000 47.494091034 -0.013124000 9.3425998688 0.2327170074 2.5434463024 10.540073395 91.053001404 5.7529997826  -999.250000  -999.250000 4.3867998123 4.2137999535
 3871.2648926 6.0000000000 -0.186700001 8.3133001328 8.5000000000 45.791671753 -0.010584000 9.3290004730 0.2463890016 2.5789430141 10.646428108 97.911399841 5.9149999619  -999.250000  -999.250000 4.7361001968 4.6806001663
 3871.4172363 6.0000000000 -0.191799998 8.3081998825 8.5000000000 46.331039429 -0.011485001 9.3226003647 0.2468679994 2.5916798115 10.745041847 100.47550201 6.4882001877  -999.250000  -999.250000 4.8445000648 4.8491997719
 3871.5695801 6.0000000000 -0.202299997 8.2976999283 8.5000000000 45.915679932 -0.013537000 8.9728002548 0.2437140048 2.5912008286 10.754584312 104.54550171 7.1135001183  -999.250000  -999.250000 4.7019000053 4.7137999535
 3871.7219238 3.0000000000 -0.191200018 8.3087997437 8.5000000000 44.788379669 -0.016383000 8.3299999237 0.2389959991 2.5908012390 10.668177605 94.478202820 6.9772000313  -999.250000  -999.250000 4.3491001129 4.3036999702
 3871.8745117 3.0000000000 -0.194399998 8.3056001663 8.5000000000 42.865161896 -0.014209000 6.9977998734 0.2327950001 2.5806164742 10.155323029 66.365600586 6.3664999008  -999.250000  -999.250000 4.0500001907 3.9205000401
 3872.0268555 3.0000000000 -0.187900007 8.3121004105 8.5000000000 42.055118561 -0.014282000 5.4075999260 0.2171829939 2.5578365326 9.8541812897 50.515300751 5.5026001930  -999.250000  -999.250000 4.0746002197 3.7460000515
 3872.1791992 3.0000000000 -0.156000003 8.3439998627 8.5000000000 45.514759064 -0.014343000 4.6907000542 0.1946009994 2.5272490978 9.6792802811 51.047000885 4.7245001793  -999.250000  -999.250000 4.3674998283 3.9077000618
 3872.3315430 3.0000000000 -0.143900007 8.3561000824 8.5000000000 52.287399292 -0.009437000 4.8043999672 0.2326429933 2.4901592731 9.3834743500 56.870098114 5.2214999199  -999.250000  -999.250000 4.4872999191 4.0454998016
 3872.4838867 3.0000000000 -0.149599999 8.3503999710 8.5000000000 58.611881256 -0.005117000 5.2996997833 0.2702510059 2.5094380379 9.2024793625 65.015296936 6.7550997734  -999.250000  -999.250000 4.2845001221 3.9795999527
 3872.6364746 5.0000000000 -0.162699997 8.3373003006 8.5000000000 64.381233215 -0.007619000 6.2768998146 0.2620669901 2.5754940510 9.0601282120 73.927200317 7.8660998344  -999.250000  -999.250000 3.9017999172 3.7381000519
 3872.7888184 5.0000000000 -0.161899999 8.3381004333 8.5000000000 68.466209412 -0.022351000 6.7435002327 0.2334430069 2.5379602909 9.6455593109 83.610099792 7.8454995155  -999.250000  -999.250000 3.1793999672 3.0952999592
 3872.9411621 5.0000000000 -0.146500006 8.3535003662 8.5000000000 68.306106567 -0.033048999 6.1581997871 0.2209129930 2.4768979549 9.8679447174 77.764999390 7.1547999382  -999.250000  -999.250000 2.6865000725 2.6666998863
 3873.0935059 5.0000000000 -0.165099978 8.3348999023 8.5000000000 66.555450439 -0.028965000 5.7273998260 0.2168509960 2.4363298416 9.1432275772 64.650703430 6.5633001328  -999.250000  -999.250000 2.5934998989 2.6616001129
 3873.2460938 5.0000000000 -0.191699997 8.3083000183 8.5000000000 59.413711548 -0.026532000 5.3822999001 0.2169889957 2.4040515423 8.8587532043 62.288799286 6.0489997864  -999.250000  -999.250000 2.2818999290 2.4346001148
 3873.3984375 5.0000000000 -0.177000001 8.3229999542 8.5000000000 56.594802856 -0.027462000 4.8159999847 0.2202650011 2.3307175636 8.9250936508 70.156898499 5.7298998833  -999.250000  -999.250000 1.8014999628 1.9473999739
 3873.5507813 5.0000000000 -0.145199999 8.3548002243 8.5000000000 60.474411011 -0.027903000 4.5893001556 0.2188919932 2.3004484177 8.9523563385 76.922798157 5.8345999718  -999.250000  -999.250000 1.3717999458 1.4594000578
 3873.7031250 3.0000000000 -0.113100000 8.3868999481 8.5000000000 65.998359680 -0.032513000 5.1401000023 0.2179549932 2.2608270645 9.1374053955 82.071800232 6.6754999161  -999.250000  -999.250000 1.0792000294 1.1058000326
 3873.8557129 3.0000000000 -0.070500001 8.4294996262 8.5000000000 69.483917236 -0.034717999 5.3590002060 0.2175900042 2.2424292564 9.2372407913 66.218002319 7.0274000168  -999.250000  -999.250000 0.9034000039 0.9056000113
 3874.0080566 3.0000000000 -0.034100000 8.4659004211 8.5000000000 68.273292542 -0.036897998 4.6213998795 0.2230699956 2.2376077175 9.9336824417 51.455600739 6.1385998726  -999.250000  -999.250000 0.8274999857 0.8208000064
 3874.1604004 3.0000000000 -0.018800000 8.4812002182 8.5000000000 65.340232849 -0.036940001 3.3547999859 0.2371769994 2.2495806217 10.703466415 41.592998505 4.6339001656  -999.250000  -999.250000 0.8288999796 0.8027999997
 3874.3127441 3.0000000000 -0.012000000 8.4879999161 8.5000000000 66.342849731 -0.033736002 2.3433001041 0.2494910061 2.2813489437 10.962285995 36.122398376 3.7153999805  -999.250000  -999.250000 0.8510000110 0.8009999990
 3874.4650879 3.0000000000 -0.053399999 8.4465999603 8.5000000000 72.446197510 -0.025474999 2.0097999573 0.2646049857 2.3277511597 10.701139450 33.330799103 3.8456001282  -999.250000  -999.250000 0.9027000070 0.8593000174
 3874.6176758 6.0000000000 -0.105400003 8.3945999146 8.5000000000 70.465553284 -0.030498000 2.6196999550 0.2641839981 2.4255433083 11.111539841 43.117698669 4.9492001534  -999.250000  -999.250000 1.1773999929 1.1467000246
 3874.7700195 6.0000000000 -0.125799999 8.3741998672 8.5000000000 61.608589172 -0.026931999 3.4907000065 0.2367350012 2.5137586594 11.229211807 66.091697693 6.8632001877  -999.250000  -999.250000 1.8668999672 1.9728000164
 3874.9223633 6.0000000000 -0.144700006 8.3552999496 8.5000000000 54.073169708 -0.019876000 4.0514998436 0.2395959944 2.5634205341 10.726307869 87.876502991 8.2974996567  -999.250000  -999.250000 2.2337999344 2.5683999062
 3875.0747070 3.0000000000 -0.163800001 8.3361997604 8.5000000000 55.777565002 -0.020610999 4.4579000473 0.2069520056 2.5000038147 9.7085647583 75.478103638 8.5665998459  -999.250000  -999.250000 2.0682001114 2.4642000198
 3875.2272949 3.0000000000 -0.214699998 8.2853002548 8.5000000000 69.500663757 -0.019431001 4.5871000290 0.1880609989 2.4440894127 8.9583988190 51.121101379 7.7175002098  -999.250000  -999.250000 1.8653000593 2.2019999027
 3875.3796387 3.0000000000 -0.243699998 8.2562999725 8.5000000000 71.980972290 -0.020852000 4.3152999878 0.1959979981 2.4347150326 8.1222400665 42.664001465 6.4748997688  -999.250000  -999.250000 1.7983000278 1.9369000196
 3875.5319824 3.0000000000 -0.252700001 8.2473001480 8.5000000000 69.090553284 -0.021396000 3.7209999561 0.2080210000 2.4409899712 7.6011343002 41.768699646 5.1289000511  -999.250000  -999.250000 1.8229999542 1.8312000036
 3875.6843262 3.0000000000 -0.249699995 8.2503004074 8.5000000000 69.414703369 -0.019028001 3.1013998985 0.2031030059 2.4610357285 7.3929657936 42.068500519 3.8986999989  -999.250000  -999.250000 1.9160000086 1.8748999834
 3875.8369141 3.0000000000 -0.246800005 8.2531995773 8.5000000000 55.511493683 -0.023282001 2.8264999390 0.1917960048 2.4669904709 7.4751667976 46.480499268 3.2869000435  -999.250000  -999.250000 1.8190000057 1.8272000551
 3875.9892578 3.0000000000 -0.225400016 8.2746000290 8.5000000000 49.064960480 -0.030869000 3.0387001038 0.1813829988 2.4620079994 7.6790728569 52.900600433 3.2497999668  -999.250000  -999.250000 1.6926000118 1.7422000170
 3876.1416016 3.0000000000 -0.226600006 8.2734003067 8.5000000000 51.239170074 -0.034240998 3.0178999901 0.1784709990 2.3611619473 8.3449316025 40.153800964 3.0366001129  -999.250000  -999.250000 1.1875000000 1.2223999500
 3876.2939453 3.0000000000 -0.236500025 8.2635002136 8.5000000000 47.235240936 -0.013394000 2.9955000877 0.1573780030 2.3608002663 8.6576995850 32.564498901 2.5446000099  -999.250000  -999.250000 1.0644999743 1.0492999554
 3876.4465332 3.0000000000 -0.222599998 8.2774000168 8.5000000000 38.844490051 -0.011286000 3.1156001091 0.1452960074 2.3630964756 8.1623945236 28.418300629 2.3828001022  -999.250000  -999.250000 1.2592999935 1.2094999552
 3876.5988770 3.0000000000 -0.210199997 8.2897996902 8.5000000000 30.845138550 -0.022939000 4.2589001656 0.1574809998 2.3656959534 7.7889981270 40.729400635 3.1870999336  -999.250000  -999.250000 1.9326000214 1.8049999475
