# LAS format log file from PETREL
# Project units are specified as depth units
#==================================================================
~Version information
VERS.   2.0:
WRAP.   NO:
#==================================================================
~Well
STRT .m      3544.0620117 :
STOP .m      3899.9160156 :
STEP .m     0.00000000 :
NULL .        -999.250000 :
COMP.           : COMPANY
WELL.  34/5-1 S   : WELL
FLD.            : FIELD
LOC.            : LOCATION
SRVC.           : SERVICE COMPANY
DATE.  2018-09-11 14:48:51   : Log Export Date {yyyy-MM-dd HH:mm:ss}
PROV.           : PROVINCE
UWI.   34/5-1 S   : UNIQUE WELL ID
API.            : API NUMBER
#==================================================================
~Curve
DEPT .m                   : DEPTH
Lithology_geolink ._      : Lithology_geolink
DCAL .in                  : DCAL
CALI .in                  : CALI
BS .in                    : BS
ROP .m/h                  : ROP
DRHO .g/cm3               : DRHO
THOR .ppm                 : THOR
NPHI .m3/m3               : NPHI
RHOB .g/cm3               : RHOB
PEF .b/e                  : PEF
GR .gAPI                  : GR
URAN .ppm                 : URAN
DTC .us/ft                : DTC
DTS .us/ft                : DTS
RDEP .ohm.m               : RDEP
RMED .ohm.m               : RMED
~Parameter
#==================================================================
~Ascii
# ...
 3639.9216309 6.0000000000 0.9226999283 9.4227123260 8.5000000000 86.059379578 -0.002020000 9.3836002350 0.2946313024 2.4637999535 3.6505000591 87.558097839 2.0820999146 84.206100464 149.77969360 3.1106998920 3.1198000908
 3640.0742188 6.0000000000 0.9305999279 9.4305849075 8.5000000000 89.461616516 -0.001727000 8.3751001358 0.2828769088 2.4625000954 3.7588999271 83.136901855 2.2335000038 83.070899963 149.70449829 3.0515999794 3.1298000813
 3640.2265625 6.0000000000 0.9257999659 9.4257688522 8.5000000000 88.749023438 -0.000103000 7.4516000748 0.2491663843 2.4572999477 3.8352000713 81.951400757 2.4251000881 81.969902039 148.10099792 3.0438001156 3.2086999416
 3640.3789063 6.0000000000 0.9059000611 9.4058885574 8.5000000000 81.653869629 0.0007300000 7.1571002007 0.2232179195 2.4558000565 3.8891999722 84.630302429 2.6359000206 81.246299744 147.35629272 3.0848000050 3.3879001141
 3640.5312500 6.0000000000 0.8985999823 9.3986005783 8.5000000000 70.267387390 0.0003750000 7.4395999908 0.2131879032 2.4597001076 3.8826000690 87.138496399 2.8657000065 80.148101807 147.26330566 3.2337000370 3.6586999893
 3640.6838379 6.0000000000 0.8989999890 9.3990468979 8.5000000000 67.933067322 -0.000220000 7.4191999435 0.2049985081 2.4677999020 3.8299999237 87.024200439 3.0429999828 79.442298889 146.37780762 3.4842998981 4.1496000290
 3640.8361816 6.0000000000 0.9136999846 9.4136085510 8.5000000000 71.799873352 -0.000632000 7.5631999969 0.1961046904 2.4806001186 3.7862999439 87.173400879 3.0966000557 79.226799011 145.56689453 3.3580999374 4.0299000740
 3640.9885254 6.0000000000 0.8562999368 9.3562498093 8.5000000000 74.115806580 -0.001807000 8.1464996338 0.1840534955 2.4906001091 3.8469998837 87.487098694 2.9670999050 78.864196777 143.13890076 3.1382999420 3.6380000114
 3641.1408691 5.0000000000 0.8248000145 9.3246431351 8.5000000000 66.347442627 -0.002225000 8.2323999405 0.1706435382 2.5056002140 4.1002001762 84.081100464 2.9988000393 78.305000305 140.09399414 3.5360999107 4.2026000023
 3641.2934570 5.0000000000 0.7269999981 9.2267551422 8.5000000000 57.435039520 -0.001862000 7.6892004013 0.1634920835 2.5301001072 4.5095000267 77.463203430 2.8675999641 77.962997437 139.10589600 4.7104997635 5.9120998383
 3641.4458008 5.0000000000 0.6503000259 9.1502494812 8.5000000000 49.374668121 0.0009790000 6.9517998695 0.1598004103 2.5715000629 4.8905000687 73.401298523 2.9340000153 76.324897766 139.28140259 5.3470997810 7.1909999847
 3641.5981445 5.0000000000 0.6184999943 9.1184234619 8.5000000000 45.808399200 0.0025490001 6.7019000053 0.1725407094 2.6027998924 5.1013998985 71.495201111 2.9579999447 73.719001770 140.89819336 5.2853999138 6.9749999046
 3641.7504883 5.0000000000 0.5705999732 9.0705556870 8.5000000000 48.332351685 0.0029060000 7.4319000244 0.1886126697 2.6194999218 5.1670999527 74.338699341 2.7616000175 71.829498291 143.24400330 4.6553001404 5.8894000053
 3641.9028320 5.0000000000 0.5430999994 9.0430164337 8.5000000000 54.707675934 0.0060950001 7.6835994720 0.2245734930 2.6370999813 5.2010002136 75.409202576 2.6810998917 72.506202698 147.39619446 4.3541998863 5.2362999916
 3642.0554199 5.0000000000 0.4909000099 8.9908294678 8.5000000000  -999.250000 0.0109759998 7.8249006271 0.2486074120 2.6538999081 5.1981000900 77.458999634 2.8036000729 71.991897583 153.71357727 4.1090998650 4.8824000359
 3642.2077637 5.0000000000 0.4688999653 8.9689006805 8.5000000000  -999.250000 0.0143360002 8.3171997070 0.2655758560 2.6582000256 5.0522999763 84.685699463 3.0186998844 82.045097351 157.90420532 3.9965000153 4.5594000816
 3642.3601074 5.0000000000 0.4693999887 8.9694395065 8.5000000000  -999.250000 0.0104360003 8.9956998825 0.2767337859 2.6284999847 4.7284998894 93.543800354 3.1944999695 87.207000732 163.04370117 3.9611001015 4.2417001724
 3642.5124512 5.0000000000 0.4939000010 8.9939317703 8.5000000000  -999.250000 0.0044950000 10.306900024 0.3021972477 2.5950000286 4.3818001747 103.73580170 3.1681001186 91.100296021 166.86639404 3.8385000229 3.9595999718
 3642.6650391 5.0000000000 0.5133000016 9.0133657455 8.5000000000  -999.250000 -0.001452000 10.630545616 0.3316445053 2.5676999092 4.1856999397 107.55419922 3.0320773125 94.153900146 169.81327820 3.7599999905 3.7358000278
 3642.8173828 5.0000000000 0.5339000225 9.0339622498 8.5000000000  -999.250000 -0.005892000 10.738879204 0.3364706039 2.5513000488 4.1676001549 107.70649719 2.8060739040 94.155403137 172.82299805 3.6958000660 3.5429999828
 3642.9697266 7.0000000000 0.5727999806 9.0727710724 8.5000000000  -999.250000 -0.008291000 11.225107193 0.3349801600 2.5469999313 4.2037000656 105.44180298 2.2283327579 93.206298828 175.53790283 3.6127998829 3.4054000378
 3643.1220703 7.0000000000 0.5551000237 9.0550765991 8.5000000000  -999.250000 -0.007710000 11.666901588 0.3320038915 2.5559000969 4.2130999565 101.79949951 1.7498182058 90.740699768 177.48330688 3.5074000359 3.3303000927
 3643.2746582 7.0000000000 0.5403000116 9.0402746201 8.5000000000  -999.250000 -0.006622000 12.353952408 0.3487530053 2.5613999367 4.2126998901 101.45120239 1.4491888285 88.091705322 178.18479919 3.3842000961 3.2644000053
 3643.4270020 7.0000000000 0.5324000120 9.0324077606 8.5000000000  -999.250000 -0.005251001 12.620355606 0.3509351015 2.5606999397 4.1967000961 101.02870178 1.3215450048 87.221298218 178.88769531 3.2802000046 3.2126998901
 3643.5793457 7.0000000000 0.5370000005 9.0370197296 8.5000000000  -999.250000 -0.002876000 13.091890335 0.3522460163 2.5578000546 4.1525001526 103.25620270 1.5993160009 87.269599915 179.80880737 3.1881000996 3.1644001007
 3643.7316895 7.0000000000 0.5493000150 9.0493431091 8.5000000000  -999.250000 0.0002920000 13.835094452 0.3491486609 2.5571999550 4.1182999611 108.75240326 1.9210587740 87.017494202 181.06570435 3.1113998890 3.1217000484
 3643.8840332 7.0000000000 0.5760999918 9.0760421753 8.5000000000  -999.250000 -0.000143000 14.829487801 0.3483304679 2.5420999527 4.1519999504 114.81479645 2.0822422504 89.585098267 184.31689453 3.0539999008 3.0943999290
 3644.0366211 7.0000000000 0.5396999717 9.0397853851 8.5000000000  -999.250000 -0.001660000 15.630362511 0.3548818529 2.5260000229 4.1647000313 118.20410156 2.1094667912 92.711891174 188.68370056 2.9876000881 3.0422999859
 3644.1889648 7.0000000000 0.5666000247 9.0666608810 8.5000000000  -999.250000 -0.003300000 15.338865280 0.3660598099 2.5157999992 4.0701999664 117.40689850 2.4109039307 94.760108948 190.69929504 2.9516000748 2.9897000790
 3644.3413086 7.0000000000 0.6047999859 9.1048135757 8.5000000000  -999.250000 -0.003145000 15.754638672 0.3746532202 2.5178000927 3.8954000473 118.08979797 2.6003496647 94.014297485 189.39669800 2.9758999348 3.0050001144
 3644.4936523 7.0000000000 0.6132000089 9.1132764816 8.5000000000  -999.250000 -0.003134000 15.964653969 0.3747660220 2.5236999989 3.7369000912 116.47309875 2.6316411495 94.811790466 185.60130310 3.0206000805 3.0434999466
 3644.6462402 7.0000000000 0.6610000134 9.1609678268 8.5000000000  -999.250000 -0.002711000 15.311656952 0.3666529655 2.5346000195 3.6314001083 112.47389984 2.8447673321 94.670799255 181.81019592 3.0420999527 3.0632998943
 3644.7985840 7.0000000000 0.6510000825 9.1510019302 8.5000000000  -999.250000 -0.000908000 14.737542152 0.3535329103 2.5515999794 3.5796000957 109.85649872 3.0215253830 92.956298828 179.39059448 3.0111999512 3.0255000591
 3644.9509277 7.0000000000 0.6521999836 9.1521854401 8.5000000000  -999.250000 -0.000333000 14.887338638 0.3341454268 2.5596001148 3.6031999588 109.12229919 3.0374417305 90.162406921 174.73339844 2.9093000889 2.9110999107
 3645.1032715 7.0000000000 0.6433000565 9.1432886124 8.5000000000  -999.250000 -0.003308000 14.286808014 0.3188184500 2.5467998981 3.6961998940 107.91690063 3.1872839928 88.267097473 170.44659424 2.7885000706 2.7887001038
 3645.2558594 7.0000000000 0.6359999776 9.1359996796 8.5000000000  -999.250000 -0.009075000 13.105960846 0.3179323673 2.5250000954 3.8073000908 99.788696289 2.7395391464 87.554199219 168.50741577 2.7671000957 2.7892000675
 3645.4082031 7.0000000000 0.6359999776 9.1360015869 8.5000000000  -999.250000 -0.014217000 12.469708443 0.3408025801 2.5111000538 3.9181001186 91.950302124 2.1906752586 86.370407104 166.17010498 2.8589999676 2.8942999840
