# LAS format log file from PETREL
# Project units are specified as depth units
#==================================================================
~Version information
VERS.   2.0:
WRAP.   NO:
#==================================================================
~Well
STRT .m      3544.0620117 :
STOP .m      3899.9160156 :
STEP .m     0.00000000 :
NULL .        -999.250000 :
COMP.           : COMPANY
WELL.  34/5-1 S   : WELL
FLD.            : FIELD
LOC.            : LOCATION
SRVC.           : SERVICE COMPANY
DATE.  2018-09-11 14:48:51   : Log Export Date {yyyy-MM-dd HH:mm:ss}
PROV.           : PROVINCE
UWI.   34/5-1 S   : UNIQUE WELL ID
API.            : API NUMBER
#==================================================================
~Curve
DEPT .m                   : DEPTH
Lithology_geolink ._      : Lithology_geolink
DCAL .in                  : DCAL
CALI .in                  : CALI
BS .in                    : BS
ROP .m/h                  : ROP
DRHO .g/cm3               : DRHO
THOR .ppm                 : THOR
NPHI .m3/m3               : NPHI
RHOB .g/cm3               : RHOB
PEF .b/e                  : PEF
GR .gAPI                  : GR
URAN .ppm                 : URAN
DTC .us/ft                : DTC
DTS .us/ft                : DTS
RDEP .ohm.m               : RDEP
RMED .ohm.m               : RMED
~Parameter
#==================================================================
~Ascii
# ...
 3803.4467773 7.0000000000 -0.006100000 8.4939002991 8.5000000000 26.145708084 -0.023980089 15.020199776 0.2806960046 2.5894043446 10.252804756 111.54011536 3.0006999969 85.510375977 159.19902039 2.6646699905 2.5667953491
 3803.5991211 7.0000000000 -0.008400000 8.4916000366 8.5000000000 25.351655960 -0.024215000 14.323599815 0.2792910039 2.5948910713 10.474843979 118.50041962 3.2374000549 86.030967712 159.35614014 2.7949910164 2.6841115952
 3803.7514648 7.0000000000 -0.000600000 8.4994001389 8.5000000000 27.500806808 -0.026232000 13.432499886 0.2686890066 2.5961978436 10.418091774 121.49261475 3.5146999359 84.828918457 160.64633179 2.9484539032 2.8189837933
 3803.9038086 7.0000000000 -0.010300000 8.4897003174 8.5000000000 30.361225128 -0.025049999 12.850299835 0.2557969987 2.5992949009 10.461829185 119.15136719 3.5341999531 87.480743408 159.99687195 3.0940666199 2.9329173565
 3804.0561523 7.0000000000 -0.009200000 8.4907999039 8.5000000000 31.608867645 -0.023941999 12.657699585 0.2448289990 2.6022906303 10.367702484 118.41016388 3.5585999489 87.605712891 156.90672302 3.1887967587 3.0154356956
 3804.2087402 7.0000000000 0.0749000013 8.5748996735 8.5000000000 32.570312500 -0.019815000 12.990200043 0.2369890064 2.6143805981 10.656436920 119.03928375 3.3257999420 84.782730103 152.71672058 3.3885798454 3.2326517105
 3804.3610840 7.0000000000 0.1278000027 8.6277999878 8.5000000000 36.232315063 -0.013588000 12.840999603 0.2257740051 2.6441524029 11.287986755 120.85738373 3.3199000359 85.442932129 150.52410889 3.6496813297 3.5784454346
 3804.5134277 7.0000000000 0.1456999928 8.6457004547 8.5000000000 42.822113037 -0.008273000 12.397299767 0.2215269953 2.6967155933 11.382550240 112.69490814 3.2878000736 85.619514465 153.89898682 3.7910737991 3.8499650955
 3804.6657715 7.0000000000 0.1501999944 8.6501998901 8.5000000000 44.154872894 -0.011619000 12.127699852 0.2291850001 2.7095589638 10.908423424 106.55337524 3.1154000759 83.157608032 156.63323975 3.6340050697 3.7875020504
 3804.8183594 7.0000000000 0.1340000033 8.6339998245 8.5000000000 41.356208801 -0.018325999 11.599900246 0.2292229980 2.6801471710 10.501749992 104.25125885 3.1995000839 84.931632996 157.06892395 3.2884538174 3.4326694012
 3804.9707031 7.0000000000 0.1239999980 8.6239995956 8.5000000000 39.595989227 -0.022653000 11.467100143 0.2384109944 2.6352720261 10.274863243 105.43109894 3.3443000317 89.022338867 156.73124695 3.1076891422 3.1959791183
 3805.1230469 7.0000000000 0.1260000020 8.6260004044 8.5000000000 38.162067413 -0.020488000 11.422599792 0.2560949922 2.5879757404 10.075319290 109.98699188 3.5244998932 87.848495483 158.31954956 3.0174443722 3.0280690193
 3805.2753906 7.0000000000 0.1483999938 8.6484003067 8.5000000000 36.216865540 -0.019622000 11.746000290 0.2660669982 2.5650732517 9.8421478271 116.08614349 3.3596999645 85.936332703 158.98927307 2.9861001968 2.9582233429
 3805.4279785 7.0000000000 0.1418000013 8.6417999268 8.5000000000 37.050163269 -0.019801000 12.586999893 0.2573109865 2.5528194904 9.8177385330 113.52494049 2.9985001087 86.663421631 157.38478088 2.9482605457 2.8878128529
 3805.5803223 7.0000000000 0.1238999963 8.6239004135 8.5000000000 42.517147064 -0.018480999 12.898400307 0.2491790056 2.5430157185 9.8536424637 105.54769135 2.9109001160 87.276519775 153.25971985 2.8988790512 2.8291938305
 3805.7326660 6.0000000000 0.1300999969 8.6301002502 8.5000000000 53.931827545 -0.020776000 12.682700157 0.2454079986 2.5322175026 9.9259834290 98.371498108 2.8034999371 85.535491943 149.35395813 2.9284522533 2.8583531380
 3805.8850098 6.0000000000 0.1451999992 8.6451997757 8.5000000000 63.297985077 -0.018916000 12.273699760 0.2416640073 2.5345962048 10.027338028 94.565284729 2.7446999550 84.352096558 148.62936401 2.9192149639 2.8213593960
 3806.0373535 6.0000000000 0.1286000013 8.6286001205 8.5000000000 58.523262024 -0.019324001 12.399100304 0.2390650064 2.5387866497 9.8592395782 96.902580261 2.5418000221 82.895767212 149.66886902 2.9184026718 2.8076438904
 3806.1899414 6.0000000000 0.1193000004 8.6192998886 8.5000000000 48.939247131 -0.019421000 13.199299812 0.2392659932 2.5414958000 9.9574413300 98.203422546 2.3362998962 82.552040100 151.29020691 2.9307801723 2.8196806908
 3806.3422852 6.0000000000 0.1407999992 8.6408004761 8.5000000000 44.289588928 -0.018314000 13.966799736 0.2405499965 2.5445950031 10.231959343 97.455604553 2.1231000423 82.919410706 153.10227966 2.9401850700 2.8290848732
 3806.4946289 6.0000000000 0.1501999944 8.6501998901 8.5000000000 44.004386902 -0.016868999 14.415300369 0.2422280014 2.5473954678 10.337831497 95.149101257 1.8995000124 83.108497620 156.68704224 2.9470889568 2.8384850025
 3806.6469727 6.0000000000 0.1314000040 8.6314001083 8.5000000000 45.044887543 -0.015350000 14.807700157 0.2430299968 2.5519852638 10.184193611 92.358245850 1.5765999556 84.106697083 161.46287537 2.9304533005 2.8201589584
 3806.7995605 6.0000000000 0.1269000024 8.6268997192 8.5000000000 45.109481812 -0.014451000 15.069499969 0.2459689975 2.5641803741 10.166427612 90.252967834 1.5038000345 81.849227905 164.18017578 2.8609116077 2.7411267757
 3806.9519043 6.0000000000 0.1330000013 8.6330003738 8.5000000000 44.330322266 -0.015892001 14.325599670 0.2544989884 2.5768797398 9.9500474930 94.205551147 1.6615999937 83.214599609 163.04772949 2.8050894737 2.6770026684
 3807.1042480 6.0000000000 0.1402000040 8.6401996613 8.5000000000 44.086349487 -0.018045001 13.704999924 0.2599669993 2.5929741859 9.6524772644 99.256706238 1.7466000319 84.693733215 161.61419678 2.7921206951 2.6662170887
 3807.2565918 7.0000000000 0.1425999999 8.6426000595 8.5000000000 43.688934326 -0.024332000 13.502499580 0.2619560063 2.6054599285 9.6597747803 103.55651855 1.6727999449 84.096824646 160.44215393 2.8093447685 2.6993935108
 3807.4091797 7.0000000000 0.1410000026 8.6409997940 8.5000000000 41.968639374 -0.024222000 13.673299789 0.2607299984 2.6218738556 10.060556412 109.17929840 1.7501000166 83.876449585 158.84924316 2.8256738186 2.7292523384
 3807.5615234 7.0000000000 0.1312000006 8.6311998367 8.5000000000 39.390613556 -0.016548000 13.790100098 0.2590500116 2.6260933876 10.005290031 109.80510712 1.7743999958 83.661643982 158.13534546 2.8319900036 2.7297992706
 3807.7138672 7.0000000000 0.1374000013 8.6373996735 8.5000000000 37.305511475 -0.013686000 13.424699783 0.2553839982 2.6092271805 10.036549568 105.05802155 1.9102998972 83.706733704 157.80484009 2.8289051056 2.7172203064
 3807.8662109 7.0000000000 0.1262000054 8.6261997223 8.5000000000 34.752784729 -0.017604999 13.272199631 0.2539489865 2.5930259228 9.8737611771 104.59812164 2.3073000908 84.053642273 157.39425659 2.8381850719 2.7263851166
 3808.0187988 7.0000000000 0.1244000047 8.6244001389 8.5000000000 32.769252777 -0.021885000 12.829500198 0.2576000094 2.5884072781 9.6894950867 107.28339386 2.6812000275 85.827751160 157.00701904 2.8416945934 2.7301938534
 3808.1711426 7.0000000000 0.1321000010 8.6321001053 8.5000000000 35.040309906 -0.023918999 12.521100044 0.2663689852 2.5939910412 9.4540777206 108.14312744 2.8573999405 85.375335693 157.74002075 2.8409011364 2.7206153870
 3808.3234863 7.0000000000 0.1291999966 8.6291999817 8.5000000000 37.510799408 -0.022053000 12.073599815 0.2720029950 2.6074783802 9.6035594940 109.62482452 2.9277000427 83.989128113 158.05599976 2.8569743633 2.7183036804
 3808.4758301 7.0000000000 0.1264999956 8.6265001297 8.5000000000 35.454746246 -0.021372000 12.033300400 0.2727580070 2.6201796532 10.213920593 112.19548035 2.9179000854 83.792106628 157.97224426 2.8950390816 2.7636272907
 3808.6281738 7.0000000000 0.1162000000 8.6162004471 8.5000000000 32.956501007 -0.019649001 12.471500397 0.2666569948 2.6331584454 10.281187057 109.46537018 2.7316999435 83.921089172 156.14965820 2.9479305744 2.8411512375
 3808.7807617 7.0000000000 0.1325999945 8.6325998306 8.5000000000 30.920244217 -0.021372000 13.149600029 0.2586840093 2.6303045750 10.268819809 103.61148071 2.6935000420 83.035110474 155.86404419 2.9039707184 2.7912802696
 3808.9331055 7.0000000000 0.1316999942 8.6316995621 8.5000000000 31.830883026 -0.021272000 13.696900368 0.2541899979 2.6215140820 10.129024506 102.95812988 2.6545999050 82.109580994 156.48748779 2.8532812595 2.7321946621
