# LAS format log file from PETREL
# Project units are specified as depth units
#==================================================================
~Version information
VERS.   2.0:
WRAP.   NO:
#==================================================================
~Well
STRT .m      2119.3232422 :
STOP .m      4394.3505859 :
STEP .m     0.00000000 :
NULL .        -999.250000 :
COMP.           : COMPANY
WELL.  34/5-1 A   : WELL
FLD.            : FIELD
LOC.            : LOCATION
SRVC.           : SERVICE COMPANY
DATE.  2018-09-11 14:48:50   : Log Export Date {yyyy-MM-dd HH:mm:ss}
PROV.           : PROVINCE
UWI.   34/5-1 A   : UNIQUE WELL ID
API.            : API NUMBER
#==================================================================
~Curve
DEPT .m                   : DEPTH
Lithology_geolink ._      : Lithology_geolink
CALI .in                  : CALI
BS .in                    : BS
ROP .m/h                  : ROP
DRHO .g/cm3               : DRHO
NPHI .m3/m3               : NPHI
RHOB .g/cm3               : RHOB
PEF .b/e                  : PEF
GR .gAPI                  : GR
DTC .us/ft                : DTC
DTS .us/ft                : DTS
RDEP .ohm.m               : RDEP
RMED .ohm.m               : RMED
~Parameter
#==================================================================
~Ascii
# ...
 2736.2385254  -999.250000 12.184000015 12.250000954 107.61646271 0.0055000000 0.3237916529 2.3545999527 5.6188998222 75.249542236 100.00520325 212.79109192 1.7645000219 1.8483999968
 2736.3908691  -999.250000 12.277600288 12.250000954 99.549209595 0.0125000002 0.3185975850 2.4103999138 5.9976000786 73.032440186 97.823699951 208.42707825 1.8420000076 1.9095000029
 2736.5432129  -999.250000 12.571000099 12.250000954 84.719490051 -0.001000000 0.3170711398 2.4126000404 6.3364000320 72.555717468 97.376403809 208.67025757 1.9868999720 2.0682001114
 2736.6958008  -999.250000 12.539400101 12.250000954 79.789039612 -0.005600000 0.2991118431 2.3940000534 6.4184999466 73.066101074 97.357002258 209.95918274 2.0973999500 2.1617999077
 2736.8481445  -999.250000 12.234101295 12.250000954 76.834320068 0.0057999999 0.3027969599 2.3650999069 6.0061998367 74.068397522 96.255599976 210.39077759 2.0820999146 2.1384000778
 2737.0004883  -999.250000 12.210901260 12.250000954 85.674217224 0.0076000001 0.3008854389 2.3619999886 5.9331002235 76.569091797 95.823898315 209.62873840 2.0457999706 2.0581998825
 2737.1528320  -999.250000 12.206399918 12.250000954 87.865486145 0.0093000000 0.2918288410 2.3550999165 5.6373000145 81.423019409 95.209899902 208.59252930 1.9390000105 2.0002999306
 2737.3054199  -999.250000 12.250301361 12.250000954 85.409774780 0.0099999998 0.3098054528 2.3550000191 5.5618000031 82.924667358 97.131507874 207.30570984 1.8997999430 1.9241000414
 2737.4577637  -999.250000 12.194699287 12.250000954 83.791343689 0.0082000000 0.3115163445 2.3499999046 5.4275999069 81.571960449 97.371597290 210.05035400 1.9172999859 1.8949999809
 2737.6101074  -999.250000 12.161801338 12.250000954 90.423881531 0.0049000001 0.3216733932 2.3469998837 5.2891001701 79.119644165 97.788902283 211.39219666 1.8707000017 1.8983000517
 2737.7624512  -999.250000 12.202899933 12.250000954 99.479331970 0.0049999999 0.3050999939 2.3473999500 5.3004999161 78.402153015 99.312698364 211.63943481 1.9040000439 1.9041999578
 2737.9150391  -999.250000 12.230798721 12.250000954 103.37270355 0.0068000001 0.3051671982 2.3508000374 5.3350000381 77.431030273 99.769302368 210.22494507 1.9392999411 1.9150999784
 2738.0673828  -999.250000 12.173299789 12.250000954 111.78444672 0.0073000002 0.3260999918 2.3517999649 5.8649001122 74.825309753 99.569602966 206.68360901 2.0394001007 1.9946000576
 2738.2197266  -999.250000 12.193300247 12.250000954 123.25688934 0.0083999997 0.3261012733 2.3624999523 6.0275001526 75.083854675 97.259002686 204.69451904 2.1096999645 2.0608000755
 2738.3720703  -999.250000 12.207799911 12.250000954 138.30873108 0.0151000004 0.3268990517 2.4079999924 6.5461997986 76.729965210 96.929000854 201.22509766 2.1751000881 2.1373999119
 2738.5244141  -999.250000 12.224499702 12.250000954 140.52886963 0.0179999992 0.3262916803 2.4256000519 6.7031002045 71.479103088 97.104103088 205.46316528 2.3197999001 2.2980999947
 2738.6770020  -999.250000 12.814900398 12.250000954 119.02295685 0.0187999997 0.3210954964 2.4238998890 6.5267000198 73.799339294 98.105300903 210.06877136 2.2049999237 2.2588000298
 2738.8293457  -999.250000 12.500899315 12.250000954 102.09055328 0.0244999994 0.3183248341 2.4191999435 6.3120999336 80.296714783 99.441902161 213.73434448 2.1816000938 2.2486999035
 2738.9816895  -999.250000 12.158799171 12.250000954 87.281166077 0.0157999992 0.3337954879 2.3696000576 6.1360001564 77.129333496 101.43150330 215.13096619 2.0769999027 2.0230000019
 2739.1340332  -999.250000 12.180898666 12.250000954 74.824806213 0.0068000001 0.3309982419 2.3441998959 5.9015002251 79.016342163 101.80390167 215.73341370 1.9098999500 1.9711999893
 2739.2866211  -999.250000 12.241499901 12.250000954 63.046253204 0.0060999999 0.3298385441 2.3373000622 5.7940998077 76.301284790 102.01440430 215.75323486 1.8884999752 1.9272999763
 2739.4389648  -999.250000 12.249600410 12.250000954 58.968826294 0.0098000001 0.3106999993 2.3383998871 5.8053002357 76.084693909 102.00630188 219.21800232 1.9004000425 1.9118000269
 2739.5913086  -999.250000 12.237298965 12.250000954 58.240158081 0.0104999999 0.3107320368 2.3361999989 5.8141999245 80.999755859 101.48400116 216.60017395 1.8739999533 1.9052000046
 2739.7436523  -999.250000 12.266900063 12.250000954 60.245075226 0.0140000004 0.3307133019 2.3529999256 5.8323998451 79.039619446 101.75598907 212.47462463 1.8689999580 1.9079999924
 2739.8962402  -999.250000 12.289401054 12.250000954 57.887798309 0.0166999996 0.3389862180 2.3657999039 5.8461999893 77.932304382 102.32530975 212.43202209 1.8595999479 1.8992999792
 2740.0485840  -999.250000 12.179699898 12.250000954 62.253944397 0.0082000000 0.3346929252 2.3392000198 5.7965002060 77.468627930 102.68630219 212.84367371 1.8388999701 1.8717999458
 2740.2009277  -999.250000 12.175499916 12.250000954 66.536087036 0.0066999998 0.3302996755 2.3347001076 5.7638998032 78.866714478 102.52619171 210.89860535 1.8049999475 1.8718999624
 2740.3532715  -999.250000 12.217200279 12.250000954 68.960304260 0.0077999998 0.3300956786 2.3397998810 5.6992998123 85.529769897 102.19549561 214.57122803 1.7929999828 1.8724999428
 2740.5058594  -999.250000 12.239700317 12.250000954 61.377620697 0.0088000000 0.3274259269 2.3413999081 5.8112001419 78.345909119 102.35459900 216.03152466 1.8136999607 1.8582999706
 2740.6582031  -999.250000 12.242199898 12.250000954 52.059383392 0.0105999997 0.3355036974 2.3447000980 5.9039998055 78.058486938 102.93049622 218.46618652 1.8008999825 1.8500000238
 2740.8105469  -999.250000 12.174599648 12.250000954 43.133201599 0.0149999997 0.3378067315 2.3559999466 6.0359997749 91.241134644 103.20079803 217.09260559 1.7705999613 1.8430999517
 2740.9628906  -999.250000 12.324099541 12.250000954 35.931430817 0.0077000000 0.3420136273 2.3296999931 6.1613998413 82.100051880 104.05919647 220.21263123 1.7908999920 1.8513000011
 2741.1152344  -999.250000 12.321599960 12.250000954 39.012794495 0.0161000006 0.3504895568 2.3392999172 6.1585001945 78.074676514 103.41230774 221.91445923 1.7956999540 1.8341000080
 2741.2678223  -999.250000 12.269100189 12.250000954 72.492126465 0.0225000009 0.3440016210 2.3526999950 5.8640999794 73.836372375 103.68979645 221.49247742 1.7825000286 1.8223999739
 2741.4201660  -999.250000 12.231300354 12.250000954 112.66567993 0.0148999998 0.3444990516 2.3471000195 5.4850001335 76.547019958 104.69940186 218.46713257 1.7688000202 1.8157999516
 2741.5725098  -999.250000 12.224099159 12.250000954 114.79856110 0.0082000000 0.3438943923 2.3373999596 5.3784999847 81.481124878 104.82929993 216.62350464 1.7591999769 1.8210999966
 2741.7248535  -999.250000 12.227599144 12.250000954 109.42257690 0.0055000000 0.3403894305 2.3326001167 5.3347001076 82.664154053 104.92199707 216.00758362 1.7599999905 1.7953000069
 2741.8774414  -999.250000 12.279100418 12.250000954 94.448165894 0.0143999998 0.3338066936 2.3550000191 5.6416997910 73.857849121 104.54720306 214.38420105 1.7710000277 1.8111000061
 2742.0297852  -999.250000 12.205499649 12.250000954 76.981956482 0.0135000004 0.3358956873 2.3624000549 5.7807998657 76.400856018 104.57869720 214.04656982 1.7685999870 1.8308000565
 2742.1821289  -999.250000 12.181699753 12.250000954 67.012466431 0.0066999998 0.3331881464 2.3513000011 5.8740000725 79.371009827 105.07309723 216.15785217 1.7469999790 1.8444000483
 2742.3344727  -999.250000 12.176300049 12.250000954 62.233928680 0.0077999998 0.3258121908 2.3685998917 5.8569998741 85.169334412 105.22659302 217.68572998 1.7217999697 1.8263000250
 2742.4870605  -999.250000 12.211799622 12.250000954 62.275917053 0.0071999999 0.3334333003 2.3731999397 5.8724999428 85.438011169 105.36229706 218.13494873 1.7280999422 1.8263000250
 2742.6394043  -999.250000 12.284500122 12.250000954 66.860237122 0.0027999999 0.3437851071 2.3578999043 5.9390997887 84.312904358 105.16510010 217.24859619 1.7280999422 1.7527999878
 2742.7917480  -999.250000 12.183699608 12.250000954 71.520011902 0.0033000000 0.3345017731 2.3633000851 5.9299001694 79.952445984 105.03830719 217.74914551 1.6320999861 1.7280000448
