# LAS format log file from PETREL
# Project units are specified as depth units
#==================================================================
~Version information
VERS.   2.0:
WRAP.   NO:
#==================================================================
~Well
STRT .m      2119.3232422 :
STOP .m      4394.3505859 :
STEP .m     0.00000000 :
NULL .        -999.250000 :
COMP.           : COMPANY
WELL.  34/5-1 A   : WELL
FLD.            : FIELD
LOC.            : LOCATION
SRVC.           : SERVICE COMPANY
DATE.  2018-09-11 14:48:50   : Log Export Date {yyyy-MM-dd HH:mm:ss}
PROV.           : PROVINCE
UWI.   34/5-1 A   : UNIQUE WELL ID
API.            : API NUMBER
#==================================================================
~Curve
DEPT .m                   : DEPTH
Lithology_geolink ._      : Lithology_geolink
CALI .in                  : CALI
BS .in                    : BS
ROP .m/h                  : ROP
DRHO .g/cm3               : DRHO
NPHI .m3/m3               : NPHI
RHOB .g/cm3               : RHOB
PEF .b/e                  : PEF
GR .gAPI                  : GR
DTC .us/ft                : DTC
DTS .us/ft                : DTS
RDEP .ohm.m               : RDEP
RMED .ohm.m               : RMED
~Parameter
#==================================================================
~Ascii
# ...
 3031.2849121  -999.250000 12.218299866 12.250000954 93.288063049 0.0127999997 0.3487875164 2.4144001007 6.1659998894 63.002780914 99.651496887 214.20726013 1.5671999454 1.6445000172
 3031.4372559  -999.250000 12.209199905 12.250000954 116.67487335 0.0085000005 0.3409878016 2.4151000977 6.2256999016 62.549083710 98.212699890 212.55607605 1.6275999546 1.5657000542
 3031.5898438  -999.250000 13.022999763 12.250000954 117.61713409 -0.018200001 0.3333811164 2.5053999424 7.4460000992 60.329826355 98.632301331 212.57316589 1.5296000242 1.5872999430
 3031.7421875  -999.250000 12.941300392 12.250000954 113.59349823 -0.014100000 0.3274927735 2.5000000000 7.7277002335 71.057060242 98.663398743 219.92027283 1.4405000210 1.5559999943
 3031.8945313  -999.250000 12.733099937 12.250000954 115.36975098 -0.029300001 0.3230150640 2.4663999081 7.4569001198 73.227218628 100.65180206 225.27221680 1.4458999634 1.4764000177
 3032.0468750  -999.250000 12.333499908 12.250000954 122.67815399 -0.006100000 0.3324352503 2.4233999252 6.0433001518 80.967590332 101.79590607 228.99847412 1.3799999952 1.4591000080
 3032.1992188  -999.250000 12.283699036 12.250000954 112.41437531 0.0113000004 0.3544048071 2.4047999382 6.0580000877 82.445480347 103.64900208 224.80564880 1.3273999691 1.4384000301
 3032.3518066  -999.250000 12.310400009 12.250000954 108.05610657 0.0142000001 0.3573955297 2.4040999413 6.0581998825 75.082061768 104.28259277 224.08311462 1.3358000517 1.4282000065
 3032.5041504  -999.250000 12.278300285 12.250000954 99.751640320 0.0189999994 0.3560032248 2.3954000473 6.0402002335 74.150207520 104.84230042 220.63618469 1.3352999687 1.4247000217
 3032.6564941  -999.250000 12.191900253 12.250000954 96.803810120 0.0074999998 0.3580003381 2.3784000874 5.8916001320 82.627136230 104.80809784 222.36296082 1.3319000006 1.4169000387
 3032.8088379  -999.250000 12.244700432 12.250000954 92.801185608 0.0013000000 0.3581876755 2.3771998882 5.7072000504 81.424583435 104.93669891 220.34724426 1.3327000141 1.4362000227
 3032.9614258  -999.250000 12.191300392 12.250000954 92.224082947 0.0059000002 0.3505057395 2.3870999813 5.7024998665 92.059288025 104.14700317 218.26403809 1.3322999477 1.4455000162
 3033.1137695  -999.250000 12.206600189 12.250000954 94.084648132 0.0052000000 0.3522988558 2.3863999844 5.6606998444 89.368553162 103.08110046 217.56529236 1.3580000401 1.4552999735
 3033.2661133  -999.250000 12.246801376 12.250000954 106.32151794 0.0071999999 0.3516006470 2.3856999874 5.7895002365 84.544586182 102.77890015 220.17982483 1.3514000177 1.4593000412
 3033.4184570  -999.250000 12.189599991 12.250000954 125.19257355 0.0127999997 0.3520027101 2.4030001163 5.9556999207 84.033515930 102.92440033 219.32455444 1.3595999479 1.4422999620
 3033.5710449  -999.250000 12.103799820 12.250000954 137.92716980 -0.015100000 0.3536984026 2.3666000366 5.1736998558 82.555839539 103.06289673 219.87347412 1.3156000376 1.4424999952
 3033.7233887  -999.250000 12.084699631 12.250000954 121.32249451 -0.007800000 0.3531841338 2.3719000816 5.3940000534 84.304954529 103.21569824 225.18876648 1.3191000223 1.4404000044
 3033.8757324  -999.250000 12.113800049 12.250000954 98.504592896 -0.001900000 0.3433054686 2.3854000568 5.4918999672 79.474479675 104.10970306 224.42333984 1.3403999805 1.4361000061
 3034.0280762  -999.250000 12.131000519 12.250000954 85.564964294 0.0020999999 0.3467259705 2.3968999386 5.6972999573 76.845390320 104.66719818 225.18727112 1.3348000050 1.4322999716
 3034.1804199  -999.250000 12.151000977 12.250000954 90.317581177 0.0026000000 0.3628631234 2.3926999569 5.6456999779 75.159095764 104.49729919 220.44116211 1.3415999413 1.4299999475
 3034.3330078  -999.250000 12.156499863 12.250000954 98.360565186 0.0041000000 0.3399092555 2.3951001167 5.5732998848 74.718574524 103.90120697 221.40087891 1.3703000546 1.4372999668
 3034.4853516  -999.250000 12.182100296 12.250000954 105.14337158 0.0063999998 0.3427741826 2.3968000412 5.8891000748 73.499122620 103.83860016 219.31056213 1.3779000044 1.4372999668
 3034.6376953  -999.250000 12.196399689 12.250000954 104.98359680 0.0057999999 0.3266991973 2.3947999477 5.9236998558 76.126899719 103.23519897 218.59645081 1.3489999771 1.4636000395
 3034.7900391  -999.250000 12.167900085 12.250000954 102.87401581 0.0043000001 0.3262070715 2.3900001049 5.9840998650 75.636779785 102.87940216 217.68278503 1.3531999588 1.4443000555
 3034.9426270  -999.250000 12.138199806 12.250000954 103.29920959 0.0038000001 0.3306105435 2.3879001141 6.0599999428 82.215950012 104.02269745 219.35430908 1.3437000513 1.4306999445
 3035.0949707  -999.250000 12.196800232 12.250000954 117.80873871 0.0044000000 0.3338963091 2.3961999416 5.9580001831 78.684844971 103.78019714 218.20809937 1.3219000101 1.4141999483
 3035.2473145  -999.250000 12.267999649 12.250000954 128.68405151 0.0093999999 0.3316040039 2.3982999325 6.1315999031 82.386299133 103.33149719 220.58291626 1.3212000132 1.4089000225
 3035.3996582  -999.250000 12.278100014 12.250000954 156.89239502 0.0142999999 0.3341186047 2.4070000648 6.1210999489 80.135787964 103.28970337 221.08567810 1.3279000521 1.4442000389
 3035.5522461  -999.250000 12.271499634 12.250000954 176.39567566 0.0140000004 0.3457374275 2.4059998989 5.9341998100 75.087379456 103.64209747 219.70860291 1.3604999781 1.4400000572
 3035.7045898  -999.250000 12.239399910 12.250000954 128.83662415 0.0115999999 0.3573847711 2.3942000866 5.9032001495 76.638465881 103.60549927 223.82319641 1.3736000061 1.4309999943
 3035.8569336  -999.250000 12.220899582 12.250000954 97.487205505 0.0094999997 0.3478889465 2.3898000717 6.0050001144 76.867591858 103.66860199 226.54550171 1.3382999897 1.3918999434
 3036.0092773  -999.250000 12.231399536 12.250000954 91.327423096 0.0074000000 0.3410269022 2.3863000870 5.9626998901 78.419143677 104.14299774 221.81318665 1.3109999895 1.3705999851
 3036.1616211  -999.250000 12.272500038 12.250000954 100.90518188 0.0131000001 0.3577953577 2.3982999325 5.6693000793 77.377029419 104.70179749 220.01272583 1.2752000093 1.3569999933
 3036.3142090  -999.250000 12.276800156 12.250000954 113.02722931 0.0136000002 0.3548628688 2.3959999084 5.8748002052 69.867439270 104.73000336 221.34306335 1.2664999962 1.3432999849
 3036.4665527  -999.250000 12.220199585 12.250000954 122.81593323 0.0125000002 0.3433097899 2.3908998966 6.3706998825 72.526496887 104.88099670 223.19853210 1.2706999779 1.3466999531
 3036.6188965  -999.250000 12.240400314 12.250000954 110.63780212 0.0108000003 0.3493975997 2.3966999054 6.1824998856 72.405761719 104.53029633 221.10412598 1.2494000196 1.3545999527
 3036.7712402  -999.250000 12.264399529 12.250000954 91.135169983 0.0176999997 0.3478881419 2.4044001102 6.4481000900 77.290023804 104.13210297 218.43898010 1.2609000206 1.3431999683
 3036.9238281  -999.250000 12.316800117 12.250000954 83.460960388 0.0143999998 0.3404878378 2.4010999203 6.3951997757 70.469535828 103.74259949 218.18161011 1.3095999956 1.3400000334
 3037.0761719  -999.250000 12.327899933 12.250000954 77.450790405 0.0184000004 0.3367248178 2.4063000679 6.3857002258 75.905815125 103.56749725 219.96176147 1.2783000469 1.3732999563
 3037.2285156  -999.250000 12.247799873 12.250000954 63.726055145 0.0164999999 0.3522036970 2.4017999172 6.2649002075 78.844154358 104.02200317 220.88189697 1.2946000099 1.3791999817
 3037.3808594  -999.250000 12.196499825 12.250000954 65.572837830 0.0124000004 0.3544958234 2.3970999718 6.1373000145 79.186141968 104.42549896 223.56335449 1.3009999990 1.3660000563
 3037.5334473  -999.250000 12.231800079 12.250000954 73.629264832 0.0086000003 0.3518519998 2.3910999298 6.1670999527 77.407371521 104.54260254 222.49136353 1.3278000355 1.3634999990
 3037.6857910  -999.250000 12.215000153 12.250000954 104.10203552 0.0092000002 0.3369044960 2.3954000473 6.1423997879 78.048828125 105.03299713 222.22636414 1.3011000156 1.3416999578
 3037.8381348  -999.250000 12.214699745 12.250000954 134.33726501 0.0060000001 0.3397109210 2.3875000477 5.9657998085 74.395195007 105.32270050 221.71357727 1.2828999758 1.3346999884
