# LAS format log file from PETREL
# Project units are specified as depth units
#==================================================================
~Version information
VERS.   2.0:
WRAP.   NO:
#==================================================================
~Well
STRT .m      2119.3232422 :
STOP .m      4394.3505859 :
STEP .m     0.00000000 :
NULL .        -999.250000 :
COMP.           : COMPANY
WELL.  34/5-1 A   : WELL
FLD.            : FIELD
LOC.            : LOCATION
SRVC.           : SERVICE COMPANY
DATE.  2018-09-11 14:48:50   : Log Export Date {yyyy-MM-dd HH:mm:ss}
PROV.           : PROVINCE
UWI.   34/5-1 A   : UNIQUE WELL ID
API.            : API NUMBER
#==================================================================
~Curve
DEPT .m                   : DEPTH
Lithology_geolink ._      : Lithology_geolink
CALI .in                  : CALI
BS .in                    : BS
ROP .m/h                  : ROP
DRHO .g/cm3               : DRHO
NPHI .m3/m3               : NPHI
RHOB .g/cm3               : RHOB
PEF .b/e                  : PEF
GR .gAPI                  : GR
DTC .us/ft                : DTC
DTS .us/ft                : DTS
RDEP .ohm.m               : RDEP
RMED .ohm.m               : RMED
~Parameter
#==================================================================
~Ascii
# ...
 3487.2656250  -999.250000 12.203200340 12.250000954 127.40484619 -0.007300000 0.2921054661 2.4339001179 6.0746002197 79.109710693 91.884071350 193.65028381 1.8366999626 1.9141000509
 3487.4182129  -999.250000 12.190401077 12.250000954 111.92092896 0.0029000000 0.2955068946 2.4495999813 6.9155998230 75.810340881 92.119148254 195.93971252 1.8502000570 1.9134999514
 3487.5705566  -999.250000 12.211299896 12.250000954 97.937011719 0.0024000001 0.2998107374 2.4504001141 6.9278998375 75.093208313 92.025367737 194.94706726 1.8221999407 1.8944000006
 3487.7229004  -999.250000 12.226699829 12.250000954 92.621719360 0.0010000000 0.3065009415 2.4484999180 6.7543997765 79.206588745 92.443778992 195.17507935 1.7884000540 1.8914999962
 3487.8752441  -999.250000 12.101499557 12.250000954 88.317588806 -0.003600000 0.3071109056 2.4433000088 6.5573000908 78.699226379 91.993209839 195.47540283 1.7884000540 1.8674999475
 3488.0278320  -999.250000 12.113699913 12.250000954 86.726379395 -0.003500000 0.3138231933 2.4433999062 6.5731000900 76.411994934 92.059371948 199.95384216 1.7874000072 1.8596999645
 3488.1801758  -999.250000 12.128000259 12.250000954 79.425849915 -0.001900000 0.2899147570 2.4453999996 6.8519001007 76.943504333 92.207008362 196.94104004 1.7848000526 1.8624999523
 3488.3325195  -999.250000 12.097399712 12.250000954 83.294288635 -0.003800000 0.2991134822 2.4395000935 6.7146000862 79.561904907 92.462463379 194.28125000 1.7828999758 1.8682999611
 3488.4848633  -999.250000 12.146200180 12.250000954 81.646980286 -0.004900000 0.3074945509 2.4375000000 6.5648999214 78.878265381 92.750503540 197.23321533 1.8087999821 1.8775999546
 3488.6374512  -999.250000 12.180999756 12.250000954 83.433074951 -0.000800000 0.3041060865 2.4451000690 6.9052000046 79.413589478 93.003562927 196.62600708 1.8085999489 1.8868999481
 3488.7897949  -999.250000 12.164899826 12.250000954 82.242454529 0.0012000001 0.3059943914 2.4532001019 6.6785998344 78.577026367 93.304908752 200.20872498 1.8416999578 1.8861999512
 3488.9421387  -999.250000 12.146599770 12.250000954 85.945213318 -0.003400000 0.3025008142 2.4407999516 6.4021000862 83.195816040 93.870048523 197.42222595 1.8136999607 1.8574999571
 3489.0944824  -999.250000 12.201000214 12.250000954 98.031494141 -0.001000000 0.3030001521 2.4433999062 6.5455999374 80.149742126 94.030761719 198.12849426 1.7527999878 1.8530999422
 3489.2468262  -999.250000 12.265000343 12.250000954 108.88648224 0.0031999999 0.3031134307 2.4509000778 6.8288998604 78.808052063 95.316505432 198.69732666 1.7223000526 1.8086999655
 3489.3994141  -999.250000 12.211600304 12.250000954 110.41305542 0.0020999999 0.3114984035 2.4444999695 6.6784000397 81.456214905 96.319015503 202.53178406 1.6599999666 1.7452000380
 3489.5517578  -999.250000 12.151300430 12.250000954 108.84841919 0.0010000000 0.3105032146 2.4400000572 6.4249000549 80.525604248 97.512550354 204.25843811 1.5895999670 1.6778000593
 3489.7041016  -999.250000 12.153200150 12.250000954 119.11352539 0.0022000000 0.3125081658 2.4442999363 6.4788999557 79.102317810 97.480255127 203.53254700 1.5310000181 1.5650999546
 3489.8564453  -999.250000 12.222100258 12.250000954 131.06759644 0.0029000000 0.3176205158 2.4370999336 6.8394999504 82.355888367 97.634246826 202.70068359 1.4752999544 1.5561000109
 3490.0090332  -999.250000 12.114500046 12.250000954 104.37270355 0.0055999998 0.3303980827 2.4377999306 6.8533000946 83.907157898 96.726875305 202.93923950 1.4886000156 1.5694999695
 3490.1613770  -999.250000 12.084900856 12.250000954 74.197830200 -0.013200000 0.3297990561 2.4200000763 6.3196997643 84.860115051 95.815246582 203.29956055 1.5132999420 1.6101000309
 3490.3137207  -999.250000 12.109299660 12.250000954 65.322502136 -0.014500000 0.3292020857 2.4188001156 6.2915000916 85.247573853 94.409477234 204.95602417 1.5769000053 1.6579999924
 3490.4660645  -999.250000 12.102699280 12.250000954 65.607940674 -0.006000000 0.3305003345 2.4275999069 6.5068998337 87.409027100 95.455276489 205.04423523 1.5987000465 1.6749999523
 3490.6186523  -999.250000 12.316200256 12.250000954 65.114501953 0.0104999999 0.3306817710 2.4488000870 7.1434001923 87.085433960 96.500862122 206.13209534 1.5680999756 1.6749999523
 3490.7709961  -999.250000 12.236000061 12.250000954 69.870407104 0.0115999999 0.3250115216 2.4505999088 7.0959000587 78.029685974 96.208213806 206.81608582 1.5515999794 1.6928999424
 3490.9233398  -999.250000 12.042300224 12.250000954 81.248359680 0.0030000000 0.3322054446 2.4454998970 7.0991997719 77.724197388 96.590637207 205.67301941 1.5336999893 1.6548000574
 3491.0756836  -999.250000 12.055200577 12.250000954 94.268707275 -0.012900000 0.3355995119 2.4272000790 6.4893999100 86.132942200 96.614326477 200.50651550 1.5200999975 1.6326999664
 3491.2282715  -999.250000 12.060099602 12.250000954 94.141738892 -0.013100000 0.3352689445 2.4184000492 6.4619998932 86.902679443 96.381469727 197.14749146 1.5094000101 1.6373000145
 3491.3806152  -999.250000 12.053799629 12.250000954 91.262138367 -0.006200000 0.3256057799 2.4238998890 6.3524999619 86.052261353 95.810295105 197.27160645 1.5986000299 1.6636999846
 3491.5329590  -999.250000 12.166099548 12.250000954 97.676841736 -0.006000000 0.3291881382 2.4261999130 6.1767001152 84.714927673 94.935707092 196.58740234 1.6187000275 1.7258000374
 3491.6853027  -999.250000 12.120100021 12.250000954 92.875656128 0.0017000000 0.3217865229 2.4342000484 6.7190999985 81.671508789 93.449920654 197.70191956 1.7144000530 1.7975000143
 3491.8376465  -999.250000 12.119600296 12.250000954 88.868766785 -0.007400000 0.3133969605 2.4214999676 6.3494000435 78.688583374 93.336151123 201.99192810 1.8001999855 1.8279999495
 3491.9902344  -999.250000 12.111300468 12.250000954 88.688323975 -0.000100000 0.3115256131 2.4349000454 6.5669999123 80.979957581 92.808052063 199.01716614 1.8166999817 1.8803999424
 3492.1425781  -999.250000 12.173100471 12.250000954 101.79724121 -0.007200000 0.3194905519 2.4307000637 6.1792998314 80.215736389 92.732826233 198.72560120 1.8360999823 1.9253000021
 3492.2949219  -999.250000 12.069001198 12.250000954 113.84023285 -0.008100000 0.3135931194 2.4228000641 6.6220002174 78.245048523 92.935073853 198.52287292 1.8529000282 1.9485000372
 3492.4472656  -999.250000 12.153300285 12.250000954 109.65452576 -0.006700000 0.3092847764 2.4282000065 6.6055002213 80.649238586 92.981735229 193.83258057 1.8818999529 1.9582999945
 3492.5998535  -999.250000 12.168600082 12.250000954 102.67092896 -0.000700000 0.2997987270 2.4330999851 6.6890997887 84.972129822 93.130073547 193.07740784 1.9179999828 1.9658999443
 3492.7521973  -999.250000 12.133799553 12.250000954 76.113189697 -0.001500000 0.2994307578 2.4286999702 6.8050999641 85.789321899 92.747817993 196.04380798 1.9055000544 1.9556000233
 3492.9045410  -999.250000 12.129098892 12.250000954 61.671916962 -0.001600000 0.3186039925 2.4337000847 6.6258001328 83.622261047 92.946807861 195.79977417 1.8747999668 1.9417999983
 3493.0568848  -999.250000 12.195599556 12.250000954 52.563976288 -0.001900000 0.3210799694 2.4375998974 6.6240000725 84.666252136 93.138008118 198.27398682 1.8722000122 1.9405000210
 3493.2094727  -999.250000 12.250301361 12.250000954 52.053478241 -0.002200000 0.3086204827 2.4372000694 6.6567001343 88.675720215 93.644958496 202.64117432 1.8708000183 1.9341000319
 3493.3618164  -999.250000 12.127200127 12.250000954 54.570541382 -0.000800000 0.3150024116 2.4342000484 6.5661001205 85.406898499 93.880989075 203.84236145 1.8391000032 1.9208999872
 3493.5141602  -999.250000 12.195699692 12.250000954 62.586616516 0.0018000000 0.3165224493 2.4398999214 6.6441001892 83.600028992 93.677124023 201.32598877 1.8345999718 1.9096000195
 3493.6665039  -999.250000 12.135298729 12.250000954 70.656822205 0.0003000000 0.3304915130 2.4342999458 6.8118000031 82.872062683 92.509613037 203.37962341 1.8358999491 1.9106999636
 3493.8188477  -999.250000 12.092699051 12.250000954 69.563980103 -0.003300000 0.3251839578 2.4335000515 6.6841998100 82.160560608 92.888740540 202.52249146 1.8249000311 1.9450999498
