# LAS format log file from PETREL
# Project units are specified as depth units
#==================================================================
~Version information
VERS.   2.0:
WRAP.   NO:
#==================================================================
~Well
STRT .m      2119.3232422 :
STOP .m      4394.3505859 :
STEP .m     0.00000000 :
NULL .        -999.250000 :
COMP.           : COMPANY
WELL.  34/5-1 A   : WELL
FLD.            : FIELD
LOC.            : LOCATION
SRVC.           : SERVICE COMPANY
DATE.  2018-09-11 14:48:50   : Log Export Date {yyyy-MM-dd HH:mm:ss}
PROV.           : PROVINCE
UWI.   34/5-1 A   : UNIQUE WELL ID
API.            : API NUMBER
#==================================================================
~Curve
DEPT .m                   : DEPTH
Lithology_geolink ._      : Lithology_geolink
CALI .in                  : CALI
BS .in                    : BS
ROP .m/h                  : ROP
DRHO .g/cm3               : DRHO
NPHI .m3/m3               : NPHI
RHOB .g/cm3               : RHOB
PEF .b/e                  : PEF
GR .gAPI                  : GR
DTC .us/ft                : DTC
DTS .us/ft                : DTS
RDEP .ohm.m               : RDEP
RMED .ohm.m               : RMED
~Parameter
#==================================================================
~Ascii
# ...
 4084.0642090 6.0000000000 12.194499969 12.250000954 109.00130463 -0.011800000 0.4177889526 2.4702999592 7.1596999168 116.68966675 99.843048096 194.62873840 1.9846999645 2.0255999565
 4084.2165527 6.0000000000 12.096099854 12.250000954 120.63648224 -0.013900000 0.4109349251 2.4333000183 6.8928999901 111.74671936 101.30642700 196.15753174 1.9264999628 2.0137999058
 4084.3688965 6.0000000000 12.053099632 12.250000954 137.92092896 -0.010200000 0.4327216446 2.4312996864 6.9744000435 113.31755829 102.13518524 197.93251038 1.8748999834 1.9198999405
 4084.5212402 6.0000000000 12.038800240 12.250000954 123.16601563 -0.010400000 0.4462048113 2.4353001118 6.8232002258 114.07524872 102.06433868 199.23962402 1.7288000584 1.8300000429
 4084.6738281 6.0000000000 12.023899078 12.250000954 88.633201599 -0.009000000 0.4491446316 2.4444999695 6.7659001350 96.367446899 102.21069336 200.18922424 1.6502000093 1.7043000460
 4084.8261719 5.0000000000 12.082698822 12.250000954 76.280509949 -0.009800000 0.4319275618 2.4546000957 6.8087000847 101.95435333 102.36443329 200.32344055 1.6315000057 1.6797000170
 4084.9785156 5.0000000000 12.046400070 12.250000954 78.763122559 -0.009300000 0.4490950108 2.4646999836 7.4475002289 99.553153992 102.07273865 198.91664124 1.6147999763 1.6763999462
 4085.1308594 5.0000000000 12.086400032 12.250000954 86.117782593 -0.013500000 0.4460045099 2.4841001034 8.2163000107 97.037460327 101.90683746 198.38435364 1.6144000292 1.6887999773
 4085.2834473 5.0000000000 12.097900391 12.250000954 95.570861816 -0.008900000 0.4488355219 2.4844000340 8.1648998260 99.669189453 100.42790222 198.91908264 1.6555000544 1.7236000299
 4085.4357910 5.0000000000 12.160499573 12.250000954 91.136810303 -0.011900000 0.4599032104 2.4723000526 7.6476998329 112.22622681 99.121093750 198.63203430 1.7005000114 1.8028999567
 4085.5881348 6.0000000000 12.090399742 12.250000954 75.134841919 -0.007900000 0.4619184136 2.4498000145 6.6086997986 116.04420471 98.808883667 196.84344482 1.7195999622 1.8106000423
 4085.7404785 6.0000000000 12.006898880 12.250000954 65.246391296 -0.017200001 0.4733684361 2.4261999130 5.8912000656 116.73356628 99.358062744 194.12809753 1.7316000462 1.8348000050
 4085.8930664 6.0000000000 12.001799583 12.250000954 39.464897156 -0.023300000 0.4536753595 2.4154000282 5.4800000191 117.32476807 98.525161743 191.44181824 1.7439999580 1.8516000509
 4086.0454102 6.0000000000 12.025800705 12.250000954 22.353673935 -0.010600000 0.4460104406 2.4461998940 6.3993000984 113.20389557 97.578231812 188.70294189 1.7651000023 1.8823000193
 4086.1977539 6.0000000000 12.021100044 12.250000954 87.398292542 -0.014300000 0.4524953365 2.4361999035 6.1626000404 112.70214081 96.291465759 188.09973145 1.7756999731 1.8753999472
 4086.3500977 6.0000000000 12.037500381 12.250000954 186.86647034 -0.017400000 0.4495489001 2.4268999100 5.8861999512 111.22557831 95.643112183 188.06324768 1.8193000555 1.8792999983
 4086.5024414 6.0000000000 12.099800110 12.250000954 200.81004333 -0.007000000 0.4177016020 2.4467999935 6.2003998756 107.77745819 95.152885437 187.90574646 1.8086999655 1.9012999535
 4086.6550293 6.0000000000 12.030799866 12.250000954 166.66436768 -0.010200000 0.4187268913 2.4365000725 6.4380002022 102.25712585 95.273658752 190.17982483 1.9269000292 1.9792000055
 4086.8073730 16.000000000 12.000000000 12.250000954 118.07973480 -0.015000000 0.4270841479 2.4549002647 6.4888000488 98.650810242 96.789619446 191.05833435 1.9593000412 2.0511999130
 4086.9597168 5.0000000000 12.038399696 12.250000954 88.776573181 -0.012000000 0.4171916544 2.5271000862 7.6001000404 97.534278870 97.431449890 191.39720154 1.9165999889 2.0076000690
 4087.1120605 5.0000000000 12.139200211 12.250000954 81.966201782 -0.009700001 0.4119998515 2.4800000191 7.6763000488 98.966651917 98.089355469 192.51562500 1.8638999462 1.9535000324
 4087.2646484 5.0000000000 12.076299667 12.250000954 83.832679749 -0.012800000 0.4119425714 2.4647998810 7.5500998497 104.55844116 97.875823975 192.59004211 1.8694000244 1.9435000420
 4087.4169922 5.0000000000 12.038200378 12.250000954 87.673561096 -0.013400000 0.4251844287 2.4539999962 7.0089998245 109.12602997 97.881614685 192.82252502 1.8506000042 1.9407999516
 4087.5693359 6.0000000000 12.000000000 12.250000954 80.155181885 -0.014000000 0.4155339599 2.4431002140 6.4678997993 113.25283813 97.642097473 193.08894348 1.8236999512 1.9234000444
 4087.7216797 6.0000000000 12.000000000 12.250000954 72.331367493 -0.014000000 0.4366892576 2.4432001114 6.4692001343 110.41084290 98.020790100 193.17747498 1.7717000246 1.8794000149
 4087.8742676 6.0000000000 12.008800507 12.250000954 69.760826111 -0.014200000 0.4299724996 2.4419999123 6.5981998444 110.32820892 98.583526611 193.29122925 1.7523000240 1.8519999981
 4088.0266113 6.0000000000 12.034000397 12.250000954 74.083007813 -0.012800000 0.4213854373 2.4460000992 7.0514001846 115.15926361 99.183929443 195.20826721 1.6819000244 1.8013000488
 4088.1789551 6.0000000000 12.056099892 12.250000954 71.127296448 -0.011100000 0.4123349190 2.4544999599 6.8352999687 115.13329315 98.580078125 195.56329346 1.6225999594 1.7711999416
 4088.3312988 6.0000000000 12.087100029 12.250000954 70.086288452 -0.009500000 0.4340362251 2.4558999538 6.8822999001 114.38750458 98.316932678 195.25292969 1.6565999985 1.7688000202
 4088.4836426 6.0000000000 12.077899933 12.250000954 75.895339966 -0.008100000 0.3943596184 2.4453001022 7.0453000069 118.92727661 98.339004517 194.39631653 1.6886999607 1.7419999838
 4088.6362305 6.0000000000 12.077099800 12.250000954 82.125328064 -0.010200000 0.4314769506 2.4381000996 6.9748997688 112.11847687 98.341224670 192.91186523 1.6306999922 1.7127000093
 4088.7885742 6.0000000000 12.029899597 12.250000954 81.236221313 -0.008200000 0.4242913425 2.4419999123 7.2744002342 111.39658356 98.068511963 193.83520508 1.5954999924 1.6574000120
 4088.9409180 6.0000000000 12.072799683 12.250000954 73.522636414 -0.012100000 0.4188950360 2.4410998821 7.1812000275 112.20093536 98.887535095 194.46020508 1.6167999506 1.6169999838
 4089.0932617 6.0000000000 12.032299995 12.250000954 69.962600708 -0.006000000 0.4158211648 2.4563000202 7.3564000130 115.51747894 98.842849731 194.77716064 1.5291999578 1.5484000444
 4089.2458496 5.0000000000 12.046899796 12.250000954 65.161087036 -0.009100000 0.4290412664 2.4751999378 7.7348999977 112.29144287 98.627525330 193.76129150 1.5039000511 1.5226000547
 4089.3981934 5.0000000000 12.044699669 12.250000954 67.394691467 -0.009400000 0.4418676496 2.4902999401 7.8933000565 101.10305023 98.479370117 193.57150269 1.5076999664 1.5461000204
 4089.5505371 5.0000000000 12.123499870 12.250000954 69.583335876 -0.015699999 0.4217339754 2.4739000797 7.6676998138 109.49539185 98.462356567 194.31782532 1.4459999800 1.6299999952
 4089.7028809 5.0000000000 12.009099960 12.250000954 70.883537292 -0.011400000 0.4428801239 2.4567999840 6.8899002075 116.83671570 98.310226440 193.45706177 1.5296000242 1.7470999956
 4089.8554688 6.0000000000 12.025400162 12.250000954 69.197830200 -0.013400000 0.4305067062 2.4488999844 7.0467000008 111.36037445 97.827201843 191.43920898 1.6589000225 1.7899999619
 4090.0078125 6.0000000000 12.034099579 12.250000954 68.722114563 -0.012800000 0.4325801134 2.4656000137 6.7276000977 110.32773590 96.952644348 190.31867981 1.6687999964 1.7575000525
 4090.1601563 6.0000000000 12.012300491 12.250000954 66.280509949 -0.007300000 0.4202353954 2.4869000912 6.8579001427 112.02320862 95.922409058 189.43304443 1.7066999674 1.8042999506
 4090.3125000 16.000000000 12.009600639 12.250000954 64.555114746 -0.012000000 0.4423059225 2.5146999359 7.2355999947 103.80014038 95.424362183 188.89918518 1.6821000576 1.8185000420
 4090.4648438 16.000000000 12.137500763 12.250000954 59.155845642 -0.010400000 0.4459931254 2.5697000027 8.4909000397 99.407569885 95.460754395 188.52026367 1.6986000538 1.8321000338
 4090.6174316 5.0000000000 12.109800339 12.250000954 52.510498047 -0.007200000 0.4416859448 2.5669000149 8.3506002426 103.00145721 95.868270874 188.87258911 1.7266999483 1.8676999807
