# LAS format log file from PETREL
# Project units are specified as depth units
#==================================================================
~Version information
VERS.   2.0:
WRAP.   NO:
#==================================================================
~Well
STRT .m      2119.3232422 :
STOP .m      4394.3505859 :
STEP .m     0.00000000 :
NULL .        -999.250000 :
COMP.           : COMPANY
WELL.  34/5-1 A   : WELL
FLD.            : FIELD
LOC.            : LOCATION
SRVC.           : SERVICE COMPANY
DATE.  2018-09-11 14:48:50   : Log Export Date {yyyy-MM-dd HH:mm:ss}
PROV.           : PROVINCE
UWI.   34/5-1 A   : UNIQUE WELL ID
API.            : API NUMBER
#==================================================================
~Curve
DEPT .m                   : DEPTH
Lithology_geolink ._      : Lithology_geolink
CALI .in                  : CALI
BS .in                    : BS
ROP .m/h                  : ROP
DRHO .g/cm3               : DRHO
NPHI .m3/m3               : NPHI
RHOB .g/cm3               : RHOB
PEF .b/e                  : PEF
GR .gAPI                  : GR
DTC .us/ft                : DTC
DTS .us/ft                : DTS
RDEP .ohm.m               : RDEP
RMED .ohm.m               : RMED
~Parameter
#==================================================================
~Ascii
# ...
 3782.3122559  -999.250000 12.129899979 12.250000954 24.817256927 -0.005300000 0.1727158427 2.5922000408 7.1722002029 51.386333466 92.084365845 166.81764221 4.8787999153 5.4387998581
 3782.4645996  -999.250000 12.131500244 12.250000954 30.688320160 -0.006000000 0.2088221163 2.5919001102 6.9657998085 48.934204102 85.217773438 173.93780518 5.0774002075 5.2663002014
 3782.6169434  -999.250000 12.495900154 12.250000954 41.835960388 0.0051000002 0.2226617038 2.5515000820 6.3614001274 66.693176270 83.275566101 176.29632568 3.6175000668 4.4924001694
 3782.7692871  -999.250000 12.361100197 12.250000954 58.654853821 0.0034000000 0.2610999942 2.5329000950 6.3562002182 67.876167297 85.937896729 173.13381958 3.2992000580 3.3380999565
 3782.9216309  -999.250000 12.146300316 12.250000954 68.448814392 -0.001000000 0.2611362040 2.4897999763 6.8320999146 75.641777039 87.870895386 173.52922058 2.5752999783 2.7351000309
 3783.0742188  -999.250000 12.101901054 12.250000954 79.109252930 -0.000600000 0.2836974263 2.4820001125 7.4471998215 74.763137817 89.180328369 177.03903198 2.3819000721 2.3452000618
 3783.2265625  -999.250000 12.059000969 12.250000954 79.997703552 -0.008600000 0.2829428017 2.4605000019 6.8996000290 78.082374573 89.871704102 179.29502869 2.1688001156 2.0887000561
 3783.3789063  -999.250000 12.074199677 12.250000954 83.636810303 -0.006200000 0.3095910251 2.4693999290 6.8284001350 81.497924805 88.878410339 181.49249268 2.0116000175 2.0134999752
 3783.5312500  -999.250000 12.159500122 12.250000954 81.964569092 -0.003500000 0.3039786816 2.4755001068 6.6215000153 82.264930725 88.381675720 182.61070251 1.9220000505 1.9876999855
 3783.6838379  -999.250000 12.253198624 12.250000954 73.768371582 0.0000000000 0.2907035053 2.4814999104 6.8997001648 83.041259766 88.244567871 184.53649902 1.9318000078 1.9818999767
 3783.8361816  -999.250000 12.170200348 12.250000954 52.943901062 -0.001100000 0.2918016016 2.4758999348 6.8289999962 86.334426880 87.889968872 183.32043457 1.9197000265 1.9788999557
 3783.9885254  -999.250000 12.087300301 12.250000954 33.812992096 -0.002100000 0.2927966416 2.4702999592 6.7582998276 89.397789001 88.311058044 184.02757263 1.9436000586 1.9993000031
 3784.1408691  -999.250000 12.185299873 12.250000954 21.359579086 0.0007000000 0.2907022238 2.4774999619 6.8983001709 83.470642090 89.036872864 187.99824524 1.9424999952 2.0028998852
 3784.2934570  -999.250000 12.234299660 12.250000954 15.071521759 0.0052999998 0.2920933068 2.4907000065 7.0385999680 82.319145203 90.391662598 188.95429993 1.9490000010 2.0222001076
 3784.4458008  -999.250000 12.100800514 12.250000954 10.990486145 0.0019000000 0.2899668217 2.4855000973 6.8541002274 84.298606873 90.378662109 185.46151733 1.9774999619 2.0546000004
 3784.5981445  -999.250000 12.043899536 12.250000954 8.8303804398 -0.007000000 0.2693391144 2.4716000557 6.4303002357 85.608261108 89.917404175 182.85786438 1.9775999784 2.0573999882
 3784.7504883  -999.250000 12.088199615 12.250000954 8.1729001999 -0.007200000 0.2936636209 2.4721000195 6.2315998077 84.698921204 88.740623474 181.77008057 2.0090000629 2.0706000328
 3784.9028320  -999.250000 12.101699829 12.250000954 19.286088943 -0.003900000 0.2710020840 2.4806001186 6.3667998314 78.233383179 88.691795349 179.20042419 2.0343000889 2.1013000011
 3785.0554199  -999.250000 12.096899986 12.250000954 38.929134369 -0.003600000 0.2721988857 2.4828000069 6.4362001419 77.548713684 89.001617432 177.01797485 2.0724999905 2.1156001091
 3785.2077637  -999.250000 12.069499016 12.250000954 63.420932770 -0.007200000 0.2407256514 2.4744999409 6.5381999016 80.329917908 88.569488525 175.29391479 2.0571999550 2.1356999874
 3785.3601074  -999.250000 12.015800476 12.250000954 96.430770874 -0.010500000 0.2567400634 2.4721000195 6.2990999222 83.886672974 87.874938965 174.56571960 2.0106999874 2.1296999454
 3785.5124512  -999.250000 12.000000000 12.250000954 117.17324066 -0.013100000 0.2816902101 2.4690001011 6.2358999252 83.183616638 87.654655457 177.45733643 2.0267999172 2.1324999332
 3785.6650391  -999.250000 12.062399864 12.250000954 131.39041138 -0.016300000 0.2756031752 2.4655001163 6.3221001625 82.806961060 88.564392090 177.86904907 2.0169999599 2.1212999821
 3785.8173828  -999.250000 12.119199753 12.250000954 131.85269165 -0.008600000 0.2765961587 2.4711999893 6.6412000656 78.052970886 88.686447144 180.59516907 1.9815000296 2.1015000343
 3785.9697266  -999.250000 12.138798714 12.250000954 123.89304352 0.0002000000 0.2742148936 2.4779999256 7.0125999451 73.301422119 89.148681641 180.57183838 1.9783999920 2.0429999828
 3786.1220703  -999.250000 12.239100456 12.250000954 96.559379578 0.0013000000 0.2835126519 2.4765000343 7.4176001549 74.811164856 89.445411682 180.53808594 1.9371999502 2.0248000622
 3786.2746582  -999.250000 12.116100311 12.250000954 92.450134277 0.0017000000 0.2913999856 2.4823999405 7.3105001450 76.605377197 89.017044067 181.45751953 1.8967000246 2.0044999123
 3786.4270020  -999.250000 12.218400002 12.250000954 96.998031616 -0.002200000 0.2913844287 2.4760000706 7.0816001892 78.406448364 88.654876709 182.61758423 1.9449000359 2.0025999546
 3786.5793457  -999.250000 12.207699776 12.250000954 104.37434387 -0.001400000 0.2817105651 2.4728000164 7.1627998352 79.746093750 88.579910278 181.92121887 1.9078999758 1.9997999668
 3786.7316895  -999.250000 12.165900230 12.250000954 107.58202362 0.0029000000 0.2883115411 2.4921000004 6.9560999870 80.304069519 89.282318115 180.55632019 1.9244999886 2.0179998875
 3786.8840332  -999.250000 12.163299561 12.250000954 122.08203125 0.0027000001 0.2955117226 2.4918000698 6.9519000053 81.902503967 90.412101746 179.32795715 1.9487999678 2.0706999302
 3787.0366211  -999.250000 12.160700798 12.250000954 132.08694458 0.0024999999 0.3027375937 2.4914000034 6.9475998878 78.660934448 90.352386475 178.49623108 1.9952000380 2.1222000122
 3787.1889648  -999.250000 12.115300179 12.250000954 144.25852966 -0.000500000 0.2832948864 2.4860000610 6.8750000000 77.213615417 90.444435120 177.16796875 2.0371999741 2.1368000507
 3787.3413086  -999.250000 12.040499687 12.250000954 128.09678650 -0.006400000 0.2800865173 2.4802000523 6.6385002136 81.771263123 90.465881348 179.15077209 2.0169000626 2.1493999958
 3787.4936523  -999.250000 12.099599838 12.250000954 119.84152985 -0.007800000 0.2716881335 2.4784998894 6.5405001640 82.675064087 90.018569946 180.69033813 2.0560998917 2.1436998844
 3787.6462402  -999.250000 12.144599915 12.250000954 128.19454956 -0.007700000 0.2642913461 2.4784998894 6.5222001076 77.917129517 89.190071106 174.71064758 2.0764000416 2.1417999268
 3787.7985840  -999.250000 12.146699905 12.250000954 152.45800781 -0.002500000 0.2615951896 2.4684000015 7.4493999481 77.206413269 88.243354797 168.05468750 2.0690000057 2.1756000519
 3787.9509277  -999.250000 12.120900154 12.250000954 123.26115417 0.0010000000 0.2585923076 2.4874999523 7.5145001411 75.274887085 86.966430664 165.23786926 2.1524000168 2.1940999031
 3788.1032715  -999.250000 12.071100235 12.250000954 83.798889160 0.0052999998 0.2538000047 2.5295999050 7.8062000275 72.139625549 84.495437622 163.97598267 2.1442999840 2.3104999065
 3788.2558594  -999.250000 12.075201035 12.250000954 66.120079041 0.0218000002 0.2537679970 2.6640999317 8.6085996628 64.808860779 83.645202637 163.53315735 2.4073998928 2.3780999184
 3788.4082031  -999.250000 12.073299408 12.250000954 62.368434906 0.0236000009 0.2437996715 2.6747000217 8.6507997513 65.924003601 84.208419800 165.64099121 2.2511999607 2.5229001045
 3788.5605469  -999.250000 12.396499634 12.250000954 70.062332153 0.0046999999 0.2436131388 2.6310999393 8.1457004547 68.739868164 86.216659546 168.07333374 2.3835000992 2.4846999645
 3788.7128906  -999.250000 12.408899307 12.250000954 77.089569092 0.0004000000 0.2518413365 2.5897998810 7.6767997742 74.643867493 87.877883911 172.13833618 2.1214001179 2.2841000557
 3788.8652344  -999.250000 12.171198845 12.250000954 75.118766785 -0.002800000 0.2775612175 2.5201001167 6.8102998734 77.812873840 87.493690491 175.09423828 2.0717000961 2.1777999401
