# LAS format log file from PETREL
# Project units are specified as depth units
#==================================================================
~Version information
VERS.   2.0:
WRAP.   NO:
#==================================================================
~Well
STRT .m      3544.0620117 :
STOP .m      3899.9160156 :
STEP .m     0.00000000 :
NULL .        -999.250000 :
COMP.           : COMPANY
WELL.  34/5-1 S   : WELL
FLD.            : FIELD
LOC.            : LOCATION
SRVC.           : SERVICE COMPANY
DATE.  2018-09-11 14:48:51   : Log Export Date {yyyy-MM-dd HH:mm:ss}
PROV.           : PROVINCE
UWI.   34/5-1 S   : UNIQUE WELL ID
API.            : API NUMBER
#==================================================================
~Curve
DEPT .m                   : DEPTH
Lithology_geolink ._      : Lithology_geolink
DCAL .in                  : DCAL
CALI .in                  : CALI
BS .in                    : BS
ROP .m/h                  : ROP
DRHO .g/cm3               : DRHO
THOR .ppm                 : THOR
NPHI .m3/m3               : NPHI
RHOB .g/cm3               : RHOB
PEF .b/e                  : PEF
GR .gAPI                  : GR
URAN .ppm                 : URAN
DTC .us/ft                : DTC
DTS .us/ft                : DTS
RDEP .ohm.m               : RDEP
RMED .ohm.m               : RMED
~Parameter
#==================================================================
~Ascii
# ...
 3780.8916016 7.0000000000 0.3090999722 8.8090896606 8.5000000000 42.822830200 -0.002279000 12.689100266 0.2953761518 2.5357000828 4.8066000938 101.11299896 2.0738999844 94.596702576 167.71110535 2.6108999252 2.5724999905
 3781.0441895 7.0000000000 0.3025000095 8.8026046753 8.5000000000 42.175529480 -0.000608000 13.007699966 0.2917350829 2.5473001003 4.6855001450 103.70709991 2.2486999035 91.954895020 167.24468994 2.5641000271 2.5399000645
 3781.1965332 7.0000000000 0.3352000117 8.8352489471 8.5000000000 41.370079041 -0.000578000 13.315899849 0.2939708531 2.5450997353 4.5327000618 106.38480377 2.4944000244 91.274490356 167.19679260 2.5271000862 2.5027000904
 3781.3488770 7.0000000000 0.3657000065 8.8656864166 8.5000000000 41.431430817 0.0009160000 13.335900307 0.3119693696 2.5260999203 4.5236001015 106.27339935 2.5143001080 91.944793701 167.64660645 2.5130999088 2.4865999222
 3781.5012207 7.0000000000 0.3571999967 8.8572111130 8.5000000000 39.818901062 0.0009690000 13.368700027 0.3283919692 2.5123999119 4.6086001396 106.17179871 2.4739999771 93.128501892 168.16809082 2.5160999298 2.4992001057
 3781.6538086 7.0000000000 0.3646000028 8.8644161224 8.5000000000 33.993438721 0.0019920000 13.731699944 0.3258143067 2.5174002647 4.7024998665 107.17669678 2.5803999901 93.267097473 169.47850037 2.4969000816 2.4870998859
 3781.8061523 7.0000000000 0.3072000146 8.8071546555 8.5000000000 26.088579178 -0.000218000 13.517800331 0.3022062182 2.5329999924 4.7980999947 107.84249878 2.8159999847 93.641197205 170.32119751 2.4576001167 2.4525001049
 3781.9584961 7.0000000000 0.2786000073 8.7786512375 8.5000000000 19.603019714 -0.001866000 13.456899643 0.2842706144 2.5397000313 4.9039998055 108.03309631 2.8529999256 95.019500732 170.65838623 2.4358000755 2.4381999969
 3782.1108398 7.0000000000 0.3106999993 8.8106966019 8.5000000000 16.391399384 -0.002871000 13.535300255 0.2877651751 2.5348999500 4.9728999138 106.16040039 2.4772000313 95.107498169 170.02079773 2.4379000664 2.4474000931
 3782.2634277 7.0000000000 0.3084000051 8.8082752228 8.5000000000 25.419620514 -0.001824000 14.078100204 0.2903971076 2.5338997841 4.9767999649 106.43879700 2.4930000305 92.178298950 169.99719238 2.4625999928 2.4746999741
 3782.4157715 7.0000000000 0.2694000006 8.7694282532 8.5000000000 38.623359680 0.0029630000 14.423700333 0.3016466200 2.5459001064 4.8684000969 106.11360168 2.5079998970 91.920997620 168.97470093 2.5236001015 2.5450000763
 3782.5681152 7.0000000000 0.2870999873 8.7871236801 8.5000000000 51.414371490 0.0095220003 14.722200394 0.3026409745 2.5675001144 4.6609001160 106.16139984 2.4512999058 91.498802185 169.17449951 2.6013998985 2.6342999935
 3782.7204590 7.0000000000 0.3021999896 8.8022251129 8.5000000000 62.062660217 0.0103610000 14.470199585 0.3032381833 2.5741999149 4.3818998337 105.99970245 2.3757998943 92.718688965 169.06910706 2.6522998810 2.6875998974
 3782.8728027 7.0000000000 0.3176000416 8.8175601959 8.5000000000 56.462268829 0.0082970001 14.348999977 0.2915095687 2.5762999058 4.2072000504 105.84909821 2.3933000565 93.859504700 168.50160217 2.6549000740 2.6884000301
 3783.0253906 7.0000000000 0.2926000059 8.7925758362 8.5000000000 44.329719543 -0.012950000 14.531700134 0.2800125778 2.5762000084 7.0159997940 107.61630249 2.2992000580 94.440795898 167.98829651 2.6619999409 2.6970000267
 3783.1777344 7.0000000000 0.2779000103 8.7778987885 8.5000000000 37.465549469 -0.021303000 14.773400307 0.2766330242 2.5834999084 8.4527997971 111.89949799 2.2297999859 95.183898926 168.34660339 2.6860001087 2.7225000858
 3783.3300781 7.0000000000 0.2775000036 8.7774744034 8.5000000000 34.765419006 -0.018288000 14.693200111 0.2772540450 2.5887000561 9.1618995667 114.84210205 2.0571999550 95.159896851 168.29600525 2.7565000057 2.7834999561
 3783.4824219 7.0000000000 0.2612999976 8.7612876892 8.5000000000 30.264431000 -0.018093999 15.323999405 0.2760308087 2.5885000229 9.6978998184 110.76399994 1.7611999512 95.175102234 166.89320374 2.7704000473 2.7976000309
 3783.6350098 7.0000000000 0.2533000112 8.7531986237 8.5000000000 28.728349686 -0.019583000 15.647299767 0.2746626139 2.5848000050 10.002599716 107.27839661 1.5938999653 95.407196045 165.46249390 2.7272999287 2.7469000816
 3783.7873535 7.0000000000 0.2216999978 8.7217283249 8.5000000000 31.068899155 -0.018951001 14.856300354 0.2776551843 2.5799002647 10.191399574 106.19950104 1.7380000353 94.415489197 165.58259583 2.6675000191 2.6863000393
 3783.9396973 7.0000000000 0.2397000343 8.7397489548 8.5000000000 34.309059143 -0.019653000 13.981100082 0.2765319049 2.5773999691 10.139499664 105.51820374 1.7381999493 93.151000977 167.12300110 2.6489999294 2.6633000374
 3784.0920410 7.0000000000 0.2702000141 8.7701854706 8.5000000000 39.733600616 -0.017371999 13.929400444 0.2777180970 2.5768001080 10.179699898 106.30549622 1.5822000504 93.616394043 168.01010132 2.6577000618 2.6726999283
 3784.2446289 7.0000000000 0.2610000074 8.7609291077 8.5000000000 41.049209595 -0.015249000 13.832300186 0.2771534026 2.5813999176 10.160200119 106.57890320 1.6714999676 93.851799011 167.39849854 2.6640999317 2.6784999371
 3784.3969727 7.0000000000 0.2388999909 8.7389898300 8.5000000000 41.089900970 -0.013986000 13.748700142 0.2763425112 2.5868000984 10.261899948 108.56569672 1.7251000404 92.809494019 166.48330688 2.6368999481 2.6510000229
 3784.5493164 7.0000000000 0.2949000001 8.7948427200 8.5000000000 42.067581177 -0.012963000 13.469699860 0.2766588330 2.5899999142 10.313199997 110.83129883 1.5368000269 92.495002747 166.23590088 2.5989999771 2.6138999462
 3784.7016602 7.0000000000 0.2592000067 8.7591285706 8.5000000000 43.565620422 -0.012164000 13.144800186 0.2771818638 2.5922999382 10.301600456 111.99710083 1.7102999687 92.689193726 166.27980042 2.5722999573 2.5885999203
 3784.8542480 7.0000000000 0.2143999934 8.7144804001 8.5000000000 42.697509766 -0.015872000 12.717300415 0.2802119553 2.5875999928 10.249199867 113.40119934 2.0320000648 94.072799683 167.26069641 2.5553998947 2.5727999210
 3785.0065918 7.0000000000 0.2393999994 8.7394227982 8.5000000000 41.435371399 -0.020005999 12.602100372 0.2836304903 2.5789000988 9.9780998230 116.09580231 2.2392001152 95.259597778 168.32258606 2.5522999763 2.5696001053
 3785.1589355 7.0000000000 0.2536000013 8.7535743713 8.5000000000 41.688320160 -0.020226000 12.433799744 0.2845540047 2.5741999149 9.8846998215 116.14920044 2.3945000172 95.072296143 167.51809692 2.5550000668 2.5701999664
 3785.3112793 7.0000000000 0.2374999970 8.7374877930 8.5000000000 42.476379395 -0.021082999 12.098199844 0.2833147645 2.5690999031 10.081500053 114.77940369 2.6503000259 95.533203125 166.54589844 2.5473001003 2.5580999851
 3785.4636230 7.0000000000 0.2297999710 8.7297735214 8.5000000000 46.924869537 -0.023267999 12.447400093 0.2837887704 2.5611000061 10.210100174 118.47059631 2.6017000675 95.691001892 165.71281433 2.5406000614 2.5453000069
 3785.6162109 7.0000000000 0.2133000046 8.7132339478 8.5000000000 52.755580902 -0.024215000 12.366600037 0.2836474478 2.5578000546 10.087599754 118.63099670 2.5660998821 94.564094543 165.88209534 2.5318000317 2.5334000587
 3785.7685547 7.0000000000 0.1925999969 8.6927909851 8.5000000000 54.705062866 -0.024529999 12.418800354 0.2862712145 2.5569999218 9.8382997513 115.59380341 2.4965000153 93.114898682 166.31849670 2.5297000408 2.5292999744
 3785.9208984 7.0000000000 0.3115000129 8.8113603592 8.5000000000 54.398303986 -0.019439001 12.364100456 0.2857904732 2.5685999393 9.9195003510 111.48799896 2.3157000542 92.345497131 166.71049500 2.5218999386 2.5178999901
 3786.0732422 7.0000000000 0.2246000022 8.7244949341 8.5000000000 48.421588898 -0.015898000 12.358499527 0.2842042148 2.5764999390 10.105799675 111.28469849 2.1192998886 93.500503540 166.52729797 2.5058000088 2.4995000362
 3786.2258301 7.0000000000 0.1589999944 8.6590499878 8.5000000000 38.371719360 -0.014325000 12.423600197 0.2830880880 2.5801000595 10.261099815 112.07949829 2.0406999588 95.402992249 166.07960510 2.4830000401 2.4765999317
 3786.3781738 7.0000000000 0.1744000018 8.6743612289 8.5000000000 30.877952576 -0.015346000 12.916999817 0.2834382057 2.5810999870 10.147700310 110.32679749 2.0062999725 96.422210693 166.10209656 2.4554998875 2.4519999027
