# LAS format log file from PETREL
# Project units are specified as depth units
#==================================================================
~Version information
VERS.   2.0:
WRAP.   NO:
#==================================================================
~Well
STRT .m      3544.0620117 :
STOP .m      3899.9160156 :
STEP .m     0.00000000 :
NULL .        -999.250000 :
COMP.           : COMPANY
WELL.  34/5-1 S   : WELL
FLD.            : FIELD
LOC.            : LOCATION
SRVC.           : SERVICE COMPANY
DATE.  2018-09-11 14:48:51   : Log Export Date {yyyy-MM-dd HH:mm:ss}
PROV.           : PROVINCE
UWI.   34/5-1 S   : UNIQUE WELL ID
API.            : API NUMBER
#==================================================================
~Curve
DEPT .m                   : DEPTH
Lithology_geolink ._      : Lithology_geolink
DCAL .in                  : DCAL
CALI .in                  : CALI
BS .in                    : BS
ROP .m/h                  : ROP
DRHO .g/cm3               : DRHO
THOR .ppm                 : THOR
NPHI .m3/m3               : NPHI
RHOB .g/cm3               : RHOB
PEF .b/e                  : PEF
GR .gAPI                  : GR
URAN .ppm                 : URAN
DTC .us/ft                : DTC
DTS .us/ft                : DTS
RDEP .ohm.m               : RDEP
RMED .ohm.m               : RMED
~Parameter
#==================================================================
~Ascii
# ...
 3685.0319824 2.0000000000 0.2139999866 8.7139997482 8.5000000000  -999.250000 -0.004587000 6.6247000694 0.2972509861 2.3791351318 4.4885115623 57.042442322 2.1289000511 80.640098572 155.57479858 5.6368818283 4.3415589333
 3685.1843262 2.0000000000 0.2232000232 8.7231998444 8.5000000000  -999.250000 -0.004393000 6.3984999657 0.2713649869 2.3542397022 3.9363844395 54.611091614 2.1091001034 83.235496521 156.13580322 5.5267772675 4.3302183151
 3685.3366699 2.0000000000 0.2464999855 8.7465000153 8.5000000000  -999.250000 -0.004932000 6.2322001457 0.2625260055 2.3299391270 3.5083856583 53.971424103 2.0009000301 86.128303528 157.11230469 5.9258589745 4.8090314865
 3685.4890137 2.0000000000 0.2462999821 8.7462997437 8.5000000000  -999.250000 -0.008448000 5.6119999886 0.2369560003 2.3044815063 3.1870296001 51.573493958 1.8920999765 86.639099121 156.97671509 6.8954892159 5.6418285370
 3685.6416016 2.0000000000 0.2673000097 8.7672996521 8.5000000000  -999.250000 -0.012621000 5.5194001198 0.2188069969 2.2846317291 3.0076861382 51.156154633 1.6873999834 87.913307190 156.71109009 7.2072043419 6.1207356453
 3685.7939453 2.0000000000 0.2940999866 8.7940998077 8.5000000000  -999.250000 -0.016017001 5.6265001297 0.2140460014 2.2772119045 2.9925239086 54.003528595 1.7236000299 91.793800354 152.24340820 6.9463195801 6.2146501541
 3685.9462891 2.0000000000 0.2851999998 8.7852001190 8.5000000000  -999.250000 -0.013881000 5.8786001205 0.2211190015 2.2972679138 3.0719723701 54.918640137 1.5627000332 92.326896667 152.41940308 6.2112793922 5.8590707779
 3686.0986328 2.0000000000 0.2777000070 8.7777004242 8.5000000000  -999.250000 -0.010956000 5.6364002228 0.2278829962 2.3181331158 3.1242325306 52.598052979 1.3750000000 90.313491821 156.18170166 5.6029491425 5.4518055916
 3686.2512207 2.0000000000 0.2716000080 8.7715997696 8.5000000000  -999.250000 -0.006316000 5.0872001648 0.2394780070 2.3251888752 3.1639366150 49.488079071 1.3576999903 89.267410278 153.00019836 5.3212490082 5.2836680412
 3686.4035645 2.0000000000 0.3562999964 8.8563003540 8.5000000000  -999.250000 -0.004714000 5.5970997810 0.2445760071 2.3024365902 3.1849663258 50.183174133 1.1086000204 91.171806335 150.93029785 5.7105746269 5.8957171440
 3686.5559082 2.0000000000 0.3628999889 8.8628997803 8.5000000000  -999.250000 -0.005112000 5.9482998848 0.2419459969 2.2741453648 3.1786103249 51.108917236 0.8496999741 90.252502441 149.22219849 6.4434247017 6.9154648781
 3686.7082520 2.0000000000 0.2888999879 8.7889003754 8.5000000000  -999.250000 -0.006819000 5.6676998138 0.2261849940 2.2630355358 3.0053563118 50.466766357 0.7560999990 89.703102112 148.44160461 6.7339711189 7.2638864517
 3686.8608398 2.0000000000 0.1419000030 8.6419000626 8.5000000000  -999.250000 -0.008693000 5.3197999001 0.2250979990 2.2662947178 2.7686791420 48.131446838 0.4517000020 90.021308899 148.41780090 6.8148717880 7.4014811516
 3687.0131836 2.0000000000 0.0873000026 8.5873003006 8.5000000000  -999.250000 -0.009925000 5.7273001671 0.2381550074 2.2669987679 2.6252295971 48.940696716 0.1604000032 90.811996460 147.84199524 6.9681539536 7.6374220848
 3687.1655273 2.0000000000 0.1041999981 8.6042003632 8.5000000000  -999.250000 -0.011660000 6.0461001396 0.2481680065 2.2540206909 2.6750197411 50.275161743 0.0057999999 90.737998962 147.51849365 7.2922801971 7.9174513817
 3687.3178711 2.0000000000 0.1439000070 8.6438999176 8.5000000000  -999.250000 -0.012509000 6.1793999672 0.2475879937 2.2404217720 2.8402349949 51.678253174 0.1381999999 89.982795715 147.44110107 7.4274840355 7.9414625168
 3687.4702148 2.0000000000 0.1586000025 8.6585998535 8.5000000000  -999.250000 -0.012659000 6.1031999588 0.2469709963 2.2368113995 3.0055699348 49.800037384 0.0127999997 90.968490601 146.33020020 7.3809499741 7.7931761742
 3687.6228027 2.0000000000 0.1589999944 8.6590003967 8.5000000000  -999.250000 -0.012200000 5.9017000198 0.2498140037 2.2411928177 3.1987907887 48.749572754 -0.007300000 92.540901184 145.10679626 7.1125307083 7.3928418159
 3687.7751465 2.0000000000 0.1747000068 8.6746997833 8.5000000000  -999.250000 -0.011261999 5.4639000893 0.2617270052 2.2472901344 3.3528532982 48.584064484 0.0879999995 92.849594116 145.15589905 6.7606639862 6.9563994408
 3687.9274902 2.0000000000 0.1650000066 8.6649999619 8.5000000000  -999.250000 -0.008874000 5.1020998955 0.2616440058 2.2509939671 3.3582916260 47.909782410 0.1217999980 92.626197815 146.32589722 6.4730606079 6.6511888504
 3688.0798340 2.0000000000 0.1167000011 8.6167001724 8.5000000000  -999.250000 -0.005834000 4.1545000076 0.2525199950 2.2499036789 3.1802713871 44.746452332 0.3761999905 91.747100830 153.94290161 6.6092615128 6.7347302437
 3688.2324219 2.0000000000 0.0741000026 8.5740995407 8.5000000000  -999.250000 -0.004058000 3.5648999214 0.2487919927 2.2438094616 2.9451763630 40.495109558 0.5087000132 93.501693726 157.79060364 7.1747932434 7.3573012352
 3688.3847656 2.0000000000 0.0627000034 8.5627002716 8.5000000000  -999.250000 -0.003238000 3.4205000401 0.2353439927 2.2406053543 2.8023285866 39.199565887 0.4769000411 94.898002625 160.44601440 7.7865195274 8.0667629242
 3688.5371094 2.0000000000 0.0469000041 8.5468997955 8.5000000000  -999.250000 -0.004098000 3.2995998859 0.2332859933 2.2390027046 2.7595682144 40.150772095 0.6208000183 96.542991638 164.87080383 8.1524143219 8.5218715668
 3688.6894531 2.0000000000 0.0560999997 8.5560998917 8.5000000000  -999.250000 -0.007233000 3.3252999783 0.2295469940 2.2335176468 2.7740533352 43.442737579 0.7781999707 96.914100647 167.80947876 8.3429899216 8.8217391968
 3688.8420410 2.0000000000 0.0795999914 8.5796003342 8.5000000000  -999.250000 -0.009766000 3.2839999199 0.2326319963 2.2313036919 2.7902739048 47.563503265 1.0219000578 96.029304504 169.32110596 8.2382688522 8.8060264587
 3688.9943848 2.0000000000 0.0869000033 8.5868997574 8.5000000000  -999.250000 -0.009428000 3.4117000103 0.2274159938 2.2402856350 2.8334307671 52.082157135 1.2862999439 95.440399170 169.82431030 8.0473060608 8.5899467468
 3689.1467285 2.0000000000 0.0873000026 8.5873003006 8.5000000000  -999.250000 -0.005816000 3.7033998966 0.2195809931 2.2642617226 2.8764309883 54.176448822 1.4154000282 94.135597229 169.14549255 7.8871564865 8.4054956436
 3689.2990723 2.0000000000 0.1037999988 8.6037998199 8.5000000000  -999.250000 -0.003180000 3.7409000397 0.2360009998 2.2834692001 2.9452896118 53.598632813 1.4675999880 91.368896484 162.48570251 7.5221853256 8.0061407089
 3689.4514160 2.0000000000 0.1277000010 8.6276998520 8.5000000000  -999.250000 -0.003889000 4.1701002121 0.2526420057 2.2872879505 3.0138802528 54.074771881 1.4189000130 89.112403870 157.92129517 6.9363789558 7.3136210442
 3689.6040039 2.0000000000 0.1516000032 8.6515998840 8.5000000000  -999.250000 -0.006358000 4.5630998611 0.2615140080 2.2794127464 3.1016595364 55.204986572 1.3896000385 88.651702881 156.15951538 6.5377368927 6.8374605179
 3689.7563477 2.0000000000 0.1773000211 8.6773004532 8.5000000000  -999.250000 -0.008007000 4.5729999542 0.2379969954 2.2762053013 3.1885607243 55.557735443 1.3863999844 89.587097168 154.55868530 6.4869804382 6.7489404678
 3689.9086914 2.0000000000 0.2809999883 8.7810001373 8.5000000000  -999.250000 -0.007258000 4.1922001839 0.2393999994 2.2846863270 3.2501015663 53.229236603 1.4318000078 90.707000732 155.57940674 6.4402747154 6.6769151688
 3690.0610352 2.0000000000 0.2921999991 8.7922000885 8.5000000000  -999.250000 -0.005271000 4.2641000748 0.2550559938 2.2900829315 3.3252589703 51.662319183 1.4601999521 92.173690796 157.42579651 6.3384265900 6.5235915184
 3690.2136230 2.0000000000 0.2599000037 8.7599000931 8.5000000000  -999.250000 -0.004409000 4.0753002167 0.2773079872 2.2806153297 3.3778159618 51.893917084 1.7158000469 91.064109802 157.68179321 6.2149972916 6.3297104836
 3690.3659668 2.0000000000 0.1868000031 8.6868000031 8.5000000000  -999.250000 -0.005052000 4.0043001175 0.2666569948 2.2674214840 3.3861865997 52.033279419 2.0151000023 87.248397827 153.78759766 6.3354063034 6.3481698036
 3690.5183105 2.0000000000 0.1085999981 8.6085996628 8.5000000000  -999.250000 -0.004895000 4.3140001297 0.2305880040 2.2884662151 3.3291914463 49.777019501 1.8307000399 83.059196472 146.00999451 6.5930867195 6.6188654900
