# LAS format log file from PETREL
# Project units are specified as depth units
#==================================================================
~Version information
VERS.   2.0:
WRAP.   NO:
#==================================================================
~Well
STRT .m      3544.0620117 :
STOP .m      3899.9160156 :
STEP .m     0.00000000 :
NULL .        -999.250000 :
COMP.           : COMPANY
WELL.  34/5-1 S   : WELL
FLD.            : FIELD
LOC.            : LOCATION
SRVC.           : SERVICE COMPANY
DATE.  2018-09-11 14:48:51   : Log Export Date {yyyy-MM-dd HH:mm:ss}
PROV.           : PROVINCE
UWI.   34/5-1 S   : UNIQUE WELL ID
API.            : API NUMBER
#==================================================================
~Curve
DEPT .m                   : DEPTH
Lithology_geolink ._      : Lithology_geolink
DCAL .in                  : DCAL
CALI .in                  : CALI
BS .in                    : BS
ROP .m/h                  : ROP
DRHO .g/cm3               : DRHO
THOR .ppm                 : THOR
NPHI .m3/m3               : NPHI
RHOB .g/cm3               : RHOB
PEF .b/e                  : PEF
GR .gAPI                  : GR
URAN .ppm                 : URAN
DTC .us/ft                : DTC
DTS .us/ft                : DTS
RDEP .ohm.m               : RDEP
RMED .ohm.m               : RMED
~Parameter
#==================================================================
~Ascii
# ...
 3848.5571289 5.0000000000 -0.082100011 8.4179000854 8.5000000000 37.801971436 -0.018638000 5.2115001678 0.2828460038 2.4464693069 8.9644012451 80.997261047 1.7949999571 80.476089478 143.70730591 3.3000419140 3.0550289154
 3848.7094727 5.0000000000 -0.060699999 8.4392995834 8.5000000000 53.478153229 -0.020775000 4.8973999023 0.2604210079 2.4367315769 8.9817447662 65.976928711 1.8040000200 77.055603027 141.89660645 3.6697161198 3.4129533768
 3848.8620605 3.0000000000 -0.166500002 8.3334999084 8.5000000000 102.12479401 -0.017610000 4.6803002357 0.2367790043 2.4603621960 8.6453399658 53.693038940 1.8250000477 74.860099792 141.89140320 3.9877915382 3.7934911251
 3849.0144043 3.0000000000 -0.080500007 8.4195003510 8.5000000000 101.37632751 -0.016185001 4.7627000809 0.1903090030 2.4762744904 8.7249708176 47.751907349 1.7200000286 74.513603210 142.76469421 3.7983050346 3.7501704693
 3849.1667480 3.0000000000 -0.038400002 8.4616003036 8.5000000000 84.505760193 -0.018602001 5.4682002068 0.1702480018 2.4447505474 8.7604436874 46.277351379 1.6556999683 78.699996948 147.77740479 3.6054091454 3.6267979145
 3849.3190918 3.0000000000 -0.042300001 8.4576997757 8.5000000000 71.534225464 -0.016145000 6.2382001877 0.1590790004 2.4045643806 8.1253194809 48.903480530 1.6428999901 81.757202148 159.21620178 3.0954179764 3.1264030933
 3849.4716797 3.0000000000 -0.019200001 8.4807996750 8.5000000000 62.827560425 -0.018284000 7.1132001877 0.1910600066 2.3635656834 7.8455467224 54.285682678 1.6550999880 83.913497925 167.05659485 2.8042654991 2.8294744492
 3849.6240234 3.0000000000 -0.047900002 8.4520998001 8.5000000000 71.570594788 -0.028023999 7.8442001343 0.2306749970 2.2999019623 7.2811055183 64.105651855 1.8782000542 80.806297302 168.22270203 2.7318155766 2.7284615040
 3849.7763672 3.0000000000 -0.097700000 8.4022998810 8.5000000000 82.825782776 -0.031936001 8.5810003281 0.2691420019 2.2691490650 6.8155455589 69.124267578 2.3838000298 83.182701111 168.01300049 2.7280058861 2.6376454830
 3849.9287109 3.0000000000 -0.128700003 8.3712997437 8.5000000000 89.229255676 -0.024195001 9.3810997009 0.2833710015 2.2780857086 7.5788736343 68.829986572 2.6214001179 92.963302612 167.28149414 2.7778000832 2.6138999462
 3850.0810547 3.0000000000 -0.140799999 8.3591995239 8.5000000000 99.276573181 -0.026753001 10.096799850 0.2903119922 2.2583634853 8.1917362213 67.152786255 2.7614998817 96.056610107 166.80880737 2.7297999859 2.5390000343
 3850.2336426 3.0000000000 -0.116499990 8.3835000992 8.5000000000 106.45469666 -0.025405001 11.401000023 0.2974939942 2.2479166985 8.1946983337 87.641502380 3.2442998886 97.595695496 165.49870300 2.5557999611 2.3807001114
 3850.3859863 3.0000000000 -0.115000002 8.3850002289 8.5000000000 103.85140228 -0.017903000 13.233099937 0.3157449961 2.2619774342 8.0394487381 103.01008606 4.0451002121 97.062500000 163.60240173 2.4031999111 2.2471001148
 3850.5383301 6.0000000000 -0.112700008 8.3872995377 8.5000000000 107.59189606 -0.037957001 15.207300186 0.3647519946 2.2128789425 7.2178182602 114.81838989 4.6248998642 99.803100586 162.29672241 2.4068000317 2.2169001102
 3850.6906738 6.0000000000 -0.028999999 8.4709997177 8.5000000000 106.77530670 -0.048650000 16.029100418 0.4025200009 2.1983463764 6.5962910652 121.17584991 4.6020002365 100.93049622 160.74380493 2.4821999073 2.2602999210
 3850.8432617 6.0000000000 0.0186999999 8.5186996460 8.5000000000 100.76770020 -0.051649000 15.602399826 0.4047630131 2.2469220161 6.9753880501 107.42760468 4.2199997902 98.544281006 161.39660645 2.7251999378 2.5608000755
 3850.9956055 6.0000000000 0.0324000008 8.5324001312 8.5000000000 94.188316345 -0.036377002 14.664899826 0.3864820004 2.3186848164 7.9279718399 95.176727295 3.8450999260 93.346199036 158.02420044 2.6837999821 2.5755000114
 3851.1479492 6.0000000000 -0.048500009 8.4514999390 8.5000000000 87.954719543 -0.037172999 13.930700302 0.3491069973 2.2995309830 8.3918581009 93.914794922 3.8255999088 89.886993408 153.72698975 2.5027000904 2.4809999466
 3851.3002930 6.0000000000 -0.070000000 8.4300003052 8.5000000000 82.311347961 -0.020067999 14.382699966 0.2812519968 2.3202335835 8.0366420746 109.60592651 3.9322998524 88.155899048 152.16529846 2.3582000732 2.4261000156
 3851.4528809 6.0000000000 -0.238600001 8.2614002228 8.5000000000 78.256233215 -0.016128000 16.042699814 0.2614929974 2.3662264347 8.0206241608 116.98144531 4.2258000374 87.321807861 153.74330139 2.1379001141 2.2750000954
 3851.6052246 6.0000000000 -0.333199978 8.1667995453 8.5000000000 65.099739075 -0.022117000 17.833599091 0.2665620148 2.3952534199 8.2553234100 121.30338287 4.8842000961 86.990699768 153.38789368 1.8846000433 2.0232999325
 3851.7575684 6.0000000000 -0.237800002 8.2622003555 8.5000000000 51.512798309 -0.022973999 18.123300552 0.2609010041 2.4115738869 8.0703973770 113.74304962 5.0437002182 87.854705811 153.78498840 1.6484999657 1.6826000214
 3851.9099121 6.0000000000 -0.183799997 8.3162002563 8.5000000000 47.882549286 -0.024360999 16.268699646 0.2560549974 2.4058094025 8.1212177277 88.439796448 4.6740999222 88.610603333 154.99389648 1.5666999817 1.5213999748
 3852.0622559 3.0000000000 -0.324299991 8.1757001877 8.5000000000 52.120410919 -0.029510999 13.141300201 0.2510659993 2.3722078800 8.4815435410 64.503013611 3.7987999916 89.147911072 155.62460327 1.5756000280 1.5009000301
 3852.2148438 3.0000000000 -0.375400007 8.1246004105 8.5000000000 61.084312439 -0.031856999 9.9869003296 0.2439009994 2.3310658932 8.8339366913 56.171947479 3.0676999092 87.755897522 155.84667969 1.5940999985 1.5169999599
 3852.3671875 3.0000000000 -0.188699991 8.3113002777 8.5000000000 76.718513489 -0.032423001 8.0376996994 0.2417770028 2.3094346523 9.0277900696 51.462738037 2.6403999329 88.056098938 156.55740356 1.6123000383 1.5405000448
 3852.5195313 3.0000000000 -0.174199983 8.3257999420 8.5000000000 101.29360199 -0.029855000 6.9338998795 0.2456959933 2.3102986813 9.5606451035 49.062942505 2.6324999332 88.395599365 157.29010010 1.6262999773 1.5967999697
 3852.6718750 3.0000000000 -0.136399999 8.3635997772 8.5000000000 112.63909912 -0.028576000 6.3551001549 0.2441679984 2.3129913807 9.8710060120 51.303794861 3.0432999134 88.698600769 158.62359619 1.5211999416 1.5453000069
 3852.8244629 5.0000000000 -0.131600007 8.3683996201 8.5000000000 104.60500336 -0.036754999 5.8769998550 0.2421869934 2.3171932697 9.5297489166 51.586158752 3.2811999321 89.714599609 156.75889587 1.4251999855 1.4406000376
 3852.9768066 5.0000000000 -0.144800007 8.3551998138 8.5000000000 88.810043335 -0.040337000 5.6041002274 0.2432489991 2.3172998428 9.3307189941 65.306671143 3.4044001102 90.644096375 153.73930359 1.4370000362 1.4151999950
 3853.1291504 5.0000000000 -0.187299982 8.3127002716 8.5000000000 81.350723267 -0.029988000 5.7782001495 0.2447199970 2.3478507996 9.2181806564 67.306022644 3.3977999687 92.546699524 151.42649841 1.5403000116 1.5055999756
 3853.2814941 5.0000000000 -0.179399982 8.3205995560 8.5000000000 75.309707642 -0.027750000 6.3657999039 0.2495889962 2.3352403641 9.3013324738 70.127853394 3.6638000011 92.419700623 149.50000000 1.6640000343 1.6283999681
 3853.4340820 5.0000000000 -0.145400003 8.3545999527 8.5000000000 68.593177795 -0.022179000 7.0932998657 0.2542429864 2.3250164986 9.5481042862 73.585861206 3.7676999569 89.609207153 147.34629822 1.7932000160 1.7554999590
 3853.5864258 5.0000000000 -0.126399994 8.3736000061 8.5000000000 61.227031708 -0.022550000 7.4692997932 0.2558679879 2.3369805813 9.5958232880 64.914924622 3.4686000347 87.335700989 144.44949341 1.8516000509 1.8123999834
 3853.7387695 3.0000000000 -0.190300003 8.3097000122 8.5000000000 55.620735168 -0.024791000 6.8645000458 0.2471600026 2.3727426529 9.5419864655 59.440666199 2.8696999550 86.369010925 142.25660706 1.8573999405 1.8177000284
 3853.8911133 3.0000000000 -0.164800003 8.3352003098 8.5000000000 55.256561279 -0.022012999 5.9337000847 0.2300589979 2.3992576599 9.3280429840 48.841598511 2.4539000988 85.496902466 140.62849426 1.9023000002 1.8638999462
 3854.0434570 3.0000000000 -0.228900015 8.2711000443 8.5000000000 57.271648407 -0.023484999 5.2287001610 0.1947810054 2.4094672203 9.5727128983 42.814292908 2.3494999409 84.527999878 140.92289734 2.1602001190 2.0603001118
