# LAS format log file from PETREL
# Project units are specified as depth units
#==================================================================
~Version information
VERS.   2.0:
WRAP.   NO:
#==================================================================
~Well
STRT .m      2119.3232422 :
STOP .m      4394.3505859 :
STEP .m     0.00000000 :
NULL .        -999.250000 :
COMP.           : COMPANY
WELL.  34/5-1 A   : WELL
FLD.            : FIELD
LOC.            : LOCATION
SRVC.           : SERVICE COMPANY
DATE.  2018-09-11 14:48:50   : Log Export Date {yyyy-MM-dd HH:mm:ss}
PROV.           : PROVINCE
UWI.   34/5-1 A   : UNIQUE WELL ID
API.            : API NUMBER
#==================================================================
~Curve
DEPT .m                   : DEPTH
Lithology_geolink ._      : Lithology_geolink
CALI .in                  : CALI
BS .in                    : BS
ROP .m/h                  : ROP
DRHO .g/cm3               : DRHO
NPHI .m3/m3               : NPHI
RHOB .g/cm3               : RHOB
PEF .b/e                  : PEF
GR .gAPI                  : GR
DTC .us/ft                : DTC
DTS .us/ft                : DTS
RDEP .ohm.m               : RDEP
RMED .ohm.m               : RMED
~Parameter
#==================================================================
~Ascii
# ...
 4238.2929688 7.0000000000 8.4720001221 8.5000000000 23.411090851 0.0035999999 0.3265032172 2.6466999054 9.6494998932 149.56410217  -999.250000  -999.250000 2.8815000057 2.5783998966
 4238.4453125 7.0000000000 8.5114002228 8.5000000000 21.968503952 0.0087000001 0.3275181949 2.6449999809 9.7748003006 146.71585083  -999.250000  -999.250000 2.7527999878 2.4972999096
 4238.5976563 7.0000000000 8.4955997467 8.5000000000 19.472112656 0.0057999999 0.3332000077 2.6354999542 9.8439998627 150.72520447  -999.250000  -999.250000 2.7214999199 2.4516000748
 4238.7500000 7.0000000000 8.5256996155 8.5000000000 20.519683838 0.0063000000 0.3343999982 2.6370000839 10.048500061 155.27609253  -999.250000  -999.250000 2.6679999828 2.4007000923
 4238.9023438 7.0000000000 8.5188999176 8.5000000000 23.899606705 0.0071000000 0.3312999904 2.6401998997 9.6076002121 150.54699707  -999.250000  -999.250000 2.7107000351 2.4235000610
 4239.0551758 7.0000000000 8.4921998978 8.5000000000 24.291337967 0.0048000002 0.3369041681 2.6312999725 9.7054004669 148.68580627  -999.250000  -999.250000 2.7393000126 2.4700000286
 4239.2075195 7.0000000000 8.4735002518 8.5000000000 22.218175888 0.0052999998 0.3382147551 2.6352000237 9.7179002762 149.01118469  -999.250000  -999.250000 2.9532999992 2.7114000320
 4239.3598633 7.0000000000 8.4863996506 8.5000000000 20.728673935 0.0077999998 0.3427772224 2.6431999207 9.4990997314 142.84707642  -999.250000  -999.250000 3.0143001080 2.7818999290
 4239.5122070 7.0000000000 8.4750995636 8.5000000000 21.880905151 0.0089999996 0.3357294798 2.6500999928 9.0909996033 142.43659973  -999.250000  -999.250000 3.0959000587 2.9198999405
 4239.6645508 7.0000000000 8.4869003296 8.5000000000 25.582349777 0.0052000000 0.3448891640 2.6443998814 9.4615001678 143.81486511  -999.250000  -999.250000 2.4481000900 2.3438999653
 4239.8168945 7.0000000000 8.5024995804 8.5000000000 25.429460526 0.0063999998 0.3415000141 2.6421000957 9.6070003510 147.79769897  -999.250000  -999.250000 2.2316000462 2.1031000614
 4239.9692383 7.0000000000 8.5067996979 8.5000000000 23.178476334 0.0142999999 0.3368000090 2.6531000137 10.051799774 155.45199585  -999.250000  -999.250000 2.2256000042 2.0652000904
 4240.1215820 7.0000000000 8.4867000580 8.5000000000 21.131889343 0.0120000001 0.3395000100 2.6468999386 10.110799789 155.87080383  -999.250000  -999.250000 2.2281999588 2.0362000465
 4240.2739258 7.0000000000 8.5212001801 8.5000000000 21.120407104 0.0089999996 0.3287999928 2.6442999840 9.8194999695 163.71369934  -999.250000  -999.250000 2.2249000072 2.0185999870
 4240.4267578 7.0000000000 8.5562000275 8.5000000000 20.706693649 0.0131000001 0.3155390918 2.6470000744 9.5179996490 159.49780273  -999.250000  -999.250000 2.2065999508 2.0497000217
 4240.5791016 7.0000000000 8.6093997955 8.5000000000 20.536746979 0.0071000000 0.3276188970 2.6199998856 9.3741998672 155.36982727  -999.250000  -999.250000 2.1902000904 2.0750000477
 4240.7314453 7.0000000000 8.5055999756 8.5000000000 22.150262833 0.0048000002 0.3023599386 2.5971000195 9.4216995239 156.43183899  -999.250000  -999.250000 2.1798000336 2.0750000477
 4240.8837891 7.0000000000 8.5193996429 8.5000000000 22.066602707 0.0046999999 0.2899522483 2.5897998810 9.5521001816 154.22599792  -999.250000  -999.250000 2.1781001091 2.0597000122
 4241.0361328 7.0000000000 8.5256004333 8.5000000000 20.702428818 0.0119000003 0.3062421679 2.6047999859 10.125599861 159.93782043  -999.250000  -999.250000 2.1767001152 2.0755999088
 4241.1884766 7.0000000000 8.5122995377 8.5000000000 18.201444626 0.0104000000 0.3194000125 2.6017000675 9.7744998932 157.14050293  -999.250000  -999.250000 2.2204999924 2.1189999580
 4241.3408203 7.0000000000 8.5128002167 8.5000000000 17.395341873 0.0102000004 0.3242000043 2.6040999889 9.7756004333 158.91879272  -999.250000  -999.250000 2.2344999313 2.1324999332
 4241.4931641 7.0000000000 8.4993000031 8.5000000000 17.754592896 0.0092000002 0.3217999935 2.6015000343 9.9126996994 162.36120605  -999.250000  -999.250000 2.2576999664 2.1440999508
 4241.6459961 7.0000000000 8.4963998795 8.5000000000 18.588911057 0.0082999999 0.3185849488 2.6001999378 9.4558000565 167.37413025  -999.250000  -999.250000 2.1710000038 2.0757999420
 4241.7983398 7.0000000000 8.4930000305 8.5000000000 19.415353775 0.0030000000 0.3138900697 2.5940999985 9.3542995453 173.60357666  -999.250000  -999.250000 2.1907999516 2.0813000202
 4241.9506836 7.0000000000 8.5181999207 8.5000000000 22.123359680 0.0029000000 0.3108281791 2.5952000618 9.2124996185 164.93487549  -999.250000  -999.250000 2.2627000809 2.1317999363
 4242.1030273 7.0000000000 8.5517997742 8.5000000000 24.107282639 0.0093000000 0.3196102381 2.6040999889 9.6335000992 170.04988098  -999.250000  -999.250000 2.3018999100 2.1573998928
 4242.2553711 7.0000000000 8.4694995880 8.5000000000 22.494750977 0.0052999998 0.3228012919 2.5966999531 9.0510997772 166.60362244  -999.250000  -999.250000 2.3097000122 2.1763999462
 4242.4077148 7.0000000000 8.4919004440 8.5000000000 18.150262833 0.0052000000 0.3231939077 2.6038999557 9.4469995499 170.11944580  -999.250000  -999.250000 2.3155000210 2.1939001083
 4242.5600586 7.0000000000 8.5136995316 8.5000000000 17.358922958 0.0068999999 0.3213000000 2.5984001160 9.6372995377 168.01220703  -999.250000  -999.250000 2.3215999603 2.2128000259
 4242.7124023 7.0000000000 8.4963998795 8.5000000000 19.226705551 0.0093000000 0.3301999867 2.5961999893 9.6730003357 160.38870239  -999.250000  -999.250000 2.3241000175 2.2037999630
 4242.8647461 7.0000000000 8.5181999207 8.5000000000 19.535762787 0.0044999998 0.3305999935 2.5859000683 9.5262002945 166.20959473  -999.250000  -999.250000 2.3234000206 2.2037999630
 4243.0175781 7.0000000000 8.5088996887 8.5000000000 19.048229218 0.0109999999 0.3356080055 2.5957000256 9.7813997269 167.30679321  -999.250000  -999.250000 2.3092000484 2.1828000546
 4243.1699219 7.0000000000 8.4322996140 8.5000000000 19.112533569 0.0059000002 0.3380929232 2.5929999352 9.9078998566 160.83532715  -999.250000  -999.250000 2.3060998917 2.1712000370
 4243.3222656 7.0000000000 8.4388999939 8.5000000000 17.572177887 -0.001000000 0.3358948827 2.5896999836 9.6632003784 161.06306458  -999.250000  -999.250000 2.3150999546 2.1654000282
 4243.4746094 7.0000000000 8.5319995880 8.5000000000 15.438647270 -0.000800000 0.3343150616 2.5857000351 9.8556003571 171.31944275  -999.250000  -999.250000 2.3204998970 2.1891000271
 4243.6269531 7.0000000000 8.5242996216 8.5000000000 14.681757927 0.0142999999 0.3390124440 2.6164999008 9.3187999725 173.62451172  -999.250000  -999.250000 2.3371000290 2.2039000988
 4243.7792969 7.0000000000 8.5090999603 8.5000000000 17.270669937 0.0104999999 0.3429000080 2.6064000130 9.8118000031 180.68170166  -999.250000  -999.250000 2.3296000957 2.2065000534
 4243.9316406 7.0000000000 8.5011997223 8.5000000000 17.882217407 0.0014000000 0.3422999978 2.5889999866 9.0312995911 161.27160645  -999.250000  -999.250000 2.2925999165 2.1839001179
 4244.0839844 7.0000000000 8.4509000778 8.5000000000 15.791666031 0.0049000001 0.3461000025 2.5954999924 9.1700000763 157.59570313  -999.250000  -999.250000 2.2857999802 2.1575999260
 4244.2363281 7.0000000000 8.4728002548 8.5000000000 13.846456528 0.0027000001 0.3409999907 2.5890998840 9.4780998230 171.91619873  -999.250000  -999.250000 2.2699999809 2.1340999603
 4244.3891602 7.0000000000 8.4532003403 8.5000000000 13.638780594 0.0074000000 0.3417054415 2.6019999981 9.3093004227 166.32777405  -999.250000  -999.250000 2.2467999458 2.1194999218
 4244.5415039 7.0000000000 8.4065999985 8.5000000000 14.829726219 0.0068000001 0.3433926404 2.6052000523 9.3934001923 167.05728149  -999.250000  -999.250000 2.1960000992 2.0745000839
 4244.6938477 7.0000000000 8.4942998886 8.5000000000 16.417650223 0.0031000001 0.3411124945 2.6010999680 9.7559003830 174.78070068  -999.250000  -999.250000 2.2093999386 2.0697999001
 4244.8461914 7.0000000000 8.5110998154 8.5000000000 17.377296448 0.0035999999 0.3449926376 2.6010999680 9.8182001114 179.45156860  -999.250000  -999.250000 2.2167000771 2.0606000423
