# LAS format log file from PETREL
# Project units are specified as depth units
#==================================================================
~Version information
VERS.   2.0:
WRAP.   NO:
#==================================================================
~Well
STRT .m      3544.0620117 :
STOP .m      3899.9160156 :
STEP .m     0.00000000 :
NULL .        -999.250000 :
COMP.           : COMPANY
WELL.  34/5-1 S   : WELL
FLD.            : FIELD
LOC.            : LOCATION
SRVC.           : SERVICE COMPANY
DATE.  2018-09-11 14:48:51   : Log Export Date {yyyy-MM-dd HH:mm:ss}
PROV.           : PROVINCE
UWI.   34/5-1 S   : UNIQUE WELL ID
API.            : API NUMBER
#==================================================================
~Curve
DEPT .m                   : DEPTH
Lithology_geolink ._      : Lithology_geolink
DCAL .in                  : DCAL
CALI .in                  : CALI
BS .in                    : BS
ROP .m/h                  : ROP
DRHO .g/cm3               : DRHO
THOR .ppm                 : THOR
NPHI .m3/m3               : NPHI
RHOB .g/cm3               : RHOB
PEF .b/e                  : PEF
GR .gAPI                  : GR
URAN .ppm                 : URAN
DTC .us/ft                : DTC
DTS .us/ft                : DTS
RDEP .ohm.m               : RDEP
RMED .ohm.m               : RMED
~Parameter
#==================================================================
~Ascii
 3544.0620117 13.000000000 0.0370000005 12.286999702 12.250000954 34.889778137 0.0148029998  -999.250000  -999.250000 2.5290007591 9.0299854279 96.896720886  -999.250000 91.555107117 184.63270569 1.5047371387 1.5530751944
 3544.2143555 13.000000000 -0.047300000 12.202699661 12.250000954 30.725179672 0.0142820003  -999.250000  -999.250000 2.5259048939 8.6433200836 91.812454224  -999.250000 89.813209534 183.50750732 1.6502665281 1.7271207571
 3544.3666992 13.000000000 -0.108499996 12.141500473 12.250000954 27.678110123 0.0125799999  -999.250000  -999.250000 2.5388791561 8.5833950043 91.212051392  -999.250000 89.032699585 180.86520386 1.7599244118 1.8475072384
 3544.5190430 13.000000000 -0.087099992 12.162899971 12.250000954 25.985078812 0.0091829998  -999.250000  -999.250000 2.5438840389 8.8501434326 89.757171631  -999.250000 88.921310425 175.86219788 1.8110364676 1.9186722040
 3544.6716309 13.000000000 -0.075700000 12.174300194 12.250000954 23.623863220 0.0111999996  -999.250000  -999.250000 2.5577778816 8.9700088501 87.000015259  -999.250000 88.443405151 172.59939575 1.8524338007 1.9473543167
 3544.8239746 13.000000000 -0.082100011 12.167900085 12.250000954 21.732688904 0.0125770001  -999.250000  -999.250000 2.5663862228 8.9083995819 87.560989380  -999.250000 85.665702820 175.14920044 1.8795566559 1.9790492058
 3544.9763184 13.000000000 -0.084399998 12.165599823 12.250000954 26.268306732 0.0087479996  -999.250000  -999.250000 2.5629057884 8.8919267654 92.538909912  -999.250000 83.573402405 178.67419434 1.8356705904 1.9532414675
 3545.1286621 13.000000000 -0.141800001 12.108200073 12.250000954 38.776470184 0.0081839999  -999.250000  -999.250000 2.5590124130 9.1148834229 92.332786560  -999.250000 82.843002319 179.82229614 1.7785829306 1.9056526423
 3545.2812500 13.000000000 -0.173199996 12.076799393 12.250000954 49.986331940 0.0028450000  -999.250000  -999.250000 2.5584008694 8.6301794052 89.067741394  -999.250000 84.378898621 178.04618835 1.7520422935 1.8530842066
 3545.4335938 13.000000000 -0.155100003 12.094899178 12.250000954 52.603107452 0.0020850000 3.7616000175  -999.250000 2.5620939732 8.4864301682 88.946685791 1.9515998363 85.680603027 175.06390381 1.7869437933 1.8404201269
 3545.5859375 13.000000000 -0.094000004 12.155999184 12.250000954 51.609210968 0.0050800000 3.9790003300  -999.250000 2.5650951862 8.3864603043 89.866516113 1.8451999426 85.323600769 170.34179688 1.8065686226 1.9049962759
 3545.7382813 13.000000000 -0.038400002 12.211600304 12.250000954 58.336967468 0.0105799995 4.1048998833  -999.250000 2.5690934658 8.6293096542 86.610427856 1.8119000196 84.134002686 168.05810547 1.8700981140 1.9872682095
 3545.8908691 13.000000000 -0.091399997 12.158599854 12.250000954 106.32891083 0.0141740004 3.8938996792  -999.250000 2.5717957020 8.8078145981 80.926002502 1.8732999563 82.849395752 166.88890076 2.0427234173 2.1440489292
 3546.0432129 13.000000000 -0.180000007 12.069999695 12.250000954 106.41568756 0.0077550001 3.6621000767  -999.250000 2.5700027943 8.8000135422 80.028129578 1.7977999449 80.600608826 166.28981018 2.1102919579 2.2111926079
 3546.1955566 13.000000000 -0.190200001 12.059799194 12.250000954 81.237579346 0.0015200000 3.4518001080  -999.250000 2.5703992844 8.6033153534 82.340286255 1.6232000589 79.769897461 165.54847717 2.1293694973 2.2678093910
 3546.3479004 13.000000000 -0.161599994 12.088400841 12.250000954 71.058921814 0.0049510002 3.4941000938  -999.250000 2.5795853138 8.5332117081 79.975700378 1.4695999622 79.669898987 166.07240295 2.1924986839 2.3363900185
 3546.5002441 13.000000000 -0.130300000 12.119699478 12.250000954 79.507926941 0.0084629999 3.6340999603  -999.250000 2.5875744820 8.4305286407 77.905334473 1.3827999830 80.377700806 167.74699402 2.2156260014 2.3378953934
 3546.6528320 13.000000000 -0.126100004 12.123900414 12.250000954 108.92822266 0.0051179999 3.9604001045  -999.250000 2.5794131756 8.4402837753 81.678131104 1.2872999907 80.569900513 171.26379395 2.1527011395 2.3249206543
 3546.8051758 13.000000000 -0.058200002 12.191800117 12.250000954 117.40377045 0.0096810004 4.2204999924  -999.250000 2.5928783417 8.6649398804 85.531631470 1.1306999922 81.953392029 176.67280579 2.1285386086 2.2688899040
 3546.9575195 13.000000000 -0.074100003 12.175900459 12.250000954 122.35786438 0.0094579998 4.0349998474  -999.250000 2.5951964855 8.6323528290 83.677581787 1.0386999846 84.864700317 180.59211731 2.1078999043 2.2158999443
 3547.1098633 13.000000000 -0.097900003 12.152099609 12.250000954 103.56954193 0.0087400004 3.9793999195  -999.250000 2.5920102596 8.7345724106 82.247779846 0.9860000610 87.041595459 183.29559326 2.0945999622 2.1916000843
 3547.2624512 13.000000000 -0.095700003 12.154299736 12.250000954 84.815437317 0.0111360000 4.1595997810  -999.250000 2.5938968658 8.8907499313 87.973007202 1.0009000301 87.619598389 185.09330750 2.0139999390 2.1222999096
 3547.4147949 13.000000000 -0.082699999 12.167301178 12.250000954 76.904052734 0.0116940001 4.5261998177  -999.250000 2.5926022530 8.8664388657 95.835693359 1.0195000172 87.036399841 186.42889404 1.8571000099 1.9624999762
 3547.5671387 13.000000000 0.0035999999 12.253600121 12.250000954 74.380340576 0.0182009991 5.0769000053  -999.250000 2.5890057087 8.7523832321 99.536476135 1.0066000223 86.180908203 187.62420654 1.6792000532 1.7714999914
 3547.7194824 13.000000000 0.0322999991 12.282299995 12.250000954 87.403396606 0.0260370001 5.2941999435  -999.250000 2.5992670059 8.8263616562 98.474822998 1.0360000134 86.535102844 187.54800415 1.6421999931 1.7122999430
 3547.8720703 13.000000000 0.0010000000 12.251000404 12.250000954 115.35110474 0.0229160003 5.3436999321  -999.250000 2.5911133289 9.1307115555 95.990379333 1.0785000324 88.150802612 183.81669617 1.6453000307 1.7230999470
 3548.0244141 13.000000000 -0.056499999 12.193498611 12.250000954 114.74050140 0.0229390003 5.2244000435  -999.250000 2.5936958790 9.5493288040 92.669326782 1.1635999680 88.013305664 180.29991150 1.6629999876 1.7441999912
 3548.1767578 13.000000000 -0.045599997 12.204399109 12.250000954 95.606956482 0.0168750007 5.2472000122  -999.250000 2.5892071724 9.2407960892 85.394165039 1.1966999769 86.745193481 178.76560974 1.7038999796 1.8036999702
 3548.3291016 13.000000000 -0.059999999 12.189998627 12.250000954 84.589241028 0.0161269996 5.1820001602  -999.250000 2.5848071575 9.1078128815 85.282363892 1.2288999557 86.757400513 178.41679382 1.7848000526 1.8803999424
 3548.4814453 13.000000000 -0.097999997 12.151999474 12.250000954 92.805778503 0.0139750000 4.8544998169  -999.250000 2.5804140568 8.8775377274 94.803634644 1.3567999601 85.888595581 177.55299377 1.8483999968 1.9538999796
 3548.6340332 13.000000000 -0.078500010 12.171501160 12.250000954 93.970802307 0.0142050004 4.6988000870  -999.250000 2.5848927498 8.8296756744 92.524711609 1.4866000414 85.511093140 176.60400391 1.8940999508 1.9869999886
 3548.7863770 13.000000000 -0.088699996 12.161299706 12.250000954 79.684379578 0.0150189986 4.6395001411  -999.250000 2.5933864117 8.5872888565 86.292694092 1.5959000587 85.619697571 174.20159912 1.9092999697 1.9836000204
 3548.9387207 13.000000000 -0.080000006 12.170000076 12.250000954 55.152889252 0.0098259998 4.6489000320  -999.250000 2.5840151310 8.7947664261 73.953086853 1.7467999458 84.072402954 167.46989441 1.8875999451 1.9585000277
 3549.0910645 13.000000000 -0.062700003 12.187299728 12.250000954 34.561351776 0.0117920004 4.6848998070  -999.250000 2.5904793739 9.6130743027 65.527587891 1.7423000336 81.527999878 158.59669495 1.9520000219 1.9381999969
 3549.2436523 13.000000000 -0.142499998 12.107500076 12.250000954 17.213249207 0.0099550001 4.5517997742  -999.250000 2.5845096111 9.7240266800 60.079601288 1.5887999535 77.647598267 149.63209534 2.1126000881 2.1359999180
 3549.3959961 13.000000000 -0.208200008 12.041798592 12.250000954 11.897640228 -0.000804000 4.3003001213  -999.250000 2.5678267479 9.0253219604 52.797077179 1.3321000338 74.382003784 144.40089417 2.9333999157 3.1089000702
 3549.5483398 13.000000000 -0.230900005 12.019100189 12.250000954 25.116470337 -0.002718000 3.9512002468  -999.250000 2.5727918148 8.3602647781 51.307773590 1.0577000380 72.744796753 142.71679688 3.6103000641 3.8875999451
