# LAS format log file from PETREL
# Project units are specified as depth units
#==================================================================
~Version information
VERS.   2.0:
WRAP.   NO:
#==================================================================
~Well
STRT .m      3544.0620117 :
STOP .m      3899.9160156 :
STEP .m     0.00000000 :
NULL .        -999.250000 :
COMP.           : COMPANY
WELL.  34/5-1 S   : WELL
FLD.            : FIELD
LOC.            : LOCATION
SRVC.           : SERVICE COMPANY
DATE.  2018-09-11 14:48:51   : Log Export Date {yyyy-MM-dd HH:mm:ss}
PROV.           : PROVINCE
UWI.   34/5-1 S   : UNIQUE WELL ID
API.            : API NUMBER
#==================================================================
~Curve
DEPT .m                   : DEPTH
Lithology_geolink ._      : Lithology_geolink
DCAL .in                  : DCAL
CALI .in                  : CALI
BS .in                    : BS
ROP .m/h                  : ROP
DRHO .g/cm3               : DRHO
THOR .ppm                 : THOR
NPHI .m3/m3               : NPHI
RHOB .g/cm3               : RHOB
PEF .b/e                  : PEF
GR .gAPI                  : GR
URAN .ppm                 : URAN
DTC .us/ft                : DTC
DTS .us/ft                : DTS
RDEP .ohm.m               : RDEP
RMED .ohm.m               : RMED
~Parameter
#==================================================================
~Ascii
# ...
 3826.0019531 7.0000000000 0.1281999946 8.6281995773 8.5000000000 20.476791382 -0.011244000 14.174500465 0.2874299884 2.6044225693 11.467809677 116.38395691 2.8912000656 80.568214417 157.62747192 2.5377027988 2.3845207691
 3826.1542969 7.0000000000 0.1027999967 8.6028003693 8.5000000000 17.834941864 -0.008095000 14.666899681 0.2809970081 2.6023035049 11.710910797 109.93882751 2.8766999245 77.305244446 157.92092896 2.6546125412 2.5017120838
 3826.3066406 7.0000000000 0.1242000088 8.6241998672 8.5000000000 20.635684967 -0.011011000 14.575300217 0.2788830101 2.5904381275 11.605938911 109.57035065 2.9772999287 77.848937988 157.88482666 2.7402257919 2.5991876125
 3826.4592285 7.0000000000 0.2108999938 8.7109003067 8.5000000000 24.744400024 -0.013853000 14.758999825 0.2769260108 2.5892019272 11.186772346 112.23512268 2.8210000992 80.650596619 158.93151855 2.8140819073 2.6878581047
 3826.6115723 7.0000000000 0.2021999955 8.7021999359 8.5000000000 23.894094467 -0.014884000 15.292600632 0.2748889923 2.5881016254 11.089455605 119.64541626 2.7325999737 80.640731812 159.35861206 2.8305737972 2.7110631466
 3826.7639160 7.0000000000 0.1937000006 8.6936998367 8.5000000000 20.345592499 -0.013398000 15.390600204 0.2805280089 2.5866024494 11.357069969 115.54929352 2.6519000530 80.584289551 159.93247986 2.8320975304 2.7212834358
 3826.9162598 7.0000000000 0.2091000080 8.7090997696 8.5000000000 17.340114594 -0.012648000 14.700799942 0.2859640121 2.5906932354 11.256860733 110.87079620 2.5959999561 82.347473145 161.43467712 2.8304026127 2.7368750572
 3827.0686035 7.0000000000 0.2035000026 8.7034997940 8.5000000000 15.946718216 -0.014771000 14.698100090 0.2907350063 2.5898027420 11.021854401 110.49298859 2.5006999969 84.437194824 162.98822021 2.8240203857 2.7504563332
 3827.2211914 7.0000000000 0.2119999975 8.7119998932 8.5000000000 16.081466675 -0.013634000 15.005999565 0.2998200059 2.5961897373 11.115648270 110.62159729 2.2462999821 85.102340698 163.76365662 2.8022351265 2.7220456600
 3827.3735352 7.0000000000 0.2152999938 8.7152996063 8.5000000000 16.971990585 -0.011823000 14.864000320 0.3114989996 2.6046864986 11.563880920 108.11283112 1.9823000431 85.197929382 164.08638000 2.7303154469 2.6313455105
 3827.5258789 7.0000000000 0.2035000026 8.7034997940 8.5000000000 18.157548904 -0.009391000 14.639800072 0.3108550012 2.6092925072 11.674523354 107.45704651 1.9578999281 85.576492310 164.21829224 2.6577162743 2.5457370281
 3827.6782227 7.0000000000 0.2076999992 8.7076997757 8.5000000000 18.298114777 -0.007101000 14.417099953 0.3035340011 2.6152806282 11.793618202 105.32563782 2.0843999386 86.036827087 164.05531311 2.6197216511 2.4793128967
 3827.8308105 7.0000000000 0.1368999928 8.6368999481 8.5000000000 17.721397400 -0.005990000 14.354599953 0.3012019992 2.6402599812 11.348114967 109.56388855 2.1192998886 86.217506409 163.17871094 2.6037254333 2.4347710609
 3827.9831543 7.0000000000 0.0974000096 8.5973997116 8.5000000000 17.356225967 -0.010884000 14.329700470 0.2978990078 2.6315140724 10.899120331 115.34622955 2.2778000832 86.125434875 161.43998718 2.6203732491 2.4558660984
 3828.1354980 7.0000000000 0.1009000018 8.6008996964 8.5000000000 17.519426346 -0.017083000 14.200900078 0.2879450023 2.6133291721 10.591093063 114.59252930 2.4781000614 86.185699463 160.64765930 2.6388704777 2.4826571941
 3828.2878418 7.0000000000 0.1248999909 8.6248998642 8.5000000000 17.851623535 -0.017151000 14.288800240 0.2838819921 2.6041293144 10.547039986 109.30477142 2.4663000107 86.059005737 160.62297058 2.6901354790 2.5583570004
 3828.4404297 7.0000000000 0.1344999969 8.6344995499 8.5000000000 17.462566376 -0.012713000 14.320500374 0.2834649980 2.6055977345 10.565969467 113.75792694 2.4244999886 85.878990173 161.26956177 2.7149603367 2.5977373123
 3828.5927734 7.0000000000 0.1238000020 8.6238002777 8.5000000000 17.576257706 -0.018239999 14.006999969 0.2816630006 2.5983116627 9.5721950531 113.89618683 2.4721000195 85.311401367 161.43333435 2.7259824276 2.6130754948
 3828.7451172 7.0000000000 0.1243000031 8.6243000031 8.5000000000 18.512926102 -0.019476000 13.851699829 0.2793250084 2.6022937298 9.1382942200 113.21340179 2.4746999741 83.627990723 161.78143311 2.7094266415 2.6082079411
 3828.8974609 7.0000000000 0.1269000024 8.6268997192 8.5000000000 18.782709122 -0.013423000 13.556699753 0.2865000069 2.6184740067 10.000914574 113.09439087 2.5682001114 81.065994263 162.98277283 2.6730585098 2.5890307426
 3829.0498047 7.0000000000 0.1369999945 8.6370000839 8.5000000000 18.164714813 -0.010730000 13.397800446 0.2924039960 2.6269729137 10.393743515 118.38361359 2.7915000916 81.113235474 163.83128357 2.6277451515 2.5559062958
 3829.2023926 7.0000000000 0.1101000011 8.6100997925 8.5000000000 18.412328720 -0.015666001 13.938799858 0.2947390079 2.6278984547 10.187334061 117.67506409 2.7502000332 83.644096375 165.96728516 2.6222085953 2.5363311768
 3829.3547363 7.0000000000 0.1221999973 8.6222000122 8.5000000000 19.710187912 -0.017970998 13.847200394 0.3036940098 2.6276004314 10.094947815 114.04662323 2.8153998852 85.591697693 167.77270508 2.5806667805 2.4776942730
 3829.5070801 7.0000000000 0.1237000003 8.6237001419 8.5000000000 20.532144547 -0.016682999 13.680199623 0.3079949915 2.6221089363 10.242662430 115.80127716 2.9321000576 86.330802917 168.88681030 2.5006282330 2.3900403976
 3829.6594238 7.0000000000 0.1190000102 8.6190004349 8.5000000000 20.834005356 -0.016135000 14.231800079 0.3084419966 2.6199071407 10.398200989 120.93711853 2.9386000633 86.453193665 169.11666870 2.4364056587 2.3355743885
 3829.8120117 7.0000000000 0.1298000067 8.6297998428 8.5000000000 22.463266373 -0.017689001 14.419599533 0.3092769980 2.6117131710 10.289674759 125.01458740 3.0401999950 87.095489502 169.08566284 2.3884766102 2.2938668728
 3829.9643555 7.0000000000 0.1351000071 8.6351003647 8.5000000000 23.966421127 -0.018219000 14.686100006 0.3037469983 2.6129977703 10.458628654 132.85603333 2.9944000244 87.750000000 168.11335754 2.4057722092 2.2927017212
 3830.1166992 7.0000000000 0.1509000063 8.6508998871 8.5000000000 23.598693848 -0.019375999 14.458700180 0.2946729958 2.6218857765 11.230761528 124.54645538 2.9565000534 87.615188599 166.01829529 2.4279644489 2.2884068489
 3830.2690430 7.0000000000 0.1424999982 8.6424999237 8.5000000000 21.574735641 -0.021083999 14.075099945 0.2962409854 2.6218001842 11.382417679 123.88179016 2.8903000355 86.767593384 163.86938477 2.4291961193 2.2754414082
 3830.4216309 7.0000000000 0.1562999934 8.6562995911 8.5000000000 18.897655487 -0.015807999 13.389499664 0.2883099914 2.6337807178 11.030565262 123.61392975 3.0631999969 85.765098572 161.73840332 2.4256057739 2.2748010159
 3830.5739746 7.0000000000 0.1442999989 8.6443004608 8.5000000000 17.245756149 -0.017795999 13.179300308 0.2786380053 2.6263120174 10.331421852 118.91284180 3.1024999619 84.946998596 159.92109680 2.4861030579 2.3571677208
 3830.7263184 7.0000000000 0.1291999966 8.6291999817 8.5000000000 17.815681458 -0.017503999 13.682999611 0.2763999999 2.6185123920 10.007417679 119.11077118 3.0032999516 84.617210388 159.53649902 2.5385160446 2.4287853241
 3830.8786621 7.0000000000 0.1266999990 8.6267004013 8.5000000000 19.279802322 -0.016298000 13.692799568 0.2773920000 2.6142070293 10.018980980 118.10032654 3.0020999908 84.546501160 160.43110657 2.5599656105 2.4683365822
 3831.0310059 7.0000000000 0.1268000007 8.6267995834 8.5000000000 19.796577454 -0.014801000 14.131099701 0.2804880142 2.6186857224 10.125557899 115.96823883 2.7894001007 84.076301575 162.57730103 2.5723605156 2.4835512638
 3831.1835938 7.0000000000 0.1314000040 8.6314001083 8.5000000000 19.603002548 -0.015338000 13.959199905 0.2875950038 2.6208963394 10.233128548 114.04308319 2.7032001019 84.108901978 162.44560242 2.5958623886 2.5126533508
 3831.3359375 7.0000000000 0.0962000042 8.5961999893 8.5000000000 19.637414932 -0.018602001 13.655400276 0.2881079912 2.6152091026 10.397935867 111.24528503 2.6375999451 84.334899902 161.43789673 2.6125733852 2.5328676701
 3831.4882813 7.0000000000 0.0847000033 8.5846996307 8.5000000000 19.303686142 -0.021109000 13.637000084 0.2853679955 2.6146008968 10.566729546 112.06707001 2.5243999958 83.905105591 161.06860352 2.6126997471 2.5383911133
