# LAS format log file from PETREL
# Project units are specified as depth units
#==================================================================
~Version information
VERS.   2.0:
WRAP.   NO:
#==================================================================
~Well
STRT .m      3544.0620117 :
STOP .m      3899.9160156 :
STEP .m     0.00000000 :
NULL .        -999.250000 :
COMP.           : COMPANY
WELL.  34/5-1 S   : WELL
FLD.            : FIELD
LOC.            : LOCATION
SRVC.           : SERVICE COMPANY
DATE.  2018-09-11 14:48:51   : Log Export Date {yyyy-MM-dd HH:mm:ss}
PROV.           : PROVINCE
UWI.   34/5-1 S   : UNIQUE WELL ID
API.            : API NUMBER
#==================================================================
~Curve
DEPT .m                   : DEPTH
Lithology_geolink ._      : Lithology_geolink
DCAL .in                  : DCAL
CALI .in                  : CALI
BS .in                    : BS
ROP .m/h                  : ROP
DRHO .g/cm3               : DRHO
THOR .ppm                 : THOR
NPHI .m3/m3               : NPHI
RHOB .g/cm3               : RHOB
PEF .b/e                  : PEF
GR .gAPI                  : GR
URAN .ppm                 : URAN
DTC .us/ft                : DTC
DTS .us/ft                : DTS
RDEP .ohm.m               : RDEP
RMED .ohm.m               : RMED
~Parameter
#==================================================================
~Ascii
# ...
 3758.3364258 7.0000000000 0.1442999989 8.6443004608 8.5000000000 41.107280731 -0.002841000 11.756500244 0.2839179933 2.5284333229 3.7229461670 117.62640381 5.2964000702 86.429801941 161.76280212 2.5578999519 2.7028999329
 3758.4887695 7.0000000000 0.1750999987 8.6751003265 8.5000000000 35.358268738 -0.005362000 12.473799706 0.2915259898 2.5174355507 3.8928549290 122.25019836 5.5626997948 87.541893005 161.62739563 2.4816000462 2.5947999954
 3758.6413574 7.0000000000 0.1817000061 8.6816997528 8.5000000000 28.997699738 -0.004350000 12.407199860 0.3052690029 2.5338733196 4.0532436371 125.80519867 5.9636001587 89.112701416 162.01109314 2.3835999966 2.4635000229
 3758.7937012 7.0000000000 0.1497000009 8.6497001648 8.5000000000 25.817909241 -0.001369000 11.541700363 0.3194079995 2.5602579117 4.1126050949 124.97740173 6.3867998123 91.625106812 160.71330261 2.3090999126 2.3513998985
 3758.9460449 7.0000000000 0.1512999982 8.6513004303 8.5000000000 26.320869446 0.0002510000 11.411499977 0.3126600087 2.5745770931 4.0392179489 125.48799896 6.0346999168 93.404403687 159.03219604 2.2588000298 2.2620000839
 3759.0983887 7.0000000000 0.1581999958 8.6582002640 8.5000000000 26.960962296 0.0017140000 10.737000465 0.2881160080 2.5811786652 3.9108116627 123.70030212 5.7200999260 93.347801208 159.28999329 2.2283999920 2.2114999294
 3759.2509766 7.0000000000 0.1423999965 8.6423997879 8.5000000000 27.162399292 0.0007240000 9.8348999023 0.2672969997 2.5761082172 3.8579840660 121.75140381 5.9019999504 92.850502014 164.83129883 2.2765998840 2.2641000748
 3759.4033203 7.0000000000 0.1510999948 8.6511001587 8.5000000000 27.284122467 -0.002307000 9.3901996613 0.2633740008 2.5644187927 3.8595974445 119.48120117 6.0552000999 92.203598022 166.75849915 2.4342999458 2.4518001080
 3759.5556641 7.0000000000 0.1500999928 8.6500997543 8.5000000000 26.904848099 -0.005685000 9.7335996628 0.2770290077 2.5543162823 3.8497159481 120.15830231 6.1177000999 91.873703003 165.20808411 2.4832000732 2.5785000324
 3759.7080078 7.0000000000 0.1384000033 8.6384000778 8.5000000000 26.035100937 -0.008017000 10.718199730 0.2808920145 2.5490169525 3.8111238480 122.16539764 5.8681998253 92.096000671 163.09690857 2.6549999714 2.7618999481
 3759.8605957 7.0000000000 0.1347000003 8.6346998215 8.5000000000 26.018369675 -0.008574000 11.346199989 0.2981300056 2.5468034744 3.8154928684 121.40910339 5.7020998001 92.242103577 163.27450562 2.7462999821 2.7209000587
 3760.0129395 7.0000000000 0.1347000003 8.6346998215 8.5000000000 26.333660126 -0.007374000 11.829400063 0.3002279997 2.5451023579 3.8681156635 116.25240326 5.3214998245 91.889198303 163.83540344 2.6084001064 2.5425999165
 3760.1652832 7.0000000000 0.1344999969 8.6344995499 8.5000000000 26.594820023 -0.004595000 11.364800453 0.3120900095 2.5474960804 3.8929600716 112.65969849 5.4341001511 91.358497620 164.08830261 2.2797000408 2.1489000320
 3760.3176270 7.0000000000 0.1265999973 8.6266002655 8.5000000000 27.674207687 0.0003460000 11.079400063 0.3056760132 2.5496964455 3.8889067173 112.71890259 5.6793999672 90.902305603 164.80659485 1.9017000198 1.7964999676
 3760.4699707 7.0000000000 0.1307000071 8.6307001114 8.5000000000 26.454729080 0.0033410001 11.590000153 0.3007490039 2.5437192917 3.9144179821 114.79199982 5.3678002357 88.867797852 163.31829834 1.7617000341 1.6519000530
 3760.6225586 7.0000000000 0.1185000017 8.6184997559 8.5000000000 23.169290543 0.0035910001 11.451399803 0.3000429869 2.5424020290 3.9857854843 113.20600128 5.0402998924 88.860702515 160.24909973 2.1914999485 2.0738999844
 3760.7749023 7.0000000000 0.1273999959 8.6274003983 8.5000000000 22.396320343 0.0019660001 11.337499619 0.2937560081 2.5538816452 4.0431079865 109.90100098 5.0735001564 88.339698792 161.66149902 2.5308001041 2.5875000954
 3760.9272461 7.0000000000 0.1351999938 8.6351995468 8.5000000000 25.545930862 -0.002185000 11.146599770 0.2994309962 2.5708727837 4.0555801392 108.58910370 5.2170000076 87.608901978 164.99870300 2.2342998981 2.2495000362
 3761.0795898 7.0000000000 0.1589999944 8.6590003967 8.5000000000 26.687667847 -0.002982000 11.343799591 0.3007819951 2.5808680058 4.0114417076 114.50839996 5.4590997696 89.000000000 167.18989563 1.7548999786 1.8269000053
 3761.2321777 7.0000000000 0.1453000009 8.6452999115 8.5000000000 25.131229401 -0.003221000 12.292799950 0.3240999877 2.5782043934 3.9809486866 121.43399811 5.2614998817 91.300796509 168.39410400 1.7252000570 1.7908999920
 3761.3845215 7.0000000000 0.1180000007 8.6180000305 8.5000000000 23.097770691 -0.003386000 12.259699821 0.3309780061 2.5665187836 4.0010676384 124.63459778 5.6001000404 93.543800354 167.56330872 1.8981000185 1.9004000425
 3761.5368652 7.0000000000 0.1027000025 8.6027002335 8.5000000000 21.752620697 -0.004397000 11.229999542 0.3248040080 2.5624067783 4.1003408432 121.49269867 5.7390999794 94.025001526 166.94309998 2.1289999485 2.0329000950
 3761.6892090 7.0000000000 0.1075000018 8.6075000763 8.5000000000 20.276580811 -0.004344000 10.259799957 0.3105309904 2.5740625858 4.1957941055 118.01599884 5.7263998985 94.435501099 164.89450073 2.3747000694 2.1468000412
 3761.8417969 7.0000000000 0.1277000010 8.6276998520 8.5000000000 17.776580811 -0.004016000 10.482500076 0.2964679897 2.5850822926 4.2111759186 120.60240173 5.6861000061 93.539199829 162.70199585 2.5531001091 2.1789000034
 3761.9941406 7.0000000000 0.1512999982 8.6513004303 8.5000000000 13.487529755 -0.003318000 11.591400146 0.2875243425 2.5916895866 4.0945873260 128.95429993 5.9130001068 94.071395874 160.83859253 2.6175000668 2.1717998981
 3762.1464844 7.0000000000 0.1588000208 8.6588001251 8.5000000000 13.190620422 -0.003464000 12.076000214 0.2971348763 2.5869076252 3.9415452480 135.47239685 6.4340000153 97.068801880 162.41838074 2.5287001133 2.1203999519
 3762.2988281 7.0000000000 0.1667000055 8.6667003632 8.5000000000 20.468830109 -0.002740000 12.486800194 0.3251161575 2.5809094906 3.8216919899 136.85319519 6.6434998512 99.554191589 164.57678223 2.3678998947 2.0480000973
 3762.4511719 7.0000000000 0.1618999988 8.6618995667 8.5000000000 27.557420731 -0.002784000 12.833499908 0.3414181769 2.5691375732 3.7906990051 132.44999695 6.0788002014 99.676208496 165.21850586 2.2212998867 1.9707000256
 3762.6037598 7.0000000000 0.1423999965 8.6423997879 8.5000000000 30.791669846 -0.002935000 13.793100357 0.3427037001 2.5576183796 3.8120653629 129.55310059 4.9839000702 96.820396423 164.41209412 2.0230000019 1.8565000296
 3762.7561035 7.0000000000 0.1513999999 8.6513996124 8.5000000000 31.954729080 -0.003111000 14.319399834 0.3210868835 2.5478157997 3.8533337116 125.20230103 4.2979001999 95.767799377 162.03160095 1.9500999451 1.8629000187
 3762.9084473 7.0000000000 0.1676000059 8.6675996780 8.5000000000 33.236221313 -0.003375000 14.397800446 0.3029035926 2.5388143063 3.8863470554 123.22239685 4.2782998085 95.397598267 159.97109985 2.0341000557 2.0083999634
 3763.0607910 7.0000000000 0.2029999942 8.7030000687 8.5000000000 33.941600800 -0.005149000 14.144499779 0.2802141607 2.5386006832 3.8424410820 119.85549927 4.1803998947 94.363014221 162.02720642 2.0952999592 2.1206998825
 3763.2133789 7.0000000000 0.1938000023 8.6937999725 8.5000000000 31.051179886 -0.009713000 14.345499992 0.2778500915 2.5466871262 3.7670209408 118.20939636 3.9930000305 93.974601746 162.09060669 2.0999999046 2.1965999603
 3763.3657227 7.0000000000 0.1985999942 8.6985998154 8.5000000000 27.184057236 -0.009775000 14.550999641 0.2859755754 2.5597789288 3.7105903625 115.73570251 3.6421000957 93.106101990 158.63479614 2.0996000767 2.2223000526
 3763.5180664 7.0000000000 0.1900999993 8.6900997162 8.5000000000 24.442909241 -0.006140000 14.522600174 0.2900657356 2.5651915073 3.7194857597 113.87079620 3.4026999474 92.521392822 161.09791565 2.0847001076 2.2237999439
 3763.6704102 7.0000000000 0.1990000159 8.6990003586 8.5000000000 25.736549377 0.0004630000 14.387200356 0.2855191827 2.5654990673 3.7597708702 113.58910370 3.1645998955 92.595397949 164.15750122 2.1287999153 2.2929000854
 3763.8229980 7.0000000000 0.2063000202 8.7062997818 8.5000000000 32.562339783 0.0024190000 14.461099625 0.2756802440 2.5630040169 3.8612372875 113.80819702 3.0169000626 90.532608032 166.25860596 2.2720000744 2.4001998901
