# LAS format log file from PETREL
# Project units are specified as depth units
#==================================================================
~Version information
VERS.   2.0:
WRAP.   NO:
#==================================================================
~Well
STRT .m      2119.3232422 :
STOP .m      4394.3505859 :
STEP .m     0.00000000 :
NULL .        -999.250000 :
COMP.           : COMPANY
WELL.  34/5-1 A   : WELL
FLD.            : FIELD
LOC.            : LOCATION
SRVC.           : SERVICE COMPANY
DATE.  2018-09-11 14:48:50   : Log Export Date {yyyy-MM-dd HH:mm:ss}
PROV.           : PROVINCE
UWI.   34/5-1 A   : UNIQUE WELL ID
API.            : API NUMBER
#==================================================================
~Curve
DEPT .m                   : DEPTH
Lithology_geolink ._      : Lithology_geolink
CALI .in                  : CALI
BS .in                    : BS
ROP .m/h                  : ROP
DRHO .g/cm3               : DRHO
NPHI .m3/m3               : NPHI
RHOB .g/cm3               : RHOB
PEF .b/e                  : PEF
GR .gAPI                  : GR
DTC .us/ft                : DTC
DTS .us/ft                : DTS
RDEP .ohm.m               : RDEP
RMED .ohm.m               : RMED
~Parameter
#==================================================================
~Ascii
# ...
 2883.7617188  -999.250000 12.111499786 12.250000954 157.48622131 0.0030000000 0.3387166560 2.3659999371 4.7404999733 82.901199341 102.66749573 216.93429565 1.6252000332 1.7046999931
 2883.9140625  -999.250000 12.109900475 12.250000954 144.63549805 0.0041000000 0.3490894139 2.3745999336 4.7776999474 82.902481079 102.69110107 219.05519104 1.5929000378 1.6628999710
 2884.0664063  -999.250000 12.101099968 12.250000954 154.66502380 0.0027000001 0.3424854279 2.3836998940 4.2266001701 83.700584412 101.82469940 217.11576843 1.5605000257 1.6593999863
 2884.2189941  -999.250000 12.099300385 12.250000954 239.13810730 0.0023000001 0.3333738744 2.3852000237 4.1107997894 82.749847412 101.01979828 214.96162415 1.5654000044 1.5979000330
 2884.3713379  -999.250000 12.081500053 12.250000954 233.57348633 -0.002800000 0.3171119988 2.3601999283 4.0223999023 81.027870178 100.45249939 210.55532837 1.5238000154 1.5979000330
 2884.5236816  -999.250000 12.082300186 12.250000954 201.51509094 -0.002500000 0.3245873451 2.3610000610 4.0364999771 77.213874817 100.71679688 211.00086975 1.5238000154 1.6085000038
 2884.6760254  -999.250000 12.088500023 12.250000954 162.08004761 -0.000800000 0.3166796565 2.3659999371 4.1324000359 80.065155029 101.06420135 211.35162354 1.5325000286 1.6023999453
 2884.8286133  -999.250000 12.089400291 12.250000954 167.48228455 -0.000600000 0.3040476739 2.3668000698 4.1465001106 79.726715088 101.75720215 213.61007690 1.5368000269 1.6030999422
 2884.9809570  -999.250000 12.199500084 12.250000954 169.01017761 0.0099999998 0.3189041615 2.3736999035 5.0047998428 79.386711121 102.18240356 215.78935242 1.5464999676 1.6160000563
 2885.1333008  -999.250000 12.176300049 12.250000954 184.04791260 0.0097000012 0.3214987218 2.3719999790 5.0082998276 77.463172913 102.55059814 218.80613708 1.5408999920 1.6224000454
 2885.2856445  -999.250000 12.179900169 12.250000954 167.38681030 0.0054000001 0.3207043111 2.3636999130 4.7323999405 77.640357971 101.80329895 216.76866150 1.5408999920 1.6377999783
 2885.4382324  -999.250000 12.179100037 12.250000954 149.02362061 0.0055000000 0.3234127760 2.3636999130 4.7346000671 80.112617493 101.65249634 213.56130981 1.5573999882 1.6455999613
 2885.5905762  -999.250000 12.170900345 12.250000954 125.37795258 0.0063999998 0.3273915052 2.3645999432 4.7585000992 81.210723877 102.03099823 213.31588745 1.5974999666 1.6974999905
 2885.7429199  -999.250000 12.206700325 12.250000954 122.19651794 0.0085000005 0.3220975995 2.3712000847 4.8379001617 82.530921936 102.46179962 215.09886169 1.6107000113 1.6974999905
 2885.8952637  -999.250000 12.182100296 12.250000954 140.12631226 0.0077000000 0.3205958307 2.3736000061 4.8158001900 82.729194641 102.36229706 215.20068359 1.6239999533 1.7231999636
 2886.0478516  -999.250000 12.086299896 12.250000954 144.87106323 0.0043000001 0.3179920018 2.3754999638 4.6982998848 82.777664185 101.25399780 213.42124939 1.6586999893 1.7448999882
 2886.2001953  -999.250000 12.140500069 12.250000954 123.89994049 0.0052999998 0.3154999912 2.3736999035 4.7494997978 80.085762024 100.23789978 210.90890503 1.7150000334 1.7660000324
 2886.3525391  -999.250000 12.235400200 12.250000954 114.42256927 0.0070000002 0.3154911697 2.3705999851 4.8389000893 79.181907654 98.830596924 209.34051514 1.7222000360 1.8201999664
 2886.5048828  -999.250000 12.185199738 12.250000954 110.43766785 0.0063000000 0.3100179434 2.3689999580 4.8470997810 73.895454407 99.114601135 205.72711182 1.7707999945 1.8424999714
 2886.6572266  -999.250000 12.130700111 12.250000954 99.592849731 0.0054000001 0.3211873472 2.3671998978 4.8628997803 76.172424316 99.496803284 204.30184937 1.7798000574 1.8586000204
 2886.8098145  -999.250000 12.205199242 12.250000954 89.629920959 0.0051000002 0.3132651448 2.3687996864 4.9172000885 77.057785034 99.258903503 202.59426880 1.8174999952 1.8602000475
 2886.9621582  -999.250000 12.149499893 12.250000954 92.173889160 0.0057000001 0.3023999929 2.3687000275 5.1820001602 76.514823914 97.870399475 204.39402771 1.8334000111 1.8709000349
 2887.1145020  -999.250000 12.180898666 12.250000954 88.984252930 0.0073000002 0.3023820519 2.3803000450 5.3133997917 72.046775818 96.037399292 207.39593506 1.8523000479 1.8709000349
 2887.2668457  -999.250000 12.142599106 12.250000954 69.690612793 0.0083999997 0.2911820710 2.3931000233 5.5742001534 75.023071289 92.898200989 208.28704834 1.8711999655 1.9743000269
 2887.4194336  -999.250000 12.148699760 12.250000954 58.013122559 0.0068000001 0.2800368071 2.3994998932 5.7101001740 76.740997314 92.056503296 209.25231934 2.0717000961 1.9639999866
 2887.5717773  -999.250000 12.253399849 12.250000954 61.981296539 -0.001300000 0.2915062606 2.3873999119 5.6542000771 74.717300415 91.717300415 211.31321716 2.1491999626 2.5183000565
 2887.7241211  -999.250000 12.404199600 12.250000954 77.292984009 0.0049999999 0.2954148948 2.3887000084 5.2852001190 74.711242676 94.237289429 211.20133972 2.6770999432 2.5183000565
 2887.8764648  -999.250000 12.297199249 12.250000954 85.263122559 0.0049999999 0.3046999872 2.3801000118 5.0281000137 70.935920715 96.288002014 210.72915649 2.6770999432 2.6651999950
 2888.0290527  -999.250000 12.238900185 12.250000954 78.039047241 0.0059000002 0.3047095835 2.3585999012 5.2964000702 68.699913025 99.368301392 210.21243286 2.1496999264 2.3420999050
 2888.1813965  -999.250000 12.176400185 12.250000954 68.906501770 0.0099999998 0.3077017665 2.3635001183 5.4987998009 66.720252991 99.999801636 212.31300354 2.0750999451 2.1809999943
 2888.3337402  -999.250000 12.170900345 12.250000954 64.424545288 0.0086000003 0.3088145852 2.3668000698 5.3547000885 72.243553162 100.07949829 215.05099487 1.9575999975 1.9033000469
 2888.4860840  -999.250000 12.173000336 12.250000954 69.980972290 0.0063000000 0.3178966343 2.3652999401 5.1751999855 77.757247925 99.927299500 214.73692322 1.9155999422 1.8976000547
 2888.6384277  -999.250000 12.195799828 12.250000954 75.702758789 0.0063000000 0.3157916665 2.3605000973 5.2174000740 77.280944824 99.885696411 213.32273865 1.8652000427 1.8597999811
 2888.7910156  -999.250000 12.298500061 12.250000954 80.715881348 0.0137000000 0.3105996847 2.3701000214 5.7228999138 72.951293945 100.96410370 212.15487671 1.8335000277 1.8597999811
 2888.9433594  -999.250000 12.295999527 12.250000954 97.749343872 0.0149999997 0.3104996681 2.3740000725 5.7431001663 75.193550110 100.65139771 211.04957581 1.7890000343 1.8431999683
 2889.0957031  -999.250000 12.210800171 12.250000954 143.89337158 0.0088999998 0.3102999926 2.3654000759 5.3021001816 75.907646179 99.200996399 207.48233032 1.7890000343 1.8265999556
 2889.2480469  -999.250000 12.212400436 12.250000954 160.65124512 0.0089999996 0.3103293180 2.3656001091 5.3020000458 72.517555237 99.094703674 208.55392456 1.7813999653 1.8072999716
 2889.4006348  -999.250000 12.209800720 12.250000954 136.31233215 0.0099999998 0.3285999894 2.3673999310 5.3750000000 77.562644958 99.972702026 209.67805481 1.7432999611 1.8162000179
 2889.5529785  -999.250000 12.184599876 12.250000954 135.05151367 0.0103000002 0.3285999894 2.3675999641 5.2639999390 85.638389587 100.88710022 205.83328247 1.6886999607 1.7723000050
 2889.7053223  -999.250000 12.159299850 12.250000954 150.26148987 0.0104999999 0.3285924494 2.3677999973 5.1529998779 81.891105652 101.04190063 206.57017517 1.7013000250 1.7037999630
 2889.8576660  -999.250000 12.090499878 12.250000954 152.23097229 0.0071000000 0.3239000142 2.3617000580 5.0377998352 81.274482727 101.98470306 210.92289734 1.6107000113 1.6963000298
 2890.0102539  -999.250000 12.231800079 12.250000954 152.03707886 -0.008500000 0.3239176273 2.3468000889 4.8242998123 81.886642456 102.23739624 213.41557312 1.6404000521 1.6591000557
 2890.1625977  -999.250000 12.234199524 12.250000954 132.27459717 -0.001900000 0.3293881416 2.3492999077 5.0279002190 81.620101929 102.39790344 212.77766418 1.6174000502 1.6599999666
 2890.3149414  -999.250000 12.263699532 12.250000954 115.64108276 0.0120000001 0.3219862282 2.3612999916 5.4243998528 80.872413635 102.35140228 210.07341003 1.5946999788 1.8210999966
