# LAS format log file from PETREL
# Project units are specified as depth units
#==================================================================
~Version information
VERS.   2.0:
WRAP.   NO:
#==================================================================
~Well
STRT .m      3352.4772949 :
STOP .m      4371.5761719 :
STEP .m     0.00000000 :
NULL .        -999.250000 :
COMP.           : COMPANY
WELL.  34/6-1   : WELL
FLD.            : FIELD
LOC.            : LOCATION
SRVC.           : SERVICE COMPANY
DATE.  2018-09-11 14:48:51   : Log Export Date {yyyy-MM-dd HH:mm:ss}
PROV.           : PROVINCE
UWI.   34/6-1 S   : UNIQUE WELL ID
API.            : API NUMBER
#==================================================================
~Curve
DEPT .m                   : DEPTH
Lithology_geolink ._      : Lithology_geolink
CALI .in                  : CALI
BS .in                    : BS
NPHI .m3/m3               : NPHI
RHOB .g/cm3               : RHOB
PEF .b/e                  : PEF
GR .gAPI                  : GR
DTC .us/ft                : DTC
DTS .us/ft                : DTS
RDEP .ohm.m               : RDEP
RMED .ohm.m               : RMED
~Parameter
#==================================================================
~Ascii
# ...
 4222.9863281 2.0000000000 8.4460735321 8.5000000000 0.2010836303 2.3694059849 3.9595611095 45.588169098 276.02001953 448.36801147 2.5748250484 3.2043635845
 4223.1386719 2.0000000000 8.4427986145 8.5000000000 0.2025509775 2.3662619591 3.4820849895 40.569480896 275.27978516 449.43142700 2.5941104889 2.9772453308
 4223.2910156 2.0000000000 8.4458026886 8.5000000000 0.2018929422 2.3739700317 3.3737909794 38.935981750 274.53384399 448.99609375 2.5127727985 2.8856697083
 4223.4433594 2.0000000000 8.4460210800 8.5000000000 0.2015313059 2.3773190975 3.4357879162 40.584079742 275.53961182 440.32431030 2.4226670265 2.8973314762
 4223.5957031 2.0000000000 8.4459104538 8.5000000000 0.2036508024 2.3675630093 3.3960340023 41.471511841 275.07260132 437.14489746 2.3657076359 2.8834300041
 4223.7480469 2.0000000000 8.4439277649 8.5000000000 0.2076655030 2.3559110165 3.1780180931 38.467979431 276.28518677 439.74209595 2.3372821808 2.8731935024
 4223.9008789 2.0000000000 8.4447755814 8.5000000000 0.2003592849 2.3468070030 3.0154640675 35.749099731 275.83114624 442.88714600 2.3230047226 2.8811285496
 4224.0532227 2.0000000000 8.4447212219 8.5000000000 0.1918999851 2.3488519192 3.0435159206 36.059051514 281.58108521 446.52529907 2.3112282753 2.8830869198
 4224.2055664 2.0000000000 8.4458627701 8.5000000000 0.1926895380 2.3634219170 3.0567500591 38.900230408 286.66494751 451.69772339 2.2942512035 2.8816800117
 4224.3579102 2.0000000000 8.4437627792 8.5000000000 0.1896051764 2.3795959949 3.4528529644 40.629581451 275.25665283 463.60049438 2.2689862251 2.8767082691
 4224.5102539 2.0000000000 8.4447526932 8.5000000000 0.1946011484 2.3818368912 3.4965250492 41.613319397 271.86563110 466.27905273 2.2359330654 2.8733587265
 4224.6625977 2.0000000000 8.4434671402 8.5000000000 0.2039764971 2.3718700409 3.6566839218 41.015140533 275.90521240 468.07971191 2.1963481903 2.8719444275
 4224.8149414 2.0000000000 8.4447326660 8.5000000000 0.2062543035 2.3662199974 3.4048299789 41.890960693 278.38931274 472.90438843 2.1527523994 2.8456499577
 4224.9672852 2.0000000000 8.4447212219 8.5000000000 0.2020978034 2.3731389046 3.4624021053 39.501609802 281.73831177 474.69668579 2.1076593399 2.8437530994
 4225.1196289 2.0000000000 8.4424581528 8.5000000000 0.1996272951 2.3699650764 3.2915730476 38.934329987 278.48739624 474.62509155 2.0581536293 2.8320755959
 4225.2724609 2.0000000000 8.4459552765 8.5000000000 0.2048808336 2.3669068813 3.1856639385 35.437660217 281.78219604 474.09152222 1.9978142977 2.7798128128
 4225.4248047 2.0000000000 8.4424657822 8.5000000000 0.2131293863 2.3532760143 3.0959270000 34.345230103 281.69226074 473.12026978 1.9214898348 2.6990880966
 4225.5771484 2.0000000000 8.4445934296 8.5000000000 0.2220323384 2.3422169685 3.2868831158 32.323379517 281.77899170 469.26666260 1.8333592415 2.5870034695
 4225.7294922 2.0000000000 8.4434680939 8.5000000000 0.2160745561 2.3342089653 3.8130080700 31.829069138 282.58120728 473.24407959 1.7577821016 2.4954214096
 4225.8818359 2.0000000000 8.4445533752 8.5000000000 0.1773538142 2.3369810581 4.3834891319 31.926019669 273.62298584 473.84896851 1.7338079214 2.4998199940
 4226.0341797 2.0000000000 8.4434461594 8.5000000000 0.1228524968 2.3768100739 4.9308171272 31.663339615 263.60501099 467.47583008 1.8047432899 2.5794880390
 4226.1865234 2.0000000000 8.4447336197 8.5000000000 0.0766779184 2.4684059620 4.7954878807 33.980159760 250.16650391 431.10598755 2.0224239826 2.8880064487
 4226.3388672 2.0000000000 8.4434661865 8.5000000000 0.0537131317 2.5661690235 4.7955207825 37.031318665 234.51281738 412.22280884 2.4662778378 3.8581600189
 4226.4916992 16.000000000 8.4443759918 8.5000000000 0.0474772826 2.6294789314 4.6430459023 38.742328644 219.04096985 395.44348145 3.1599073410 6.0988130569
 4226.6440430 16.000000000 8.4461984634 8.5000000000 0.0482599288 2.6367630959 5.0724329948 37.516250610 216.07643127 374.67089844 4.0584645271 7.2511448860
 4226.7963867 2.0000000000 8.4450578690 8.5000000000 0.0507332794 2.6304609776 5.6163702011 35.701221466 215.83221436 367.62301636 4.8739237785 8.1744451523
 4226.9487305 2.0000000000 8.4432897568 8.5000000000 0.0532857589 2.6268370152 5.6919360161 33.842159271 212.73147583 367.32043457 4.9120368958 7.7734990120
 4227.1010742 2.0000000000 8.4451589584 8.5000000000 0.0686375871 2.6239941120 5.7034869194 33.798191071 204.75149536 388.12124634 4.7771420479 7.1280064583
 4227.2534180 2.0000000000 8.4461164474 8.5000000000 0.1000810117 2.5793759823 6.0099401474 32.416000366 200.85005188 390.56402588 4.7062215805 6.6072397232
 4227.4057617 2.0000000000 8.4439601898 8.5000000000 0.1445170045 2.4967141151 6.5517239571 32.113739014 206.17080688 392.93197632 4.7952404022 6.1316046715
 4227.5581055 2.0000000000 8.4452238083 8.5000000000 0.1901651025 2.4228179455 7.6419057846 32.501049042 222.52969360 435.19989014 4.8729152679 6.3849787712
 4227.7104492 2.0000000000 8.4646749496 8.5000000000 0.2199133039 2.3898379803 8.6814222336 34.632061005 250.25758362 440.46359253 4.9187192917 6.5739073753
 4227.8632813 2.0000000000 8.4930896759 8.5000000000 0.2267570347 2.3909358978 10.074560165 38.208900452 255.98149109 434.84121704 4.9019899368 6.9268355370
 4228.0156250 2.0000000000 8.5100526810 8.5000000000 0.2021026462 2.3917579651 10.250320435 38.592399597 269.22363281 424.74404907 4.3845920563 6.0279803276
 4228.1679688 2.0000000000 8.5088376999 8.5000000000 0.1820203066 2.3937680721 7.4477548599 39.854541779 277.51580811 437.32821655 3.8472070694 5.1528940201
 4228.3203125 2.0000000000 8.5110054016 8.5000000000 0.1800393164 2.3898839951 4.9271907806 38.755420685 278.31576538 466.93081665 3.5497696400 4.7721538544
 4228.4726563 2.0000000000 8.5106744766 8.5000000000 0.1922716349 2.3829550743 4.3053750992 38.483459473 275.64285278 444.85641479 3.3931725025 4.6609554291
 4228.6250000 2.0000000000 8.5100631714 8.5000000000 0.1946851015 2.3765580654 4.0740990639 36.094619751 270.50650024 465.61389160 3.3751027584 4.8129258156
 4228.7773438 2.0000000000 8.5084772110 8.5000000000 0.1929185987 2.3297610283 4.5858850479 34.845718384 260.00250244 482.36358643 3.5105445385 5.1220989227
 4228.9296875 1.0000000000 8.5113468170 8.5000000000 0.1540701985 2.3194708824 4.5076317787 36.664020538 256.14599609 479.27609253 3.7793533802 5.3541932106
 4229.0820313 1.0000000000 8.5228185654 8.5000000000 0.1121200025 2.3542280197 5.3795328140 38.555091858 242.24877930 464.23278809 4.5244135857 6.9344882965
 4229.2348633 1.0000000000 8.5495834351 8.5000000000 0.0861561149 2.4687280655 5.6199569702 35.698501587 234.49534607 452.17648315 5.9368147850 9.0839233398
 4229.3872070 1.0000000000 8.5422277451 8.5000000000 0.0844876468 2.5481479168 4.9443798065 32.842998505 227.82574463 411.23291016 8.1455669403 12.645455360
 4229.5395508 1.0000000000 8.5062913895 8.5000000000 0.0824339017 2.5546579361 4.2903428078 30.062730789 218.66239929 390.40432739 8.8007078171 11.503105164
 4229.6918945 16.000000000 8.4850177765 8.5000000000 0.0764453709 2.5596010685 4.3165087700 29.631090164 208.74493408 375.05459595 7.4518108368 10.415622711
 4229.8442383 16.000000000 8.4806718826 8.5000000000 0.0679903105 2.5690629482 5.1182222366 25.181760788 206.99676514 366.92687988 6.4828300476 10.253006935
 4229.9965820 1.0000000000 8.4802207947 8.5000000000 0.0615468994 2.5838038921 5.6732201576 25.207950592 210.70249939 363.02600098 5.4579749107 8.7586669922
 4230.1489258 1.0000000000 8.4817237854 8.5000000000 0.0690538809 2.5834290981 5.1365261078 27.771240234 218.65609741 360.99288940 4.5503740311 6.6232695580
 4230.3012695 1.0000000000 8.4801959991 8.5000000000 0.0947406366 2.5710089207 4.1102862358 29.406080246 221.50149536 365.39920044 4.0314378738 4.9700150490
 4230.4541016 1.0000000000 8.4811658859 8.5000000000 0.1367439777 2.5173180103 3.5799119473 27.950000763 234.95138550 375.82635498 3.6956229210 4.2510848045
 4230.6064453 1.0000000000 8.4814786911 8.5000000000 0.1786260456 2.4621150494 3.5306160450 27.625890732 254.38078308 390.45874023 3.4388024807 3.5949821472
