# LAS format log file from PETREL
# Project units are specified as depth units
#==================================================================
~Version information
VERS.   2.0:
WRAP.   NO:
#==================================================================
~Well
STRT .m      3352.4772949 :
STOP .m      4371.5761719 :
STEP .m     0.00000000 :
NULL .        -999.250000 :
COMP.           : COMPANY
WELL.  34/6-1   : WELL
FLD.            : FIELD
LOC.            : LOCATION
SRVC.           : SERVICE COMPANY
DATE.  2018-09-11 14:48:51   : Log Export Date {yyyy-MM-dd HH:mm:ss}
PROV.           : PROVINCE
UWI.   34/6-1 S   : UNIQUE WELL ID
API.            : API NUMBER
#==================================================================
~Curve
DEPT .m                   : DEPTH
Lithology_geolink ._      : Lithology_geolink
CALI .in                  : CALI
BS .in                    : BS
NPHI .m3/m3               : NPHI
RHOB .g/cm3               : RHOB
PEF .b/e                  : PEF
GR .gAPI                  : GR
DTC .us/ft                : DTC
DTS .us/ft                : DTS
RDEP .ohm.m               : RDEP
RMED .ohm.m               : RMED
~Parameter
#==================================================================
~Ascii
# ...
 3686.6904297 7.0000000000 8.7356786728 8.5000000000 0.3040210009 2.5964457989 4.5865459442 108.93800354 306.04141235 586.41058350 2.2614357471 2.3657851219
 3686.8427734 7.0000000000 8.7353429794 8.5000000000 0.2894419134 2.6022613049 5.0275540352 107.07540131 307.78744507 586.12768555 2.1990044117 2.2131223679
 3686.9953613 6.0000000000 8.7368173599 8.5000000000 0.2707729936 2.6038572788 5.4438152313 104.89520264 304.37869263 588.34112549 2.1911654472 2.1386256218
 3687.1477051 6.0000000000 8.7345886230 8.5000000000 0.2703073025 2.5968673229 5.0652985573 97.198753357 303.58468628 590.33837891 2.2200253010 2.3675856590
 3687.3000488 6.0000000000 8.7353725433 8.5000000000 0.2776466012 2.6025118828 5.0063109398 97.704353333 304.36404419 586.97308350 2.2420084476 2.4613599777
 3687.4523926 6.0000000000 8.7318410873 8.5000000000 0.2961669862 2.6001844406 4.4895319939 92.228897095 306.35250854 588.26641846 2.2297303677 2.3558485508
 3687.6049805 6.0000000000 8.7337207794 8.5000000000 0.3084740937 2.6034536362 4.5080995560 92.176246643 309.87649536 590.69787598 2.1987843513 2.2191200256
 3687.7573242 6.0000000000 8.7331066132 8.5000000000 0.3035393953 2.6038992405 4.3177857399 92.889663696 310.22970581 593.99438477 2.1755185127 2.1920533180
 3687.9096680 6.0000000000 8.7323741913 8.5000000000 0.2960115969 2.6006891727 4.6211657524 99.755706787 312.65109253 596.05505371 2.1659169197 2.2153770924
 3688.0620117 6.0000000000 8.7512130737 8.5000000000 0.2969842851 2.5991423130 5.0470509529 100.68029785 314.01110840 597.37890625 2.1659991741 2.2283406258
 3688.2143555 6.0000000000 8.7637624741 8.5000000000 0.2928274870 2.5912623405 5.1271729469 99.309173584 313.71072388 599.81054688 2.1818182468 2.1746242046
 3688.3669434 6.0000000000 8.7665176392 8.5000000000 0.2789986134 2.5911929607 5.0773820877 96.532623291 314.58551025 602.18640137 2.2250835896 2.2491052151
 3688.5192871 6.0000000000 8.7656288147 8.5000000000 0.2705233097 2.5974519253 5.0768733025 96.558731079 315.72531128 600.32702637 2.2916367054 2.3470807076
 3688.6716309 6.0000000000 8.7650537491 8.5000000000 0.2865861952 2.5976638794 5.2599272728 97.292633057 316.27810669 599.41748047 2.3525078297 2.4347221851
 3688.8239746 6.0000000000 8.7676773071 8.5000000000 0.2928834856 2.5864810944 5.0777826309 99.035766602 316.28628540 598.66320801 2.3753702641 2.4689893723
 3688.9765625 6.0000000000 8.7637157440 8.5000000000 0.2921504080 2.5744082928 4.6935825348 102.40239716 316.60830688 597.66571045 2.3561618328 2.4041419029
 3689.1289063 6.0000000000 8.7650747299 8.5000000000 0.2890532911 2.5714077950 4.4153871536 102.85959625 317.28213501 595.91870117 2.3262171745 2.3454556465
 3689.2812500 6.0000000000 8.7637815475 8.5000000000 0.2833400965 2.5803866386 4.6109771729 103.69110107 317.85241699 594.16290283 2.3226673603 2.2980961800
 3689.4335938 6.0000000000 8.7611017227 8.5000000000 0.2803801000 2.5806071758 4.9380998611 103.83039856 317.14389038 592.92401123 2.3578186035 2.4292953014
 3689.5861816 6.0000000000 8.7636556625 8.5000000000 0.2758162022 2.5745308399 4.9610967636 102.52549744 311.86709595 591.52618408 2.4150323868 2.5514545441
 3689.7385254 6.0000000000 8.7648935318 8.5000000000 0.2733358145 2.5754942894 4.7647223473 97.957122803 311.08792114 587.43719482 2.4687793255 2.5408122540
 3689.8908691 6.0000000000 8.7665185928 8.5000000000 0.2752436996 2.5851523876 4.7392535210 93.828376770 309.35946655 584.43469238 2.5025990009 2.6121144295
 3690.0432129 6.0000000000 8.7639350891 8.5000000000 0.2630101144 2.5880792141 4.6403098106 94.603630066 306.85107422 581.32312012 2.5107870102 2.7504653931
 3690.1958008 6.0000000000 8.7675256729 8.5000000000 0.2617676854 2.5834894180 4.6495122910 94.295921326 306.38986206 580.04919434 2.5002195835 2.6196134090
 3690.3481445 6.0000000000 8.7672863007 8.5000000000 0.2636747062 2.5763053894 4.3497762680 95.486427307 307.40637207 581.47686768 2.4901340008 2.5251307487
 3690.5004883 6.0000000000 8.7650566101 8.5000000000 0.2822973132 2.5790674686 4.3447890282 96.886039734 309.13891602 584.03515625 2.4938888550 2.5699286461
 3690.6528320 6.0000000000 8.7652463913 8.5000000000 0.2784245908 2.5858330727 4.3338756561 103.95220184 309.52630615 586.13519287 2.5076267719 2.6301202774
 3690.8051758 6.0000000000 8.7668170929 8.5000000000 0.2842144072 2.5875766277 4.3063983917 105.88359833 308.64663696 587.13793945 2.5243732929 2.6706826687
 3690.9577637 6.0000000000 8.7678918839 8.5000000000 0.2823222876 2.5989289284 4.5078125000 101.90299988 308.55081177 586.31915283 2.5522043705 2.6255924702
 3691.1101074 6.0000000000 8.7688932419 8.5000000000 0.2845002115 2.5863902569 4.3018579483 98.826477051 308.32717896 584.87194824 2.6085700989 2.6222429276
 3691.2624512 6.0000000000 8.7658739090 8.5000000000 0.2866759896 2.5997755527 4.4550752640 99.311431885 308.25296021 580.45507813 2.6991477013 2.7539341450
 3691.4147949 6.0000000000 8.7653217316 8.5000000000 0.2850263119 2.5942118168 4.7466855049 99.707786560 309.27700806 567.87683105 2.8050670624 2.8920474052
 3691.5673828 6.0000000000 8.7637834549 8.5000000000 0.2814978957 2.5910739899 5.0592269897 95.833297729 309.24829102 564.41046143 2.8905539513 3.0293879509
 3691.7197266 6.0000000000 8.7654752731 8.5000000000 0.2672612965 2.5771625042 4.5939006805 91.509300232 308.74737549 563.46166992 2.9247455597 3.0616688728
 3691.8720703 6.0000000000 8.7652530670 8.5000000000 0.2524701059 2.5861146450 4.1436762810 90.255622864 307.79962158 563.59173584 2.9075737000 2.9955503941
 3692.0244141 6.0000000000 8.7654676437 8.5000000000 0.2479559928 2.5995788574 3.9707059860 90.714118958 305.49865723 564.37310791 2.8712036610 2.9384064674
 3692.1770020 6.0000000000 8.7650537491 8.5000000000 0.2426030040 2.6176681519 4.3126192093 94.371536255 303.58425903 566.44915771 2.8517112732 2.8814740181
 3692.3293457 6.0000000000 8.7654466629 8.5000000000 0.2465527058 2.6026730537 4.5823559761 100.08589935 301.69732666 567.75085449 2.8611521721 2.9374165535
 3692.4816895 6.0000000000 8.7628202438 8.5000000000 0.2443314940 2.6014058590 4.5990777016 104.50550079 299.59390259 568.35217285 2.8880326748 3.0430564880
 3692.6340332 6.0000000000 8.7650012970 8.5000000000 0.2469483018 2.5945420265 4.4871048927 102.53730011 299.14791870 567.88061523 2.9171817303 3.0221118927
 3692.7863770 6.0000000000 8.7665491104 8.5000000000 0.2532789111 2.5974388123 4.5683865547 104.24169922 299.61517334 566.40539551 2.9432551861 3.0519454479
 3692.9389648 6.0000000000 8.7641124725 8.5000000000 0.2538214922 2.5884535313 4.8536615372 102.35949707 301.73013306 565.59899902 2.9670417309 3.0802328587
 3693.0913086 6.0000000000 8.7666578293 8.5000000000 0.2507640123 2.5835578442 4.9134354591 99.381523132 302.70721436 565.79882813 2.9868755341 3.0685789585
 3693.2436523 6.0000000000 8.7671785355 8.5000000000 0.2473627031 2.5794436932 4.9430942535 91.798576355 302.96524048 565.98370361 2.9959056377 3.2100186348
 3693.3959961 6.0000000000 8.7652378082 8.5000000000 0.2494982928 2.5757997036 4.6494112015 90.943588257 302.24627686 566.11254883 2.9895253181 3.2171580791
 3693.5485840 6.0000000000 8.7663393021 8.5000000000 0.2582781911 2.5800340176 4.6287746429 91.247268677 302.60308838 566.43920898 2.9753916264 3.1057260036
 3693.7009277 6.0000000000 8.7657861710 8.5000000000 0.2616212964 2.5798861980 4.4420804977 92.805847168 303.80117798 565.63610840 2.9671552181 3.1122605801
 3693.8532715 6.0000000000 8.7650747299 8.5000000000 0.2639543116 2.5875585079 4.6005182266 89.065750122 303.84808350 565.24603271 2.9690563679 3.0907735825
 3694.0056152 6.0000000000 8.7661600113 8.5000000000 0.2643783987 2.5910758972 4.6563115120 92.827758789 302.36096191 565.12524414 2.9767653942 3.0607151985
 3694.1582031 6.0000000000 8.7655858994 8.5000000000 0.2711816132 2.5914883614 5.0140094757 92.647941589 303.45840454 565.16864014 2.9870185852 3.0851140022
 3694.3105469 6.0000000000 8.7663927078 8.5000000000 0.2694112062 2.5785768032 4.9354858398 98.336341858 303.67593384 566.12994385 2.9974982738 3.1066472530
