# LAS format log file from PETREL
# Project units are specified as depth units
#==================================================================
~Version information
VERS.   2.0:
WRAP.   NO:
#==================================================================
~Well
STRT .m      3352.4772949 :
STOP .m      4371.5761719 :
STEP .m     0.00000000 :
NULL .        -999.250000 :
COMP.           : COMPANY
WELL.  34/6-1   : WELL
FLD.            : FIELD
LOC.            : LOCATION
SRVC.           : SERVICE COMPANY
DATE.  2018-09-11 14:48:51   : Log Export Date {yyyy-MM-dd HH:mm:ss}
PROV.           : PROVINCE
UWI.   34/6-1 S   : UNIQUE WELL ID
API.            : API NUMBER
#==================================================================
~Curve
DEPT .m                   : DEPTH
Lithology_geolink ._      : Lithology_geolink
CALI .in                  : CALI
BS .in                    : BS
NPHI .m3/m3               : NPHI
RHOB .g/cm3               : RHOB
PEF .b/e                  : PEF
GR .gAPI                  : GR
DTC .us/ft                : DTC
DTS .us/ft                : DTS
RDEP .ohm.m               : RDEP
RMED .ohm.m               : RMED
~Parameter
#==================================================================
~Ascii
# ...
 3888.7729492 5.0000000000 8.4844255447 8.5000000000 0.2131731063 2.4146950245 4.1559791565 57.858711243 287.76919556 478.57223511 2.7534399033 2.9781761169
 3888.9252930 5.0000000000 8.4831790924 8.5000000000 0.2197414041 2.4093370438 3.8040690422 51.706169128 288.56994629 479.33084106 2.7671487331 3.0505247116
 3889.0778809 5.0000000000 8.4837150574 8.5000000000 0.2132620066 2.4215099812 4.0723681450 54.098659515 288.46786499 480.22476196 2.7837724686 3.0229604244
 3889.2302246 5.0000000000 8.4840688705 8.5000000000 0.2169582993 2.4320271015 4.4000720978 55.156379700 287.27151489 480.91140747 2.7894842625 3.0442502499
 3889.3825684 5.0000000000 8.4831161499 8.5000000000 0.2183046937 2.4197769165 4.6196990013 54.997810364 288.76666260 485.83743286 2.7789936066 3.0067663193
 3889.5349121 5.0000000000 8.4820165634 8.5000000000 0.2328912020 2.4034399986 4.3032040596 56.507690430 286.00610352 486.32388306 2.7569315434 2.9240009785
 3889.6875000 5.0000000000 8.4819002151 8.5000000000 0.2308474928 2.3977689743 4.0100049973 55.304328918 286.57254028 485.41387939 2.7315788269 2.8997206688
 3889.8398438 5.0000000000 8.4845809937 8.5000000000 0.2231613994 2.4166922569 3.8207299709 56.776279449 287.04968262 481.39260864 2.7059159279 2.9099647999
 3889.9921875 4.0000000000 8.4839162827 8.5000000000 0.2060288042 2.4256160259 3.8610739708 56.347518921 286.58825684 483.00952148 2.6734502316 2.9452967644
 3890.1445313 4.0000000000 8.4830846786 8.5000000000 0.2033845037 2.4216599464 3.9973399639 55.996341705 284.93121338 482.24844360 2.6249494553 2.9138667583
 3890.2968750 4.0000000000 8.4829998016 8.5000000000 0.2060738057 2.4142098427 4.1310658455 51.621318817 284.45095825 484.94439697 2.5572087765 2.8693006039
 3890.4494629 4.0000000000 8.4821949005 8.5000000000 0.2113153040 2.3990108967 3.9405219555 51.548961639 289.71405029 486.88702393 2.4739108086 2.8021430969
 3890.6018066 4.0000000000 8.4830837250 8.5000000000 0.2126151025 2.3849637508 3.7952558994 49.938629150 290.01358032 492.10818481 2.3842480183 2.7172582150
 3890.7541504 4.0000000000 8.4842729568 8.5000000000 0.2224474996 2.3714270592 3.7166020870 53.349311829 293.24362183 497.03509521 2.2963035107 2.5633680820
 3890.9064941 4.0000000000 8.4833269119 8.5000000000 0.2412243038 2.3776040077 4.0809898376 47.513359070 294.49676514 498.84115601 2.2129645348 2.4728677273
 3891.0590820 4.0000000000 8.4835567474 8.5000000000 0.2473210990 2.3751039505 3.8968489170 49.427120209 296.81857300 501.98806763 2.1326081753 2.3515844345
 3891.2114258 4.0000000000 8.4832429886 8.5000000000 0.2262600958 2.3518199921 3.5440990925 46.892749786 293.90771484 504.05709839 2.0618860722 2.2755439281
 3891.3637695 4.0000000000 8.4840936661 8.5000000000 0.2228059024 2.3571469784 3.6652719975 50.157211304 292.16952515 502.74700928 2.0190267563 2.1920416355
 3891.5161133 4.0000000000 8.4858999252 8.5000000000 0.2210898995 2.3706231117 3.7980709076 46.758338928 291.26129150 502.61798096 2.0220079422 2.1657984257
 3891.6687012 4.0000000000 8.4833297729 8.5000000000 0.2237589955 2.3884499073 3.9907259941 47.522109985 290.76870728 494.49111938 2.0702424049 2.3037676811
 3891.8210449 4.0000000000 8.4865751266 8.5000000000 0.2174870074 2.3966550827 3.9898478985 49.467609406 289.19033813 491.79205322 2.1377913952 2.4620008469
 3891.9733887 4.0000000000 8.4846754074 8.5000000000 0.2175046057 2.3875660896 3.9566249847 51.576499939 293.76550293 491.76657104 2.1884000301 2.5385851860
 3892.1257324 4.0000000000 8.4819850922 8.5000000000 0.2231452018 2.3609099388 3.7011411190 51.662471771 297.12942505 499.29788208 2.1976618767 2.5585901737
 3892.2780762 4.0000000000 8.4832191467 8.5000000000 0.2246932983 2.3470020294 3.7444739342 49.153911591 298.63290405 502.39523315 2.1637742519 2.5628809929
 3892.4306641 4.0000000000 8.4842929840 8.5000000000 0.2324842960 2.3183579445 3.6125600338 49.951931000 302.25039673 504.34030151 2.1000874043 2.4161145687
 3892.5830078 4.0000000000 8.4855613708 8.5000000000 0.2420707047 2.3033010960 3.6062591076 50.063999176 304.40026855 501.31176758 2.0221993923 2.3317334652
 3892.7353516 4.0000000000 8.4811391830 8.5000000000 0.2491810024 2.2887539864 3.5166430473 49.923191071 305.74783325 500.23654175 1.9394804239 2.2409682274
 3892.8876953 4.0000000000 8.4832839966 8.5000000000 0.2501684129 2.2881839275 3.4379980564 49.333259583 305.27218628 503.64147949 1.8599460125 2.1507487297
 3893.0402832 4.0000000000 8.4807405472 8.5000000000 0.2534168065 2.2969679832 3.4989829063 46.242679596 304.73599243 511.53192139 1.7956525087 2.1195876598
 3893.1926270 4.0000000000 8.4815616608 8.5000000000 0.2538000047 2.3060441017 3.3869891167 42.973579407 300.39755249 512.35046387 1.7674996853 1.9962767363
 3893.3449707 4.0000000000 8.4853658676 8.5000000000 0.2516540885 2.3455369473 3.3396170139 44.449859619 297.37545776 514.06512451 1.7973613739 1.9079201221
 3893.4973145 4.0000000000 8.4859790802 8.5000000000 0.2309159040 2.3890109062 3.3589570522 48.276168823 293.73312378 510.11035156 1.8912340403 2.0565838814
 3893.6499023 4.0000000000 8.4823369980 8.5000000000 0.2184040993 2.4331789017 3.8620259762 54.517940521 290.45050049 488.07467651 2.0180182457 2.2328729630
 3893.8022461 4.0000000000 8.4854745865 8.5000000000 0.2141616046 2.4369170666 4.1317048073 55.627590179 292.85018921 481.43206787 2.1118888855 2.4774510860
 3893.9545898 4.0000000000 8.4834861755 8.5000000000 0.2145151943 2.4286649227 4.0836601257 54.961631775 296.02944946 480.96871948 2.1235418320 2.5215559006
 3894.1069336 4.0000000000 8.4845418930 8.5000000000 0.2194295973 2.4170570374 3.8784160614 55.154060364 298.68209839 491.60195923 2.0635676384 2.4010436535
 3894.2592773 4.0000000000 8.4844322205 8.5000000000 0.2233052999 2.4054379463 3.8896820545 53.181308746 302.29458618 502.23733521 1.9796135426 2.2555046082
 3894.4118652 4.0000000000 8.4819869995 8.5000000000 0.2404980958 2.3813259602 3.7703170776 50.059509277 302.96517944 503.72570801 1.9106161594 2.1428272724
 3894.5642090 4.0000000000 8.4841136932 8.5000000000 0.2449135035 2.3537499905 3.7228839397 47.222251892 302.85424805 510.30145264 1.8726330996 2.0855562687
 3894.7165527 4.0000000000 8.4843997955 8.5000000000 0.2621012926 2.3234360218 3.5844149590 47.269058228 301.32598877 512.64746094 1.8627847433 2.0964417458
 3894.8688965 4.0000000000 8.4808216095 8.5000000000 0.2444183975 2.3218100071 3.4812738895 51.593399048 301.49340820 513.24932861 1.8707790375 2.1704256535
 3895.0214844 4.0000000000 8.4829015732 8.5000000000 0.2277137041 2.3466620445 3.4785950184 53.482929230 297.57736206 513.40045166 1.8921470642 2.2163076401
 3895.1738281 4.0000000000 8.4832000732 8.5000000000 0.2201905996 2.3888359070 3.6872980595 54.425559998 295.16345215 512.11224365 1.9268184900 2.1964199543
 3895.3261719 4.0000000000 8.4845409393 8.5000000000 0.2269212008 2.3883140087 3.7014489174 52.300659180 295.80657959 511.45831299 1.9638918638 2.3027594090
 3895.4785156 4.0000000000 8.4855937958 8.5000000000 0.2216279954 2.3631010056 3.5253260136 48.294910431 294.10946655 512.08850098 1.9794020653 2.2425541878
 3895.6311035 4.0000000000 8.4836454391 8.5000000000 0.2202745974 2.3558220863 3.5963659286 46.149978638 294.83651733 511.89151001 1.9593300819 2.2268061638
 3895.7834473 4.0000000000 8.4830427170 8.5000000000 0.2258298993 2.3626279831 3.8988029957 48.876121521 297.39465332 511.99731445 1.9075287580 2.3352348804
 3895.9357910 4.0000000000 8.4835357666 8.5000000000 0.2423238009 2.3590300083 3.9265270233 50.056221008 299.48541260 515.74212646 1.8355940580 2.3431408405
 3896.0881348 4.0000000000 8.4843149185 8.5000000000 0.2468830943 2.3298799992 3.7459321022 51.860000610 299.79577637 518.45367432 1.7657968998 2.3128597736
 3896.2404785 4.0000000000 8.4819879532 8.5000000000 0.2484506071 2.3040781021 3.5516660213 48.579288483 287.98751831 515.93914795 1.7321430445 2.1759912968
 3896.3930664 4.0000000000 8.4841127396 8.5000000000 0.2210800052 2.3050630093 3.5265319347 49.963718414 277.99896240 509.62017822 1.7706253529 2.0827219486
