# LAS format log file from PETREL
# Project units are specified as depth units
#==================================================================
~Version information
VERS.   2.0:
WRAP.   NO:
#==================================================================
~Well
STRT .m      3352.4772949 :
STOP .m      4371.5761719 :
STEP .m     0.00000000 :
NULL .        -999.250000 :
COMP.           : COMPANY
WELL.  34/6-1   : WELL
FLD.            : FIELD
LOC.            : LOCATION
SRVC.           : SERVICE COMPANY
DATE.  2018-09-11 14:48:51   : Log Export Date {yyyy-MM-dd HH:mm:ss}
PROV.           : PROVINCE
UWI.   34/6-1 S   : UNIQUE WELL ID
API.            : API NUMBER
#==================================================================
~Curve
DEPT .m                   : DEPTH
Lithology_geolink ._      : Lithology_geolink
CALI .in                  : CALI
BS .in                    : BS
NPHI .m3/m3               : NPHI
RHOB .g/cm3               : RHOB
PEF .b/e                  : PEF
GR .gAPI                  : GR
DTC .us/ft                : DTC
DTS .us/ft                : DTS
RDEP .ohm.m               : RDEP
RMED .ohm.m               : RMED
~Parameter
#==================================================================
~Ascii
# ...
 4090.8554688 7.0000000000 8.6235532761 8.5000000000 0.2457145005 2.6300759315 5.7231230736 96.016723633 303.10977173 553.48107910 2.7855410576 2.8052601814
 4091.0078125 7.0000000000 8.6235208511 8.5000000000 0.2447300255 2.6230111122 5.2735481262 89.801429749 296.84619141 553.46783447 2.7449169159 2.7437033653
 4091.1604004 7.0000000000 8.6226043701 8.5000000000 0.2475524247 2.6087729931 5.1668620110 92.198997498 292.16906738 553.44494629 2.7595863342 2.9140634537
 4091.3127441 7.0000000000 8.6225004196 8.5000000000 0.2463766038 2.6095259190 4.9694991112 97.274063110 289.45788574 553.51837158 2.8283731937 2.9983406067
 4091.4650879 7.0000000000 8.6233949661 8.5000000000 0.2449506372 2.6099789143 4.8700327873 103.23760223 292.38812256 553.54870605 2.9090447426 2.9447300434
 4091.6174316 7.0000000000 8.6225156784 8.5000000000 0.2472302020 2.6097309589 4.9285979271 98.002853394 296.21340942 553.63116455 2.9769175053 3.0554001331
 4091.7697754 7.0000000000 8.6233854294 8.5000000000 0.2552111447 2.6123869419 5.0092320442 97.910018921 301.01696777 553.65753174 3.0225131512 3.2203016281
 4091.9223633 7.0000000000 8.6233205795 8.5000000000 0.2601896524 2.6197679043 5.0585851669 98.474113464 301.55624390 553.70880127 3.0355355740 3.2153797150
 4092.0747070 7.0000000000 8.6226730347 8.5000000000 0.2521836162 2.6256110668 5.1427731514 99.503303528 301.55499268 553.64648438 3.0158317089 3.1748406887
 4092.2270508 6.0000000000 8.6238527298 8.5000000000 0.2426023781 2.6228880882 4.7830939293 96.110603333 301.55505371 553.63299561 2.9858820438 3.0281379223
 4092.3793945 6.0000000000 8.6228351593 8.5000000000 0.2403537184 2.6339631081 5.0013189316 93.831298828 301.50927734 553.57281494 2.9744727612 2.9406819344
 4092.5319824 6.0000000000 8.6234169006 8.5000000000 0.2450522184 2.6241900921 5.0727448463 92.704277039 301.48971558 553.53747559 2.9894404411 3.1106181145
 4092.6843262 6.0000000000 8.6234998703 8.5000000000 0.2494372576 2.6174409389 4.9554381371 93.743347168 301.45797729 553.62634277 3.0138590336 3.1368713379
 4092.8366699 6.0000000000 8.6236791611 8.5000000000 0.2427386791 2.6094601154 4.9195280075 93.461593628 301.32894897 553.85974121 3.0298242569 3.1307370663
 4092.9890137 6.0000000000 8.6211032867 8.5000000000 0.2423294038 2.6192560196 4.8304100037 90.990600586 300.93344116 553.70751953 3.0371110439 3.1314280033
 4093.1416016 7.0000000000 8.6230392456 8.5000000000 0.2309043258 2.6238150597 5.3874459267 92.061119080 300.65020752 552.96392822 3.0468320847 3.1384618282
 4093.2939453 7.0000000000 8.6236581802 8.5000000000 0.2218344957 2.6220519543 5.4643158913 91.625991821 301.45788574 552.01965332 3.0641222000 3.1832904816
 4093.4462891 7.0000000000 8.6226263046 8.5000000000 0.2336400598 2.6150879860 5.2772998810 97.104598999 299.27777100 551.55078125 3.0887784958 3.2140383720
 4093.5986328 7.0000000000 8.6225004196 8.5000000000 0.2533691525 2.6111660004 4.9060220718 99.182060242 300.37301636 550.09100342 3.1242318153 3.1343388557
 4093.7509766 7.0000000000 8.6235752106 8.5000000000 0.2561156452 2.6115159988 4.9680261612 97.720779419 298.27050781 549.10626221 3.1703088284 3.2875607014
 4093.9035645 7.0000000000 8.6226272583 8.5000000000 0.2490407676 2.6180410385 5.4113922119 95.035346985 298.16055298 549.41021729 3.2116889954 3.3725020885
 4094.0559082 6.0000000000 8.6240215302 8.5000000000 0.2483720183 2.6127150059 5.9638428688 93.177322388 297.93185425 549.13812256 3.2313711643 3.3979189396
 4094.2082520 6.0000000000 8.6192760468 8.5000000000 0.2440073639 2.6054649353 5.7358880043 95.768356323 297.28317261 548.12127686 3.2370898724 3.3901293278
 4094.3605957 6.0000000000 8.6229982376 8.5000000000 0.2401834726 2.6131179333 5.4367628098 96.522537231 296.63436890 546.90100098 3.2590398788 3.3436892033
 4094.5131836 6.0000000000 8.6224250793 8.5000000000 0.2383616716 2.6162500381 5.1092429161 92.386413574 297.42544556 544.27581787 3.3210072517 3.3723204136
 4094.6655273 6.0000000000 8.6233739853 8.5000000000 0.2368603200 2.6187369823 4.7785959244 91.245422363 297.53317261 539.34906006 3.4152510166 3.5624060631
 4094.8178711 6.0000000000 8.6210832596 8.5000000000 0.2385037839 2.6264290810 4.7239289284 88.935997009 297.58065796 537.25219727 3.5079188347 3.6860573292
 4094.9702148 6.0000000000 8.6233968735 8.5000000000 0.2470134646 2.6286430359 4.7618951797 86.908302307 297.86425781 536.78649902 3.5714488029 3.7707705498
 4095.1228027 6.0000000000 8.6235208511 8.5000000000 0.2381529361 2.6276350021 4.8756208420 86.385787964 297.95315552 528.56921387 3.6110863686 3.7837190628
 4095.2751465 6.0000000000 8.6216211319 8.5000000000 0.2402958721 2.6249947548 5.0315489769 88.845176697 296.31622314 524.75701904 3.6537344456 3.7995352745
 4095.4274902 6.0000000000 8.6234588623 8.5000000000 0.2311247736 2.6183459759 4.8803281784 91.617553711 295.32330322 522.47790527 3.7232139111 3.8992166519
 4095.5798340 6.0000000000 8.6236095428 8.5000000000 0.2315938175 2.6166150570 4.9592638016 90.104606628 294.00244141 517.78656006 3.8312251568 3.9330778122
 4095.7321777 6.0000000000 8.6224355698 8.5000000000 0.2205084562 2.6268010139 5.2232060432 87.117240906 290.60394287 516.50927734 3.9726259708 4.0458116531
 4095.8847656 6.0000000000 8.6238203049 8.5000000000 0.2168851644 2.6322050095 5.3168339729 85.961982727 289.20068359 513.88513184 4.1101918221 4.3027925491
 4096.0371094 6.0000000000 8.6224775314 8.5000000000 0.2203981578 2.6401269436 5.5021119118 84.091438293 288.13043213 511.67501831 4.1839365959 4.6076416969
 4096.1894531 6.0000000000 8.6223001480 8.5000000000 0.2328015119 2.6352710724 5.1361861229 79.998229980 286.11425781 511.03259277 4.1659479141 4.3604512215
 4096.3417969 6.0000000000 8.6224794388 8.5000000000 0.2346477956 2.6319129467 5.1370220184 80.408523560 285.03628540 512.21136475 4.0953798294 4.2337675095
 4096.4941406 6.0000000000 8.6233959198 8.5000000000 0.2356854975 2.6290020943 4.8517589569 83.117279053 283.73199463 512.71557617 4.0311627388 4.0995182991
 4096.6464844 6.0000000000 8.6219768524 8.5000000000 0.2348141074 2.6321060658 4.6520051956 86.059631348 284.47109985 514.77679443 3.9911730289 4.1808786392
 4096.7993164 6.0000000000 8.6237726212 8.5000000000 0.2377443761 2.6417360306 4.6188120842 87.583396912 285.03158569 515.99114990 3.9554147720 4.1973114014
 4096.9516602 6.0000000000 8.6235523224 8.5000000000 0.2363950014 2.6415479183 4.7692990303 89.248283386 284.89923096 516.31341553 3.9119105339 4.0495800972
 4097.1040039 6.0000000000 8.6209068298 8.5000000000 0.2345015109 2.6401479244 4.9394040108 89.705902100 286.12637329 516.28308105 3.8765189648 4.0115466118
 4097.2563477 6.0000000000 8.6233730316 8.5000000000 0.2346476018 2.6400001049 5.1398038864 87.797653198 288.48211670 516.55053711 3.8656265736 3.9989311695
 4097.4086914 6.0000000000 8.6195831299 8.5000000000 0.2314601094 2.6377630234 5.3243589401 87.708236694 288.75585938 516.72454834 3.8714351654 4.0021295547
 4097.5610352 6.0000000000 8.6208009720 8.5000000000 0.2258176953 2.6324861050 5.3234448433 89.944793701 286.34191895 517.10595703 3.8736171722 4.1167511940
 4097.7133789 6.0000000000 8.6230592728 8.5000000000 0.2114064991 2.6542921066 5.4912800789 93.258491516 284.63009644 515.86779785 3.8703031540 4.0226764679
 4097.8657227 6.0000000000 8.6239271164 8.5000000000 0.2127570063 2.6515240669 5.6876220703 92.119766235 282.62911987 515.58959961 3.8854727745 3.9728302956
 4098.0180664 6.0000000000 8.6224765778 8.5000000000 0.2070939988 2.6454319954 5.6699128151 93.891456604 281.14874268 515.72863770 3.9366071224 4.0890727043
 4098.1704102 6.0000000000 8.6223001480 8.5000000000 0.2204346061 2.6311688423 5.5516362190 94.565467834 284.54928589 516.34423828 4.0043354034 4.2310867310
 4098.3227539 6.0000000000 8.6235513687 8.5000000000 0.2296985984 2.6390395164 5.0113782883 95.139732361 283.90209961 515.35821533 4.0504193306 4.2189545631
 4098.4750977 6.0000000000 8.6224479675 8.5000000000 0.2443726063 2.6461691856 4.8535976410 89.400070190 284.99890137 515.58020020 4.0592041016 4.1280598640
