# LAS format log file from PETREL
# Project units are specified as depth units
#==================================================================
~Version information
VERS.   2.0:
WRAP.   NO:
#==================================================================
~Well
STRT .m      3352.4772949 :
STOP .m      4371.5761719 :
STEP .m     0.00000000 :
NULL .        -999.250000 :
COMP.           : COMPANY
WELL.  34/6-1   : WELL
FLD.            : FIELD
LOC.            : LOCATION
SRVC.           : SERVICE COMPANY
DATE.  2018-09-11 14:48:51   : Log Export Date {yyyy-MM-dd HH:mm:ss}
PROV.           : PROVINCE
UWI.   34/6-1 S   : UNIQUE WELL ID
API.            : API NUMBER
#==================================================================
~Curve
DEPT .m                   : DEPTH
Lithology_geolink ._      : Lithology_geolink
CALI .in                  : CALI
BS .in                    : BS
NPHI .m3/m3               : NPHI
RHOB .g/cm3               : RHOB
PEF .b/e                  : PEF
GR .gAPI                  : GR
DTC .us/ft                : DTC
DTS .us/ft                : DTS
RDEP .ohm.m               : RDEP
RMED .ohm.m               : RMED
~Parameter
#==================================================================
~Ascii
# ...
 3616.7390137 6.0000000000 9.0536937714 8.5000000000 0.3864262104 2.4677340984 10.235039711 88.900199890 329.40438843 627.17572021 4.6719946861 5.4277091026
 3616.8913574 6.0000000000 9.0515642166 8.5000000000 0.3818876147 2.4711139202 8.5036821365 93.498466492 327.60446167 626.57287598 4.4978528023 5.4049849510
 3617.0439453 6.0000000000 9.0746116638 8.5000000000 0.3694103062 2.4654159546 7.3990211487 92.431610107 326.90020752 620.72216797 4.4234881401 5.1552467346
 3617.1962891 6.0000000000 9.1150999069 8.5000000000 0.3498649001 2.4673800468 6.2897081375 93.903373718 326.11901855 613.97656250 4.4317269325 4.8282189369
 3617.3486328 6.0000000000 9.1184387207 8.5000000000 0.3401032984 2.4852170944 6.3491020203 91.307136536 324.82034302 605.30065918 4.4865903854 5.1055445671
 3617.5009766 5.0000000000 9.1194629669 8.5000000000 0.3432233930 2.5014269352 6.3662872314 90.858306885 323.80032349 603.24182129 4.5248098373 5.1627125740
 3617.6533203 5.0000000000 9.1173667908 8.5000000000 0.3416459858 2.5072970390 6.3307042122 85.326538086 322.26702881 603.23858643 4.4776272774 5.1614613533
 3617.8059082 5.0000000000 9.1208524704 8.5000000000 0.3464021087 2.5119979382 6.1471390724 84.852012634 323.13586426 608.41723633 4.3633942604 4.9671301842
 3617.9582520 5.0000000000 9.1491804123 8.5000000000 0.3413703144 2.5141980648 6.1507210732 85.251037598 324.12432861 616.01263428 4.2259435654 4.6882147789
 3618.1105957 5.0000000000 9.1814651489 8.5000000000 0.3349786103 2.5160982609 6.1788210869 86.910049438 323.50875854 613.48992920 4.0823240280 4.6070051193
 3618.2629395 5.0000000000 9.1836481094 8.5000000000 0.3352837861 2.5171048641 6.5183401108 84.113250732 323.62783813 611.50677490 3.9668793678 4.4690513611
 3618.4155273 5.0000000000 9.1851968765 8.5000000000 0.3613049984 2.5109469891 5.9471879005 83.383598328 322.76147461 610.55743408 3.9420161247 4.5346984863
 3618.5678711 5.0000000000 9.1825408936 8.5000000000 0.3883450925 2.5116300583 5.7954850197 84.862586975 320.58184814 608.49316406 4.0630946159 4.5479154587
 3618.7202148 5.0000000000 9.1837196350 8.5000000000 0.4061272144 2.5118000507 5.4629759789 89.921913147 322.29235840 608.74169922 4.3670735359 4.8828525543
 3618.8725586 5.0000000000 9.1836318970 8.5000000000 0.3924300969 2.5244979858 5.6963510513 88.956268311 321.96878052 610.60705566 4.7326025963 5.3962597847
 3619.0251465 5.0000000000 9.1834211349 8.5000000000 0.3950658143 2.5183188915 5.8337130547 85.853790283 328.39486694 616.65759277 5.1773014069 5.9943041801
 3619.1774902 5.0000000000 9.1842927933 8.5000000000 0.3929199874 2.5032849312 5.9960250854 82.222343445 331.86846924 620.91198730 4.9915504456 5.6656384468
 3619.3298340 5.0000000000 9.1836853027 8.5000000000 0.3953705132 2.4687108994 6.0882568359 81.106941223 336.72137451 628.90466309 4.8187217712 5.6146488190
 3619.4821777 5.0000000000 9.1836004257 8.5000000000 0.3788017929 2.4445939064 6.1053261757 84.220031738 342.37561035 630.41943359 4.8126387596 5.4245586395
 3619.6345215 6.0000000000 9.1744012833 8.5000000000 0.3830511868 2.4358599186 6.2966928482 86.330131531 345.54510498 630.38928223 4.8348159790 5.1282753944
 3619.7871094 6.0000000000 9.0852289200 8.5000000000 0.3882660866 2.4342958927 6.4542870522 91.221473694 344.50225830 628.99548340 4.8584551811 5.0007681847
 3619.9394531 6.0000000000 8.9613027573 8.5000000000 0.3644942939 2.4362549782 6.6404500008 94.262550354 344.05004883 627.07739258 4.8643846512 5.1296014786
 3620.0917969 6.0000000000 8.9435987473 8.5000000000 0.3661592007 2.4272029400 6.7604660988 93.348297119 342.16921997 615.38854980 4.8660631180 5.1606006622
 3620.2441406 6.0000000000 8.9440832138 8.5000000000 0.3426424861 2.4173359871 7.1202840805 90.784286499 336.85214233 607.07348633 4.8820343018 5.2156238556
 3620.3967285 6.0000000000 8.9435739517 8.5000000000 0.3305993080 2.4064741135 6.7691659927 89.250762939 332.33657837 603.13275146 4.9541997910 5.4010753632
 3620.5490723 6.0000000000 8.9437675476 8.5000000000 0.3580909073 2.4141449928 6.1963157654 90.915336609 332.45211792 600.81964111 5.0176849365 5.5623655319
 3620.7014160 6.0000000000 8.9433536530 8.5000000000 0.3570308089 2.4158260822 5.5667300224 96.877090454 335.07153320 606.34539795 4.8942990303 5.0911374092
 3620.8537598 6.0000000000 8.9424057007 8.5000000000 0.3666045070 2.4263620377 5.7188382149 94.945922852 337.39862061 609.63891602 4.8538074493 4.9755039215
 3621.0063477 6.0000000000 8.9433717728 8.5000000000 0.3480615020 2.4253671169 5.9087810516 96.738273621 339.46981812 612.27313232 4.8672518730 4.9683403969
 3621.1586914 6.0000000000 8.9421606064 8.5000000000 0.3633882105 2.4289410114 6.1285982132 92.534973145 339.94073486 614.67822266 4.9052953720 5.0874123573
 3621.3110352 6.0000000000 8.9420003891 8.5000000000 0.3688960969 2.4145638943 5.6914348602 94.049339294 340.01739502 615.98858643 4.9335722923 5.0594048500
 3621.4633789 6.0000000000 8.9422683716 8.5000000000 0.3797607124 2.4141409397 5.6831817627 87.954223633 339.45397949 612.59191895 4.9723844528 5.0399012566
 3621.6157227 6.0000000000 8.9456939697 8.5000000000 0.3914482892 2.4157290459 5.7353157997 87.239463806 338.68408203 608.58837891 4.8495926857 4.9847102165
 3621.7683105 6.0000000000 8.9424381256 8.5000000000 0.4064554870 2.4178650379 5.6748018265 88.794776917 335.23529053 612.22436523 4.6191663742 4.5959739685
 3621.9206543 6.0000000000 8.9305620193 8.5000000000 0.3994322121 2.4339170456 5.7683219910 96.700057983 333.43731689 616.15460205 4.1368784904 4.7727007866
 3622.0729980 6.0000000000 8.9145393372 8.5000000000 0.3839179873 2.4433090687 5.5289311409 100.68000031 330.69525146 623.50781250 3.3683712482 4.6734685898
 3622.2253418 6.0000000000 8.9114580154 8.5000000000 0.3613623083 2.4475979805 5.4129772186 103.95079803 327.60742188 626.53540039 2.5727040768 4.5893731117
 3622.3779297 6.0000000000 8.9123725891 8.5000000000 0.3584533930 2.4557709694 5.2670249939 100.50599670 324.25302124 631.70489502 2.0206036568 4.1039810181
 3622.5302734 6.0000000000 8.9133930206 8.5000000000 0.3642967939 2.4708170891 5.2877888680 95.485046387 321.16989136 634.32788086 1.7678365707 3.3058626652
 3622.6826172 6.0000000000 8.9125165939 8.5000000000 0.3504306078 2.4921638966 5.6529488564 94.524772644 319.47357178 631.89233398 1.7553892136 3.0596418381
 3622.8349609 6.0000000000 8.9156198502 8.5000000000 0.3438714147 2.5299990177 7.0671420097 98.148139954 319.50918579 634.29699707 1.9090923071 3.1179370880
 3622.9875488 7.0000000000 8.9107303619 8.5000000000 0.3399954140 2.5535809994 7.7254481316 109.74729919 317.63616943 632.16644287 2.1430213451 2.9854221344
 3623.1398926 7.0000000000 8.9081344604 8.5000000000 0.3356693089 2.5626890659 7.4740099907 113.29850006 318.47067261 628.14294434 2.3811824322 2.8317310810
 3623.2922363 7.0000000000 8.9054870605 8.5000000000 0.3158960044 2.5531330109 6.2930498123 119.06289673 320.31906128 626.17816162 2.5811135769 2.8999006748
 3623.4445801 7.0000000000 8.8788251877 8.5000000000 0.3124377131 2.5383989811 6.2650041580 118.00859833 324.10540771 624.57739258 2.7231366634 3.0255196095
 3623.5969238 7.0000000000 8.8718595505 8.5000000000 0.3233732879 2.5325140953 6.3121809959 111.40170288 320.63143921 620.24725342 2.8165225983 2.9685699940
 3623.7495117 7.0000000000 8.8737220764 8.5000000000 0.3350611925 2.5558490753 6.6988611221 105.71209717 319.76507568 614.41522217 2.8882260323 2.8876056671
 3623.9018555 6.0000000000 8.8743572235 8.5000000000 0.3268280923 2.5688869953 6.6320991516 101.69889832 317.83264160 612.64752197 2.9524281025 2.9381563663
 3624.0541992 6.0000000000 8.8755617142 8.5000000000 0.3335668147 2.5689380169 7.0575380325 100.91310120 317.75167847 612.43762207 2.9941694736 3.1134285927
 3624.2065430 6.0000000000 8.8730163574 8.5000000000 0.3226949871 2.5661170483 6.4745459557 101.65650177 320.85134888 615.24639893 2.9912126064 3.0851180553
 3624.3591309 6.0000000000 8.8710031509 8.5000000000 0.3248730004 2.5675868988 6.4173650742 99.335311890 322.36911011 617.79315186 2.9497978687 3.0539045334
