# LAS format log file from PETREL
# Project units are specified as depth units
#==================================================================
~Version information
VERS.   2.0:
WRAP.   NO:
#==================================================================
~Well
STRT .m      3352.4772949 :
STOP .m      4371.5761719 :
STEP .m     0.00000000 :
NULL .        -999.250000 :
COMP.           : COMPANY
WELL.  34/6-1   : WELL
FLD.            : FIELD
LOC.            : LOCATION
SRVC.           : SERVICE COMPANY
DATE.  2018-09-11 14:48:51   : Log Export Date {yyyy-MM-dd HH:mm:ss}
PROV.           : PROVINCE
UWI.   34/6-1 S   : UNIQUE WELL ID
API.            : API NUMBER
#==================================================================
~Curve
DEPT .m                   : DEPTH
Lithology_geolink ._      : Lithology_geolink
CALI .in                  : CALI
BS .in                    : BS
NPHI .m3/m3               : NPHI
RHOB .g/cm3               : RHOB
PEF .b/e                  : PEF
GR .gAPI                  : GR
DTC .us/ft                : DTC
DTS .us/ft                : DTS
RDEP .ohm.m               : RDEP
RMED .ohm.m               : RMED
~Parameter
#==================================================================
~Ascii
# ...
 3484.6079102 5.0000000000 8.9465074539 8.5000000000 0.2333420366 2.4973351955 5.1590523720 62.797069550 249.91639709 440.14639282 5.5937957764 7.4687309265
 3484.7602539 5.0000000000 8.9474525452 8.5000000000 0.1808239073 2.5342872143 5.2783117294 60.597785950 244.62190247 418.51928711 6.1045770645 9.4545173645
 3484.9128418 5.0000000000 8.9464168549 8.5000000000 0.1693153083 2.5472772121 5.4099774361 54.978000641 233.56910706 404.37713623 6.2263908386 11.340419769
 3485.0651855 16.000000000 8.9477300644 8.5000000000 0.1827102751 2.5554368496 5.6455283165 46.659000397 228.45170593 392.08969116 6.0107951164 13.049249649
 3485.2175293 16.000000000 8.9474525452 8.5000000000 0.2296562791 2.5238945484 5.8537402153 40.931892395 225.48719788 385.23348999 5.9332180023 15.462909698
 3485.3698730 16.000000000 8.9463291168 8.5000000000 0.2183471471 2.5222382545 6.1344885826 40.956523895 228.74929810 413.48300171 5.7013549805 11.188409805
 3485.5224609 5.0000000000 8.9475393295 8.5000000000 0.2204947919 2.5228559971 6.0799431801 49.173152924 235.96339417 416.94488525 5.7134032249 7.5415067673
 3485.6748047 5.0000000000 8.9461812973 8.5000000000 0.2260846347 2.5169224739 6.1959395409 61.646118164 249.54211426 436.65789795 5.2356429100 5.8049778938
 3485.8271484 5.0000000000 8.9461793900 8.5000000000 0.2234857827 2.5097744465 6.2018041611 72.979713440 263.36550903 453.07669067 5.1961407661 5.2296819687
 3485.9794922 5.0000000000 8.9460210800 8.5000000000 0.2271955758 2.5106937885 6.5485429764 79.333023071 280.81161499 470.26501465 4.7907409668 4.8641967773
 3486.1320801 5.0000000000 8.9460000992 8.5000000000 0.2433038652 2.5117022991 6.3846487999 79.067741394 288.26058960 498.93939209 4.6258840561 4.5765738487
 3486.2844238 5.0000000000 8.9472513199 8.5000000000 0.2301211059 2.5115323067 6.4808712006 79.713485718 289.95620728 510.65051270 4.5598931313 4.4446530342
 3486.4367676 5.0000000000 8.9463281631 8.5000000000 0.2284813970 2.5022189617 6.2369389534 77.784255981 290.08319092 509.13046265 4.5747299194 4.5696301460
 3486.5891113 5.0000000000 8.9460220337 8.5000000000 0.2272520661 2.5036866665 6.0430846214 76.577087402 289.31390381 497.19281006 4.5974340439 4.9696168900
 3486.7414551 5.0000000000 8.9460000992 8.5000000000 0.2431230396 2.5180628300 5.8766560555 76.727241516 287.95550537 488.87368774 4.5659050941 5.5102219582
 3486.8940430 5.0000000000 8.9472503662 8.5000000000 0.2411724180 2.5262188911 5.9951729774 72.952621460 286.36880493 493.82189941 4.1520581245 4.9435868263
 3487.0463867 5.0000000000 8.9474000931 8.5000000000 0.2556914985 2.5249462128 6.4488153458 72.220420837 286.05590820 503.61068726 3.7888920307 4.5354027748
 3487.1987305 5.0000000000 8.9449863434 8.5000000000 0.2550868988 2.5180950165 6.5649852753 69.229965210 284.52450562 510.76098633 3.5813579559 3.8218069077
 3487.3510742 5.0000000000 8.9394311905 8.5000000000 0.2670854628 2.5098245144 6.8403553963 71.862274170 283.95220947 515.37878418 3.5409879684 4.0575499535
 3487.5036621 5.0000000000 8.9122705460 8.5000000000 0.2730566561 2.5063154697 8.5463876724 72.831535339 280.33340454 515.17407227 3.6123180389 3.8413519859
 3487.6560059 5.0000000000 8.8919429779 8.5000000000 0.2741344571 2.5113539696 9.0241394043 71.366424561 279.12521362 513.97302246 3.7337191105 3.5669269562
 3487.8083496 5.0000000000 8.8767585754 8.5000000000 0.2663455307 2.5061974525 8.3063879013 70.878944397 277.38729858 514.23730469 3.8735868931 3.8903059959
 3487.9606934 5.0000000000 8.8726110458 8.5000000000 0.2653139830 2.5160942078 6.6367793083 71.926513672 276.82598877 511.80081177 4.0038599968 4.3099679947
 3488.1132813 5.0000000000 8.8723001480 8.5000000000 0.2541539073 2.5197162628 6.1137423515 73.840255737 276.65469360 510.00009155 4.0913858414 4.5609998703
 3488.2656250 5.0000000000 8.8714065552 8.5000000000 0.2494122833 2.5299015045 5.9069375992 77.409324646 276.22171021 506.56280518 4.1493868828 4.5487179756
 3488.4179688 5.0000000000 8.8721942902 8.5000000000 0.2327585220 2.5325257778 6.1875677109 76.006065369 275.51708984 504.08151245 4.2193298340 4.5916800499
 3488.5703125 5.0000000000 8.8739957809 8.5000000000 0.2427474260 2.5325210094 6.0624055862 79.639190674 275.49108887 496.93380737 4.3461408615 4.7243189812
 3488.7226563 5.0000000000 8.8711633682 8.5000000000 0.2470438629 2.5287611485 5.8485455513 76.689659119 274.35150146 493.03671265 4.5549898148 4.9928350449
 3488.8752441 5.0000000000 8.8730335236 8.5000000000 0.2559619844 2.5349011421 5.7141165733 77.594032288 273.38708496 498.61358643 4.8911828995 5.5320210457
 3489.0275879 5.0000000000 8.8727636337 8.5000000000 0.2503953576 2.5329320431 5.3779773712 72.507011414 278.65838623 501.21798706 5.1005568504 5.6412048340
 3489.1799316 5.0000000000 8.8738622665 8.5000000000 0.2555821538 2.5326004028 5.2268538475 74.148185730 280.11300659 505.59310913 5.1787390709 5.7450890541
 3489.3322754 5.0000000000 8.8737325668 8.5000000000 0.2670689523 2.5244102478 4.9297313690 79.341270447 282.59991455 506.20941162 5.0052161217 5.5567121506
 3489.4848633 6.0000000000 8.8739671707 8.5000000000 0.2831127048 2.5143940449 4.9166936874 82.274978638 283.47491455 505.51080322 4.6811752319 5.2853531837
 3489.6372070 6.0000000000 8.8711395264 8.5000000000 0.2954247594 2.5062530041 5.2095198631 81.835716248 284.14828491 506.40710449 4.5447092056 5.5604667664
 3489.7895508 6.0000000000 8.8724994659 8.5000000000 0.2966979742 2.5048661232 5.3910999298 84.133377075 285.38659668 507.63378906 4.5409579277 5.4673118591
 3489.9418945 6.0000000000 8.8710031509 8.5000000000 0.2991921008 2.5024855137 5.5439443588 85.140167236 285.45761108 508.83789063 4.6165628433 5.1747188568
 3490.0944824 6.0000000000 8.8709793091 8.5000000000 0.2986969948 2.5003273487 5.9631776810 85.863937378 284.63958740 507.24240112 4.8261637688 5.3992209435
 3490.2468262 5.0000000000 8.8723402023 8.5000000000 0.2954779565 2.4990301132 5.7136325836 77.097579956 284.47961426 507.14511108 5.3167247772 6.0720329285
 3490.3991699 5.0000000000 8.8725004196 8.5000000000 0.2915309072 2.5126430988 5.5667290688 78.686180115 284.07150269 509.27896118 5.0182089806 4.9821991920
 3490.5515137 5.0000000000 8.8723220825 8.5000000000 0.2950226963 2.5188429356 5.4100804329 77.345657349 283.46539307 508.33309937 6.3333368301 6.2048149109
 3490.7038574 5.0000000000 8.8723001480 8.5000000000 0.2974566817 2.5265195370 6.0550875664 78.369003296 283.10681152 508.38558960 7.6363148689 7.3086161613
 3490.8564453 5.0000000000 8.8720321655 8.5000000000 0.2947562635 2.5224924088 6.8700103760 75.355171204 283.12109375 509.32910156 6.2573032379 6.2388172150
 3491.0087891 5.0000000000 8.8744125366 8.5000000000 0.2973451316 2.5161900520 6.6826958656 74.914253235 282.60589600 510.01431274 5.8619132042 5.9175767899
 3491.1611328 5.0000000000 8.8738059998 8.5000000000 0.2978779674 2.5272841454 6.2480340004 75.994224548 284.45919800 509.86770630 5.6460361481 5.9779930115
 3491.3134766 5.0000000000 8.8744144440 8.5000000000 0.2978999317 2.5491702557 5.5654263496 77.567733765 282.65850830 509.05139160 5.9981632233 6.1827478409
 3491.4660645 5.0000000000 8.8728923798 8.5000000000 0.2918357551 2.5739912987 5.4498453140 76.295684814 281.95559692 508.05639648 5.8956699371 6.0825319290
 3491.6184082 5.0000000000 8.8749341965 8.5000000000 0.2967218459 2.5798187256 5.5306768417 76.723915100 283.18969727 508.64828491 6.0613451004 6.2362160683
 3491.7707520 5.0000000000 8.8743953705 8.5000000000 0.2889198363 2.5770754814 5.5706162453 75.588706970 283.73001099 508.53808594 5.9837927818 6.2785181999
 3491.9230957 5.0000000000 8.8737640381 8.5000000000 0.2851440609 2.5780358315 5.6459264755 80.863891602 282.43920898 509.62161255 5.6547570229 5.9847078323
 3492.0756836 5.0000000000 8.8750400543 8.5000000000 0.2893480361 2.5711560249 6.0209069252 83.005363464 282.27539063 510.68869019 5.6846780777 6.1115350723
 3492.2280273 6.0000000000 8.8753786087 8.5000000000 0.3007820845 2.5552256107 5.7124381065 83.519096375 280.62231445 509.32839966 5.6398429871 6.2100839615
