# LAS format log file from PETREL
# Project units are specified as depth units
#==================================================================
~Version information
VERS.   2.0:
WRAP.   NO:
#==================================================================
~Well
STRT .m      3352.4772949 :
STOP .m      4371.5761719 :
STEP .m     0.00000000 :
NULL .        -999.250000 :
COMP.           : COMPANY
WELL.  34/6-1   : WELL
FLD.            : FIELD
LOC.            : LOCATION
SRVC.           : SERVICE COMPANY
DATE.  2018-09-11 14:48:51   : Log Export Date {yyyy-MM-dd HH:mm:ss}
PROV.           : PROVINCE
UWI.   34/6-1 S   : UNIQUE WELL ID
API.            : API NUMBER
#==================================================================
~Curve
DEPT .m                   : DEPTH
Lithology_geolink ._      : Lithology_geolink
CALI .in                  : CALI
BS .in                    : BS
NPHI .m3/m3               : NPHI
RHOB .g/cm3               : RHOB
PEF .b/e                  : PEF
GR .gAPI                  : GR
DTC .us/ft                : DTC
DTS .us/ft                : DTS
RDEP .ohm.m               : RDEP
RMED .ohm.m               : RMED
~Parameter
#==================================================================
~Ascii
# ...
 4020.9038086 4.0000000000 8.5509538651 8.5000000000 0.1876032054 2.5432379246 6.5557928085 58.133598328 265.80880737 467.89749146 4.5454339981 4.7881288528
 4021.0561523 4.0000000000 8.5500059128 8.5000000000 0.1923867017 2.5439200401 6.4883460999 59.065799713 267.05651855 466.88583374 4.5553750992 4.8513264656
 4021.2084961 4.0000000000 8.5515098572 8.5000000000 0.1937157065 2.5440099239 6.2239069939 59.511390686 267.76528931 464.65591431 4.5167698860 4.9477744102
 4021.3608398 4.0000000000 8.5497312546 8.5000000000 0.1930840015 2.5428369045 6.1403269768 59.408279419 268.94769287 466.59176636 4.4349479675 4.7131762505
 4021.5134277 4.0000000000 8.5507516861 8.5000000000 0.1863849014 2.5489580631 6.2272472382 59.391998291 271.24468994 469.56646729 4.3451056480 4.4593534470
 4021.6657715 4.0000000000 8.5515260696 8.5000000000 0.1887294948 2.5545279980 6.0660910606 58.111518860 271.92575073 471.63726807 4.2823801041 4.3570041656
 4021.8181152 4.0000000000 8.5523157120 8.5000000000 0.1836435944 2.5603780746 5.7540040016 63.691928864 271.45806885 472.84945679 4.2555646896 4.3548254967
 4021.9704590 4.0000000000 8.5539216995 8.5000000000 0.1847002953 2.5677120686 5.5230879784 62.678489685 270.86169434 473.39276123 4.2515859604 4.3909282684
 4022.1230469 4.0000000000 8.5514183044 8.5000000000 0.1785539985 2.5745780468 5.4141049385 58.324081421 270.54016113 475.09475708 4.2545909882 4.4145779610
 4022.2753906 4.0000000000 8.5506534576 8.5000000000 0.1807502061 2.5764620304 5.5183320045 51.457408905 270.87240601 474.02261353 4.2551679611 4.4024028778
 4022.4277344 4.0000000000 8.5522098541 8.5000000000 0.1744816005 2.5766890049 5.7613949776 54.662788391 271.00067139 473.68017578 4.2494163513 4.4109539986
 4022.5800781 4.0000000000 8.5510578156 8.5000000000 0.1787105948 2.5706160069 5.9283480644 61.648338318 272.41448975 473.47000122 4.2359852791 4.4084415436
 4022.7326660 4.0000000000 8.5525979996 8.5000000000 0.1809979975 2.5743680000 5.9469451904 62.264160156 273.98202515 473.70977783 4.2161335945 4.3800191879
 4022.8850098 4.0000000000 8.5512800217 8.5000000000 0.1877253056 2.5640840530 5.6760869026 58.179241180 274.14108276 474.29840088 4.1926765442 4.3164858818
 4023.0373535 4.0000000000 8.5537824631 8.5000000000 0.1880528927 2.5709378719 5.6557040215 56.243339539 274.55166626 473.05215454 4.1675281525 4.2622032166
 4023.1896973 4.0000000000 8.5512380600 8.5000000000 0.1888051033 2.5640280247 5.7488880157 58.012279510 272.14834595 473.02966309 4.1406178474 4.2319078445
 4023.3420410 4.0000000000 8.5525083542 8.5000000000 0.1927423030 2.5647079945 5.9772801399 58.522369385 271.66928101 473.36837769 4.1116466522 4.1757750511
 4023.4946289 4.0000000000 8.5512695313 8.5000000000 0.1881055981 2.5646319389 5.9156122208 55.575508118 271.65240479 473.59185791 4.0838775635 4.1501736641
 4023.6469727 4.0000000000 8.5515470505 8.5000000000 0.1817775965 2.5527980328 5.8724751472 53.885650635 271.81344604 473.95202637 4.0647482872 4.1344690323
 4023.7993164 4.0000000000 8.5524940491 8.5000000000 0.1782376021 2.5582869053 5.5776219368 51.284290314 271.34188843 473.47537231 4.0595231056 4.1670341492
 4023.9516602 4.0000000000 8.5515260696 8.5000000000 0.1760208011 2.5549840927 5.5408840179 57.713901520 270.71118164 476.60070801 4.0683584213 4.1959700584
 4024.1042480 4.0000000000 8.5509538651 8.5000000000 0.1825035065 2.5664770603 5.5582971573 64.096839905 268.20077515 476.40942383 4.0909891129 4.2046661377
 4024.2565918 5.0000000000 8.5515260696 8.5000000000 0.1903626025 2.5662009716 5.7384839058 69.751869202 267.60690308 476.47772217 4.1375284195 4.2279448509
 4024.4089355 5.0000000000 8.5514211655 8.5000000000 0.1996069998 2.5711870193 5.8388400078 69.339317322 268.97116089 477.05157471 4.1462478638 4.1002120972
 4024.5612793 5.0000000000 8.5525636673 8.5000000000 0.1909368932 2.5687580109 5.9430408478 73.143302917 268.45770264 477.08499146 4.1127200127 4.0594916344
 4024.7138672 5.0000000000 8.5515384674 8.5000000000 0.1936427951 2.5680429935 6.0757389069 77.383956909 269.96255493 474.40554810 4.3346328735 4.2239065170
 4024.8662109 5.0000000000 8.5538139343 8.5000000000 0.1901669949 2.5606698990 6.3255558014 79.442207336 270.29620361 475.69766235 4.5159935951 4.2670063972
 4025.0185547 5.0000000000 8.5529384613 8.5000000000 0.1925615966 2.5533609390 6.2461919785 77.930389404 269.85415649 475.93124390 4.4409337044 4.2492303848
 4025.1708984 6.0000000000 8.5502052307 8.5000000000 0.1920053959 2.5543889999 5.9988451004 81.966133118 269.26525879 477.12493896 4.4203591347 4.2469668388
 4025.3232422 6.0000000000 8.5499000549 8.5000000000 0.1889512986 2.5503110886 5.6893758774 84.464157104 268.37582397 477.22705078 4.5135173798 4.3645825386
 4025.4758301 6.0000000000 8.5526714325 8.5000000000 0.1807350963 2.5468509197 5.6191558838 84.979270935 269.26586914 477.06750488 4.5655303001 4.4341812134
 4025.6281738 5.0000000000 8.5524635315 8.5000000000 0.1814094037 2.5465900898 5.4539489746 84.824516296 267.91464233 472.64468384 4.5926647186 4.4745330811
 4025.7805176 5.0000000000 8.5501642227 8.5000000000 0.1858935058 2.5737030506 5.2333731651 78.867408752 266.37396240 470.51257324 4.7634525299 4.5014510155
 4025.9328613 5.0000000000 8.5523157120 8.5000000000 0.1852367073 2.6072349548 4.7160902023 78.115310669 265.60406494 471.68316650 4.8411378860 4.6453204155
 4026.0854492 5.0000000000 8.5677947998 8.5000000000 0.1906414926 2.6394910812 4.6475529671 73.826522827 265.77886963 473.02050781 5.0118522644 4.7312078476
 4026.2377930 5.0000000000 8.6089353561 8.5000000000 0.1916576028 2.6450459957 4.5175662041 74.981040955 265.27148438 469.90719604 5.1161670685 4.8441867828
 4026.3901367 5.0000000000 8.6251373291 8.5000000000 0.1896429956 2.6518290043 4.7670288086 69.883346558 264.50842285 467.35360718 5.2104225159 4.9624238014
 4026.5424805 5.0000000000 8.6280202866 8.5000000000 0.1929789037 2.6532258987 4.8824930191 67.784912109 264.39584351 465.18435669 5.5652027130 5.2535643578
 4026.6950684 5.0000000000 8.6239995956 8.5000000000 0.2011748999 2.6492779255 4.9384241104 66.500419617 264.73962402 462.35464478 5.6953883171 5.5234274864
 4026.8474121 5.0000000000 8.6261816025 8.5000000000 0.2012954950 2.6466550827 5.0404372215 67.577766418 265.61868286 461.02670288 5.7424259186 5.4710264206
 4026.9997559 5.0000000000 8.6293611526 8.5000000000 0.1974442005 2.6488139629 4.6333999634 62.679550171 264.56353760 454.33798218 5.5297389030 5.2669816017
 4027.1520996 5.0000000000 8.6275529861 8.5000000000 0.1944057047 2.6623399258 4.6528739929 60.925670624 264.83273315 449.84008789 5.4098000526 5.2667517662
 4027.3044434 5.0000000000 8.6280164719 8.5000000000 0.1929384023 2.6647930145 4.5455551147 61.063789368 265.96725464 451.10055542 5.3226928711 5.2380666733
 4027.4570313 5.0000000000 8.6280107498 8.5000000000 0.1918168962 2.6676700115 4.9057388306 66.815162659 266.05450439 455.94073486 5.2362642288 4.8639440536
 4027.6093750 5.0000000000 8.6281785965 8.5000000000 0.1849942058 2.6650500298 5.2883510590 67.071022034 266.39608765 461.90490723 4.9937195778 4.8203907013
 4027.7617188 5.0000000000 8.6280212402 8.5000000000 0.1858101040 2.6570971012 5.3629269600 66.443412781 266.56018066 466.59408569 4.8600897789 4.6323862076
 4027.9140625 5.0000000000 8.6241521835 8.5000000000 0.1911005974 2.6476991177 5.1497321129 66.951217651 266.18408203 473.08547974 4.8329830170 4.5590863228
 4028.0666504 5.0000000000 8.6270961761 8.5000000000 0.1932193935 2.6466999054 5.5920047760 71.645370483 266.34671021 474.25717163 4.7838912010 4.5414419174
 4028.2189941 5.0000000000 8.6273212433 8.5000000000 0.1955455989 2.6369550228 5.4572720528 78.295272827 265.48388672 474.87521362 4.8973817825 4.3979144096
 4028.3713379 5.0000000000 8.6267633438 8.5000000000 0.1916860044 2.6491260529 5.1556630135 83.896842957 265.29312134 474.13247681 4.7555975914 4.4482150078
 4028.5236816 5.0000000000 8.6250000000 8.5000000000 0.1884264052 2.6580369473 5.0211501122 84.019660950 266.50115967 474.60226440 4.6686906815 4.4850449562
