# LAS format log file from PETREL
# Project units are specified as depth units
#==================================================================
~Version information
VERS.   2.0:
WRAP.   NO:
#==================================================================
~Well
STRT .m      3352.4772949 :
STOP .m      4371.5761719 :
STEP .m     0.00000000 :
NULL .        -999.250000 :
COMP.           : COMPANY
WELL.  34/6-1   : WELL
FLD.            : FIELD
LOC.            : LOCATION
SRVC.           : SERVICE COMPANY
DATE.  2018-09-11 14:48:51   : Log Export Date {yyyy-MM-dd HH:mm:ss}
PROV.           : PROVINCE
UWI.   34/6-1 S   : UNIQUE WELL ID
API.            : API NUMBER
#==================================================================
~Curve
DEPT .m                   : DEPTH
Lithology_geolink ._      : Lithology_geolink
CALI .in                  : CALI
BS .in                    : BS
NPHI .m3/m3               : NPHI
RHOB .g/cm3               : RHOB
PEF .b/e                  : PEF
GR .gAPI                  : GR
DTC .us/ft                : DTC
DTS .us/ft                : DTS
RDEP .ohm.m               : RDEP
RMED .ohm.m               : RMED
~Parameter
#==================================================================
~Ascii
# ...
 3756.6423340 6.0000000000 8.8720550537 8.5000000000 0.2219893038 2.5979979038 4.9981842041 97.850471497 289.77465820 528.18469238 3.0534572601 3.2957482338
 3756.7946777 6.0000000000 8.8743581772 8.5000000000 0.2291474044 2.5934069157 4.9884052277 98.900047302 290.20285034 521.44458008 3.0738046169 3.2206842899
 3756.9470215 6.0000000000 8.8863191605 8.5000000000 0.2267823070 2.5936040878 4.7527031898 98.255653381 288.93414307 519.39001465 3.0742166042 3.1784954071
 3757.0993652 6.0000000000 8.9020061493 8.5000000000 0.2296189964 2.5961139202 4.5510740280 95.204750061 287.28598022 520.34216309 3.0815911293 3.1974337101
 3757.2517090 6.0000000000 8.9014644623 8.5000000000 0.2299105972 2.5951480865 4.3197460175 92.245742798 287.10223389 518.38800049 3.1191909313 3.1862156391
 3757.4042969 6.0000000000 8.9047737122 8.5000000000 0.2282917053 2.5922300816 4.6176228523 89.365440369 288.37060547 518.20385742 3.1847436428 3.3001871109
 3757.5566406 6.0000000000 8.9025192261 8.5000000000 0.2303342074 2.5880570412 4.7227678299 86.616111755 288.24487305 519.29461670 3.2432079315 3.5456798077
 3757.7089844 6.0000000000 8.9024686813 8.5000000000 0.2386464030 2.5889410973 5.1593050957 91.348953247 288.54785156 519.92803955 3.2505154610 3.5252721310
 3757.8613281 6.0000000000 8.9044675827 8.5000000000 0.2423727065 2.5849859715 4.6771202087 95.277420044 289.52636719 522.32214355 3.1995615959 3.3096890450
 3758.0139160 6.0000000000 8.9013948441 8.5000000000 0.2415385991 2.5925400257 4.2994728088 104.11689758 290.06045532 526.68756104 3.1249916553 3.2360153198
 3758.1662598 6.0000000000 8.9020719528 8.5000000000 0.2443487048 2.5934998989 4.2958550453 103.61569977 292.28549194 527.10144043 3.0603091717 3.1986274719
 3758.3186035 6.0000000000 8.9020214081 8.5000000000 0.2425546050 2.5861699581 4.4895000458 100.97650146 292.20523071 528.62469482 3.0161845684 3.1402425766
 3758.4709473 6.0000000000 8.9008369446 8.5000000000 0.2353246063 2.5803809166 4.7038249969 95.453552246 291.24359131 530.36883545 2.9884929657 3.0833766460
 3758.6235352 6.0000000000 8.9023084641 8.5000000000 0.2236919999 2.5823900700 4.7131018639 99.256668091 292.66946411 535.12127686 2.9628503323 3.0924305916
 3758.7758789 6.0000000000 8.9026794434 8.5000000000 0.2201664001 2.5984239578 4.6243910789 98.640007019 294.18225098 537.19897461 2.9223351479 3.0948989391
 3758.9282227 6.0000000000 8.8993034363 8.5000000000 0.2261565030 2.6081659794 4.6110510826 98.820686340 294.33123779 539.56530762 2.8625099659 2.9639341831
 3759.0805664 6.0000000000 8.9007778168 8.5000000000 0.2323544025 2.6170580387 4.2626919746 93.979232788 295.97311401 540.89947510 2.7969462872 2.9186651707
 3759.2329102 6.0000000000 8.8836460114 8.5000000000 0.2422136962 2.6178209782 4.2595181465 96.729087830 296.30337524 545.69110107 2.7410738468 2.9078531265
 3759.3854980 6.0000000000 8.8422870636 8.5000000000 0.2426746041 2.6116349697 4.7319979668 94.436882019 296.41830444 547.15173340 2.6984364986 2.7639071941
 3759.5378418 6.0000000000 8.8586912155 8.5000000000 0.2417062968 2.5953500271 4.8672471046 93.060043335 298.35086060 547.79583740 2.6548585892 2.7071788311
 3759.6901855 6.0000000000 8.9017896652 8.5000000000 0.2377555966 2.5913538933 4.7747797966 92.344772339 299.72018433 553.26080322 2.5770494938 2.6483917236
 3759.8425293 6.0000000000 8.9092836380 8.5000000000 0.2536675930 2.5937829018 4.6731700897 94.331588745 306.27258301 559.04296875 2.4167623520 2.6127412319
 3759.9951172 6.0000000000 8.9047756195 8.5000000000 0.2719481885 2.5931169987 4.8915638924 98.153671265 312.86563110 564.71044922 2.1492886543 2.5928685665
 3760.1474609 6.0000000000 8.9026813507 8.5000000000 0.2897157073 2.6009531021 5.3722829819 102.21690369 314.49703979 570.52392578 1.8322920799 2.3920297623
 3760.2998047 6.0000000000 8.9049139023 8.5000000000 0.2931196094 2.6129839420 5.1772570610 105.54869843 317.77441406 587.12500000 1.5842072964 2.1641147137
 3760.4521484 6.0000000000 8.9048423767 8.5000000000 0.2951779962 2.6285190582 5.1189942360 103.70880127 319.72210693 592.17828369 1.4892500639 1.9333708286
 3760.6047363 6.0000000000 8.9027462006 8.5000000000 0.2707472146 2.6234118938 5.2033138275 100.68180084 319.39703369 593.79071045 1.5818259716 1.8702958822
 3760.7570801 6.0000000000 8.8748035431 8.5000000000 0.2451965958 2.6072330475 5.2537360191 100.50199890 313.79629517 593.32934570 1.8797894716 1.8614401817
 3760.9094238 6.0000000000 8.8660478592 8.5000000000 0.2336515039 2.6011989117 5.1676912308 101.27600098 310.94857788 581.15093994 2.3881981373 2.2021565437
 3761.0617676 6.0000000000 8.8666515350 8.5000000000 0.2274138927 2.5975699425 4.8887429237 99.009803772 305.50674438 566.77587891 3.0188977718 2.4675478935
 3761.2141113 6.0000000000 8.8670673370 8.5000000000 0.2203696966 2.6055059433 5.0442810059 97.371261597 298.12322998 556.46630859 3.5173509121 2.9974079132
 3761.3666992 6.0000000000 8.8655824661 8.5000000000 0.2192427069 2.6048030853 4.9791569710 93.733070374 296.14822388 549.08227539 3.6828746796 3.2030761242
 3761.5190430 6.0000000000 8.8645067215 8.5000000000 0.2209873050 2.6026339531 4.8262510300 94.149002075 294.97256470 536.51153564 3.6365005970 3.2210547924
 3761.6713867 6.0000000000 8.8654727936 8.5000000000 0.2243290991 2.6024889946 4.6394338608 91.374488831 295.87423706 533.45043945 3.5388848782 3.3173751831
 3761.8237305 6.0000000000 8.8654212952 8.5000000000 0.2282775939 2.6041989326 4.7914710045 90.802520752 294.90896606 532.30450439 3.4100873470 3.3141708374
 3761.9763184 6.0000000000 8.8645067215 8.5000000000 0.2296826988 2.5989511013 4.7055830956 88.297706604 295.96090698 532.78973389 3.2421538830 3.1743743420
 3762.1286621 6.0000000000 8.8671703339 8.5000000000 0.2270299941 2.5972280502 4.4628148079 86.792678833 296.61288452 536.62573242 3.0740623474 3.0974433422
 3762.2810059 6.0000000000 8.8680362701 8.5000000000 0.2263423949 2.5962960720 4.4385290146 88.581398010 295.79620361 538.13922119 2.9451899529 3.0427052975
 3762.4333496 6.0000000000 8.8669376373 8.5000000000 0.2250480056 2.5944108963 4.3339118958 91.983947754 297.22253418 537.79290771 2.8752975464 2.9755592346
 3762.5859375 6.0000000000 8.8683185577 8.5000000000 0.2257931978 2.5998270512 4.3500819206 92.323638916 297.93057251 537.40905762 2.8620743752 2.9702100754
 3762.7382813 6.0000000000 8.8669824600 8.5000000000 0.2244704962 2.5984449387 4.0800280571 90.618888855 297.83474731 541.87365723 2.8874566555 3.0029997826
 3762.8906250 6.0000000000 8.8646545410 8.5000000000 0.2267131954 2.6055290699 4.3298339844 87.645469666 298.24331665 543.19549561 2.9240238667 3.0241589546
 3763.0429688 6.0000000000 8.8645792007 8.5000000000 0.2255693972 2.6038959026 4.4027419090 89.053161621 298.94549561 543.28900146 2.9439523220 3.0533571243
 3763.1953125 6.0000000000 8.8654928207 8.5000000000 0.2188805044 2.6011888981 4.5460958481 89.712043762 299.73828125 543.41497803 2.9272820950 2.9717323780
 3763.3479004 6.0000000000 8.8645277023 8.5000000000 0.2307845950 2.6038479805 4.3608179092 89.400230408 298.78887939 545.96051025 2.8684313297 2.9653568268
 3763.5002441 6.0000000000 8.8642206192 8.5000000000 0.2423088998 2.6019659042 4.3949661255 91.668113708 297.69262695 546.63555908 2.7837517262 2.8330163956
 3763.6525879 6.0000000000 8.8674182892 8.5000000000 0.2411755025 2.6017889977 4.4300618172 93.442649841 298.39309692 546.66644287 2.7100713253 2.6862316132
 3763.8049316 6.0000000000 8.8689622879 8.5000000000 0.2350865006 2.5980429649 4.6808781624 93.702148438 295.96148682 546.38366699 2.6846826077 2.6948873997
 3763.9575195 6.0000000000 8.8679380417 8.5000000000 0.2266280949 2.5924189091 4.7194800377 90.909881592 293.38009644 539.97351074 2.7240946293 2.8095366955
 3764.1098633 6.0000000000 8.8669071198 8.5000000000 0.2181943953 2.5909070969 5.0265431404 92.652572632 291.56640625 534.86132813 2.8185448647 2.9552874565
 3764.2622070 6.0000000000 8.8657274246 8.5000000000 0.2195346951 2.5773019791 5.1430039406 90.247909546 289.65145874 531.77819824 2.9326558113 3.1907122135
