# LAS format log file from PETREL
# Project units are specified as depth units
#==================================================================
~Version information
VERS.   2.0:
WRAP.   NO:
#==================================================================
~Well
STRT .m      3352.4772949 :
STOP .m      4371.5761719 :
STEP .m     0.00000000 :
NULL .        -999.250000 :
COMP.           : COMPANY
WELL.  34/6-1   : WELL
FLD.            : FIELD
LOC.            : LOCATION
SRVC.           : SERVICE COMPANY
DATE.  2018-09-11 14:48:51   : Log Export Date {yyyy-MM-dd HH:mm:ss}
PROV.           : PROVINCE
UWI.   34/6-1 S   : UNIQUE WELL ID
API.            : API NUMBER
#==================================================================
~Curve
DEPT .m                   : DEPTH
Lithology_geolink ._      : Lithology_geolink
CALI .in                  : CALI
BS .in                    : BS
NPHI .m3/m3               : NPHI
RHOB .g/cm3               : RHOB
PEF .b/e                  : PEF
GR .gAPI                  : GR
DTC .us/ft                : DTC
DTS .us/ft                : DTS
RDEP .ohm.m               : RDEP
RMED .ohm.m               : RMED
~Parameter
#==================================================================
~Ascii
 3352.4772949 13.000000000 8.6933002472 12.250000954  -999.250000  -999.250000  -999.250000 107.66499329 291.28781128 573.06970215 1.8784940243 2.3860869408
 3352.6296387 13.000000000 8.6933002472 12.250000954  -999.250000  -999.250000  -999.250000 107.55607605 291.39001465 583.13977051 1.7711119652 2.5312910080
 3352.7819824 13.000000000 8.6933002472 12.250000954  -999.250000  -999.250000  -999.250000 109.07476044 294.24749756 565.91522217 1.8413840532 2.4505391121
 3352.9343262 13.000000000 8.6933002472 12.250000954 0.5863811970  -999.250000  -999.250000 109.20369720 292.20669556 561.53057861 1.9029330015 2.4876999855
 3353.0869141 13.000000000 8.6933002472 12.250000954 0.5584649444  -999.250000  -999.250000 110.73184967 294.47198486 568.75750732 1.8865590096 2.3553531170
 3353.2392578 13.000000000 8.6933002472 12.250000954 0.5701773763  -999.250000  -999.250000 111.96652222 296.05178833 567.24328613 1.8407779932 2.2575139999
 3353.3916016 13.000000000 8.6933002472 12.250000954 0.5876107216  -999.250000  -999.250000 110.89772034 294.73550415 570.56268311 1.8846329451 2.2786231041
 3353.5439453 13.000000000 8.6933002472 12.250000954 0.6236280203  -999.250000  -999.250000 111.24783325 299.19931030 577.01257324 2.0663950443 2.2671000957
 3353.6962891 13.000000000 8.6933002472 12.250000954 0.6530606151  -999.250000  -999.250000 110.94895935 299.54431152 577.17462158 1.9945030212 2.2172470093
 3353.8488770 13.000000000 8.6933002472 12.250000954 0.6815197468  -999.250000  -999.250000 112.68111420 304.69909668 602.95251465 1.9683200121 2.0741400719
 3354.0012207 13.000000000 8.6933002472 12.250000954 0.6975303888  -999.250000  -999.250000 112.82817078 307.51812744 586.60162354 1.8301279545 1.6874589920
 3354.1535645 13.000000000 8.6933002472 12.250000954 0.6794635057  -999.250000  -999.250000 113.40786743 317.46099854 600.46527100 1.6931740046 1.5420609713
 3354.3059082 13.000000000 8.6933002472 12.250000954 0.6206836104  -999.250000  -999.250000 116.98790741 320.53347778 667.84057617 1.5850509405 1.5528130531
 3354.4584961 13.000000000 8.6933002472 12.250000954 0.6156723499  -999.250000  -999.250000 116.78494263 326.64517212 676.42242432 1.5756889582 1.5377440453
 3354.6108398 13.000000000 8.6933002472 12.250000954 0.6052854061  -999.250000  -999.250000 116.82273865 326.60440063 678.77111816 1.5844969749 1.4672930241
 3354.7631836 13.000000000 8.6933002472 12.250000954 0.5893679261  -999.250000  -999.250000 114.28736877 328.84945679 665.14141846 1.6286610365 1.4588769674
 3354.9155273 13.000000000 8.6933002472 12.250000954 0.5806648135  -999.250000  -999.250000 115.44098663 325.61386108 649.86682129 1.5000360012 1.5845810175
 3355.0681152 13.000000000 8.6933002472 12.250000954 0.5923709869  -999.250000  -999.250000 115.77097321 327.22409058 633.44787598 1.5428359509 1.5564559698
 3355.2204590 13.000000000 8.6933002472 12.250000954 0.5820362568  -999.250000  -999.250000 114.55415344 327.26150513 650.04571533 1.6099549532 1.5374139547
 3355.3728027 13.000000000 8.6933002472 12.250000954 0.5779256821  -999.250000  -999.250000 113.78303528 326.75253296 657.53662109 1.5484390259 1.5957720280
 3355.5251465 13.000000000 8.6933002472 12.250000954 0.5719863176  -999.250000  -999.250000 111.54708862 324.31182861 631.31042480 1.6085230112 1.6249459982
 3355.6774902 13.000000000 8.6933002472 12.250000954 0.5694333911  -999.250000  -999.250000 112.24514771 326.97070313 626.30871582 1.5421479940 1.6291160583
 3355.8300781 13.000000000 8.6933002472 12.250000954 0.5505636930  -999.250000  -999.250000 113.17271423 327.03759766 633.14367676 1.5079679489 1.7052819729
 3355.9824219 13.000000000 8.6933002472 12.250000954 0.5512474775  -999.250000  -999.250000 115.62007141 323.56854248 627.49047852 1.5460799932 1.7011359930
 3356.1347656 13.000000000 8.6933002472 12.250000954 0.5259862542  -999.250000  -999.250000 113.13748932 321.73181152 622.39105225 1.6508460045 1.6224459410
 3356.2871094 13.000000000 8.6933002472 12.250000954 0.5093823671  -999.250000  -999.250000 110.78034973 321.79199219 630.91467285 1.5759290457 1.6675390005
 3356.4396973 13.000000000 8.6933002472 12.250000954 0.5343609452  -999.250000  -999.250000 109.95890808 321.06341553 629.33331299 1.5596660376 1.6521240473
 3356.5920410 13.000000000 8.6933002472 12.250000954 0.5405382514  -999.250000  -999.250000 112.85724640 321.62930298 646.08447266 1.5033570528 1.7340940237
 3356.7443848 13.000000000 8.6933002472 12.250000954 0.5533026457  -999.250000  -999.250000 113.15462494 320.17498779 620.81481934 1.5322060585 1.5916240215
 3356.8967285 13.000000000 8.6933002472 12.250000954 0.5672528744  -999.250000  -999.250000 112.89703369 323.30551147 617.20220947 1.5427470207 1.6750799417
 3357.0493164 13.000000000 8.6933002472 12.250000954 0.5658558011  -999.250000  -999.250000 111.42725372 320.43420410 621.88623047 1.6260590553 1.6395740509
 3357.2016602 13.000000000 8.6933002472 12.250000954 0.5852990746  -999.250000  -999.250000 111.23829651 323.58981323 622.18817139 1.6246119738 1.5875380039
 3357.3540039 13.000000000 8.6933002472 12.250000954 0.5724396706  -999.250000  -999.250000 110.35951233 325.91769409 629.15863037 1.5798850060 1.5892250538
 3357.5063477 13.000000000 8.6933002472 12.250000954 0.5870888829  -999.250000  -999.250000 110.56526184 325.70889282 626.59167480 1.6762260199 1.6025979519
 3357.6586914 13.000000000 8.6933002472 12.250000954 0.5804615617  -999.250000  -999.250000 110.66946411 325.70889282 634.10601807 1.6733299494 1.6602669954
 3357.8112793 13.000000000 8.6933002472 12.250000954 0.5981273055  -999.250000  -999.250000 110.95913696 327.42147827 633.62518311 1.6952530146 1.6475919485
 3357.9636230 13.000000000 8.6933002472 12.250000954 0.6078004837  -999.250000  -999.250000 111.13851166 326.44982910 636.16198730 1.8604450226 1.8770869970
 3358.1159668 13.000000000 8.6933002472 12.250000954 0.5758569241  -999.250000  -999.250000 112.14598083 323.83981323 625.76257324 1.8825000525 1.9093999863
 3358.2683105 13.000000000 8.6933002472 12.250000954 0.5592751503  -999.250000  -999.250000 112.45690918 320.55877686 650.29742432 1.9045150280 2.0261800289
 3358.4208984 13.000000000 8.6933002472 12.250000954 0.5575241446  -999.250000  -999.250000 113.28916168 322.29199219 611.18621826 1.9365760088 2.0287969112
 3358.5732422 13.000000000 8.6933002472 12.250000954 0.6179737449  -999.250000  -999.250000 112.67129517 323.54232788 627.51629639 1.8014479876 1.7340120077
 3358.7255859 13.000000000 8.6933002472 12.250000954 0.6310884953  -999.250000  -999.250000 113.67818451 321.03390503 627.96209717 1.7716170549 1.6741210222
 3358.8779297 13.000000000 8.6933002472 12.250000954 0.6453231573  -999.250000  -999.250000 113.82054901 321.93838501 621.97302246 1.7699999809 1.6708999872
 3359.0305176 13.000000000 8.6933002472 12.250000954 0.6290792823  -999.250000  -999.250000 113.83337402 322.57058716 629.69079590 1.7699999809 1.6708999872
 3359.1828613 13.000000000 8.6921396255 12.250000954 0.6428669095  -999.250000  -999.250000 113.57071686 326.10729980 642.48602295 1.7090469599 1.6757680178
 3359.3352051 13.000000000 8.6909284592 12.250000954 0.6473842859  -999.250000  -999.250000 112.93731689 328.33401489 629.26812744 1.6729300022 1.6508690119
 3359.4875488 13.000000000 8.6921386719 12.250000954 0.6626703739  -999.250000  -999.250000 113.51047516 321.77191162 627.11877441 1.6457999945 1.6022460461
 3359.6398926 13.000000000 8.6892642975 12.250000954 0.6630703807  -999.250000  -999.250000 114.19131470 322.58895874 659.24096680 1.6562440395 1.6664780378
 3359.7924805 13.000000000 8.6888999939 12.250000954 0.6375762224  -999.250000  -999.250000 115.67382813 320.94879150 620.98541260 1.5628440380 1.6711080074
 3359.9448242 13.000000000 8.6888999939 12.250000954 0.6290633082  -999.250000  -999.250000 116.16101837 323.25180054 610.98352051 1.6269899607 1.6028469801
 3360.0971680 13.000000000 8.6919393539 12.250000954 0.6049302220  -999.250000  -999.250000 118.01702118 320.68533325 605.31280518 1.5813449621 1.6049259901
