# LAS format log file from PETREL
# Project units are specified as depth units
#==================================================================
~Version information
VERS.   2.0:
WRAP.   NO:
#==================================================================
~Well
STRT .m      3352.4772949 :
STOP .m      4371.5761719 :
STEP .m     0.00000000 :
NULL .        -999.250000 :
COMP.           : COMPANY
WELL.  34/6-1   : WELL
FLD.            : FIELD
LOC.            : LOCATION
SRVC.           : SERVICE COMPANY
DATE.  2018-09-11 14:48:51   : Log Export Date {yyyy-MM-dd HH:mm:ss}
PROV.           : PROVINCE
UWI.   34/6-1 S   : UNIQUE WELL ID
API.            : API NUMBER
#==================================================================
~Curve
DEPT .m                   : DEPTH
Lithology_geolink ._      : Lithology_geolink
CALI .in                  : CALI
BS .in                    : BS
NPHI .m3/m3               : NPHI
RHOB .g/cm3               : RHOB
PEF .b/e                  : PEF
GR .gAPI                  : GR
DTC .us/ft                : DTC
DTS .us/ft                : DTS
RDEP .ohm.m               : RDEP
RMED .ohm.m               : RMED
~Parameter
#==================================================================
~Ascii
# ...
 3818.8212891 4.0000000000 8.6501178741 8.5000000000 0.2261590064 2.4737558365 4.5801839828 64.703109741 275.49520874 477.81759644 4.0515327454 4.2398495674
 3818.9736328 4.0000000000 8.6497640610 8.5000000000 0.2244196981 2.4593791962 4.4947166443 64.167884827 275.31240845 477.39538574 4.0567531586 4.2650122643
 3819.1259766 4.0000000000 8.6497001648 8.5000000000 0.2236537933 2.4569118023 4.3445067406 58.824104309 275.26449585 476.63699341 4.0698208809 4.2949519157
 3819.2783203 4.0000000000 8.6505918503 8.5000000000 0.2251174003 2.4668540955 4.2048931122 58.444488525 274.00808716 476.76559448 4.0767011642 4.3214473724
 3819.4309082 4.0000000000 8.6506996155 8.5000000000 0.2383369058 2.4778153896 4.1791925430 62.199222565 275.27749634 476.74710083 4.0726099014 4.2504205704
 3819.5832520 4.0000000000 8.6509675980 8.5000000000 0.2298056036 2.4857764244 4.2412252426 69.903099060 276.18789673 476.78311157 4.0658884048 4.1779103279
 3819.7355957 4.0000000000 8.6491231918 8.5000000000 0.2192164063 2.4828507900 4.2696776390 73.703346252 276.15991211 477.05960083 4.0644817352 4.2361707687
 3819.8879395 4.0000000000 8.6508636475 8.5000000000 0.2078348994 2.4793760777 4.3198838234 71.994987488 276.93789673 477.66351318 4.0656380653 4.2522192001
 3820.0405273 4.0000000000 8.6491355896 8.5000000000 0.2047251016 2.4857747555 4.3963885307 69.929260254 276.14260864 477.22061157 4.0650138855 4.2451901436
 3820.1928711 4.0000000000 8.6484537125 8.5000000000 0.2153968960 2.4843692780 4.2239608765 66.788314819 276.05828857 476.61639404 4.0682005882 4.2035155296
 3820.3452148 5.0000000000 8.6476850510 8.5000000000 0.2214358002 2.4762501717 4.4150738716 66.089706421 276.25540161 475.18829346 4.0843162537 4.2886710167
 3820.4975586 5.0000000000 8.6472425461 8.5000000000 0.2176267952 2.4704096317 4.5566387177 62.810424805 277.11480713 475.10290527 4.1130981445 4.3546104431
 3820.6501465 5.0000000000 8.6497888565 8.5000000000 0.2151360959 2.4642748833 4.9033389091 63.548717499 277.56201172 475.03079224 4.1477541924 4.3772263527
 3820.8024902 5.0000000000 8.6487598419 8.5000000000 0.2225802988 2.4619965553 4.7775478363 65.644989014 278.82281494 474.69812012 4.1859092712 4.3948373795
 3820.9548340 5.0000000000 8.6473484039 8.5000000000 0.2233213037 2.4636733532 4.6167650223 67.919784546 277.94641113 474.71069336 4.2259240150 4.4352045059
 3821.1071777 5.0000000000 8.6601390839 8.5000000000 0.2216044962 2.4722740650 4.3398399353 66.475143433 275.71069336 474.97390747 4.2571673393 4.5444884300
 3821.2597656 5.0000000000 8.6620569229 8.5000000000 0.2234528959 2.4763286114 4.4202442169 64.338088989 275.56820679 473.61248779 4.2665781975 4.5109033585
 3821.4121094 5.0000000000 8.6593322754 8.5000000000 0.2346830964 2.4718849659 4.3600616455 65.362632751 273.71728516 474.05718994 4.2550673485 4.4219160080
 3821.5644531 5.0000000000 8.6589107513 8.5000000000 0.2303722054 2.4737091064 4.4931893349 66.302947998 274.85418701 474.85528564 4.2366571426 4.3731846809
 3821.7167969 5.0000000000 8.6653337479 8.5000000000 0.2288956940 2.4837250710 4.3950958252 68.333343506 274.96279907 475.58084106 4.2255620956 4.3568539619
 3821.8691406 5.0000000000 8.6845769882 8.5000000000 0.2181778997 2.4966404438 4.6156945229 70.638839722 274.95199585 475.82699585 4.2305350304 4.3443040848
 3822.0217285 5.0000000000 8.6868000031 8.5000000000 0.2213640064 2.5000584126 4.6309275627 70.158813477 274.51269531 476.08819580 4.2506399155 4.3771777153
 3822.1740723 5.0000000000 8.6868000031 8.5000000000 0.2182379961 2.5107328892 4.6561446190 68.869781494 274.66918945 476.13589478 4.2685799599 4.5078911781
 3822.3264160 5.0000000000 8.6845655441 8.5000000000 0.2173531950 2.5185992718 4.4302110672 65.334472656 274.70510864 475.90829468 4.2645444870 4.5041089058
 3822.4787598 5.0000000000 8.6865310669 8.5000000000 0.2106063962 2.5459969044 4.8952641487 66.923767090 274.17639160 475.99249268 4.2436113358 4.3757448196
 3822.6313477 5.0000000000 8.6854610443 8.5000000000 0.2223868072 2.5694365501 5.3372149467 65.226959229 273.44680786 477.16860962 4.2331829071 4.2966284752
 3822.7836914 5.0000000000 8.6878004074 8.5000000000 0.2193454057 2.5859835148 6.2222065926 69.035423279 273.94781494 476.88879395 4.2512760162 4.3447914124
 3822.9360352 5.0000000000 8.6845264435 8.5000000000 0.2187999934 2.5646843910 5.3558740616 69.126556396 273.65270996 477.60150146 4.2916464806 4.3904542923
 3823.0883789 5.0000000000 8.6856155396 8.5000000000 0.2073778063 2.5407388210 4.5394864082 69.251296997 273.71841431 478.03952026 4.3368387222 4.4143519402
 3823.2409668 5.0000000000 8.6841039658 8.5000000000 0.2044827044 2.5176079273 3.9754052162 67.343643188 271.98779297 476.38320923 4.3740077019 4.4705228806
 3823.3933105 5.0000000000 8.6859540939 8.5000000000 0.1997461021 2.5184025764 3.8596804142 70.047348022 269.95431519 475.10778809 4.4005198479 4.4936532974
 3823.5456543 5.0000000000 8.6865568161 8.5000000000 0.1901776940 2.5161235332 3.9614183903 72.442810059 268.46160889 473.63000488 4.4246068001 4.5263853073
 3823.6979980 5.0000000000 8.6631860733 8.5000000000 0.1936576962 2.5136590004 4.1263475418 68.912857056 266.49890137 471.35308838 4.4589920044 4.6241250038
 3823.8503418 5.0000000000 8.6606674194 8.5000000000 0.2051790059 2.5213193893 4.4661970139 65.252388000 263.73629761 465.23941040 4.5145864487 4.7309288979
 3824.0029297 5.0000000000 8.6627531052 8.5000000000 0.2037322968 2.5543880463 4.6339492798 62.974868774 259.97430420 461.59561157 4.6030445099 4.7471070290
 3824.1552734 4.0000000000 8.6604995728 8.5000000000 0.2027747929 2.5927145481 4.6185431480 63.229488373 255.52990723 453.15969849 4.7161779404 4.9375705719
 3824.3076172 4.0000000000 8.6606464386 8.5000000000 0.1948368996 2.6319530010 4.7496037483 60.552070618 252.60559082 440.49719238 5.0351996422 5.2475070953
 3824.4599609 4.0000000000 8.6606998444 8.5000000000 0.1900624037 2.6356532574 4.5750250816 56.879138947 246.91497803 437.35269165 5.4132857323 5.7163586617
 3824.6125488 4.0000000000 8.6611461639 8.5000000000 0.1774595976 2.6364018917 4.7330722809 56.169620514 243.69740295 435.16751099 5.9796752930 6.3642873764
 3824.7648926 4.0000000000 8.6606636047 8.5000000000 0.1677840054 2.6365888119 4.8323793411 54.624179840 241.86457825 429.43530273 6.6787419319 7.1678199768
 3824.9172363 2.0000000000 8.6619396210 8.5000000000 0.1648344994 2.6357972622 4.8494558334 55.070049286 242.61300659 425.06820679 6.7688264847 7.2406148911
 3825.0695801 2.0000000000 8.6593341827 8.5000000000 0.1609414071 2.6389029026 4.8761920929 50.886940002 244.31912231 417.78399658 6.9400582314 7.3055391312
 3825.2221680 2.0000000000 8.6615877151 8.5000000000 0.1580009013 2.6384077072 5.0406870842 46.620220184 246.65238953 413.97262573 7.4539155960 7.7614326477
 3825.3745117 2.0000000000 8.6869907379 8.5000000000 0.1584143043 2.6446299553 5.2190527916 41.371559143 247.65476990 412.96386719 8.1634368896 8.2742357254
 3825.5268555 2.0000000000 8.7091159821 8.5000000000 0.1575174034 2.6614520550 5.4797949791 43.698589325 254.50202942 421.07672119 9.1785154343 9.1711540222
 3825.6791992 2.0000000000 8.7425880432 8.5000000000 0.1442632973 2.6730334759 5.9652481079 44.331008911 263.11697388 437.81607056 9.4107799530 9.3244867325
 3825.8315430 2.0000000000 8.7576360703 8.5000000000 0.1559104025 2.6520414352 5.8834729195 49.206970215 266.83929443 448.27975464 8.4220571518 8.2453231812
 3825.9841309 2.0000000000 8.7580175400 8.5000000000 0.1825875044 2.6067864895 5.0057606697 51.929260254 268.40576172 451.66357422 7.2986936569 6.9396290779
 3826.1364746 2.0000000000 8.7577209473 8.5000000000 0.2014982998 2.5566654205 4.4151515961 60.937129974 270.03649902 468.29779053 5.6951880455 5.6710972786
 3826.2888184 2.0000000000 8.7352724075 8.5000000000 0.1929457039 2.5273900032 3.8912205696 67.661842346 267.47952271 472.70001221 4.8550214767 5.0151987076
 3826.4411621 5.0000000000 8.7326002121 8.5000000000 0.1899151057 2.5333158970 3.8114135265 73.056617737 266.12097168 475.51397705 4.6052989960 4.6838035583
