# LAS format log file from PETREL
# Project units are specified as depth units
#==================================================================
~Version information
VERS.   2.0:
WRAP.   NO:
#==================================================================
~Well
STRT .m      3352.4772949 :
STOP .m      4371.5761719 :
STEP .m     0.00000000 :
NULL .        -999.250000 :
COMP.           : COMPANY
WELL.  34/6-1   : WELL
FLD.            : FIELD
LOC.            : LOCATION
SRVC.           : SERVICE COMPANY
DATE.  2018-09-11 14:48:51   : Log Export Date {yyyy-MM-dd HH:mm:ss}
PROV.           : PROVINCE
UWI.   34/6-1 S   : UNIQUE WELL ID
API.            : API NUMBER
#==================================================================
~Curve
DEPT .m                   : DEPTH
Lithology_geolink ._      : Lithology_geolink
CALI .in                  : CALI
BS .in                    : BS
NPHI .m3/m3               : NPHI
RHOB .g/cm3               : RHOB
PEF .b/e                  : PEF
GR .gAPI                  : GR
DTC .us/ft                : DTC
DTS .us/ft                : DTS
RDEP .ohm.m               : RDEP
RMED .ohm.m               : RMED
~Parameter
#==================================================================
~Ascii
# ...
 4355.1171875 5.0000000000 8.7970514297 8.5000000000 0.1634688973 2.5038568974 5.8909392357 60.181869507 266.09835815 424.67541504  -999.250000  -999.250000
 4355.2695313 5.0000000000 8.7573499680 8.5000000000 0.1636995226 2.5556020737 7.9046769142 60.483749390 265.39245605 418.60739136  -999.250000  -999.250000
 4355.4218750 5.0000000000 8.6147413254 8.5000000000 0.1569630504 2.5865609646 9.9992036819 60.270160675 243.57685852 413.30950928  -999.250000  -999.250000
 4355.5742188 5.0000000000 8.4675998688 8.5000000000 0.1493694186 2.6144819260 12.086669922 59.999771118 240.54995728 410.34503174  -999.250000  -999.250000
 4355.7265625 5.0000000000 8.4510459900 8.5000000000 0.1134954989 2.6431989670 10.123649597 58.693569183 232.11619568 398.54891968  -999.250000  -999.250000
 4355.8789063  -999.250000 8.5263566971 8.5000000000 0.0991837829 2.6518459320 9.1378278732 57.813720703 214.47689819 380.17059326  -999.250000  -999.250000
 4356.0312500  -999.250000 8.6028776169 8.5000000000 0.0878692269 2.6581480503 8.3206262589 56.997608185 205.40580750 363.24380493  -999.250000  -999.250000
 4356.1835938  -999.250000 8.6142873764 8.5000000000 0.0805114135 2.6500101089 6.6817770004 55.106040955 206.60879517 353.16018677  -999.250000  -999.250000
 4356.3364258  -999.250000 8.6133546829 8.5000000000 0.0878233016 2.6526789665 6.8499832153 54.243831635 209.96672058 341.98468018  -999.250000  -999.250000
 4356.4887695  -999.250000 8.6132001877 8.5000000000 0.0996042043 2.6403939724 6.8003129959 55.406448364 220.08018494 337.08007813  -999.250000  -999.250000
 4356.6411133  -999.250000 8.6118574142 8.5000000000 0.1238139421 2.6039130688 7.2472219467 55.002590179 229.64036560 341.01251221  -999.250000  -999.250000
 4356.7934570  -999.250000 8.6156387329 8.5000000000 0.1571884453 2.5481491089 7.1665458679 53.567501068 236.00598145 348.87170410  -999.250000  -999.250000
 4356.9458008  -999.250000 8.6187858582 8.5000000000 0.1833437979 2.5181000233 7.0302610397 50.700778961 245.25500488 364.38015747  -999.250000  -999.250000
 4357.0981445  -999.250000 8.6722269058 8.5000000000 0.1791910976 2.5100140572 7.1815838814 51.054790497 249.99729919 378.43148804  -999.250000  -999.250000
 4357.2504883  -999.250000 8.6833295822 8.5000000000 0.1782207042 2.5007059574 7.4738059044 53.034320831 253.95820618 398.74139404  -999.250000  -999.250000
 4357.4028320  -999.250000 8.6838998795 8.5000000000 0.1864490956 2.4872369766 7.4668440819 55.587829590 260.94680786 421.47891235  -999.250000  -999.250000
 4357.5556641  -999.250000 8.6621026993 8.5000000000 0.1821013540 2.4809560776 6.9039177895 56.236148834 265.94207764 432.20843506  -999.250000  -999.250000
 4357.7080078  -999.250000 8.6497602463 8.5000000000 0.1801562607 2.4671609402 6.0310659409 57.046928406 268.13540649 440.52606201  -999.250000  -999.250000
 4357.8603516  -999.250000 8.6713209152 8.5000000000 0.1795749068 2.4538819790 5.0561800003 56.477939606 265.02868652 442.88912964  -999.250000  -999.250000
 4358.0126953  -999.250000 8.7254571915 8.5000000000 0.1864818782 2.4412240982 4.6211118698 55.736980438 262.86404419 446.19387817  -999.250000  -999.250000
 4358.1650391  -999.250000 8.7299785614 8.5000000000 0.1869170815 2.4232480526 4.3512158394 54.254840851 259.38327026 447.34249878  -999.250000  -999.250000
 4358.3173828  -999.250000 8.7226343155 8.5000000000 0.1791913807 2.4126119614 4.3007340431 53.448589325 256.76431274 447.54626465  -999.250000  -999.250000
 4358.4697266  -999.250000 8.6774473190 8.5000000000 0.1773144007 2.4210979939 4.0606431961 55.114238739 257.11068726 442.50854492  -999.250000  -999.250000
 4358.6220703  -999.250000 8.6513242722 8.5000000000 0.1812337935 2.5026960373 4.1589541435 54.780960083 252.87530518 427.85940552  -999.250000  -999.250000
 4358.7744141  -999.250000 8.7188472748 8.5000000000 0.1894122064 2.6220331192 5.1984119415 56.151149750 248.51579285 419.98779297  -999.250000  -999.250000
 4358.9272461  -999.250000 8.7957105637 8.5000000000 0.1911945641 2.6540780067 5.6087760925 56.009628296 248.21647644 416.83581543  -999.250000  -999.250000
 4359.0795898  -999.250000 8.8010053635 8.5000000000 0.1904010475 2.5561900139 5.1911349297 55.990161896 255.60816956 416.12020874  -999.250000  -999.250000
 4359.2319336  -999.250000 8.8017730713 8.5000000000 0.1890349835 2.4599440098 5.2860670090 55.945751190 255.45693970 415.90029907  -999.250000  -999.250000
 4359.3842773  -999.250000 8.7536573410 8.5000000000 0.1851190180 2.4186739922 5.9551758766 54.685188293 249.04721069 415.78140259  -999.250000  -999.250000
 4359.5366211  -999.250000 8.7001857758 8.5000000000 0.1783493757 2.3993299007 7.3258190155 55.838310242 253.47793579 415.81170654  -999.250000  -999.250000
 4359.6889648  -999.250000 8.6904792786 8.5000000000 0.1804665029 2.3780620098 7.5349559784 55.249748230 257.47839355 415.81570435  -999.250000  -999.250000
 4359.8413086  -999.250000 8.6888351440 8.5000000000 0.1805312037 2.3830590248 7.9856500626 55.333869934 259.72988892 415.78149414  -999.250000  -999.250000
 4359.9936523  -999.250000 8.6876239777 8.5000000000 0.1818448007 2.4255878925 9.1834707260 55.212131500 262.03060913 415.83053589  -999.250000  -999.250000
 4360.1459961  -999.250000 8.7284879684 8.5000000000  -999.250000 2.4608039856 7.6621289253 55.670249939 265.85940552 415.86511230  -999.250000  -999.250000
 4360.2988281  -999.250000 8.7552919388 8.5000000000  -999.250000 2.4470379353 5.9650511742 55.117149353 265.72280884 415.82833862  -999.250000  -999.250000
 4360.4511719  -999.250000 8.6630029678 8.5000000000  -999.250000 2.4170939922 4.8313279152 55.686599731 262.00570679 415.78179932  -999.250000  -999.250000
 4360.6035156  -999.250000 8.6172618866 8.5000000000  -999.250000 2.3932199478 4.7971520424 54.991889954 257.92843628 415.77737427  -999.250000  -999.250000
 4360.7558594  -999.250000 8.6132001877 8.5000000000  -999.250000 2.3860559464 4.6891350746 55.992130280 257.31848145 415.73471069  -999.250000  -999.250000
 4360.9082031  -999.250000 8.6118564606 8.5000000000  -999.250000 2.3934700489 4.9440569878 54.210639954 256.67089844 415.73889160  -999.250000  -999.250000
 4361.0605469  -999.250000 8.5176305771 8.5000000000  -999.250000 2.3990590572 5.6056599617 54.285690308 257.70370483 415.76629639  -999.250000  -999.250000
 4361.2128906  -999.250000 8.3584594727 8.5000000000  -999.250000 2.3949389458 7.7944359779 54.486019135 256.56710815 415.72558594  -999.250000  -999.250000
 4361.3652344  -999.250000 8.3286571503 8.5000000000  -999.250000 2.3879439831 9.5251960754 54.544651031 254.46290588 408.77270508  -999.250000  -999.250000
 4361.5180664  -999.250000 8.3556346893 8.5000000000  -999.250000 2.3757181168 7.6172537804 54.500759125 247.98556519 414.86752319  -999.250000  -999.250000
 4361.6704102  -999.250000 8.5121278763 8.5000000000  -999.250000 2.3650081158 5.2400140762 55.341220856 246.97279358 415.65951538  -999.250000  -999.250000
 4361.8227539  -999.250000 8.5937118530 8.5000000000  -999.250000 2.3715040684 4.2474842072 56.005718231 245.37887573 415.60516357  -999.250000  -999.250000
 4361.9750977  -999.250000 8.5200319290 8.5000000000  -999.250000 2.4175930023 4.4181108475 56.511520386 242.61238098 415.66812134  -999.250000  -999.250000
 4362.1274414  -999.250000 8.4750471115 8.5000000000  -999.250000 2.5002520084 5.1567392349 55.515628815 244.70344543 408.87905884  -999.250000  -999.250000
 4362.2797852  -999.250000 8.4753780365 8.5000000000  -999.250000 2.5763831139 5.4211459160 55.437610626 248.16990662 414.94024658  -999.250000  -999.250000
 4362.4321289  -999.250000 8.5034971237 8.5000000000  -999.250000 2.5976400375 4.7443079948 55.475151062 249.51220703 415.64190674  -999.250000  -999.250000
 4362.5844727  -999.250000 8.4497804642 8.5000000000  -999.250000 2.5897879601 4.9360680580 57.116050720 251.90919495 415.68231201  -999.250000  -999.250000
 4362.7368164  -999.250000 8.5070476532 8.5000000000  -999.250000 2.5887899399 5.3884439468 58.686470032 252.61659241 415.69241333  -999.250000  -999.250000
