# LAS format log file from PETREL
# Project units are specified as depth units
#==================================================================
~Version information
VERS.   2.0:
WRAP.   NO:
#==================================================================
~Well
STRT .m      3352.4772949 :
STOP .m      4371.5761719 :
STEP .m     0.00000000 :
NULL .        -999.250000 :
COMP.           : COMPANY
WELL.  34/6-1   : WELL
FLD.            : FIELD
LOC.            : LOCATION
SRVC.           : SERVICE COMPANY
DATE.  2018-09-11 14:48:51   : Log Export Date {yyyy-MM-dd HH:mm:ss}
PROV.           : PROVINCE
UWI.   34/6-1 S   : UNIQUE WELL ID
API.            : API NUMBER
#==================================================================
~Curve
DEPT .m                   : DEPTH
Lithology_geolink ._      : Lithology_geolink
CALI .in                  : CALI
BS .in                    : BS
NPHI .m3/m3               : NPHI
RHOB .g/cm3               : RHOB
PEF .b/e                  : PEF
GR .gAPI                  : GR
DTC .us/ft                : DTC
DTS .us/ft                : DTS
RDEP .ohm.m               : RDEP
RMED .ohm.m               : RMED
~Parameter
#==================================================================
~Ascii
# ...
 3422.4289551 6.0000000000 8.7645998001 8.5000000000 0.3640919924 2.4854900837 5.2385239601 110.67379761 329.56619263 625.66595459 2.0117332935 2.1924474239
 3422.5812988 6.0000000000 8.7634391785 8.5000000000 0.3421748877 2.4671690464 5.3424091339 112.54389954 328.79858398 628.83129883 2.0238859653 2.1865584850
 3422.7336426 6.0000000000 8.7578592300 8.5000000000 0.3344159126 2.4647541046 5.2390499115 111.35710144 330.02612305 632.04821777 2.0830683708 2.2213513851
 3422.8862305 6.0000000000 8.7573776245 8.5000000000 0.3290717006 2.4710340500 5.0226740837 107.92559814 329.22222900 630.16113281 2.1418929100 2.3211100101
 3423.0385742 6.0000000000 8.7587394714 8.5000000000 0.3300172091 2.4829561710 5.0939660072 106.11129761 329.64459229 629.45343018 2.1439249516 2.2391669750
 3423.1909180 6.0000000000 8.7573823929 8.5000000000 0.3372536898 2.4749250412 5.1104111671 101.17960358 330.94442749 629.74578857 2.0902183056 2.2090637684
 3423.3432617 6.0000000000 8.7585382462 8.5000000000 0.3450562060 2.4752271175 5.1969709396 99.553932190 334.26922607 631.49658203 2.0330226421 2.0586183071
 3423.4958496 6.0000000000 8.7587003708 8.5000000000 0.3658810854 2.4750430584 5.1227478981 97.461776733 334.63366699 626.89361572 2.0160999298 2.0179667473
 3423.6481934 6.0000000000 8.7587003708 8.5000000000 0.3804363906 2.4741079807 4.8918142319 105.66580200 332.38540649 623.93475342 2.0517385006 2.1207911968
 3423.8005371 6.0000000000 8.7571821213 8.5000000000 0.3681516051 2.4928369522 4.8707351685 109.33730316 317.11047363 615.33410645 2.1313459873 2.2139322758
 3423.9528809 6.0000000000 8.7597646713 8.5000000000 0.3327049017 2.5724990368 5.1883068085 112.13490295 313.88153076 604.54418945 2.2386023998 2.2912554741
 3424.1052246 6.0000000000 8.7575139999 8.5000000000 0.2964920998 2.7025721073 7.0634632111 109.05639648 312.01507568 593.99163818 2.3372471333 2.2882211208
 3424.2578125 6.0000000000 8.7573776245 8.5000000000 0.2852835059 2.7625269890 6.5059108734 99.061279297 310.76428223 591.01647949 2.3619995117 2.8759229183
 3424.4101563 6.0000000000 8.7587394714 8.5000000000 0.3209976852 2.6448180676 5.8614850044 92.777091980 314.41030884 591.56066895 2.2850296497 2.5537519455
 3424.5625000 6.0000000000 8.7584533691 8.5000000000 0.3671922088 2.5325739384 5.3433551788 93.067947388 319.97619629 595.70745850 2.1644117832 2.1606721878
 3424.7148438 6.0000000000 8.7586679459 8.5000000000 0.3677403033 2.4967279434 5.1449742317 102.81960297 327.20504761 604.24584961 2.0651605129 2.2540299892
 3424.8674316 6.0000000000 8.7588777542 8.5000000000 0.3754076064 2.5053091049 5.4557151794 114.33869934 328.79101563 620.73260498 2.0054526329 2.1580700874
 3425.0197754 6.0000000000 8.7569360733 8.5000000000 0.3764893115 2.5025050640 5.5476999283 115.04969788 329.10003662 628.55163574 1.9804157019 2.1386473179
 3425.1721191 6.0000000000 8.7573242188 8.5000000000 0.3752500117 2.5019109249 5.7535557747 114.01619720 328.91955566 630.28887939 1.9808551073 2.0685887337
 3425.3244629 6.0000000000 8.7585592270 8.5000000000 0.3563719988 2.5049319267 5.8273520470 106.41529846 328.95480347 629.80273438 1.9927548170 2.1519210339
 3425.4770508 6.0000000000 8.7573623657 8.5000000000 0.3499968052 2.5026240349 5.7504429817 104.75389862 330.79382324 632.20520020 2.0113985538 2.1424639225
 3425.6293945 6.0000000000 8.7585391998 8.5000000000 0.3578883111 2.4884679317 5.8956727982 103.75569916 329.68505859 634.57598877 2.0465075970 2.1157822609
 3425.7817383 6.0000000000 8.7597713470 8.5000000000 0.3524721861 2.4768009186 5.4516019821 108.77380371 331.40344238 635.45544434 2.0993666649 2.1770887375
 3425.9340820 6.0000000000 8.7574930191 8.5000000000 0.3553558886 2.4735488892 5.1122660637 112.04229736 332.10507202 634.34936523 2.1489348412 2.2323341370
 3426.0864258 6.0000000000 8.7582702637 8.5000000000 0.3668592870 2.4706239700 4.7527990341 115.74490356 329.89675903 631.13482666 2.1688416004 2.2342851162
 3426.2390137 6.0000000000 8.7573299408 8.5000000000 0.3583852947 2.4784188271 4.6622738838 111.86849976 330.55798340 628.29785156 2.1548798084 2.2131755352
 3426.3913574 6.0000000000 8.7585391998 8.5000000000 0.3389905989 2.4925220013 4.7425937653 107.79100037 329.98141479 624.69519043 2.1291124821 2.1779544353
 3426.5437012 7.0000000000 8.7575387955 8.5000000000 0.3241195977 2.5180320740 5.2246761322 103.74240112 328.35449219 619.94915771 2.1163535118 2.1764354706
 3426.6960449 7.0000000000 8.7585601807 8.5000000000 0.3327679932 2.5297300816 5.7296609879 105.42359924 327.73086548 619.35540771 2.1217629910 2.2166106701
 3426.8486328 7.0000000000 8.7573623657 8.5000000000 0.3330186903 2.5198268890 5.2936000824 106.97119904 328.01153564 622.77124023 2.1292388439 2.2988910675
 3427.0009766 7.0000000000 8.7585391998 8.5000000000 0.3439669013 2.4949378967 4.7617249489 111.19799805 327.59042358 623.48504639 2.1279742718 2.1998076439
 3427.1533203 7.0000000000 8.7573614120 8.5000000000 0.3526214957 2.4820110798 4.5576558113 116.87650299 325.46636963 621.68542480 2.1287934780 2.2003726959
 3427.3056641 7.0000000000 8.7572002411 8.5000000000 0.3609912097 2.4875779152 4.8021011353 123.54149628 316.27947998 618.05810547 2.1473085880 2.3148219585
 3427.4582520 7.0000000000 8.7582702637 8.5000000000 0.3738527894 2.5002629757 5.1714320183 122.46640015 311.96475220 613.97967529 2.1858913898 2.3865280151
 3427.6105957 7.0000000000 8.7575073242 8.5000000000 0.3627175987 2.5107131004 5.3789048195 116.82070160 312.25445557 602.50793457 2.2456459999 2.4095532894
 3427.7629395 6.0000000000 8.7570428848 8.5000000000 0.3574504852 2.5076940060 5.6175417900 108.90769958 311.27478027 592.73052979 2.3323421478 2.3960402012
 3427.9152832 6.0000000000 8.7586936951 8.5000000000 0.3431789875 2.5068430901 5.8285551071 105.86060333 312.55795288 586.93688965 2.4190390110 2.4250111580
 3428.0678711 6.0000000000 8.7587223053 8.5000000000 0.3373081982 2.5026080608 5.3969478607 103.33650208 312.17050171 581.98590088 2.4097294807 2.4812052250
 3428.2202148 6.0000000000 8.7587003708 8.5000000000 0.3315357864 2.5018320084 5.0778861046 105.84390259 314.86871338 581.10827637 2.2397518158 2.3276624680
 3428.3725586 6.0000000000 8.7573614120 8.5000000000 0.3483951092 2.4953730106 4.5439071655 107.84290314 315.77301025 588.64813232 2.0107786655 1.9038414955
 3428.5249023 6.0000000000 8.7585401535 8.5000000000 0.3717528880 2.4969220161 4.6732578278 108.64640045 318.20980835 594.47973633 1.8709994555 1.6229127645
 3428.6772461 6.0000000000 8.7571840286 8.5000000000 0.3700188100 2.4988059998 4.6998348236 108.11599731 316.01257324 598.16387939 1.8770445585 1.8411893845
 3428.8298340 7.0000000000 8.7585172653 8.5000000000 0.3585270047 2.5132739544 5.0657110214 109.55419922 314.41958618 600.26977539 2.0106580257 2.0771043301
 3428.9821777 7.0000000000 8.7573614120 8.5000000000 0.3331921995 2.5368659496 5.6422672272 111.63659668 311.67050171 599.14849854 2.2075366974 2.3232278824
 3429.1345215 7.0000000000 8.7572002411 8.5000000000 0.3330678940 2.5533390045 6.3330039978 112.31800079 312.24359131 599.22729492 2.3801136017 2.4617326260
 3429.2868652 7.0000000000 8.7582702637 8.5000000000 0.3380373120 2.5486679077 6.3803758621 115.14160156 313.54910278 599.65325928 2.4640693665 2.5972301960
 3429.4394531 7.0000000000 8.7573299408 8.5000000000 0.3433276117 2.5139150620 5.6525259018 116.98850250 314.59774780 599.61065674 2.4686133862 2.5151867867
 3429.5917969 7.0000000000 8.7573785782 8.5000000000 0.3391704857 2.4930241108 5.4845771790 117.47290039 316.51666260 613.34484863 2.4481351376 2.3502314091
 3429.7441406 7.0000000000 8.7587394714 8.5000000000 0.3374393880 2.4718060493 5.7145080566 116.70290375 319.54699707 619.64202881 2.4281520844 2.4653985500
 3429.8964844 7.0000000000 8.7573843002 8.5000000000 0.3431850076 2.4629909992 5.7218999863 116.21009827 323.16415405 621.85528564 2.3857362270 2.6778168678
 3430.0490723 7.0000000000 8.7570219040 8.5000000000 0.3408676982 2.4594349861 5.4916071892 113.53330231 322.76794434 623.43255615 2.2964174747 2.4136879444
