# LAS format log file from PETREL
# Project units are specified as depth units
#==================================================================
~Version information
VERS.   2.0:
WRAP.   NO:
#==================================================================
~Well
STRT .m      3352.4772949 :
STOP .m      4371.5761719 :
STEP .m     0.00000000 :
NULL .        -999.250000 :
COMP.           : COMPANY
WELL.  34/6-1   : WELL
FLD.            : FIELD
LOC.            : LOCATION
SRVC.           : SERVICE COMPANY
DATE.  2018-09-11 14:48:51   : Log Export Date {yyyy-MM-dd HH:mm:ss}
PROV.           : PROVINCE
UWI.   34/6-1 S   : UNIQUE WELL ID
API.            : API NUMBER
#==================================================================
~Curve
DEPT .m                   : DEPTH
Lithology_geolink ._      : Lithology_geolink
CALI .in                  : CALI
BS .in                    : BS
NPHI .m3/m3               : NPHI
RHOB .g/cm3               : RHOB
PEF .b/e                  : PEF
GR .gAPI                  : GR
DTC .us/ft                : DTC
DTS .us/ft                : DTS
RDEP .ohm.m               : RDEP
RMED .ohm.m               : RMED
~Parameter
#==================================================================
~Ascii
# ...
 3554.5598145 4.0000000000 8.5885076523 8.5000000000 0.2372878939 2.3858349323 4.5831770897 65.179710388 292.60351563 492.78933716 2.6506800652 3.2232255936
 3554.7121582 4.0000000000 8.5865116119 8.5000000000 0.2360074073 2.4109680653 4.7967472076 65.585662842 293.22692871 489.16030884 2.6794254780 3.3740861416
 3554.8645020 4.0000000000 8.5875396729 8.5000000000 0.2336675972 2.4665861130 5.1568470001 64.270126343 292.05310059 488.79699707 2.7397365570 3.5126562119
 3555.0168457 4.0000000000 8.5878782272 8.5000000000 0.1942445934 2.5535299778 5.6598181725 61.974239349 284.57846069 488.05902100 2.8419868946 3.6020650864
 3555.1691895 4.0000000000 8.5879001617 8.5000000000 0.1480164975 2.6294949055 6.1037030220 65.846527100 278.13250732 486.01644897 3.0219042301 3.6745374203
 3555.3217773 4.0000000000 8.5865612030 8.5000000000 0.1263104975 2.6604371071 6.2776007652 65.088493347 273.23202515 475.04019165 3.3326127529 3.7613115311
 3555.4741211 16.000000000 8.5879182816 8.5000000000 0.1400143057 2.6576640606 6.1320071220 62.242271423 257.15054321 462.04531860 3.8178548813 4.5346951485
 3555.6264648 16.000000000 8.5877428055 8.5000000000 0.1889729947 2.6161799431 6.1343159676 51.933078766 248.46682739 438.86041260 4.5689721107 6.5178313255
 3555.7788086 16.000000000 8.5863618851 8.5000000000 0.2260041982 2.5428709984 6.3109607697 47.273071289 251.84289551 423.41207886 4.7931747437 6.5080180168
 3555.9313965 16.000000000 8.5931606293 8.5000000000 0.2371173948 2.4764180183 6.1971640587 56.061931610 255.29595947 415.83471680 4.4127664566 6.1788930893
 3556.0837402 16.000000000 8.6111402512 8.5000000000 0.2405889034 2.4729709625 5.4775180817 66.180610657 265.40499878 424.53692627 3.8049969673 5.3234286308
 3556.2360840 6.0000000000 8.6156110764 8.5000000000 0.2429541051 2.5008180141 5.0033397675 76.799880981 280.87942505 442.59808350 3.2892565727 4.4291272163
 3556.3884277 6.0000000000 8.5880680084 8.5000000000 0.2414159030 2.5053489208 4.7392210960 79.817977905 287.31231689 460.55303955 2.9792449474 3.6175973415
 3556.5410156 6.0000000000 8.5807743073 8.5000000000 0.2303147018 2.4913129807 5.5038671494 84.470321655 289.43203735 474.35180664 2.8690457344 3.3177974224
 3556.6933594 6.0000000000 8.5804786682 8.5000000000 0.2373905033 2.4612150192 7.1470880508 86.095466614 289.12612915 499.24749756 2.8993325233 3.2063982487
 3556.8457031 6.0000000000 8.5776424408 8.5000000000 0.2367033958 2.4324400425 9.3062372208 82.957878113 288.26779175 504.60745239 2.9888789654 3.3919820786
 3556.9980469 6.0000000000 8.5784597397 8.5000000000 0.2360540032 2.4032669067 10.431309700 79.233726501 288.07833862 503.69869995 3.0579094887 3.5759010315
 3557.1503906 6.0000000000 8.5785999298 8.5000000000 0.2343941927 2.3769938946 10.856769562 74.872497559 287.74249268 495.28329468 3.0601050854 3.5563466549
 3557.3029785 4.0000000000 8.5802955627 8.5000000000 0.2504431009 2.3685770035 10.445569992 72.009277344 290.54333496 487.79135132 3.0045788288 3.4311082363
 3557.4553223 4.0000000000 8.5774641037 8.5000000000 0.2604356110 2.3693280220 7.5568728447 68.577377319 289.08615112 485.78231812 2.9370059967 3.2710671425
 3557.6076660 4.0000000000 8.5814762115 8.5000000000 0.2722972929 2.3669099808 5.4916281700 61.814651489 290.74551392 486.29968262 2.8870658875 3.2495906353
 3557.7600098 4.0000000000 8.5791454315 8.5000000000 0.2642323077 2.3628530502 4.6073598862 56.243110657 294.37670898 487.40621948 2.8502211571 3.3529415131
 3557.9125977 4.0000000000 8.5776405334 8.5000000000 0.2664017081 2.3697168827 4.7862348557 52.291568756 295.23748779 490.71496582 2.8070843220 3.4094920158
 3558.0649414 4.0000000000 8.5791959763 8.5000000000 0.2692103088 2.3985419273 5.0956940651 55.699699402 293.14782715 493.65612793 2.7541174889 3.2524144650
 3558.2172852 4.0000000000 8.5837764740 8.5000000000 0.2663742006 2.4153859615 5.3598752022 58.705291748 293.96105957 492.55740356 2.7058658600 3.2078471184
 3558.3696289 4.0000000000 8.5809097290 8.5000000000 0.2547604144 2.3971080780 5.0376448631 61.526260376 295.42745972 492.55184937 2.6740663052 3.1804614067
 3558.5222168 4.0000000000 8.5789833069 8.5000000000 0.2594672143 2.3691821098 4.8677120209 59.183029175 296.40734863 494.38116455 2.6548855305 3.1396849155
 3558.6745605 4.0000000000 8.5791568756 8.5000000000 0.2447580993 2.3688669205 4.6956491470 57.635169983 299.53945923 492.03717041 2.6340832710 3.1639289856
 3558.8269043 5.0000000000 8.5788431168 8.5000000000 0.2398639023 2.3749148846 4.8381590843 56.813659668 300.45382690 491.72335815 2.5999217033 3.1433579922
 3558.9792480 5.0000000000 8.5827245712 8.5000000000 0.2385188937 2.3723890781 4.6738557816 57.546848297 303.20339966 494.81958008 2.5548899174 3.0847361088
 3559.1318359 5.0000000000 8.5877485275 8.5000000000 0.2472317964 2.3623650074 4.7029848099 58.613338470 302.13476563 500.66494751 2.5136806965 3.0353243351
 3559.2841797 5.0000000000 8.5888347626 8.5000000000 0.2397322953 2.3557560444 4.5971951485 58.770469666 301.12255859 502.40661621 2.4874000549 2.9583222866
 3559.4365234 5.0000000000 8.5878286362 8.5000000000 0.2368250042 2.3634030819 4.7767319679 59.054130554 300.50238037 508.23056030 2.4762804508 2.8874385357
 3559.5888672 5.0000000000 8.5891294479 8.5000000000 0.2308834046 2.3718140125 4.8118691444 58.289878845 299.11358643 510.12728882 2.4760084152 2.8845818043
 3559.7412109 5.0000000000 8.5880508423 8.5000000000 0.2410842031 2.3864388466 4.9189310074 59.351799011 296.35583496 511.06555176 2.4837203026 2.9075286388
 3559.8937988 5.0000000000 8.5877218246 8.5000000000 0.2521266043 2.3922939301 5.2278699875 58.782550812 297.49157715 512.18804932 2.4951519966 2.9447128773
 3560.0461426 5.0000000000 8.5887708664 8.5000000000 0.2518717051 2.3903009892 4.9069600105 62.170200348 296.89202881 502.99050903 2.5013523102 2.9808423519
 3560.1984863 5.0000000000 8.5864887238 8.5000000000 0.2430371046 2.3824090958 4.8585629463 60.774730682 296.23403931 494.45471191 2.4933838844 2.9828186035
 3560.3508301 5.0000000000 8.5875377655 8.5000000000 0.2483333945 2.3705279827 4.5547008514 62.217491150 295.12808228 489.72418213 2.4752995968 2.8920266628
 3560.5034180 5.0000000000 8.5878782272 8.5000000000 0.2474047989 2.3720552921 4.8787250519 60.883510590 298.35296631 489.14511108 2.4632973671 2.8022551537
 3560.6557617 5.0000000000 8.5877218246 8.5000000000 0.2511273921 2.3682050705 4.7635970116 62.385360718 298.15011597 485.45343018 2.4677700996 2.8484299183
 3560.8081055 5.0000000000 8.5878791809 8.5000000000 0.2571362853 2.3760941029 5.0395340919 65.581146240 294.93182373 492.58053589 2.4808928967 2.8908271790
 3560.9604492 5.0000000000 8.5879001617 8.5000000000 0.2578892112 2.3568539619 4.7072601318 69.639053345 294.02554321 492.29360962 2.4857575893 2.8978955746
 3561.1130371 5.0000000000 8.5877218246 8.5000000000 0.2545099854 2.3407509327 4.9139142036 70.343338013 293.11599731 492.44430542 2.4748063087 2.9083714485
 3561.2653809 5.0000000000 8.5876998901 8.5000000000 0.2449076027 2.3323171139 4.4870009422 71.436782837 293.96063232 498.04138184 2.4523801804 2.9097135067
 3561.4177246 5.0000000000 8.5889501572 8.5000000000 0.2517462075 2.3625710011 4.3875260353 70.455009460 296.85705566 511.00207520 2.4232552052 2.8632326126
 3561.5700684 5.0000000000 8.5865097046 8.5000000000 0.2733330131 2.3947041035 4.4025650024 71.852218628 298.14517212 513.67053223 2.3864302635 2.8224799633
 3561.7224121 5.0000000000 8.5877170563 8.5000000000 0.3089877069 2.4092519283 4.7690830231 72.329429626 301.73651123 514.90185547 2.3442618847 2.7642979622
 3561.8750000 5.0000000000 8.5889711380 8.5000000000 0.3378962874 2.3303790092 4.6649718285 74.471809387 306.41918945 516.29412842 2.3086359501 2.6118566990
 3562.0273438 5.0000000000 8.5983839035 8.5000000000 0.3265273869 2.3152539730 4.5795221329 72.309890747 309.80285645 516.92034912 2.2927725315 2.6869900227
 3562.1796875 5.0000000000 8.6139678955 8.5000000000 0.2849687934 2.3430891037 4.9718561172 71.143127441 313.49826050 517.19976807 2.3050835133 2.5636892319
