# LAS format log file from PETREL
# Project units are specified as depth units
#==================================================================
~Version information
VERS.   2.0:
WRAP.   NO:
#==================================================================
~Well
STRT .m      3352.4772949 :
STOP .m      4371.5761719 :
STEP .m     0.00000000 :
NULL .        -999.250000 :
COMP.           : COMPANY
WELL.  34/6-1   : WELL
FLD.            : FIELD
LOC.            : LOCATION
SRVC.           : SERVICE COMPANY
DATE.  2018-09-11 14:48:51   : Log Export Date {yyyy-MM-dd HH:mm:ss}
PROV.           : PROVINCE
UWI.   34/6-1 S   : UNIQUE WELL ID
API.            : API NUMBER
#==================================================================
~Curve
DEPT .m                   : DEPTH
Lithology_geolink ._      : Lithology_geolink
CALI .in                  : CALI
BS .in                    : BS
NPHI .m3/m3               : NPHI
RHOB .g/cm3               : RHOB
PEF .b/e                  : PEF
GR .gAPI                  : GR
DTC .us/ft                : DTC
DTS .us/ft                : DTS
RDEP .ohm.m               : RDEP
RMED .ohm.m               : RMED
~Parameter
#==================================================================
~Ascii
# ...
 3950.9519043 5.0000000000 8.5555038452 8.5000000000 0.1891463995 2.4775891304 4.2403321266 70.030273438 278.60079956 475.05041504 4.9348707199 5.0557785034
 3951.1044922 5.0000000000 8.5757827759 8.5000000000 0.1952406019 2.4713869095 4.1211905479 73.516876221 278.69580078 474.99099731 5.0510363579 4.9053134918
 3951.2568359 5.0000000000 8.5766811371 8.5000000000 0.1952853054 2.4705901146 4.0569639206 71.885574341 278.96020508 476.11788940 5.9673438072 5.7090525627
 3951.4091797 5.0000000000 8.5798969269 8.5000000000 0.1977919936 2.4741692543 3.8217275143 71.115196228 279.33029175 475.33810425 5.7746739388 5.5874552727
 3951.5615234 5.0000000000 8.5806570053 8.5000000000 0.1847984046 2.4750430584 3.8029859066 66.446075439 278.48941040 474.72909546 5.3410205841 5.4211640358
 3951.7141113 5.0000000000 8.5782890320 8.5000000000 0.1949865967 2.4724252224 3.8685417175 65.014625549 278.60708618 474.50048828 5.0756602287 5.3312721252
 3951.8664551 5.0000000000 8.5792503357 8.5000000000 0.1990799010 2.4704065323 3.9811813831 64.419692993 278.05410767 473.86663818 4.9959521294 5.2731409073
 3952.0187988 5.0000000000 8.5831537247 8.5000000000 0.2155752033 2.4710927010 4.1781253815 63.031589508 276.71450806 473.28900146 4.9560980797 5.2964558601
 3952.1711426 5.0000000000 8.5898494720 8.5000000000 0.2055391967 2.4689712524 4.2888574600 66.186210632 276.46109009 473.36840820 4.9413733482 5.2807698250
 3952.3237305 5.0000000000 8.5841712952 8.5000000000 0.2113316059 2.4680764675 4.2892537117 65.878402710 276.77481079 473.82189941 4.9370865822 5.2661380768
 3952.4760742 5.0000000000 8.5785770416 8.5000000000 0.2127359062 2.4663059711 4.0512471199 68.418418884 276.20181274 474.16452026 4.9372310638 5.2782731056
 3952.6284180 5.0000000000 8.5798768997 8.5000000000 0.2104768008 2.4657440186 4.0081825256 67.087997437 275.51651001 473.67321777 4.9372973442 5.2732987404
 3952.7807617 5.0000000000 8.6042346954 8.5000000000 0.2101106048 2.4659671783 3.8382618427 67.235687256 275.60870361 473.49441528 4.9354419708 5.2770061493
 3952.9331055 5.0000000000 8.6162967682 8.5000000000 0.2109035999 2.4778368473 3.8603382111 67.158164978 276.54489136 474.22143555 4.9329910278 5.2872037888
 3953.0856934 5.0000000000 8.5885553360 8.5000000000 0.2067133933 2.4820613861 3.5812470913 68.653114319 276.42929077 474.67660522 4.9324421883 5.2748327255
 3953.2380371 5.0000000000 8.5492744446 8.5000000000 0.1977126002 2.4944410324 3.7364780903 67.663902283 277.06439209 474.81311035 4.9343461990 5.2837042809
 3953.3903809 5.0000000000 8.5442848206 8.5000000000 0.1911585927 2.4917035103 3.7280418873 67.364929199 278.03189087 475.11087036 4.9357452393 5.2914385796
 3953.5427246 5.0000000000 8.5781230927 8.5000000000 0.1897857934 2.4854173660 3.9094028473 65.034187317 278.26019287 475.54391479 4.9326224327 5.2741117477
 3953.6953125 5.0000000000 8.5878257751 8.5000000000 0.1908607930 2.4741821289 4.0068817139 66.498512268 277.45230103 475.98590088 4.9265351295 5.2789497375
 3953.8476563 5.0000000000 8.5907325745 8.5000000000 0.1950197965 2.4703152180 4.0404224396 66.594200134 276.55151367 475.19378662 4.9231529236 5.2810115814
 3954.0000000 5.0000000000 8.5710716248 8.5000000000 0.1978234947 2.4734799862 4.1050486565 68.483261108 275.84759521 475.67779541 4.9256381989 5.2586088181
 3954.1523438 5.0000000000 8.5466527939 8.5000000000 0.2051514983 2.4760379791 3.7734913826 67.514472961 275.87750244 475.21472168 4.9312152863 5.2870144844
 3954.3049316 5.0000000000 8.5450716019 8.5000000000 0.2056428939 2.4871740341 3.7308285236 70.553558350 274.64340210 474.78588867 4.9349927902 5.2823357582
 3954.4572754 5.0000000000 8.5806579590 8.5000000000 0.2096191943 2.4862685204 3.6820902824 69.835243225 275.53021240 474.85958862 4.9355754852 5.2725701332
 3954.6096191 5.0000000000 8.5913333893 8.5000000000 0.2087596953 2.4971516132 3.9896912575 70.029930115 271.71481323 475.36178589 4.9347143173 5.2907271385
 3954.7619629 5.0000000000 8.5894184113 8.5000000000 0.2077955008 2.4977841377 3.9974644184 69.072013855 268.28979492 474.86538696 4.9336242676 5.2745838165
 3954.9143066 5.0000000000 8.5360660553 8.5000000000 0.2053786069 2.5100705624 4.1538400650 70.893226624 268.76940918 473.44149780 4.9307508469 5.2775793076
 3955.0668945 5.0000000000 8.4496841431 8.5000000000 0.2024209052 2.5113301277 3.9716212749 70.896430969 268.02178955 468.56289673 4.9238319397 5.2808132172
 3955.2192383 5.0000000000 8.4376878738 8.5000000000 0.2037975043 2.5317263603 4.1357898712 67.595878601 269.47671509 466.37161255 4.9145064354 5.2658963203
 3955.3715820 5.0000000000 8.4105873108 8.5000000000 0.2082901001 2.5436549187 4.2133531570 63.317840576 269.95150757 463.66159058 4.9091663361 5.2595062256
 3955.5239258 5.0000000000 8.3972234726 8.5000000000 0.2149596959 2.5489792824 4.3740115166 63.564647675 271.55929565 460.04937744 4.9118795395 5.2719783783
 3955.6765137 5.0000000000 8.3761777878 8.5000000000 0.2105212063 2.5389800072 4.1466665268 63.882263184 273.25738525 459.65979004 4.9195675850 5.2795763016
 3955.8288574 5.0000000000 8.3736209869 8.5000000000 0.2152597010 2.5278918743 4.1206707954 68.665138245 274.08401489 460.69439697 4.9275794029 5.2669057846
 3955.9812012 5.0000000000 8.3722591400 8.5000000000 0.2086614966 2.5116229057 3.8481712341 70.574569702 274.76919556 465.70568848 4.9346070290 5.2841734886
 3956.1335449 5.0000000000 8.3681726456 8.5000000000 0.2053900063 2.4985060692 3.7521338463 73.935729980 274.77648926 468.73706055 4.9396362305 5.2731642723
 3956.2861328 5.0000000000 7.5540199280 8.5000000000 0.1983149052 2.4950525761 3.6442925930 69.688697815 274.68670654 470.21990967 4.9383983612 5.3132262230
 3956.4384766 5.0000000000 6.7647352219 8.5000000000 0.2029481977 2.4951567650 3.8720800877 69.996025085 275.07238770 471.40164185 4.9272155762 5.2849650383
 3956.5908203 5.0000000000 6.6824464798 8.5000000000 0.2096758932 2.4943971634 4.0506668091 70.931449890 275.11770630 473.59588623 4.9099545479 5.2894816399
 3956.7431641 5.0000000000 6.6830358505 8.5000000000 0.2100424021 2.4914448261 4.1089320183 74.202117920 275.51748657 474.44808960 4.8972177505 5.2687263489
 3956.8955078 5.0000000000 6.6831002235 8.5000000000 0.2159819007 2.5042726994 4.1632671356 74.540641785 274.99758911 473.55569458 4.8982992172 5.2782001495
 3957.0480957 5.0000000000 6.6840820313 8.5000000000 0.2132171988 2.5146355629 4.2037172318 70.638290405 274.69680786 474.23770142 4.9147734642 5.2482514381
 3957.2004395 5.0000000000 6.6835741997 8.5000000000 0.2135147005 2.5265798569 4.0531377792 68.505371094 274.53768921 474.57400513 4.9454827309 5.3278360367
 3957.3527832 5.0000000000 6.6842150688 8.5000000000 0.2205712944 2.5273628235 4.1895165443 68.580543518 275.31280518 474.93170166 4.9822149277 5.3205533028
 3957.5051270 5.0000000000 6.7172412872 8.5000000000 0.2192575037 2.5240077972 4.1857171059 72.780281067 276.84078979 475.60250854 5.0469894409 5.3799381256
 3957.6577148 5.0000000000 6.9612998962 8.5000000000 0.2150712013 2.5247597694 4.6973810196 76.130340576 276.82089233 476.67010498 5.1382246017 5.4380030632
 3957.8100586 5.0000000000 7.3132839203 8.5000000000 0.2120988965 2.5266838074 5.3407535553 76.337516785 276.99481201 476.39401245 5.1760153770 5.4466857910
 3957.9624023 5.0000000000 7.5146307945 8.5000000000 0.2185916007 2.5113756657 6.9248118401 75.302085876 277.96038818 473.76031494 5.1518807411 5.4250574112
 3958.1147461 5.0000000000 7.7210841179 8.5000000000 0.2202925980 2.5234742165 7.7453279495 72.529174805 278.58349609 473.13031006 5.0721373558 5.3617835045
 3958.2673340 5.0000000000 7.8737659454 8.5000000000 0.2179002017 2.5409739017 7.7041893005 69.846603394 278.45169067 473.62899780 5.1360974312 5.4252171516
 3958.4196777 5.0000000000 8.2086086273 8.5000000000 0.2125090957 2.5855205059 6.5510001183 67.370223999 277.04660034 473.69619751 5.1859245300 5.4666123390
 3958.5720215 5.0000000000 8.3406181335 8.5000000000 0.2168142945 2.5954203606 6.1945381165 70.035865784 276.86099243 473.95251465 5.1513981819 5.4370303154
