# LAS format log file from PETREL
# Project units are specified as depth units
#==================================================================
~Version information
VERS.   2.0:
WRAP.   NO:
#==================================================================
~Well
STRT .m      3352.4772949 :
STOP .m      4371.5761719 :
STEP .m     0.00000000 :
NULL .        -999.250000 :
COMP.           : COMPANY
WELL.  34/6-1   : WELL
FLD.            : FIELD
LOC.            : LOCATION
SRVC.           : SERVICE COMPANY
DATE.  2018-09-11 14:48:51   : Log Export Date {yyyy-MM-dd HH:mm:ss}
PROV.           : PROVINCE
UWI.   34/6-1 S   : UNIQUE WELL ID
API.            : API NUMBER
#==================================================================
~Curve
DEPT .m                   : DEPTH
Lithology_geolink ._      : Lithology_geolink
CALI .in                  : CALI
BS .in                    : BS
NPHI .m3/m3               : NPHI
RHOB .g/cm3               : RHOB
PEF .b/e                  : PEF
GR .gAPI                  : GR
DTC .us/ft                : DTC
DTS .us/ft                : DTS
RDEP .ohm.m               : RDEP
RMED .ohm.m               : RMED
~Parameter
#==================================================================
~Ascii
# ...
 4285.1650391 3.0000000000 8.4740791321 8.5000000000 0.2188104987 2.3218007088 3.0273151398 25.698879242 280.65701294 431.25680542 2.4255390167 2.5620710850
 4285.3178711 3.0000000000 8.4714145660 8.5000000000 0.2199635953 2.3263750076 2.9133799076 25.219310760 281.68276978 449.52035522 2.4726874828 2.6238222122
 4285.4702148 3.0000000000 8.4728012085 8.5000000000 0.2196522951 2.3244819641 3.0934789181 23.649940491 284.94863892 454.71951294 2.5224442482 2.6817712784
 4285.6225586 3.0000000000 8.4726419449 8.5000000000 0.2100148052 2.3310980797 3.1467258930 23.471700668 278.46008301 442.03146362 2.5702502728 2.6919612885
 4285.7749023 3.0000000000 8.4717035294 8.5000000000 0.1935752034 2.3332371712 3.3083171844 23.976160049 279.08554077 452.24325562 2.6183829308 2.7490251064
 4285.9272461 3.0000000000 8.4728507996 8.5000000000 0.1707983017 2.3405256271 3.1400675774 22.649469376 273.38500977 448.35803223 2.6654219627 2.8635714054
 4286.0795898 3.0000000000 8.4730892181 8.5000000000 0.1611503065 2.3567199707 3.4413633347 19.981399536 264.52789307 405.03921509 2.7022500038 2.9748148918
 4286.2319336 3.0000000000 8.4704179764 8.5000000000 0.1641446054 2.3719620705 3.4219665527 20.792280197 256.30139160 379.80050659 2.7230219841 3.0453069210
 4286.3842773 3.0000000000 8.4714412689 8.5000000000 0.1729183942 2.3884840012 3.6761584282 21.062240601 260.22149658 375.46908569 2.7353410721 3.0858640671
 4286.5371094 3.0000000000 8.4702577591 8.5000000000 0.1769423932 2.3863630295 3.4315779209 22.188100815 260.20950317 375.13198853 2.7530226707 3.1566822529
 4286.6894531 3.0000000000 8.4702787399 8.5000000000 0.1901908070 2.3598499298 3.5052700043 22.050210953 261.79870605 375.19131470 2.7841739655 3.2305104733
 4286.8417969 3.0000000000 8.4718227386 8.5000000000 0.1770128012 2.3309180737 3.5172519684 22.990400314 264.31912231 375.19647217 2.8316061497 3.2551119328
 4286.9941406 3.0000000000 8.4718208313 8.5000000000 0.1417025030 2.3425040245 3.7574000359 24.363290787 261.70034790 375.42086792 2.9042465687 3.2364833355
 4287.1464844 3.0000000000 8.4759101868 8.5000000000 0.1061723009 2.4016375542 4.0878319740 25.746749878 259.99990845 375.29122925 3.0250713825 3.2475173473
 4287.2988281 3.0000000000 8.4796161652 8.5000000000 0.0923931673 2.4986286163 4.4267196655 30.187049866 248.83549500 375.36489868 3.2164878845 3.3699591160
 4287.4511719 3.0000000000 8.4788379669 8.5000000000 0.1028198972 2.5643718243 5.0036234856 35.078338623 251.56059265 375.48266602 3.4655909538 3.8543839455
 4287.6035156 3.0000000000 8.4776268005 8.5000000000 0.1365702003 2.5860538483 5.4413714409 44.884109497 249.33341980 375.55700684 3.6773989201 4.2554349899
 4287.7558594 5.0000000000 8.4812574387 8.5000000000 0.1734098047 2.5617671013 5.7194943428 56.658729553 247.23512268 375.43109131 3.7279589176 4.7724871635
 4287.9086914 5.0000000000 8.4816999435 8.5000000000 0.1838331074 2.5117940903 4.7929949760 69.057327271 253.99888611 375.52761841 3.6124670506 4.1407499313
 4288.0610352 5.0000000000 8.4826841354 8.5000000000 0.1713494062 2.4469408989 3.9174671173 65.230842590 260.47561646 375.67367554 3.4645528793 3.8554086685
 4288.2133789 3.0000000000 8.4810085297 8.5000000000 0.1526028961 2.4177870750 3.3765969276 53.524761200 262.80508423 375.65179443 3.3923692703 3.6922404766
 4288.3657227 3.0000000000 8.4802618027 8.5000000000 0.1413706988 2.4139571190 3.2566425800 39.189811707 262.63125610 375.86898804 3.3983795643 3.8688299656
 4288.5180664 3.0000000000 8.4801998138 8.5000000000 0.1528991014 2.4319710732 3.6075522900 35.542190552 266.85824585 375.91018677 3.4089233875 4.0027451515
 4288.6704102 3.0000000000 8.4805574417 8.5000000000 0.1762928069 2.4205648899 3.5490298271 32.933479309 262.00531006 375.99148560 3.3503859043 3.8579869270
 4288.8227539 3.0000000000 8.4790802002 8.5000000000 0.1927562952 2.3845987320 3.7567384243 32.930580139 271.33609009 381.26727295 3.2009739876 3.7195549011
 4288.9750977 3.0000000000 8.4848031998 8.5000000000 0.1973513067 2.3462698460 3.8074958324 31.634799957 241.80720520 388.06811523 2.9888730049 3.6081058979
 4289.1279297 3.0000000000 8.4800424576 8.5000000000 0.2061996013 2.3316318989 3.9286890030 31.477800369 277.26910400 398.14648438 2.7625479698 3.3011786938
 4289.2802734 3.0000000000 8.4787731171 8.5000000000 0.2037988007 2.3235080242 3.5647950172 28.977619171 285.05941772 411.35162354 2.5818421841 3.0345523357
 4289.4326172 3.0000000000 8.4825496674 8.5000000000 0.2001764029 2.3302218914 3.2277839184 25.492469788 279.25494385 418.16140747 2.4911425114 2.8399753571
 4289.5849609 3.0000000000 8.4842538834 8.5000000000 0.1993521005 2.3285019398 3.0508990288 25.675100327 270.48419189 426.44140625 2.5062310696 2.7349243164
 4289.7373047 3.0000000000 8.4823379517 8.5000000000 0.2027053982 2.3341858387 3.0185418129 22.257009506 266.61331177 436.66354370 2.6128740311 2.7271487713
 4289.8896484 3.0000000000 8.4828147888 8.5000000000 0.2034575045 2.3410439491 2.9968292713 23.436290741 263.55004883 440.87847900 2.7761011124 2.8009855747
 4290.0419922 3.0000000000 8.4818277359 8.5000000000 0.2008188963 2.3485679626 2.9705333710 20.992820740 266.24758911 448.58578491 2.9508450031 3.1384260654
 4290.1943359 3.0000000000 8.4858131409 8.5000000000 0.1979071945 2.3561706543 2.9436364174 23.866989136 263.69641113 458.46618652 3.0886940956 3.3148539066
 4290.3466797 3.0000000000 8.4850482941 8.5000000000 0.1955427974 2.3746504784 3.0445771217 24.323940277 267.54278564 463.30899048 3.1543440819 3.6408131123
 4290.4995117 3.0000000000 8.4835577011 8.5000000000 0.1905574948 2.3879849911 3.0678479671 25.165470123 265.73736572 462.93588257 3.1602225304 3.8308138847
 4290.6518555 3.0000000000 8.4842948914 8.5000000000 0.1865088046 2.3938651085 3.2227129936 25.967720032 263.84811401 462.83428955 3.1616101265 3.9861838818
 4290.8041992 3.0000000000 8.4821624756 8.5000000000 0.1771444976 2.3857131004 3.2417750359 26.883060455 262.11126709 451.45727539 3.1642935276 4.0584468842
 4290.9565430 3.0000000000 8.4832439423 8.5000000000 0.1814755052 2.3863101006 3.2358269691 27.674449921 261.21182251 443.67913818 3.0324261189 4.4940729141
 4291.1088867 3.0000000000 8.4847402573 8.5000000000 0.1862097979 2.3774156570 3.0868239403 26.784570694 264.61941528 448.58932495 2.5845406055 5.1713204384
 4291.2612305 3.0000000000 8.4833812714 8.5000000000 0.1922394037 2.3683769703 3.0508451462 26.945770264 266.80969238 448.72680664 1.9775530100 4.8460621834
 4291.4135742 3.0000000000 8.4845409393 8.5000000000 0.1931681037 2.3527023792 3.0357770920 26.517860413 267.57998657 450.87319946 1.5214619637 4.6321940422
 4291.5659180 3.0000000000 8.4837160110 8.5000000000 0.1873877943 2.3515295982 3.0610337257 26.185539246 267.52749634 449.61590576 1.3099470139 4.3125739098
 4291.7182617 3.0000000000 8.4845838547 8.5000000000 0.1742655933 2.3581087589 3.0469913483 25.182189941 270.10110474 443.30441284 1.3052220345 4.4478511810
 4291.8710938 3.0000000000 8.4820156097 8.5000000000 0.1623293012 2.3825259209 3.0448999405 24.142269135 268.45388794 435.64477539 1.4760020971 4.7330961227
 4292.0234375 3.0000000000 8.4843864441 8.5000000000 0.1485657990 2.4081299305 3.1999650002 21.388000488 255.97816467 425.66574097 1.8082112074 4.8633575439
 4292.1757813 3.0000000000 8.4837141037 8.5000000000 0.1328589022 2.4340872765 3.2114720345 19.690410614 246.18762207 419.18859863 2.3073596954 5.6338620186
 4292.3281250 3.0000000000 8.4849433899 8.5000000000 0.1271678060 2.4630513191 3.8953192234 17.028940201 243.62507629 403.51409912 2.9627976418 6.4833688736
 4292.4804688 3.0000000000 8.4831342697 8.5000000000 0.1191048995 2.5051131248 4.3993935585 19.924110413 228.00802612 392.35430908 3.9308612347 8.1578750610
 4292.6328125 3.0000000000 8.4882612228 8.5000000000 0.1034561023 2.5548655987 5.5311398506 22.807739258 219.78340149 382.65411377 5.1146540642 9.0714874268
 4292.7851563 3.0000000000 8.5167903900 8.5000000000 0.0827485025 2.5968275070 5.1055741310 27.955259323 213.41999817 362.46371460 5.4447841644 8.8858995438
