# LAS format log file from PETREL
# Project units are specified as depth units
#==================================================================
~Version information
VERS.   2.0:
WRAP.   NO:
#==================================================================
~Well
STRT .m      3352.4772949 :
STOP .m      4371.5761719 :
STEP .m     0.00000000 :
NULL .        -999.250000 :
COMP.           : COMPANY
WELL.  34/6-1   : WELL
FLD.            : FIELD
LOC.            : LOCATION
SRVC.           : SERVICE COMPANY
DATE.  2018-09-11 14:48:51   : Log Export Date {yyyy-MM-dd HH:mm:ss}
PROV.           : PROVINCE
UWI.   34/6-1 S   : UNIQUE WELL ID
API.            : API NUMBER
#==================================================================
~Curve
DEPT .m                   : DEPTH
Lithology_geolink ._      : Lithology_geolink
CALI .in                  : CALI
BS .in                    : BS
NPHI .m3/m3               : NPHI
RHOB .g/cm3               : RHOB
PEF .b/e                  : PEF
GR .gAPI                  : GR
DTC .us/ft                : DTC
DTS .us/ft                : DTS
RDEP .ohm.m               : RDEP
RMED .ohm.m               : RMED
~Parameter
#==================================================================
~Ascii
# ...
 4153.0346680 6.0000000000 8.6527471542 8.5000000000 0.2082909048 2.6270909309 5.4054021835 79.476882935 264.24575806 468.06381226 5.0161161423 5.2907714844
 4153.1870117 6.0000000000 8.6534261703 8.5000000000 0.2090581954 2.6187250614 5.3372697830 81.174880981 263.45886230 467.38137817 4.9819779396 5.2103185654
 4153.3393555 6.0000000000 8.6533212662 8.5000000000 0.2071291953 2.6176135540 5.3324136734 83.035469055 263.28796387 466.34381104 4.9704914093 5.2903938293
 4153.4916992 6.0000000000 8.6517810822 8.5000000000 0.2070786953 2.6130585670 5.2135171890 78.016006470 263.08764648 465.38964844 4.9858798981 5.2749824524
 4153.6440430 6.0000000000 8.6521358490 8.5000000000 0.1999530047 2.6074261665 5.0634889603 76.285911560 262.32431030 463.24551392 4.9927730560 5.2473659515
 4153.7963867 5.0000000000 8.6531829834 8.5000000000 0.1917712986 2.6182940006 5.2445373535 78.924110413 261.48959351 461.39443970 5.2381448746 5.4325208664
 4153.9487305 5.0000000000 8.6517801285 8.5000000000 0.1834789068 2.6261119843 5.2784276009 80.064193726 261.15008545 453.39077759 5.2568569183 5.5419077873
 4154.1010742 5.0000000000 8.6531209946 8.5000000000 0.1752652973 2.6332280636 5.2895932198 78.635292053 261.51370239 452.27886963 5.4291229248 5.6880841255
 4154.2539063 5.0000000000 8.6507949829 8.5000000000 0.1725208014 2.6267518997 5.1988987923 71.961502075 262.42797852 451.75704956 5.5945472717 5.8275566101
 4154.4062500 5.0000000000 8.6516637802 8.5000000000 0.1799093038 2.6011919975 5.2909598351 73.793006897 263.18484497 460.57681274 5.6405696869 5.7491912842
 4154.5585938 5.0000000000 8.6531438828 8.5000000000 0.1922634989 2.5797619820 5.2806100845 73.042327881 259.29055786 460.87957764 5.2346582413 5.3848242760
 4154.7109375 5.0000000000 8.6519565582 8.5000000000 0.1986172944 2.5855553150 5.4272437096 77.199462891 260.24142456 435.01510620 5.0367217064 5.0877313614
 4154.8632813 5.0000000000 8.6520681381 8.5000000000 0.2012549043 2.5901482105 5.4469146729 74.940979004 261.81387329 420.01776123 5.1276206970 5.2878227234
 4155.0156250 5.0000000000 8.6518316269 8.5000000000 0.2039124072 2.5929141045 5.3226008415 76.772140503 263.29940796 456.25930786 5.2815580368 5.5057291985
 4155.1679688 5.0000000000 8.6519794464 8.5000000000 0.1963340938 2.6008615494 5.2241292000 74.813011169 263.09631348 464.89230347 5.3525128365 5.6288380623
 4155.3203125 5.0000000000 8.6227588654 8.5000000000 0.2005864978 2.6286268234 5.1978874207 76.858070374 260.16839600 464.84091187 5.5169148445 5.7461481094
 4155.4731445 5.0000000000 8.6177797318 8.5000000000 0.1962797046 2.6585590839 5.4192810059 77.269767761 257.28552246 464.88317871 5.8170204163 6.1367206573
 4155.6254883 5.0000000000 8.6160783768 8.5000000000 0.1904197037 2.6666219234 5.5738477707 78.395767212 253.02598572 465.09359741 6.2643108368 6.7330694199
 4155.7778320 5.0000000000 8.6165266037 8.5000000000 0.1845175028 2.6720349789 5.7171120644 76.353652954 250.11322021 465.31295776 6.8360285759 7.6531333923
 4155.9301758 5.0000000000 8.6179437637 8.5000000000 0.1524607986 2.6685700417 5.9966011047 73.323196411 245.70005798 465.20755005 7.3680596352 8.8054084778
 4156.0825195 5.0000000000 8.5636148453 8.5000000000 0.1249513030 2.6616909504 6.2838120461 70.508033752 243.85151672 465.19253540 7.6799883842 9.9121894836
 4156.2348633 5.0000000000 8.5466489792 8.5000000000 0.1060217991 2.6529779434 5.7747669220 65.226196289 243.23219299 465.17590332 8.1184129715 11.047780037
 4156.3872070 5.0000000000 8.5469188690 8.5000000000 0.1129466966 2.6550314426 5.2959165573 61.306560516 245.48739624 465.20230103 8.1836652756 11.966500282
 4156.5395508 16.000000000 8.5454015732 8.5000000000 0.1308066994 2.6705482006 4.7489099503 59.525230408 251.20109558 465.15991211 8.1415624619 11.781100273
 4156.6918945 16.000000000 8.5456476212 8.5000000000 0.1526543945 2.7072513103 5.1449928284 63.380619049 253.43409729 465.22171021 7.5491628647 10.602640152
 4156.8447266 5.0000000000 8.5457000732 8.5000000000 0.1652891934 2.7319889069 5.6134891510 69.541038513 254.96769714 465.29916382 6.8698568344 9.3502779007
 4156.9970703 5.0000000000 8.5704050064 8.5000000000 0.1770620048 2.7304620743 5.7291421890 73.567550659 257.93063354 465.29357910 5.5794758797 7.6299281120
 4157.1494141 5.0000000000 8.6041040421 8.5000000000 0.1839413047 2.6958830357 5.5047202110 76.042839050 260.71566772 465.38037109 4.8355789185 6.3787136078
 4157.3017578 5.0000000000 8.6170167923 8.5000000000 0.1900645047 2.6420853138 5.1827416420 77.396629333 263.32302856 465.36889648 4.6401295662 5.8408060074
 4157.4541016 5.0000000000 8.6163139343 8.5000000000 0.1931120008 2.6125214100 5.3781290054 77.497917175 265.07598877 465.34436035 4.7805767059 5.5626969337
 4157.6064453 5.0000000000 8.6612148285 8.5000000000 0.1983134001 2.5905523300 5.3782606125 76.525398254 267.66308594 465.29998779 4.8893041611 5.4656968117
 4157.7587891 5.0000000000 8.6861715317 8.5000000000 0.2058710009 2.5947103500 5.6357541084 71.284469604 273.97299194 465.25628662 5.0314459801 5.4749197960
 4157.9111328 5.0000000000 8.6145582199 8.5000000000 0.2142104059 2.5899722576 5.8549370766 72.060752869 274.23779297 465.27621460 5.2270579338 5.5252108574
 4158.0639648 5.0000000000 8.5888051987 8.5000000000 0.2158156037 2.5890319347 5.7214589119 73.918388367 273.72662354 465.24395752 5.2936482430 5.5534253120
 4158.2163086 5.0000000000 8.5922584534 8.5000000000 0.2217164040 2.5946369171 5.8716750145 78.712890625 273.11090088 465.31750488 5.3073692322 5.5492582321
 4158.3686523 5.0000000000 8.5913782120 8.5000000000 0.2161335945 2.5981650352 5.5132780075 78.559120178 272.88766479 464.29058838 5.2882952690 5.5899000168
 4158.5209961 5.0000000000 8.5917367935 8.5000000000 0.2128029019 2.6081719398 5.6763238907 73.867507935 263.50570679 464.63342285 5.4510741234 5.7304301262
 4158.6733398 5.0000000000 8.5924272537 8.5000000000 0.2051533014 2.6124224663 5.2529020309 73.589630127 259.90316772 464.91906738 5.4824628830 5.7102551460
 4158.8256836 5.0000000000 8.5872287750 8.5000000000 0.2062655985 2.6195671558 5.0961709023 70.850402832 261.73193359 466.05895996 5.4690904617 5.7024917603
 4158.9780273 5.0000000000 8.5816860199 8.5000000000 0.2085549980 2.6237814426 5.1212797165 71.653381348 262.33178711 466.22845459 5.4839792252 5.7636380196
 4159.1303711 5.0000000000 8.5824403763 8.5000000000 0.2175596952 2.6253569126 5.3330373764 76.221603394 262.06689453 466.72619629 5.4401950836 5.7409291267
 4159.2827148 6.0000000000 8.5824213028 8.5000000000 0.2134135962 2.6300449371 5.7153038979 80.767303467 261.92260742 466.25820923 5.4611721039 5.7201790810
 4159.4355469 6.0000000000 8.6087903976 8.5000000000 0.2078797966 2.6296160221 5.7309889793 81.910507202 262.07562256 465.90240479 5.5631427765 5.8254909515
 4159.5878906 6.0000000000 8.6171798706 8.5000000000 0.2060471028 2.6319160461 5.2342247963 76.024810791 262.08111572 465.36837769 5.5272951126 5.8565101624
 4159.7402344 6.0000000000 8.6165466309 8.5000000000 0.2111824006 2.6322000027 5.0372571945 72.410621643 261.90332031 465.13854980 5.6360764503 5.9167308807
 4159.8925781 6.0000000000 8.6165790558 8.5000000000 0.2166367024 2.6271111965 4.9913215637 75.571228027 262.50085449 463.77157593 5.8151602745 6.0779876709
 4160.0449219 6.0000000000 8.6106157303 8.5000000000 0.2170214057 2.6313991547 5.3726902008 76.948028564 262.10803223 460.92330933 5.6439709663 5.9719767570
 4160.1972656 6.0000000000 8.6167783737 8.5000000000 0.2189650983 2.6291494370 5.8120651245 81.803421021 262.05828857 461.26278687 5.5850791931 5.9463210106
 4160.3496094 6.0000000000 8.6165275574 8.5000000000 0.2146427035 2.6296026707 6.1018252373 79.015457153 262.83538818 460.69638062 5.5534529686 5.9305119514
 4160.5019531 6.0000000000 8.6335639954 8.5000000000 0.2180334032 2.6298780441 6.0965771675 81.802696228 262.45028687 462.63867188 5.6227068901 5.9919638634
 4160.6542969 6.0000000000 8.6500883102 8.5000000000 0.2056217045 2.6332869530 5.8583164215 80.068916321 259.54458618 452.75698853 5.7310981750 6.1195831299
