# LAS format log file from PETREL
# Project units are specified as depth units
#==================================================================
~Version information
VERS.   2.0:
WRAP.   NO:
#==================================================================
~Well
STRT .m      212.75000000 :
STOP .m      3019.0000000 :
STEP .m     0.00000000 :
NULL .        -999.250000 :
COMP.           : COMPANY
WELL.  34/7-21   : WELL
FLD.            : FIELD
LOC.            : LOCATION
SRVC.           : SERVICE COMPANY
DATE.  2018-09-11 14:48:52   : Log Export Date {yyyy-MM-dd HH:mm:ss}
PROV.           : PROVINCE
UWI.   34/7-21   : UNIQUE WELL ID
API.            : API NUMBER
#==================================================================
~Curve
DEPT .m                   : DEPTH
Lithology_geolink ._      : Lithology_geolink
CALI .in                  : CALI
DRHO .g/cm3               : DRHO
NPHI .m3/m3               : NPHI
RHOB .g/cm3               : RHOB
PEF .b/e                  : PEF
GR .gAPI                  : GR
DTC .us/ft                : DTC
RDEP .ohm.m               : RDEP
SP .mV                    : SP
RSHA .ohm.m               : RSHA
RMED .ohm.m               : RMED
~Parameter
#==================================================================
~Ascii
# ...
 2222.7500000  -999.250000 14.025735855 0.0320970491 0.4897226691 2.3610644341 4.9177150726 94.539184570 122.34342957 1.1812906265  -999.250000 1.4889194965 1.4939615726
 2222.8750000  -999.250000 14.028960228 0.0327676535 0.4941374063 2.3634538651 4.8197631836 95.574005127 122.94021606 1.1806449890  -999.250000 1.4729905128 1.4913361073
 2223.0000000  -999.250000 14.032327652 0.0331950560 0.4930846691 2.3670935631 4.6550216675 96.477554321 123.00154114 1.1685132980  -999.250000 1.4635529518 1.4973385334
 2223.1250000  -999.250000 14.036219597 0.0346022025 0.4879594445 2.3713440895 4.4788036346 97.060150146 122.81988525 1.1559622288  -999.250000 1.4666922092 1.5089941025
 2223.2500000  -999.250000 14.040117264 0.0373659953 0.4842721820 2.3752064705 4.3523492813 97.325180054 123.05525208 1.1512935162  -999.250000 1.4817957878 1.5228908062
 2223.3750000  -999.250000 14.042419434 0.0399080887 0.4844669104 2.3775920868 4.3013515472 97.159866333 122.05075073 1.1569714546  -999.250000 1.5006422997 1.5354099274
 2223.5000000  -999.250000 14.042829514 0.0402555019 0.4867856503 2.3777837753 4.2906932831 96.479995728 121.36546326 1.1671962738  -999.250000 1.5134994984 1.5432355404
 2223.6250000  -999.250000 14.042769432 0.0389839187 0.4868891835 2.3766379356 4.2784309387 95.268005371 120.69935608 1.1788299084  -999.250000 1.5156505108 1.5428912640
 2223.7500000  -999.250000 14.044479370 0.0388016924 0.4825359583 2.3763709068 4.2601175308 93.843780518 119.88661194 1.1919920444  -999.250000 1.5088248253 1.5325706005
 2223.8750000  -999.250000 14.049242020 0.0409764349 0.4758627415 2.3786506653 4.2393198013 93.027679443 119.11541748 1.2098560333  -999.250000 1.4988057613 1.5142822266
 2224.0000000  -999.250000 14.054700851 0.0451083928 0.4706968069 2.3846035004 4.2634363174 93.283660889 118.39535522 1.2320582867  -999.250000 1.4887435436 1.4968621731
 2224.1250000  -999.250000 14.057988167 0.0516411513 0.4689614177 2.3950090408 4.4064655304 94.411544800 117.80245972 1.2527260780  -999.250000 1.4778618813 1.4877657890
 2224.2500000  -999.250000 14.057120323 0.0617767945 0.4694026113 2.4100155830 4.7254848480 95.596511841 117.45533752 1.2618238926  -999.250000 1.4668223858 1.4914355278
 2224.3750000  -999.250000 14.051363945 0.0738628358 0.4700125754 2.4280824661 5.1943244934 95.885208130 117.14159393 1.2476809025  -999.250000 1.4608860016 1.5085241795
 2224.5000000  -999.250000 14.042753220 0.0820344090 0.4687405527 2.4422645569 5.6755247116 95.349838257 117.06588745 1.2149622440  -999.250000 1.4653239250 1.5303621292
 2224.6250000  -999.250000 14.033134460 0.0818243176 0.4646376371 2.4428334236 5.9381837845 94.504333496 116.72961426 1.1747474670  -999.250000 1.4788315296 1.5488641262
 2224.7500000  -999.250000 14.024925232 0.0757951289 0.4587832391 2.4274935722 5.8729181290 93.988784790 116.13523865 1.1422991753  -999.250000 1.4881334305 1.5574772358
 2224.8750000  -999.250000 14.021356583 0.0690498501 0.4533173442 2.4037122726 5.5196399689 94.399948120 115.94471741 1.1324944496  -999.250000 1.4662153721 1.5522341728
 2225.0000000  -999.250000 14.023109436 0.0638401955 0.4505235553 2.3826689720 5.1268100739 95.660629272 116.26484680 1.1407170296  -999.250000 1.3849060535 1.5391166210
 2225.1250000  -999.250000 14.030109406 0.0598747693 0.4511951208 2.3710155487 4.8488759995 97.501007080 117.62965393 1.1574208736  -999.250000 1.2407162189 1.5240716934
 2225.2500000  -999.250000 14.041213989 0.0564029254 0.4530996680 2.3670725822 4.6630916595 99.418777466 119.24070740 1.1742074490  -999.250000 1.0776195526 1.5119912624
 2225.3750000  -999.250000 14.054671288 0.0525311083 0.4527001977 2.3673090935 4.4809732437 100.60508728 120.92536926 1.1876854897  -999.250000 0.9583585262 1.5068526268
 2225.5000000  -999.250000 14.068512917 0.0478027388 0.4478666782 2.3693180084 4.2701091766 100.68310547 121.98718262 1.1988248825  -999.250000 0.9141736031 1.5085880756
 2225.6250000  -999.250000 14.082206726 0.0431847721 0.4398983121 2.3722553253 4.0899410248 99.817214966 122.01448059 1.2066676617  -999.250000 0.9541929960 1.5166184902
 2225.7500000  -999.250000 14.095456123 0.0397378579 0.4320123196 2.3752107620 3.9872236252 98.649993896 121.72392273 1.2089054585  -999.250000 1.0751287937 1.5289521217
 2225.8750000  -999.250000 14.107483864 0.0375540629 0.4262135625 2.3774557114 3.9461660385 97.864578247 122.02171326 1.2039010525  -999.250000 1.2426841259 1.5418348312
 2226.0000000  -999.250000 14.117954254 0.0368518755 0.4236910343 2.3790884018 3.9108057022 97.427337646 121.35808563 1.1950786114  -999.250000 1.3935709000 1.5515542030
 2226.1250000  -999.250000 14.126565933 0.0385351479 0.4237995148 2.3809933662 3.8660593033 97.040725708 121.14918518 1.1844120026  -999.250000 1.4774920940 1.5569851398
 2226.2500000  -999.250000 14.132874489 0.0425255373 0.4246600866 2.3837237358 3.7928977013 96.651275635 121.63468933 1.1716325283  -999.250000 1.4955708981 1.5591926575
 2226.3750000  -999.250000 14.136114120 0.0466433093 0.4260780215 2.3868932724 3.7032556534 96.654022217 120.47900391 1.1549608707  -999.250000 1.4886772633 1.5602316856
 2226.5000000  -999.250000 14.136907578 0.0483273566 0.4303958416 2.3893995285 3.6587567329 97.165969849 119.91931152 1.1353833675  -999.250000 1.4849240780 1.5613570213
 2226.6250000  -999.250000 14.135406494 0.0473435968 0.4386138022 2.3903827667 3.6844601631 97.908065796 120.15747833 1.1162555218  -999.250000 1.4911673069 1.5617125034
 2226.7500000  -999.250000 14.131045341 0.0456061512 0.4471604228 2.3900594711 3.7924437523 98.444046021 120.66482544 1.1019036770  -999.250000 1.5032198429 1.5599546432
 2226.8750000  -999.250000 14.121477127 0.0444199368 0.4527806044 2.3890924454 3.9514808655 98.523162842 120.85078430 1.0946896076  -999.250000 1.5110461712 1.5552217960
 2227.0000000  -999.250000 14.105889320 0.0443581715 0.4555908442 2.3881626129 4.1272315979 98.447463989 121.17627716 1.0926303864  -999.250000 1.5092144012 1.5485463142
 2227.1250000  -999.250000 14.084477425 0.0453377962 0.4589061737 2.3873581886 4.3411111832 98.445114136 121.28956604 1.0958240032  -999.250000 1.5005309582 1.5408074856
 2227.2500000  -999.250000 14.059579849 0.0470988378 0.4653147459 2.3862771988 4.6497659683 98.462570190 121.62985229 1.1046898365  -999.250000 1.4900331497 1.5329244137
 2227.3750000  -999.250000 14.035936356 0.0493172035 0.4743933976 2.3846211433 5.1020708084 98.195877075 121.02458191 1.1183590889  -999.250000 1.4784963131 1.5262148380
 2227.5000000  -999.250000 14.017005920 0.0517908409 0.4839879870 2.3823041916 5.6660909653 97.620635986 120.34832764 1.1324863434  -999.250000 1.4651980400 1.5214996338
 2227.6250000  -999.250000 14.003108978 0.0545787737 0.4917493463 2.3792614937 6.1448211670 96.957229614 120.02339172 1.1448221207  -999.250000 1.4526381493 1.5194461346
 2227.7500000  -999.250000 13.992299080 0.0576769337 0.4968584776 2.3752388954 6.3587284088 96.414947510 119.83218384 1.1548411846  -999.250000 1.4449543953 1.5205998421
 2227.8750000  -999.250000 13.982292175 0.0606561601 0.5001509190 2.3700828552 6.2882146835 96.026809692 120.14959717 1.1627106667  -999.250000 1.4440350533 1.5250132084
 2228.0000000  -999.250000 13.972597122 0.0621063262 0.5028423071 2.3646020889 6.0589351654 95.688217163 120.62329102 1.1701991558  -999.250000 1.4482390881 1.5303785801
 2228.1250000  -999.250000 13.964817047 0.0608983189 0.5047807693 2.3604030609 5.8360290527 95.350296021 120.81239319 1.1779534817  -999.250000 1.4543848038 1.5347983837
 2228.2500000  -999.250000 13.960889816 0.0583056659 0.5050325394 2.3586072922 5.6206789017 94.994415283 120.68258667 1.1846790314  -999.250000 1.4589886665 1.5373303890
 2228.3750000  -999.250000 13.962305069 0.0569599420 0.5034346581 2.3592333794 5.3497934341 94.653152466 120.30656433 1.1872224808  -999.250000 1.4605553150 1.5382359028
 2228.5000000  -999.250000 13.966283798 0.0581267923 0.5009192228 2.3615689278 5.0376005173 94.396820068 119.76387024 1.1849207878  -999.250000 1.4603102207 1.5389347076
 2228.6250000  -999.250000 13.969466209 0.0596180856 0.4989379644 2.3642649651 4.8173551559 94.406066895 119.38568115 1.1787142754  -999.250000 1.4600281715 1.5400390625
