# LAS format log file from PETREL
# Project units are specified as depth units
#==================================================================
~Version information
VERS.   2.0:
WRAP.   NO:
#==================================================================
~Well
STRT .m      806.37493896 :
STOP .m      2790.0000000 :
STEP .m     0.00000000 :
NULL .        -999.250000 :
COMP.           : COMPANY
WELL.  34/7-12   : WELL
FLD.            : FIELD
LOC.            : LOCATION
SRVC.           : SERVICE COMPANY
DATE.  2018-09-11 14:48:51   : Log Export Date {yyyy-MM-dd HH:mm:ss}
PROV.           : PROVINCE
UWI.   34/7-12   : UNIQUE WELL ID
API.            : API NUMBER
#==================================================================
~Curve
DEPT .m                   : DEPTH
Lithology_geolink ._      : Lithology_geolink
CALI .in                  : CALI
DRHO .g/cm3               : DRHO
NPHI .m3/m3               : NPHI
RHOB .g/cm3               : RHOB
GR .gAPI                  : GR
DTC .us/ft                : DTC
RDEP .ohm.m               : RDEP
SP .mV                    : SP
RSHA .ohm.m               : RSHA
RMED .ohm.m               : RMED
~Parameter
#==================================================================
~Ascii
# ...
 2782.6250000  -999.250000 11.765000343 -0.004990234 0.2661414444 2.4580059052 72.960998535 91.881004333 1.6829999685 7.0950698853  -999.250000 3.1600000858
 2782.7500000  -999.250000 11.720999718 0.0000234375 0.2668828070 2.4610176086 72.960998535 91.881004333 1.6849999428 7.1310529709  -999.250000 2.9149999619
 2782.8750000  -999.250000 11.656000137 0.0120253908 0.2683242857 2.4700253010 72.960998535 91.881004333 1.6870000362 7.1580176353  -999.250000 2.8139998913
 2783.0002441  -999.250000 11.571000099 0.0250429697 0.2705194652 2.4830546379 72.960998535 91.881004333 1.6890000105 7.1669645309  -999.250000 2.7850000858
 2783.1252441  -999.250000 11.467000008 0.0360117182 0.2729360163 2.4970469475 72.960998535 91.881004333 1.6900000572 7.1579647064  -999.250000 2.7869999409
 2783.2497559  -999.250000 11.359999657 0.0390000008 0.2744700015 2.5090000629 72.960998535 91.881004333 1.6900000572 7.1490001678  -999.250000 2.8050000668
 2783.3747559  -999.250000 11.262999535 0.0329999998 0.2748100162 2.5160000324 72.960998535 91.881004333 1.6909999847 7.1589999199  -999.250000 2.8159999847
 2783.5000000  -999.250000 11.185000420 0.0250000004 0.2746100128 2.5160000324 72.960998535 91.881004333 1.6929999590 7.1900000572  -999.250000 2.7799999714
 2783.6250000  -999.250000 11.109999657 0.0170000009 0.2748199999 2.5109999180 72.960998535 91.881004333 1.6950000525 7.2230000496  -999.250000 2.6740000248
 2783.7500000  -999.250000 11.008000374 0.0109883044 0.2763327956 2.5019688606 72.960998535 91.881004333 1.6979999542 7.2329335213  -999.250000 2.5139999390
 2783.8750000  -999.250000 10.854999542 0.0080019534 0.2796090543 2.4939901829 72.960998535 91.881004333 1.7009999752 7.2159414291  -999.250000 2.3459999561
 2784.0000000  -999.250000 10.657999992 0.0090117184 0.2842490971 2.4889981747 72.960998535 91.881004333 1.7050000429 7.1859645844  -999.250000 2.2139999866
 2784.1250000  -999.250000 10.447999954 0.0150136715 0.2888955772 2.4880058765 72.960998535 91.881004333 1.7079999447 7.1680178642  -999.250000 2.1270000935
 2784.2500000  -999.250000 10.267999649 0.0220117178 0.2917390168 2.4910058975 72.960998535 91.881004333 1.7100000381 7.1770529747  -999.250000 2.0859999657
 2784.3750000  -999.250000 10.137001038 0.0280000009 0.2912224829 2.4940018654 72.960998535 91.881004333 1.7120000124 7.2040624619  -999.250000 2.0739998817
 2784.5000000  -999.250000 10.050999641 0.0279882830 0.2873673737 2.4949979782 72.960998535 91.881004333 1.7120000124 7.2360625267  -999.250000 2.0829999447
 2784.6250000  -999.250000 9.9899997711 0.0219804682 0.2808954418 2.4939939976 72.960998535 91.881004333 1.7130000591 7.2680745125  -999.250000 2.1250000000
 2784.7500000  -999.250000 9.9460010529 0.0119804684 0.2734562159 2.4909920692 72.960998535 91.881004333 1.7130000591 7.3060822487  -999.250000 2.1979999542
 2784.8750000  -999.250000 9.9200000763 0.0019804689 0.2663892806 2.4869940281 72.960998535 91.881004333 1.7130000591 7.3480939865  -999.250000 2.2899999619
 2785.0000000  -999.250000 9.9119997025 -0.008013672 0.2609127164 2.4839961529 72.960998535 91.881004333 1.7130000591 7.3961052895  -999.250000 2.3829998970
 2785.1250000  -999.250000 9.9149999619 -0.015007813 0.2571958303 2.4819982052 72.960998535 91.881004333 1.7130000591 7.4501228333  -999.250000 2.4590001106
 2785.2500000  -999.250000 9.9190006256 -0.018996093 0.2550566494 2.4810037613 72.960998535 91.881004333 1.7130000591 7.5131464005  -999.250000 2.5050001144
 2785.3752441  -999.250000 9.9209995270 -0.016984375 0.2533326745 2.4830000401 72.960998535 91.881004333 1.7130000591 7.5883398056  -999.250000 2.5269999504
 2785.5002441  -999.250000 9.9169998169 -0.012960938 0.2514518201 2.4830000401 72.960998535 91.881004333 1.7130000591 7.6754026413  -999.250000 2.5390000343
 2785.6247559  -999.250000 9.9079999924 -0.003000000 0.2493700087 2.4830000401 72.960998535 91.881004333 1.7130000591 7.7779998779  -999.250000 2.5490000248
 2785.7497559  -999.250000 9.8979997635 0.0099999998 0.2473800033 2.4809999466 72.960998535 91.881004333 1.7130000591 7.8959994316  -999.250000 2.5599999428
 2785.8750000  -999.250000 9.8879995346 0.0250000004 0.2456199974 2.4809999466 72.960998535 91.881004333 1.7139999866 8.0299997330  -999.250000 2.5759999752
 2786.0000000  -999.250000 9.8800001144 0.0430625007 0.2442355156 2.4850273132 72.960998535 91.881004333 1.7139999866 8.1755390167  -999.250000 2.5969998837
 2786.1250000  -999.250000 9.8750000000 0.0590350889 0.2430862933 2.4920351505 72.960998535 91.881004333 1.7139999866 8.3134403229  -999.250000 2.6189999580
 2786.2500000  -999.250000 9.8699998856 0.0679941475 0.2421382964 2.5010097027 72.960998535 91.881004333 1.7139999866 8.4261636734  -999.250000 2.6410000324
 2786.3750000  -999.250000 9.8640012741 0.0649804696 0.2412584126 2.5060038567 72.960998535 91.881004333 1.7130000591 8.5101232529  -999.250000 2.6619999409
 2786.5000000  -999.250000 9.8590002060 0.0549765639 0.2404486686 2.5079939365 72.960998535 91.881004333 1.7130000591 8.5730915070  -999.250000 2.6789999008
 2786.6250000  -999.250000 9.8529996872 0.0429804698 0.2397689372 2.5049941540 72.960998535 91.881004333 1.7130000591 8.6200723648  -999.250000 2.6919999123
 2786.7500000  -999.250000 9.8489999771 0.0329824202 0.2392276824 2.5019903183 72.960998535 91.881004333 1.7130000591 8.6570482254  -999.250000 2.7019999027
 2786.8750000  -999.250000 9.8479986191 0.0239746105 0.2380342782 2.4969842434 72.960998535 91.881004333 1.7130000591 8.6820297241  -999.250000 2.7070000172
 2787.0000000  -999.250000 9.8500003815 0.0109726563 0.2350935191 2.4889786243 72.960998535 91.881004333 1.7130000591 8.6970329285  -999.250000 2.7100000381
 2787.1250000  -999.250000 9.8540010452 -0.003029297 0.2317811400 2.4779882431 72.960998535 91.881004333 1.7130000591 8.7140464783  -999.250000 2.7100000381
 2787.2500000  -999.250000 9.8590002060 -0.018050781 0.2323757112 2.4720115662 72.960998535 91.881004333 1.7130000591 8.7380504608  -999.250000 2.7090001106
 2787.3750000  -999.250000 9.8640012741 -0.044062499 0.2353044897 2.4780409336 72.960998535 91.881004333 1.7130000591 8.7640390396  -999.250000 2.7070000172
 2787.5000000  -999.250000 9.8660001755 -0.076031245 0.2376002967 2.4990508556  -999.250000 91.881004333 1.7130000591 8.7840223312  -999.250000 2.7049999237
 2787.6250000  -999.250000 9.8649997711 -0.091957033 0.2377460152 2.5250391960  -999.250000 91.881004333 1.7130000591 8.7850484848  -999.250000 2.7039999962
 2787.7502441  -999.250000 9.8640012741 -0.069769531 0.2356959283 2.5451173782  -999.250000  -999.250000  -999.250000  -999.250000  -999.250000  -999.250000
 2787.8752441  -999.250000 9.8649997711 -0.010750000 0.2321136743 2.5750820637  -999.250000  -999.250000  -999.250000  -999.250000  -999.250000  -999.250000
 2787.9997559  -999.250000 9.8699998856 0.0529999994 0.2330500036 2.5959999561  -999.250000  -999.250000  -999.250000  -999.250000  -999.250000  -999.250000
 2788.1250000  -999.250000 9.8769998550 0.0920000002 0.2352499962 2.5789999962  -999.250000  -999.250000  -999.250000  -999.250000  -999.250000  -999.250000
 2788.2500000  -999.250000 9.8830003738 0.0989999995 0.2358300090 2.5360000134  -999.250000  -999.250000  -999.250000  -999.250000  -999.250000  -999.250000
 2788.3750000  -999.250000 9.8879995346 0.0899804756 0.2357469946 2.5059804916  -999.250000  -999.250000  -999.250000  -999.250000  -999.250000  -999.250000
 2788.5000000  -999.250000 9.8900003433 0.0848635510 0.2195201665 2.5010232925  -999.250000  -999.250000  -999.250000  -999.250000  -999.250000  -999.250000
 2788.6250000  -999.250000 9.8900003433 0.0499042980 0.1785864830 2.5070097446  -999.250000  -999.250000  -999.250000  -999.250000  -999.250000  -999.250000
 2788.7500000  -999.250000 9.8900003433 0.0009980469 0.1307648122 2.5120019913  -999.250000  -999.250000  -999.250000  -999.250000  -999.250000  -999.250000
 2788.8750000  -999.250000 9.8900003433 0.0000000000 0.1127866656 2.5129981041  -999.250000  -999.250000  -999.250000  -999.250000  -999.250000  -999.250000
