# LAS format log file from PETREL
# Project units are specified as depth units
#==================================================================
~Version information
VERS.   2.0:
WRAP.   NO:
#==================================================================
~Well
STRT .m      377.87487793 :
STOP .m      3151.8757324 :
STEP .m     0.00000000 :
NULL .        -999.250000 :
COMP.           : COMPANY
WELL.  34/7-5   : WELL
FLD.            : FIELD
LOC.            : LOCATION
SRVC.           : SERVICE COMPANY
DATE.  2018-09-11 14:48:52   : Log Export Date {yyyy-MM-dd HH:mm:ss}
PROV.           : PROVINCE
UWI.   34/7-5   : UNIQUE WELL ID
API.            : API NUMBER
#==================================================================
~Curve
DEPT .m                   : DEPTH
Lithology_geolink ._      : Lithology_geolink
CALI .in                  : CALI
DRHO .g/cm3               : DRHO
NPHI .m3/m3               : NPHI
RHOB .g/cm3               : RHOB
GR .gAPI                  : GR
DTC .us/ft                : DTC
RDEP .ohm.m               : RDEP
SP .mV                    : SP
RSHA .ohm.m               : RSHA
RMED .ohm.m               : RMED
~Parameter
#==================================================================
~Ascii
# ...
 747.62500000  -999.250000 18.500999451 0.0920000002  -999.250000 2.2369999886 67.595001221 133.15699768 2.7209999561 71.563003540 2.2550001144 2.2550001144
 747.75000000  -999.250000 18.499000549 0.0879999995  -999.250000 2.2330000401 68.007003784 133.36599731 2.7149999142 71.619003296 2.2400000095 2.2400000095
 747.87493896  -999.250000 18.496999741 0.0839999989  -999.250000 2.2360000610 68.345001221 133.51800537 2.7100000381 71.654998779 2.2379999161 2.2379999161
 747.99993896  -999.250000 18.495000839 0.0790000036  -999.250000 2.2430000305 68.252998352 133.32099915 2.7039999962 71.641998291 2.2379999161 2.2379999161
 748.12493896  -999.250000 18.492000580 0.0710000023  -999.250000 2.2469999790 68.023002625 132.94900513 2.6989998817 71.472000122 2.2390000820 2.2390000820
 748.24987793  -999.250000 18.489999771 0.0619999990  -999.250000 2.2520000935 67.597999573 132.35600281 2.6940000057 71.277000427 2.2449998856 2.2449998856
 748.37506104  -999.250000 18.488000870 0.0529999994  -999.250000 2.2620000839 67.137001038 131.72799683 2.6970000267 71.003997803 2.2509999275 2.2509999275
 748.50012207  -999.250000 18.486000061 0.0439999998  -999.250000 2.2760000229 66.676002502 131.10400391 2.7209999561 70.694999695 2.2569999695 2.2569999695
 748.62506104  -999.250000 18.483999252 0.0489999987  -999.250000 2.2890000343 66.221000671 130.63099670 2.7439999580 70.828002930 2.2630000114 2.2630000114
 748.75006104  -999.250000 18.481000900 0.0590000004  -999.250000 2.3020000458 65.804000854 130.27699280 2.7660000324 71.064002991 2.2699999809 2.2699999809
 748.87500000  -999.250000 18.472999573 0.0680000037  -999.250000 2.3120000362 65.522003174 130.02400208 2.7850000858 71.226997375 2.2760000229 2.2760000229
 749.00000000  -999.250000 18.461999893 0.0719999969  -999.250000 2.3110001087 65.905998230 129.77200317 2.8029999733 71.390998840 2.2850000858 2.2850000858
 749.12493896  -999.250000 18.450000763 0.0719999969  -999.250000 2.3039999008 66.582000732 129.58999634 2.8220000267 71.588996887 2.2939999104 2.2939999104
 749.24987793  -999.250000 18.440000534 0.0750000030  -999.250000 2.2969999313 67.424003601 129.50999451 2.8399999142 71.905998230 2.3039999008 2.3039999008
 749.37481689  -999.250000 18.434000015 0.0839999989  -999.250000 2.2899999619 68.246002197 129.14500427 2.8580000401 72.226997375 2.3139998913 2.3139998913
 749.50006104  -999.250000 18.427999496 0.0939999968  -999.250000 2.2829999924 67.859001160 128.52200317 2.8759999275 72.277000427 2.3239998817 2.3239998817
 749.62512207  -999.250000 18.430000305 0.1019999981  -999.250000 2.2809998989 67.684997559 128.02499390 2.8940000534 72.111000061 2.3329999447 2.3329999447
 749.75006104  -999.250000 18.462999344 0.0979999974  -999.250000 2.2799999714 67.460998535 127.81800079 2.9059998989 71.944999695 2.3389999866 2.3389999866
 749.87506104  -999.250000 18.513000488 0.0879999995  -999.250000 2.2780001163 67.402999878 128.00100708 2.9189999104 71.778999329 2.3389999866 2.3389999866
 750.00000000  -999.250000 18.558000565 0.0759999976  -999.250000 2.2720000744 68.111999512 128.24299622 2.9309999943 71.602996826 2.3389999866 2.3389999866
 750.12500000  -999.250000 18.601999283 0.0640000030  -999.250000 2.2660000324 68.333999634 128.58200073 2.9430000782 71.425003052 2.3389999866 2.3389999866
 750.24993896  -999.250000 18.645999908 0.0549999997  -999.250000 2.2650001049 67.934997559 129.02400208 2.9379999638 71.247001648 2.3399999142 2.3399999142
 750.37500000  -999.250000 18.690000534 0.0480000004  -999.250000 2.2639999390 66.933998108 129.26100159 2.9319999218 71.174003601 2.3480000496 2.3480000496
 750.49993896  -999.250000 18.735000610 0.0399999991  -999.250000 2.2630000114 65.934997559 129.37500000 2.9249999523 71.272003174 2.3570001125 2.3570001125
 750.62487793  -999.250000 18.775999069 0.0359999985  -999.250000 2.2630000114 65.045997620 129.33999634 2.9189999104 71.513000488 2.3589999676 2.3589999676
 750.75012207  -999.250000 18.802000046 0.0340000018  -999.250000 2.2639999390 64.461997986 129.26800537 2.9130001068 72.025001526 2.3550000191 2.3550000191
 750.87512207  -999.250000 18.812999725 0.0320000015  -999.250000 2.2650001049 64.260002136 129.38299561 2.9059998989 72.634002686 2.3469998837 2.3469998837
 751.00006104  -999.250000 18.818000793 0.0329999998  -999.250000 2.2630000114 65.403999329 130.08200073 2.9000000954 73.241996765 2.3389999866 2.3389999866
 751.12506104  -999.250000 18.812999725 0.0350000001  -999.250000 2.2609999180 66.549003601 130.84300232 2.8940000534 73.767997742 2.3150000572 2.3150000572
 751.25000000  -999.250000 18.798999786 0.0379999988  -999.250000 2.2599999905 67.208999634 131.60400391 2.8880000114 73.566001892 2.2829999924 2.2829999924
 751.37500000  -999.250000 18.781999588 0.0419999994  -999.250000 2.2630000114 67.824996948 132.35899353 2.8689999580 72.949996948 2.2550001144 2.2550001144
 751.49993896  -999.250000 18.763999939 0.0469999984  -999.250000 2.2679998875 68.177001953 133.07899475 2.8469998837 72.315002441 2.2509999275 2.2509999275
 751.62493896  -999.250000 18.747999191 0.0520000011  -999.250000 2.2730000019 68.127998352 133.44099426 2.8250000477 71.811996460 2.2509999275 2.2509999275
 751.74987793  -999.250000 18.739000320 0.0560000017  -999.250000 2.2769999504 67.763999939 133.15600586 2.8090000153 71.440002441 2.2509999275 2.2509999275
 751.87487793  -999.250000 18.736999512 0.0570000000  -999.250000 2.2799999714 67.367996216 132.63299561 2.8150000572 71.685997009 2.2500000000 2.2500000000
 752.00012207  -999.250000 18.729999542 0.0570000000  -999.250000 2.2839999199 66.902999878 131.85600281 2.8220000267 72.257003784 2.2500000000 2.2500000000
 752.12506104  -999.250000 18.715999603 0.0549999997  -999.250000 2.2869999409 66.436996460 131.07000732 2.8289999962 72.824996948 2.2550001144 2.2550001144
 752.25006104  -999.250000 18.701000214 0.0560000017  -999.250000 2.2909998894 66.117996216 130.29100037 2.8350000381 73.302001953 2.2620000839 2.2620000839
 752.37500000  -999.250000 18.683000565 0.0529999994  -999.250000 2.2909998894 66.099998474 129.52600098 2.8420000076 73.750999451 2.2690000534 2.2690000534
 752.50000000  -999.250000 18.663000107 0.0430000015  -999.250000 2.2820000648 66.627998352 128.84199524 2.8480000496 73.914001465 2.2699999809 2.2699999809
 752.62493896  -999.250000 18.642999649 0.0329999998  -999.250000 2.2709999084 67.387001038 128.30799866 2.8550000191 73.782997131 2.2699999809 2.2699999809
 752.74987793  -999.250000 18.625000000 0.0240000002  -999.250000 2.2599999905 68.058998108 128.18400574 2.8529999256 73.347000122 2.2690000534 2.2690000534
 752.87481689  -999.250000 18.617000580 0.0189999994  -999.250000 2.2490000725 68.703002930 128.66499329 2.8480000496 72.884002686 2.2690000534 2.2690000534
 752.99987793  -999.250000 18.618999481 0.0189999994  -999.250000 2.2400000095 68.862998962 129.23399353 2.8420000076 72.324996948 2.2690000534 2.2690000534
 753.12512207  -999.250000 18.628000259 0.0219999999  -999.250000 2.2390000820 68.486999512 129.80400085 2.8369998932 71.699996948 2.2690000534 2.2690000534
 753.25012207  -999.250000 18.645999908 0.0240000002  -999.250000 2.2379999161 68.097999573 130.37899780 2.8310000896 71.074996948 2.2679998875 2.2679998875
 753.37506104  -999.250000 18.665000916 0.0189999994  -999.250000 2.2390000820 68.089996338 130.96000671 2.8259999752 70.652000427 2.2690000534 2.2690000534
 753.50006104  -999.250000 18.683000565 0.0120000001  -999.250000 2.2409999371 68.394996643 131.48500061 2.8199999332 70.540000916 2.2839999199 2.2839999199
 753.62500000  -999.250000 18.701999664 0.0060000001  -999.250000 2.2439999580 69.163002014 131.67799377 2.8150000572 70.428001404 2.3029999733 2.3029999733
 753.75000000  -999.250000 18.719999313 0.0149999997  -999.250000 2.2509999275 69.752998352 131.84700012 2.8090000153 70.320999146 2.3220000267 2.3220000267
 753.87500000  -999.250000 18.732999802 0.0309999995  -999.250000 2.2590000629 69.595001221 131.87199402 2.8039999008 70.367996216 2.3610000610 2.3610000610
