# LAS format log file from PETREL
# Project units are specified as depth units
#==================================================================
~Version information
VERS.   2.0:
WRAP.   NO:
#==================================================================
~Well
STRT .m      212.75000000 :
STOP .m      3019.0000000 :
STEP .m     0.00000000 :
NULL .        -999.250000 :
COMP.           : COMPANY
WELL.  34/7-21   : WELL
FLD.            : FIELD
LOC.            : LOCATION
SRVC.           : SERVICE COMPANY
DATE.  2018-09-11 14:48:52   : Log Export Date {yyyy-MM-dd HH:mm:ss}
PROV.           : PROVINCE
UWI.   34/7-21   : UNIQUE WELL ID
API.            : API NUMBER
#==================================================================
~Curve
DEPT .m                   : DEPTH
Lithology_geolink ._      : Lithology_geolink
CALI .in                  : CALI
DRHO .g/cm3               : DRHO
NPHI .m3/m3               : NPHI
RHOB .g/cm3               : RHOB
PEF .b/e                  : PEF
GR .gAPI                  : GR
DTC .us/ft                : DTC
RDEP .ohm.m               : RDEP
SP .mV                    : SP
RSHA .ohm.m               : RSHA
RMED .ohm.m               : RMED
~Parameter
#==================================================================
~Ascii
# ...
 1058.7500000  -999.250000  -999.250000  -999.250000  -999.250000  -999.250000  -999.250000 76.284927368  -999.250000 0.8634786606  -999.250000  -999.250000  -999.250000
 1058.8750000  -999.250000  -999.250000  -999.250000  -999.250000  -999.250000  -999.250000 74.434951782  -999.250000 0.8577297926  -999.250000  -999.250000  -999.250000
 1059.0000000  -999.250000  -999.250000  -999.250000  -999.250000  -999.250000  -999.250000 72.588333130  -999.250000 0.8541334867  -999.250000  -999.250000  -999.250000
 1059.1250000  -999.250000  -999.250000  -999.250000  -999.250000  -999.250000  -999.250000 71.341293335  -999.250000 0.8544480801  -999.250000  -999.250000  -999.250000
 1059.2500000  -999.250000  -999.250000  -999.250000  -999.250000  -999.250000  -999.250000 70.902648926  -999.250000 0.8570936918  -999.250000  -999.250000  -999.250000
 1059.3750000  -999.250000  -999.250000  -999.250000  -999.250000  -999.250000  -999.250000 71.443161011  -999.250000 0.8621574640  -999.250000  -999.250000  -999.250000
 1059.5000000  -999.250000  -999.250000 -0.500000000  -999.250000 1.9499998093  -999.250000 71.947830200  -999.250000 0.8717173338 0.0000000000  -999.250000  -999.250000
 1059.6250000  -999.250000 15.000000954 -0.500000000  -999.250000 1.9499998093  -999.250000 71.575439453  -999.250000 0.8833864927 0.0000000000  -999.250000 0.1999999881
 1059.7500000  -999.250000 15.000000954 -0.500000000  -999.250000 1.9499998093  -999.250000 70.587066650  -999.250000 0.8955900669 0.0000000000  -999.250000 0.1999999881
 1059.8750000  -999.250000 15.000000954 -0.500000000  -999.250000 1.9499998093  -999.250000 69.654891968 56.001594543 0.9054729939 0.0000000000  -999.250000 0.1999999881
 1060.0000000  -999.250000 15.000000954 -0.500000000  -999.250000 1.9499998093  -999.250000 69.795944214 56.005035400 0.9078893661 0.0000000000  -999.250000 0.1999999881
 1060.1250000  -999.250000 15.000000954 -0.500000000  -999.250000 1.9499998093  -999.250000 71.644927979 56.008468628 0.9078463316 0.0000000000  -999.250000 0.1999999881
 1060.2500000  -999.250000 15.000000954 -0.500000000  -999.250000 1.9499998093  -999.250000 73.847518921 56.011909485 0.9022506475 0.0000000000  -999.250000 0.1999999881
 1060.3750000  -999.250000 15.000000954 -0.500000000  -999.250000 1.9499998093  -999.250000 74.705947876 56.015342712 0.8953887224 0.0000000000  -999.250000 0.1999999881
 1060.5000000  -999.250000 15.000000954 -0.500000000  -999.250000 1.9499998093  -999.250000 74.787200928 56.018775940 0.8889195919 0.0000000000  -999.250000 0.1999999881
 1060.6250000  -999.250000 15.000000954 -0.500000000  -999.250000 1.9499998093  -999.250000 74.853927612 56.022216797 0.8839998245 0.0000000000  -999.250000 0.1999999881
 1060.7500000  -999.250000 15.000000954 -0.500000000  -999.250000 1.9499998093  -999.250000 74.701141357 56.025657654 0.8809804916 0.0000000000  -999.250000 0.1999999881
 1060.8750000  -999.250000 15.000000954 -0.500000000  -999.250000 1.9499998093  -999.250000 73.917373657 56.029090881 0.8786838055 16.701271057  -999.250000 0.1999999881
 1061.0000000  -999.250000 15.000000954 -0.500000000  -999.250000 1.9499998093  -999.250000 73.086639404 56.032520294 0.8762851954 62.875560760  -999.250000 0.1999999881
 1061.1250000  -999.250000 15.000000954 -0.500000000  -999.250000 1.9499998093  -999.250000 72.482528687 56.035964966 0.8734557629 68.777847290  -999.250000 0.1999999881
 1061.2500000  -999.250000 15.000000954 -0.500000000  -999.250000 1.9499998093  -999.250000 72.542999268 56.039405823 0.8703700304 68.188003540  -999.250000 0.1999999881
 1061.3750000  -999.250000 15.000000954 -0.500000000  -999.250000 1.9499998093  -999.250000 73.477096558 56.042839050 0.8675087690 67.569473267  -999.250000 0.1999999881
 1061.5000000  -999.250000 15.000000954 -0.500000000  -999.250000 1.9499998093  -999.250000 73.000213623 56.046272278 0.8652158976 66.936721802  -999.250000 0.1999999881
 1061.6250000  -999.250000 15.000000954 -0.500000000  -999.250000 1.9499998093  -999.250000 70.920211792 56.049713135 0.8629955053 66.209182739  -999.250000 0.1999999881
 1061.7500000  -999.250000 15.000000954 -0.500000000  -999.250000 1.9499998093  -999.250000 68.665847778 56.053146362 0.8612098694 65.303298950  -999.250000 0.1999999881
 1061.8750000  -999.250000 15.000000954 -0.500000000  -999.250000 1.9499998093  -999.250000 67.339385986 56.056579590 0.8607444763 64.274963379  -999.250000 0.1999999881
 1062.0000000  -999.250000 15.000000954 -0.500000000  -999.250000 1.9499998093  -999.250000 67.080062866 56.060020447 0.8639419079 63.257522583  -999.250000 0.1999999881
 1062.1250000  -999.250000 15.000000954 -0.500000000  -999.250000 1.9499998093  -999.250000 67.178054810 56.063453674 0.8715645075 62.400222778  -999.250000 0.1999999881
 1062.2500000  -999.250000 15.000000954 -0.500000000  -999.250000 1.9499998093  -999.250000 67.389785767 56.066898346 0.8802819252 61.741516113  -999.250000 0.1999999881
 1062.3750000  -999.250000 15.000000954 -0.500000000  -999.250000 1.9499998093  -999.250000 67.618103027 56.070327759 0.8857175112 61.160110474  -999.250000 0.1999999881
 1062.5000000  -999.250000 15.000000954 -0.500000000  -999.250000 1.9499998093  -999.250000 67.848068237 56.073768616 0.8895474672 60.504043579  -999.250000 0.1999999881
 1062.6250000  -999.250000 15.000000954 -0.500000000  -999.250000 1.9499998093  -999.250000 68.077896118 56.077201843 0.8927837610 59.608047485  -999.250000 0.1999999881
 1062.7500000  -999.250000 15.000000954 -0.500000000  -999.250000 1.9499998093  -999.250000 68.307861328 56.080642700 0.8959879875 58.319793701  -999.250000 0.1999999881
 1062.8750000  -999.250000 15.000000954 -0.500000000  -999.250000 1.9499998093  -999.250000 68.424713135 56.084075928 0.8982290030 56.589088440  -999.250000 0.1999999881
 1063.0000000  -999.250000 15.000000954 -0.500000000  -999.250000 1.9499998093  -999.250000 67.901031494 56.087516785 0.8974281549 54.445938110  -999.250000 0.1999999881
 1063.1250000  -999.250000 15.000000954 -0.500000000  -999.250000 1.9499998093  -999.250000 66.420471191 56.090950012 0.8943083286 52.085670471  -999.250000 0.1999999881
 1063.2500000  -999.250000 15.000000954 -0.500000000  -999.250000 1.9499998093  -999.250000 65.145126343 56.094390869 0.8906937838 49.873527527  -999.250000 0.1999999881
 1063.3750000  -999.250000 15.000000954 -0.500000000  -999.250000 1.9499998093  -999.250000 64.858016968 56.097824097 0.8871885538 48.057876587  -999.250000 0.1999999881
 1063.5000000  -999.250000 15.000000954 -0.500000000  -999.250000 1.9499998093  -999.250000 65.163024902 56.101257324 0.8820804358 46.685050964  -999.250000 0.1999999881
 1063.6250000  -999.250000 15.000000954 -0.500000000  -999.250000 1.9499998093  -999.250000 65.487594604 56.104698181 0.8744584322 45.630424500  -999.250000 0.1999999881
 1063.7500000  -999.250000 15.000000954 -0.500000000  -999.250000 1.9499998093  -999.250000 65.910522461 56.108139038 0.8657684326 44.678276062  -999.250000 0.1999999881
 1063.8750000  -999.250000 15.000000954 -0.500000000  -999.250000 1.9499998093  -999.250000 66.746444702 56.111568451 0.8591827154 43.723503113  -999.250000 0.1999999881
 1064.0000000  -999.250000 15.000000954 -0.500000000  -999.250000 1.9499998093  -999.250000 68.080673218 56.115009308 0.8559935093 42.795707703  -999.250000 0.1999999881
 1064.1250000  -999.250000 15.000000954 -0.500000000  -999.250000 1.9499998093  -999.250000 69.739639282 56.118446350 0.8566907644 41.993637085  -999.250000 0.1999999881
 1064.2500000  -999.250000 15.000000954 -0.500000000  -999.250000 1.9499998093  -999.250000 71.414566040 56.121879578 0.8602221012 41.441734314  -999.250000 0.1999999881
 1064.3750000  -999.250000 15.000000954 -0.500000000  -999.250000 1.9499998093  -999.250000 72.961837769 56.125312805 0.8659341335 41.202072144  -999.250000 0.1999999881
 1064.5000000  -999.250000 15.000000954 -0.500000000  -999.250000 1.9499998093  -999.250000 73.566833496 56.128753662 0.8740099669 41.294815063  -999.250000 0.1999999881
 1064.6250000  -999.250000 15.000000954 -0.500000000  -999.250000 1.9499998093  -999.250000 72.359436035 56.132194519 0.8836424351 41.668182373  -999.250000 0.1999999881
