# LAS format log file from PETREL
# Project units are specified as depth units
#==================================================================
~Version information
VERS.   2.0:
WRAP.   NO:
#==================================================================
~Well
STRT .m      417.47238159 :
STOP .m      3182.7705078 :
STEP .m     0.00000000 :
NULL .        -999.250000 :
COMP.           : COMPANY
WELL.  34/7-20   : WELL
FLD.            : FIELD
LOC.            : LOCATION
SRVC.           : SERVICE COMPANY
DATE.  2018-09-11 14:48:52   : Log Export Date {yyyy-MM-dd HH:mm:ss}
PROV.           : PROVINCE
UWI.   34/7-20   : UNIQUE WELL ID
API.            : API NUMBER
#==================================================================
~Curve
DEPT .m                   : DEPTH
Lithology_geolink ._      : Lithology_geolink
CALI .in                  : CALI
DRHO .g/cm3               : DRHO
NPHI .m3/m3               : NPHI
RHOB .g/cm3               : RHOB
GR .gAPI                  : GR
DTC .us/ft                : DTC
RDEP .ohm.m               : RDEP
SP .mV                    : SP
RSHA .ohm.m               : RSHA
RMED .ohm.m               : RMED
~Parameter
#==================================================================
~Ascii
# ...
 1427.8843994  -999.250000 18.328136444  -999.250000  -999.250000  -999.250000  -999.250000 159.58847046 0.7069255114 23.930242538 0.7665265799 0.5840384960
 1428.0368652  -999.250000 18.548149109  -999.250000  -999.250000  -999.250000  -999.250000 158.98983765 0.7127240896 23.680677414 0.8643921614 0.5710014105
 1428.1892090  -999.250000 18.773136139  -999.250000  -999.250000  -999.250000  -999.250000 159.16453552 0.7128105164 24.425010681 0.7844171524 0.5779837370
 1428.3416748  -999.250000 19.140148163  -999.250000  -999.250000  -999.250000  -999.250000 158.61380005 0.7081356049 25.247198105 0.5949585438 0.6006604433
 1428.4940186  -999.250000 19.182491302  -999.250000  -999.250000  -999.250000  -999.250000 157.85559082 0.6972107887 26.064325333 0.5692903996 0.6266633272
 1428.6464844  -999.250000 19.054367065  -999.250000  -999.250000  -999.250000  -999.250000 158.05261230 0.6879457235 27.858947754 0.7142635584 0.6396884918
 1428.7988281  -999.250000 19.055000305  -999.250000  -999.250000  -999.250000  -999.250000 158.56668091 0.6943879128 27.270599365 0.7809692621 0.6317172050
 1428.9512939  -999.250000 19.103157043  -999.250000  -999.250000  -999.250000  -999.250000 159.05157471 0.7090400457 26.903503418 0.8323614597 0.6103450060
 1429.1036377  -999.250000 19.156875610  -999.250000  -999.250000  -999.250000  -999.250000 158.98912048 0.7247009277 27.396800995 0.8823091984 0.5902664661
 1429.2561035  -999.250000 19.147480011  -999.250000  -999.250000  -999.250000  -999.250000 154.48428345 0.7379825115 26.740966797 0.8934907913 0.5820226669
 1429.4084473  -999.250000 19.092498779  -999.250000  -999.250000  -999.250000  -999.250000 148.84350586 0.7439416647 26.171957016 0.9125101566 0.5878970623
 1429.5607910  -999.250000 19.103187561  -999.250000  -999.250000  -999.250000  -999.250000 147.35076904 0.7448598146 27.688165665 0.8278681040 0.6026412249
 1429.7132568  -999.250000 19.091835022  -999.250000  -999.250000  -999.250000  -999.250000 148.44491577 0.7431038618 27.664762497 0.5952146053 0.6156506538
 1429.8656006  -999.250000 19.014373779  -999.250000  -999.250000  -999.250000  -999.250000 151.21121216 0.7391602993 27.659345627 0.5951659679 0.6165547371
 1430.0180664  -999.250000 18.919322968  -999.250000  -999.250000  -999.250000  -999.250000 153.11585999 0.7319973707 29.499694824 0.8005669117 0.6015940905
 1430.1704102  -999.250000 18.948753357  -999.250000  -999.250000  -999.250000  -999.250000 155.32272339 0.7249889374 28.314525604 0.7460870743 0.5763540268
 1430.3228760  -999.250000 19.063774109  -999.250000  -999.250000  -999.250000  -999.250000 158.44876099 0.7155549526 27.044393539 0.7037957907 0.5515722036
 1430.4752197  -999.250000 19.183128357  -999.250000  -999.250000  -999.250000  -999.250000 159.02624512 0.7069593668 26.685756683 0.8272163868 0.5357031822
 1430.6276855  -999.250000 19.477043152  -999.250000  -999.250000  -999.250000  -999.250000 158.50384521 0.7050749063 25.984466553 0.8096933365 0.5327991247
 1430.7800293  -999.250000 19.785631180  -999.250000  -999.250000  -999.250000  -999.250000 158.65170288 0.7030342817 26.259105682 0.6503376961 0.5415211916
 1430.9324951  -999.250000 19.915019989  -999.250000  -999.250000  -999.250000  -999.250000 158.64874268 0.6932858229 26.326515198 0.5728069544 0.5557271242
 1431.0848389  -999.250000 19.783115387  -999.250000  -999.250000  -999.250000  -999.250000 158.80769348 0.6774193048 25.264736176 0.6665982008 0.5683146715
 1431.2373047  -999.250000 19.640625000  -999.250000  -999.250000  -999.250000  -999.250000 159.00035095 0.6714742184 24.804727554 0.7715675831 0.5750179291
 1431.3896484  -999.250000 19.575618744  -999.250000  -999.250000  -999.250000  -999.250000 159.20661926 0.6812034845 25.518550873 0.7472136021 0.5774242878
 1431.5419922  -999.250000 19.653968811  -999.250000  -999.250000  -999.250000  -999.250000 159.03503418 0.6930499077 25.683074951 0.7581899166 0.5799124241
 1431.6944580  -999.250000 19.821907043  -999.250000  -999.250000  -999.250000  -999.250000 158.17922974 0.7000585794 25.854526520 0.7156884670 0.5863728523
 1431.8468018  -999.250000 19.745618820  -999.250000  -999.250000  -999.250000  -999.250000 156.71362305 0.7054141760 26.596002579 0.5639544725 0.5991920233
 1431.9992676  -999.250000 19.713806152  -999.250000  -999.250000  -999.250000  -999.250000 154.91809082 0.7037007809 27.603895187 0.5777417421 0.6186133623
 1432.1516113  -999.250000 19.586238861  -999.250000  -999.250000  -999.250000  -999.250000 154.10308838 0.6994694471 28.118007660 0.6820310354 0.6408076286
 1432.3040771  -999.250000 19.194828033  -999.250000  -999.250000  -999.250000  -999.250000 155.39648438 0.7058169842 28.074996948 0.6512582302 0.6571940184
 1432.4564209  -999.250000 18.926868439  -999.250000  -999.250000  -999.250000  -999.250000 155.71823120 0.7164803743 28.285669327 0.6193642616 0.6603097916
 1432.6088867  -999.250000 18.713005066  -999.250000  -999.250000  -999.250000  -999.250000 154.58923340 0.7270448208 29.086585999 0.6412628889 0.6521190405
 1432.7612305  -999.250000 18.464366913  -999.250000  -999.250000  -999.250000  -999.250000 154.61006165 0.7384794950 29.063091278 0.6535817385 0.6437120438
 1432.9136963  -999.250000 18.416294098  -999.250000  -999.250000  -999.250000  -999.250000 154.48666382 0.7438848019 29.078966141 0.6501061916 0.6462165117
 1433.0660400  -999.250000 18.574378967  -999.250000  -999.250000  -999.250000  -999.250000 154.72341919 0.7375475168 29.693061829 0.5970636606 0.6612865925
 1433.2185059  -999.250000 18.582427979  -999.250000  -999.250000  -999.250000  -999.250000 155.55960083 0.7301776409 28.414258957 0.5832694769 0.6797714233
 1433.3708496  -999.250000 18.686885834  -999.250000  -999.250000  -999.250000  -999.250000 156.00807190 0.7315264940 27.251180649 0.6740751266 0.6887288094
 1433.5233154  -999.250000 18.810546875  -999.250000  -999.250000  -999.250000  -999.250000 156.56405640 0.7310935259 26.915985107 0.6104475260 0.6818170547
 1433.6756592  -999.250000 18.481021881  -999.250000  -999.250000  -999.250000  -999.250000 157.05523682 0.7274994850 26.497768402 0.6639484167 0.6644005775
 1433.8280029  -999.250000 18.283752441  -999.250000  -999.250000  -999.250000  -999.250000 156.88101196 0.7252963781 26.688829422 0.8208370209 0.6482026577
 1433.9804688  -999.250000 18.213645935  -999.250000  -999.250000  -999.250000  -999.250000 151.60183716 0.7238671780 26.911602020 0.8145371675 0.6413383484
 1434.1328125  -999.250000 18.118125916  -999.250000  -999.250000  -999.250000  -999.250000 139.58157349 0.7233910561 26.307899475 0.7587920427 0.6441853046
 1434.2852783  -999.250000 18.246334076  -999.250000  -999.250000  -999.250000  -999.250000 132.80288696 0.7279703617 25.742685318 0.7283548117 0.6533039808
 1434.4376221  -999.250000 18.278743744  -999.250000  -999.250000  -999.250000  -999.250000 132.32550049 0.7382215261 26.309904099 0.7776259184 0.6665520668
 1434.5900879  -999.250000 18.218750000  -999.250000  -999.250000  -999.250000  -999.250000 129.17401123 0.7297071218 27.333160400 0.7712143660 0.6824468374
 1434.7424316  -999.250000 18.251251221  -999.250000  -999.250000  -999.250000  -999.250000 139.08929443 0.7086931467 25.507305145 0.5844275951 0.6942131519
 1434.8948975  -999.250000 18.126750946  -999.250000  -999.250000  -999.250000  -999.250000 150.40176392 0.6996541023 23.686782837 1.3205480576 0.6921274662
 1435.0472412  -999.250000 17.927494049  -999.250000  -999.250000  -999.250000  -999.250000 153.15786743 0.6992605925 24.787511826 1.3638007641 0.6715182066
 1435.1997070  -999.250000 17.679843903  -999.250000  -999.250000  -999.250000  -999.250000 155.01736450 0.7029839754 25.391653061 0.5168905258 0.6384663582
 1435.3520508  -999.250000 17.735637665  -999.250000  -999.250000  -999.250000  -999.250000 152.49029541 0.7068305016 25.315063477 0.5333399773 0.6084407568
 1435.5045166  -999.250000 17.993751526  -999.250000  -999.250000  -999.250000  -999.250000 150.79574585 0.7077307701 25.261320114 0.7427170277 0.5941622257
