# LAS format log file from PETREL
# Project units are specified as depth units
#==================================================================
~Version information
VERS.   2.0:
WRAP.   NO:
#==================================================================
~Well
STRT .m      377.87487793 :
STOP .m      3151.8757324 :
STEP .m     0.00000000 :
NULL .        -999.250000 :
COMP.           : COMPANY
WELL.  34/7-5   : WELL
FLD.            : FIELD
LOC.            : LOCATION
SRVC.           : SERVICE COMPANY
DATE.  2018-09-11 14:48:52   : Log Export Date {yyyy-MM-dd HH:mm:ss}
PROV.           : PROVINCE
UWI.   34/7-5   : UNIQUE WELL ID
API.            : API NUMBER
#==================================================================
~Curve
DEPT .m                   : DEPTH
Lithology_geolink ._      : Lithology_geolink
CALI .in                  : CALI
DRHO .g/cm3               : DRHO
NPHI .m3/m3               : NPHI
RHOB .g/cm3               : RHOB
GR .gAPI                  : GR
DTC .us/ft                : DTC
RDEP .ohm.m               : RDEP
SP .mV                    : SP
RSHA .ohm.m               : RSHA
RMED .ohm.m               : RMED
~Parameter
#==================================================================
~Ascii
 377.87487793  -999.250000 13.260999680  -999.250000  -999.250000  -999.250000 27.101999283 64.795997620 3.8469998837 113.07499695 0.3939999938 0.3939999938
 377.99984741  -999.250000 18.329999924  -999.250000  -999.250000  -999.250000 26.777000427 69.642997742 3.9570000172 114.91600037 0.3939999938 0.3939999938
 378.12512207  -999.250000 19.975000381  -999.250000  -999.250000  -999.250000 25.964000702 73.929000854 4.1719999313 116.82800293 0.3930000067 0.3930000067
 378.25009155  -999.250000 19.969999313 -0.041000001  -999.250000 1.4509999752 25.125000000 77.678001404 4.5809998512 117.98200226 0.3930000067 0.3930000067
 378.37506104  -999.250000 19.964000702 -0.041999999  -999.250000 1.4529999495 24.718999863 81.860000610 5.4019999504 120.32700348 0.3919999897 0.3919999897
 378.50003052  -999.250000 19.960998535 -0.043000001  -999.250000 1.4539999962 24.593000412 87.528999329 6.3340001106 123.11499786 0.3910000026 0.3910000026
 378.62500000  -999.250000 19.959999084 -0.045000002  -999.250000 1.4550000429 24.833999634 93.268997192 7.2300000191 125.33000183 0.3889999986 0.3889999986
 378.74996948  -999.250000 19.960998535 -0.046000000  -999.250000 1.4539999962 25.686000824 97.810997009 8.1780004501 126.18599701 0.3880000114 0.3880000114
 378.87493896  -999.250000 19.961999893 -0.046999998  -999.250000 1.4520000219 26.832000732 104.68700409 9.5000000000 126.11598969 0.3910000026 0.3910000026
 378.99990845  -999.250000 19.962999344 -0.048000000  -999.250000 1.4479999542 28.247999191 121.66999817 10.902999878 125.08898926 0.4160000086 0.4160000086
 379.12487793  -999.250000 19.965000153 -0.050000001  -999.250000 1.4450000525 29.597999573 140.51100159 11.512000084 123.15899658 0.4530000091 0.4530000091
 379.25015259  -999.250000 19.965999603 -0.050999999  -999.250000 1.4420000315 30.437000275 143.91400146 10.482999802 120.56600189 0.5030000210 0.5030000210
 379.37512207  -999.250000 19.966999054 -0.050999999  -999.250000 1.4390000105 31.245000839 153.06100464 7.6399998665 117.16000366 0.6029999852 0.6029999852
 379.50009155  -999.250000 19.968000412 -0.052000001  -999.250000 1.4379999638 32.750999451 162.23599243 4.6100001335 113.22000122 0.7310000062 0.7310000062
 379.62506104  -999.250000 19.968999863 -0.052999999  -999.250000 1.4379999638 34.443000793 167.78100586 3.0580000877 110.33799744 0.8600000143 0.8600000143
 379.75000000  -999.250000 19.969999313 -0.052999999  -999.250000 1.4379999638 35.504001617 170.73699951 2.7049999237 108.25700378 0.9620000124 0.9620000124
 379.87500000  -999.250000 19.971000671 -0.048999999  -999.250000 1.4359999895 36.457000732 171.99601746 2.7780001163 106.45200348 1.0529999733 1.0529999733
 379.99993896  -999.250000 19.972000122 -0.050999999  -999.250000 1.4329999685 36.721000671 171.01701355 3.5290000439 104.64700317 1.1430000067 1.1430000067
 380.12490845  -999.250000 19.973999023 -0.055000000  -999.250000 1.4299999475 36.369998932 168.52301025 4.3480000496 103.11299896 1.2269999981 1.2269999981
 380.24987793  -999.250000 19.975000381 -0.059999999  -999.250000 1.4259999990 35.696998596 166.03399658 4.9879999161 101.90000153 1.2899999619 1.2899999619
 380.37487793  -999.250000 19.973999023 -0.064999998  -999.250000 1.4229999781 35.035999298 163.54899597 4.8249998093 100.68800354 1.3489999771 1.3489999771
 380.50015259  -999.250000 19.971000671 -0.068999998  -999.250000 1.4190000296 34.566001892 161.55700684 4.1669998169 99.353996277 1.3940000534 1.3940000534
 380.62509155  -999.250000 19.968000412 -0.074000001  -999.250000 1.4160000086 34.148998260 160.47099304 3.5559999943 97.821998596 1.4359999895 1.4359999895
 380.75006104  -999.250000 19.964000702 -0.072999999  -999.250000 1.4140000343 34.145999908 159.61999512 3.1510000229 96.290000916 1.4630000591 1.4630000591
 380.87503052  -999.250000 19.960998535 -0.072999999  -999.250000 1.4129999876 34.449001312 157.95201111 2.9649999142 94.758003235 1.4789999723 1.4789999723
 381.00003052  -999.250000 19.957000732 -0.072999999  -999.250000 1.4119999409 35.375000000 153.76400757 2.8320000172 93.226997375 1.4950000048 1.4950000048
 381.12496948  -999.250000 19.948999405 -0.072999999  -999.250000 1.4140000343 36.064998627 149.97099304 2.7850000858 91.827003479 1.5110000372 1.5110000372
 381.24993896  -999.250000 19.941999435 -0.071000002  -999.250000 1.4179999828 36.291999817 146.95199585 2.7730000019 90.461997986 1.5269999504 1.5269999504
 381.37490845  -999.250000 19.946998596 -0.067000002  -999.250000 1.4220000505 36.159000397 144.41299438 2.8350000381 89.122001648 1.5440000296 1.5440000296
 381.49990845  -999.250000 19.958999634 -0.066000000  -999.250000 1.4249999523 35.832000732 142.70300293 2.9300000668 87.940002441 1.5640000105 1.5640000105
 381.62512207  -999.250000 19.968999863 -0.064000003  -999.250000 1.4259999990 35.311000824 142.45700073 2.9700000286 86.782997131 1.5870000124 1.5870000124
 381.75012207  -999.250000 19.972999573 -0.061999999  -999.250000 1.4249999523 35.143001556 143.39799500 2.9990000725 85.625999451 1.6100000143 1.6100000143
 381.87509155  -999.250000 19.971000671 -0.061000001  -999.250000 1.4249999523 35.005001068 144.47500610 3.0009999275 84.526000977 1.6319999695 1.6319999695
 382.00006104  -999.250000 19.955999374 -0.059000000  -999.250000 1.4270000458 35.228000641 145.53399658 3.0000000000 83.763000488 1.6540000439 1.6540000439
 382.12506104  -999.250000 19.926998138 -0.057000000  -999.250000 1.4279999733 35.863998413 145.03700256 2.9879999161 83.053001404 1.6720000505 1.6720000505
 382.25000000  -999.250000 19.902999878 -0.056000002  -999.250000 1.4299999475 36.028999329 143.77400208 2.9460000992 82.347000122 1.6900000572 1.6900000572
 382.37493896  -999.250000 19.892002106 -0.055000000  -999.250000 1.4320000410 36.091999054 142.16600037 2.9000000954 81.781997681 1.6990000010 1.6990000010
 382.49990845  -999.250000 19.892997742 -0.055000000  -999.250000 1.4340000153 36.053001404 140.15100098 2.8650000095 81.319000244 1.7050000429 1.7050000429
 382.62487793  -999.250000 19.898000717 -0.057000000  -999.250000 1.4329999685 35.804000854 139.50199890 2.8340001106 80.856002808 1.7109999657 1.7109999657
 382.74981689  -999.250000 19.903999329 -0.061000001  -999.250000 1.4309999943 35.512001038 140.76600647 2.8020000458 80.392997742 1.7170000076 1.7170000076
 382.87512207  -999.250000 19.909999847 -0.064999998  -999.250000 1.4279999733 35.465999603 142.93899536 2.7660000324 79.941001892 1.7230000496 1.7230000496
 383.00009155  -999.250000 19.916000366 -0.067000002  -999.250000 1.4249999523 35.710998535 145.21200562 2.7179999352 79.608001709 1.7289999723 1.7289999723
 383.12506104  -999.250000 19.922000885 -0.070000000  -999.250000 1.4220000505 36.181999207 147.46099854 2.6710000038 79.322998047 1.7359999418 1.7359999418
 383.25003052  -999.250000 19.927999496 -0.071999997  -999.250000 1.4190000296 36.382999420 149.63499451 2.6310000420 79.038002014 1.7419999838 1.7419999838
 383.37496948  -999.250000 19.933002472 -0.075000003  -999.250000 1.4160000086 36.259998322 151.79798889 2.6280000210 78.752998352 1.7489999533 1.7489999533
 383.49996948  -999.250000 19.938999176 -0.077000000  -999.250000 1.4129999876 36.008998871 153.96200562 2.6500000954 78.468002319 1.7549999952 1.7549999952
 383.62493896  -999.250000 19.944999695 -0.075999998  -999.250000 1.4110000134 35.766998291 155.68501282 2.6819999218 78.278999329 1.7589999437 1.7589999437
 383.74990845  -999.250000 19.934999466 -0.071000002  -999.250000 1.4119999409 35.721000671 156.00199890 2.7360000610 78.120002747 1.7640000582 1.7640000582
 383.87484741  -999.250000 19.899002075 -0.067000002  -999.250000 1.4190000296 37.103000641 154.16799927 2.8110001087 77.982002258 1.7829999924 1.7829999924
 384.00015259  -999.250000 19.806999207 -0.061000001  -999.250000 1.4259999990 39.700000763 149.45100403 2.8870000839 77.910003662 1.8129999638 1.8129999638
 384.12512207  -999.250000 19.636999130 -0.055000000  -999.250000 1.4329999685 42.436000824 146.20799255 2.9900000095 77.845001221 1.8439999819 1.8439999819
