# LAS format log file from PETREL
# Project units are specified as depth units
#==================================================================
~Version information
VERS.   2.0:
WRAP.   NO:
#==================================================================
~Well
STRT .m      806.37493896 :
STOP .m      2790.0000000 :
STEP .m     0.00000000 :
NULL .        -999.250000 :
COMP.           : COMPANY
WELL.  34/7-12   : WELL
FLD.            : FIELD
LOC.            : LOCATION
SRVC.           : SERVICE COMPANY
DATE.  2018-09-11 14:48:51   : Log Export Date {yyyy-MM-dd HH:mm:ss}
PROV.           : PROVINCE
UWI.   34/7-12   : UNIQUE WELL ID
API.            : API NUMBER
#==================================================================
~Curve
DEPT .m                   : DEPTH
Lithology_geolink ._      : Lithology_geolink
CALI .in                  : CALI
DRHO .g/cm3               : DRHO
NPHI .m3/m3               : NPHI
RHOB .g/cm3               : RHOB
GR .gAPI                  : GR
DTC .us/ft                : DTC
RDEP .ohm.m               : RDEP
SP .mV                    : SP
RSHA .ohm.m               : RSHA
RMED .ohm.m               : RMED
~Parameter
#==================================================================
~Ascii
# ...
 2521.2500000 5.0000000000 14.010000229 -0.034000002 0.3988600075 2.4590001106 71.725997925 106.12799835 1.6859999895 10.168000221 1.7949999571 4.5770001411
 2521.3750000 5.0000000000 14.000000000 -0.020955078 0.4035400152 2.4599962234 71.874000549 104.93199921 1.6829999685 10.163999557 1.7860000134 4.8049998283
 2521.5000000 5.0000000000 13.984998703 0.0020390626 0.4073599875 2.4579920769 72.785003662 104.14600372 1.6829999685 10.189101219 1.7790000439 4.9409999847
 2521.6250000 5.0000000000 13.967000008 0.0220234375 0.4080199897 2.4539961815 73.984001160 104.03500366 1.6840000153 10.241132736 1.7779999971 4.9530000687
 2521.7500000 6.0000000000 13.949999809 0.0340058617 0.4042269588 2.4520018101 75.018997192 104.89398956 1.6829999685 10.309103966 1.7769999504 4.8249998093
 2521.8750000 6.0000000000 13.932000160 0.0369960926 0.3975358605 2.4530079365 75.672996521 106.37000275 1.6790000200 10.362047195 1.7730000019 4.6310000420
 2522.0000000 6.0000000000 13.913999557 0.0349863283 0.3902880251 2.4570157528 76.000000000 107.92099762 1.6699999571 10.385951042 1.7680000067 4.4239997864
 2522.1250000 6.0000000000 13.897000313 0.0279726572 0.3841725290 2.4650175571 75.977996826 109.00199890 1.6590000391 10.360900879 1.7630000114 4.2259998322
 2522.2500000 6.0000000000 13.883000374 0.0139648439 0.3803690672 2.4740116596 75.763999939 109.72599792 1.6490000486 10.309867859 1.7580000162 4.0419998169
 2522.3750000 6.0000000000 13.875000000 -0.004023438 0.3798969388 2.4799962044 75.591003418 110.40000153 1.6410000324 10.241880417 1.7530000210 3.8800001144
 2522.5000000 6.0000000000 13.873999596 -0.016003907 0.3834585249 2.4779882431 75.834999084 111.46701050 1.6330000162 10.180921555 1.7489999533 3.7809998989
 2522.6250000 6.0000000000 13.876000404 -0.017982421 0.3878248632 2.4719822407 76.420997620 112.80899811 1.6239999533 10.141001701 1.7480000257 3.7579998970
 2522.7500000 6.0000000000 13.879000664 -0.008984375 0.3903096914 2.4629921913 76.941001892 114.09600067 1.6139999628 10.142070770 1.7489999533 3.8299999237
 2522.8752441 6.0000000000 13.881999969 -0.001007813 0.3901466131 2.4590039253 76.971000671 114.94999695 1.6019999981 10.178192139 1.7530000210 3.9340000153
 2522.9997559 6.0000000000 13.886000633 -0.003000000 0.3892900050 2.4600000381 76.501998901 115.34200287 1.5900000334 10.227000237 1.7569999695 3.9719998837
 2523.1247559 6.0000000000 13.892000198 -0.016000001 0.3903499842 2.4660000801 75.869003296 115.33200073 1.5809999704 10.258000374 1.7619999647 3.8540000916
 2523.2497559 6.0000000000 13.902000427 -0.028999999 0.3933199942 2.4670000076 75.632003784 115.19799805 1.5740000010 10.258999825 1.7630000114 3.6549999714
 2523.3750000 6.0000000000 13.916000366 -0.035000000 0.3965100050 2.4590001106 76.005996704 115.07099915 1.5700000525 10.229000092 1.7589999437 3.4739999771
 2523.5000000 5.0000000000 13.932000160 -0.032000002 0.3970700204 2.4440000057 76.442001343 114.96499634 1.5670000315 10.187999725 1.7530000210 3.3789999485
 2523.6250000 5.0000000000 13.949999809 -0.026000001 0.3949599862 2.4279999733 76.331001282 114.83699799 1.5650000572 10.157999992 1.7419999838 3.3619999886
 2523.7500000 5.0000000000 13.963000298 -0.019990234 0.3902500272 2.4179940224 75.296997070 114.63999939 1.5640000105 10.154052734 1.7389999628 3.3929998875
 2523.8750000 5.0000000000 13.971000671 -0.014988281 0.3838600218 2.4150037766 73.946998596 114.22200012 1.5629999638 10.181103706 1.7439999580 3.4300000668
 2524.0000000 5.0000000000 13.973999977 -0.008984375 0.3763700128 2.4170098305 73.000000000 113.32399750 1.5620000362 10.234127045 1.7439999580 3.4830000401
 2524.1250000 5.0000000000 13.972999573 -0.000992188 0.3685172200 2.4220077991 73.088996887 111.80500793 1.5609999895 10.299117088 1.7389999628 3.5750000477
 2524.2500000 5.0000000000 13.972000122 0.0029960938 0.3619723022 2.4260039330 73.981002808 109.79399872 1.5599999428 10.359065056 1.7339999676 3.7060000896
 2524.3750000 6.0000000000 13.973999977 0.0009804688 0.3580264151 2.4280037880 75.135002136 107.81800079 1.5599999428 10.391992569 1.7289999723 3.8380000591
 2524.5000000 6.0000000000 13.978000641 -0.009029296 0.3561873436 2.4300038815 75.934997559 106.39800262 1.5599999428 10.387907982 1.7180000544 3.9230000973
 2524.6250000 6.0000000000 13.982999802 -0.024033204 0.3548254669 2.4320135117 76.314002991 105.90798950 1.5609999895 10.340865135 1.7059999704 3.9300000668
 2524.7500000 6.0000000000 13.986000061 -0.041027345 0.3524936140 2.4390156269 76.438003540 106.15399933 1.5629999638 10.271879196 1.6990000010 3.8789999485
 2524.8750000 6.0000000000 13.987000465 -0.055007812 0.3492239416 2.4470157623 76.515998840 106.71700287 1.5679999590 10.209974289 1.6959999800 3.8029999733
 2525.0000000 6.0000000000 13.986000061 -0.058986329 0.3461259305 2.4550058842 76.581001282 107.21399689 1.5750000477 10.197070122 1.6929999590 3.7330000401
 2525.1250000 6.0000000000 13.987000465 -0.051960938 0.3440574408 2.4579961300 76.432998657 107.50499725 1.5859999657 10.233173370 1.6900000572 3.6870000362
 2525.2502441 5.0000000000 13.989999771 -0.031902347 0.3427636325 2.4559884071 75.892997742 107.49800110 1.6019999981 10.322484016 1.7139999866 3.6909999847
 2525.3747559 5.0000000000 13.995000839 -0.007000000 0.3411399722 2.4530000687 75.164001465 107.15599823 1.6219999790 10.446000099 1.7460000515 3.7690000534
 2525.4997559 5.0000000000 14.000000000 0.0099999998 0.3386000097 2.4489998817 74.597999573 106.48899841 1.6449999809 10.586000443 1.7829999924 3.9159998894
 2525.6250000 5.0000000000 14.003999710 0.0070000002 0.3348199725 2.4470000267 74.459999084 105.32900238 1.6699999571 10.723999977 1.8209999800 4.1579999924
 2525.7500000 5.0000000000 14.005999565 -0.013000000 0.3300699890 2.4449999332 74.522003174 103.78900146 1.6959999800 10.833999634 1.8480000496 4.4800000191
 2525.8750000 5.0000000000 14.005001068 -0.037000000 0.3252800107 2.4440000057 74.370002747 101.94699860 1.7200000286 10.899000168 1.8789999485 4.8920001984
 2526.0000000 5.0000000000 14.001000404 -0.046999998 0.3238100111 2.4489998817 73.856002808 100.12500000 1.7389999628 10.883000374 1.9559999704 5.4029998779
 2526.1250000 5.0000000000 13.994000435 -0.039953124 0.3273899853 2.4570195675 73.223999023 98.727996826 1.7519999743 10.794683456 2.0390000343 5.9039998055
 2526.2500000 5.0000000000 13.987000465 -0.015947266 0.3377000093 2.4670078754 72.897003174 98.357002258 1.7539999485 10.632631302 1.9809999466 6.1900000572
 2526.3750000 6.0000000000 13.980999947 0.0110332035 0.3532036841 2.4709980488 73.115997314 99.408996582 1.7450000048 10.443640709 1.9210000038 6.0999999046
 2526.5000000 6.0000000000 13.978000641 0.0279921889 0.3704414070 2.4699842930 73.934997559 101.74199677 1.7259999514 10.259707451 1.8519999981 5.7550001144
 2526.6250000 6.0000000000 13.975999832 0.0239707027 0.3865274489 2.4619822502 75.513999939 105.29900360 1.6929999590 10.109742165 1.7990000248 5.3480000496
 2526.7500000 6.0000000000 13.975000381 0.0089687500 0.4005831480 2.4529843330 77.532997131 109.01699066 1.6519999504 9.9777460098 1.7990000248 5.0479998589
 2526.8750000 7.0000000000 13.975999832 -0.007013672 0.4124362469 2.4449901581 79.844001770 112.21800232 1.6059999466 9.8477497101 1.8079999685 4.8920001984
 2527.0000000 7.0000000000 13.978000641 -0.013998047 0.4207412302 2.4399981499 82.045997620 114.32299042 1.5599999428 9.7198190689 1.8229999542 4.8470001221
 2527.1250000 7.0000000000 13.979999542 -0.012996094 0.4264757931 2.4389979839 83.789001465 115.59200287 1.5190000534 9.6269721985 1.8359999657 4.8260002136
 2527.2500000 7.0000000000 13.980999947 -0.011000000 0.4294529855 2.4379999638 84.544998169 116.29599762 1.4869999886 9.6131362915 1.8420000076 4.7680001259
 2527.3750000 7.0000000000 13.982000351 -0.011003906 0.4309735000 2.4379980564 84.279998779 116.92299652 1.4639999866 9.6832284927 1.8430000544 4.6389999390
 2527.5000000 6.0000000000 13.982999802 -0.012992187 0.4327662885 2.4370000362 83.179000854 117.61399841 1.4509999752 9.8002271652 1.8350000381 4.4559998512
