# LAS format log file from PETREL
# Project units are specified as depth units
#==================================================================
~Version information
VERS.   2.0:
WRAP.   NO:
#==================================================================
~Well
STRT .m      806.37493896 :
STOP .m      2790.0000000 :
STEP .m     0.00000000 :
NULL .        -999.250000 :
COMP.           : COMPANY
WELL.  34/7-12   : WELL
FLD.            : FIELD
LOC.            : LOCATION
SRVC.           : SERVICE COMPANY
DATE.  2018-09-11 14:48:51   : Log Export Date {yyyy-MM-dd HH:mm:ss}
PROV.           : PROVINCE
UWI.   34/7-12   : UNIQUE WELL ID
API.            : API NUMBER
#==================================================================
~Curve
DEPT .m                   : DEPTH
Lithology_geolink ._      : Lithology_geolink
CALI .in                  : CALI
DRHO .g/cm3               : DRHO
NPHI .m3/m3               : NPHI
RHOB .g/cm3               : RHOB
GR .gAPI                  : GR
DTC .us/ft                : DTC
RDEP .ohm.m               : RDEP
SP .mV                    : SP
RSHA .ohm.m               : RSHA
RMED .ohm.m               : RMED
~Parameter
#==================================================================
~Ascii
# ...
 2648.7500000 2.0000000000 11.909999847 -0.219986320 0.2004673332 2.2529981136 47.435001373 93.958000183 0.7319999933 9.3359813690 0.7990000248 0.8240000010
 2648.8750000 2.0000000000 11.909999847 -0.213019535 0.2042183578 2.2519962788 48.022998810 93.783988953 0.7160000205 9.3260116577 0.8019999862 0.8220000267
 2649.0000000 2.0000000000 11.906999588 -0.223039061 0.2084949762 2.2500000000 47.875000000 93.472999573 0.7070000172 9.3320369720 0.8059999943 0.8059999943
 2649.1250000 2.0000000000 11.902001381 -0.243041024 0.2110297680 2.2500135899 47.070999146 93.199996948 0.7039999962 9.3510560989 0.8100000024 0.7850000262
 2649.2500000 2.0000000000 11.895998955 -0.264021486 0.2109082341 2.2570252419 45.817001343 93.016998291 0.7089999914 9.3800487518 0.8209999800 0.7649999857
 2649.3750000 2.0000000000 11.890000343 -0.274998039 0.2100108564 2.2700252533 44.706001282 92.820999146 0.7239999771 9.4050216675 0.8360000253 0.7480000257
 2649.5002441 2.0000000000 11.887999535 -0.273941398 0.2104633600 2.2830390930 44.092998505 92.477996826 0.7459999919 9.4159498215 0.8560000062 0.7340000272
 2649.6247559 2.0000000000 11.887999535 -0.259000003 0.2138699889 2.2929999828 44.270999908 91.942008972 0.7760000229 9.4029998779 0.8780000210 0.7279999852
 2649.7497559 2.0000000000 11.888998985 -0.238000005 0.2190399915 2.2980000973 45.104000092 91.313003540 0.8130000234 9.3730001450 0.9029999971 0.7379999757
 2649.8750000 2.0000000000 11.892001152 -0.218999997 0.2239800096 2.3020000458 46.417999268 90.740997314 0.8569999933 9.3409996033 0.9290000200 0.7720000148
 2650.0000000 2.0000000000 11.895998955 -0.209999993 0.2265399992 2.3050000668 48.000999451 90.351997375 0.9100000262 9.3179998398 0.9530000091 0.8289999962
 2650.1250000 2.0000000000 11.898999214 -0.211999997 0.2263900042 2.3090000153 49.794998169 90.277000427 0.9729999900 9.3070001602 0.9760000110 0.9029999971
 2650.2500000 4.0000000000 11.902001381 -0.222019538 0.2243600041 2.3130078316 51.678001404 90.528991699 1.0399999619 9.3050136566 0.9959999919 0.9769999981
 2650.3750000 4.0000000000 11.904000282 -0.232001945 0.2224798203 2.3170096874 53.256000519 90.975997925 1.1069999933 9.3120374680 1.0230000019 1.0399999619
 2650.5000000 4.0000000000 11.905999184 -0.232984364 0.2223938107 2.3220059872 54.131999969 91.422996521 1.1720000505 9.3310432434 1.0939999819 1.0850000381
 2650.6250000 4.0000000000 11.907999992 -0.224976555 0.2243452370 2.3250060081 54.326999664 91.766998291 1.2309999466 9.3530187607 1.1740000248 1.1160000563
 2650.7500000 4.0000000000 11.906999588 -0.212986320 0.2270219624 2.3280019760 54.076999664 92.028999329 1.2879999876 9.3629846573 1.2200000286 1.1289999485
 2650.8750000 4.0000000000 11.904999733 -0.206000000 0.2280269116 2.3289999962 53.666999817 92.376998901 1.3539999723 9.3549699783 1.2610000372 1.1260000467
 2651.0000000 4.0000000000 11.901000023 -0.206013680 0.2264422923 2.3290019035 53.271999359 92.863998413 1.4420000315 9.3399887085 1.2910000086 1.1169999838
 2651.1250000 4.0000000000 11.897999763 -0.213007808 0.2224906087 2.3300116062 52.941001892 93.288009644 1.5579999685 9.3340110779 1.3279999495 1.1200000048
 2651.2500000 4.0000000000 11.895998955 -0.216990232 0.2176802903 2.3360273838 52.659999847 93.083000183 1.6870000362 9.3400297165 1.4010000229 1.1549999714
 2651.3750000 4.0000000000 11.895998955 -0.211953118 0.2127093822 2.3500468731 52.471000671 91.736999512 1.8059999943 9.3550148010 1.4709999561 1.2430000305
 2651.5000000 4.0000000000 11.895998955 -0.187935546 0.2072783709 2.3740508556 52.441001892 88.677001953 1.8810000420 9.3629980087 1.5080000162 1.4479999542
 2651.6250000 4.0000000000 11.895998955 -0.154941410 0.2013286054 2.4000351429 52.534999847 84.691001892 1.9090000391 9.3619813919 1.5349999666 1.7979999781
 2651.7502441 16.000000000 11.895998955 -0.124960937 0.1954847872 2.4180078506 52.623001099 80.667999268 1.8839999437 9.3519458771 1.5340000391 2.3550000191
 2651.8752441 16.000000000 11.895998955 -0.115031250 0.1916058213 2.4199609756 52.562000275 78.098991394 1.8229999542 9.3379611969 1.5230000019 2.8320000172
 2651.9997559 16.000000000 11.897000313 -0.123000003 0.1905400157 2.4100000858 52.243000031 77.451995850 1.7289999723 9.3280000687 1.4700000286 2.8399999142
 2652.1247559 16.000000000 11.898999214 -0.143000007 0.1939499974 2.3889999390 51.439998627 79.462997437 1.5959999561 9.3339996338 1.4190000296 2.2799999714
 2652.2500000 16.000000000 11.899999619 -0.165000007 0.2002499998 2.3610000610 50.279998779 82.716003418 1.4459999800 9.3509998322 1.3719999790 1.7829999924
 2652.3750000 16.000000000 11.898999214 -0.187999994 0.2079299986 2.3329999447 48.956001282 86.406005859 1.2940000296 9.3719997406 1.3220000267 1.4769999981
 2652.5000000 2.0000000000 11.897000313 -0.217124745 0.2139500082 2.3079221249 47.881999969 89.537002563 1.1579999924 9.3870000839 1.2640000582 1.3300000429
 2652.6250000 2.0000000000 11.895000458 -0.249048829 0.2171199918 2.2879726887 47.199001312 91.906997681 1.0520000458 9.3950157166 1.1529999971 1.2400000095
 2652.7500000 2.0000000000 11.892999649 -0.274005860 0.2172793299 2.2739765644 46.948001862 93.350997925 0.9869999886 9.4030370712 0.9229999781 1.1640000343
 2652.8750000 2.0000000000 11.894000053 -0.276970714 0.2169409990 2.2619786263 46.812999725 93.902000427 0.9499999881 9.4220666885 0.7739999890 1.0809999704
 2653.0000000 2.0000000000 11.895000458 -0.261951178 0.2174512595 2.2509882450 46.648998260 93.557998657 0.9359999895 9.4560823441 0.7799999714 1.0130000114
 2653.1250000 2.0000000000 11.897000313 -0.236958981 0.2180870324 2.2450077534 46.595001221 92.283996582 0.9340000153 9.4980726242 0.7860000134 0.9940000176
 2653.2500000 2.0000000000 11.898999214 -0.215974614 0.2165610790 2.2490253448 46.907001495 90.536003113 0.9319999814 9.5350389481 0.7940000296 1.0390000343
 2653.3750000 2.0000000000 11.897999763 -0.202992186 0.2119982392 2.2620313168 47.783000946 88.880996704 0.9309999943 9.5549888611 0.8029999733 1.1560000181
 2653.5000000 2.0000000000 11.895998955 -0.199000001 0.2059808373 2.2780196667 49.008998871 88.074996948 0.9319999814 9.5489397049 0.8149999976 1.3049999475
 2653.6250000 2.0000000000 11.892999649 -0.198996097 0.2012873590 2.2880001068 50.050998688 88.612998962 0.9369999766 9.5179061890 0.8450000286 1.4010000229
 2653.7500000 2.0000000000 11.892001152 -0.196988285 0.1999439597 2.2879824638 50.335998535 90.528991699 0.9430000186 9.4698991776 0.8949999809 1.3769999743
 2653.8750000 2.0000000000 11.890999794 -0.190984368 0.2019776702 2.2789766788 49.813999176 93.007003784 0.9430000186 9.4179124832 0.9679999948 1.2819999456
 2654.0000000 2.0000000000 11.888998985 -0.182998046 0.2058978528 2.2669823170 48.683998108 95.086997986 0.9330000281 9.3729333878 1.0650000572 1.1879999638
 2654.1252441 2.0000000000 11.885001183 -0.182035148 0.2099190950 2.2579841614 47.416999817 96.243003845 0.9110000134 9.3389291763 1.1380000114 1.1250000000
 2654.2502441 2.0000000000 11.880000114 -0.191062495 0.2122386843 2.2540078163 46.448249817 96.388526917 0.8830000162 9.3209924698 1.1900000572 1.0889999866
 2654.3747559 2.0000000000 11.876000404 -0.207000002 0.2119000107 2.2560000420 46.001998901 96.013999939 0.8560000062 9.3190002441 1.2289999723 1.0700000525
 2654.4997559 2.0000000000 11.876000404 -0.219999999 0.2096900046 2.2630000114 46.106998444 95.504997253 0.8339999914 9.3330001831 1.2589999437 1.0599999428
 2654.6250000 2.0000000000 11.880000114 -0.222000003 0.2073500007 2.2750000954 46.694999695 94.850006104 0.8209999800 9.3559999466 1.2990000248 1.0609999895
 2654.7500000 2.0000000000 11.887000084 -0.216000006 0.2070199996 2.2880001068 47.575000763 93.985000610 0.8190000057 9.3780002594 1.3450000286 1.0670000315
 2654.8750000 2.0000000000 11.894000053 -0.209988296 0.2095499933 2.2980155945 48.615001678 93.056999207 0.8309999704 9.3859491348 1.3890000582 1.0709999800
 2655.0000000 2.0000000000 11.901000023 -0.207011715 0.2147814184 2.3019981384 50.034000397 92.461997986 0.8550000191 9.3729534149 1.4320000410 1.0650000572
