# LAS format log file from PETREL
# Project units are specified as depth units
#==================================================================
~Version information
VERS.   2.0:
WRAP.   NO:
#==================================================================
~Well
STRT .m      212.75000000 :
STOP .m      3019.0000000 :
STEP .m     0.00000000 :
NULL .        -999.250000 :
COMP.           : COMPANY
WELL.  34/7-21   : WELL
FLD.            : FIELD
LOC.            : LOCATION
SRVC.           : SERVICE COMPANY
DATE.  2018-09-11 14:48:52   : Log Export Date {yyyy-MM-dd HH:mm:ss}
PROV.           : PROVINCE
UWI.   34/7-21   : UNIQUE WELL ID
API.            : API NUMBER
#==================================================================
~Curve
DEPT .m                   : DEPTH
Lithology_geolink ._      : Lithology_geolink
CALI .in                  : CALI
DRHO .g/cm3               : DRHO
NPHI .m3/m3               : NPHI
RHOB .g/cm3               : RHOB
PEF .b/e                  : PEF
GR .gAPI                  : GR
DTC .us/ft                : DTC
RDEP .ohm.m               : RDEP
SP .mV                    : SP
RSHA .ohm.m               : RSHA
RMED .ohm.m               : RMED
~Parameter
#==================================================================
~Ascii
# ...
 2744.7500000 2.0000000000 11.623294830 -0.005036613 0.3277423382 2.3043179512 10.162582397 92.991302490 94.883926392 0.8660709858  -999.250000 0.3507461548 1.1866643429
 2744.8750000 2.0000000000 11.626628876 0.0006236493 0.3274300694 2.3305253983 10.792581558 94.127731323 93.406509399 0.9123003483  -999.250000 0.3915876746 1.2838397026
 2745.0000000 2.0000000000 11.628253937 0.0042357789 0.3260985315 2.3652338982 10.880065918 96.108230591 91.135772705 0.9560447931  -999.250000 0.4500162005 1.3762438297
 2745.1250000 2.0000000000 11.625826836 -0.000474031 0.3239067197 2.3962259293 10.666950226 98.526916504 89.382934570 0.9809061289  -999.250000 0.5049771070 1.4339072704
 2745.2500000 2.0000000000 11.617984772 -0.012408581 0.3216257989 2.4078564644 10.492650986 100.73463440 88.536003113 0.9675647020  -999.250000 0.5149210691 1.4238512516
 2745.3750000 2.0000000000 11.606366158 -0.025115207 0.3213740587 2.3944849968 10.420528412 101.79931641 88.574264526 0.9044712782  -999.250000 0.4653561711 1.3268885612
 2745.5002441 2.0000000000 11.596313477 -0.032037482 0.3251236677 2.3633179665 10.376306534 101.56759644 89.846282959 0.8203771114  -999.250000 0.3921920061 1.1924068928
 2745.6252441 2.0000000000 11.591314316 -0.031887218 0.3322402239 2.3283314705 10.363370895 100.39712524 92.217315674 0.7422251701  -999.250000 0.3313028216 1.0644001961
 2745.7497559 2.0000000000 11.592098236 -0.028326500 0.3399348557 2.3004007339 10.401563644 98.925186157 94.522659302 0.6871840954  -999.250000 0.2939658165 0.9696675539
 2745.8747559 2.0000000000 11.596813202 -0.023623157 0.3462396264 2.2810297012 10.466512680 97.763504028 96.610473633 0.6626572609  -999.250000 0.2743871212 0.9194883108
 2746.0000000 2.0000000000 11.601818085 -0.019467305 0.3489435911 2.2684369087 10.523227692 97.095932007 97.755203247 0.6557804346  -999.250000 0.2646403313 0.8982636929
 2746.1250000 2.0000000000 11.605975151 -0.016668648 0.3474572897 2.2602982521 10.548154831 96.818389893 98.544403076 0.6547194719  -999.250000 0.2606215477 0.8950332403
 2746.2500000 2.0000000000 11.609506607 -0.015702251 0.3443928659 2.2544336319 10.541574478 96.681808472 98.629074097 0.6501110792  -999.250000 0.2602593303 0.9006859064
 2746.3750000 2.0000000000 11.611795425 -0.017119586 0.3422004580 2.2497763634 10.526556015 96.449966431 98.476608276 0.6401442289  -999.250000 0.2624626756 0.9098615646
 2746.5000000 2.0000000000 11.611533165 -0.020771019 0.3407973051 2.2463793755 10.542968750 96.152908325 98.329284668 0.6332738400  -999.250000 0.2664416432 0.9212056398
 2746.6250000 2.0000000000 11.608448029 -0.025066979 0.3386740088 2.2451276779 10.598144531 95.959320068 98.540481567 0.6376652718  -999.250000 0.2717053890 0.9371708632
 2746.7500000 2.0000000000 11.603782654 -0.027935661 0.3357522488 2.2474455833 10.678688049 96.067718506 98.392791748 0.6573824883  -999.250000 0.2784682512 0.9612578154
 2746.8750000 2.0000000000 11.598978043 -0.028628390 0.3335117698 2.2551107407 10.757341385 96.796325684 98.658477783 0.6927301884  -999.250000 0.2877160311 0.9970850945
 2747.0000000 2.0000000000 11.594832420 -0.027626101 0.3333907425 2.2685494423 10.817230225 98.174331665 98.866897583 0.7359641790  -999.250000 0.3000223637 1.0403463840
 2747.1250000 4.0000000000 11.592082977 -0.025789183 0.3356317282 2.2849264145 10.882263184 100.10948181 98.232879639 0.7803140879  -999.250000 0.3144264817 1.0848512650
 2747.2500000 4.0000000000 11.591442108 -0.024392307 0.3386654556 2.2988467216 10.977397919 102.34979248 97.305564880 0.8175919056  -999.250000 0.3281958699 1.1230595112
 2747.3750000 4.0000000000 11.593743324 -0.024965506 0.3402333856 2.3067445755 11.103830338 104.37042236 96.774322510 0.8382681608  -999.250000 0.3386566043 1.1464374065
 2747.5000000 4.0000000000 11.598367691 -0.028172050 0.3391495645 2.3083157539 11.233322144 105.66151428 95.963180542 0.8448463678  -999.250000 0.3454001546 1.1559252739
 2747.6250000 4.0000000000 11.604187012 -0.032316662 0.3363811374 2.3066325188 11.341352463 106.01086426 95.816421509 0.8444391489  -999.250000 0.3502758741 1.1548264027
 2747.7500000 4.0000000000 11.609205246 -0.035061546 0.3336588144 2.3052244186 11.427021027 105.64483643 96.365585327 0.8462425470  -999.250000 0.3559157848 1.1481947899
 2747.8752441 4.0000000000 11.610937119 -0.036611453 0.3311920166 2.3054366112 11.500726700 105.14398193 97.395370483 0.8561606407  -999.250000 0.3624153137 1.1409058571
 2748.0002441 4.0000000000 11.609630585 -0.038426027 0.3280116916 2.3069043159 11.558944702 104.87841797 97.943725586 0.8684920073  -999.250000 0.3669482470 1.1352798939
 2748.1247559 4.0000000000 11.606409073 -0.039745979 0.3236587644 2.3085694313 11.600330353 104.69656372 98.277404785 0.8765343428  -999.250000 0.3676785827 1.1308312416
 2748.2497559 4.0000000000 11.602645874 -0.038032256 0.3191336393 2.3102598190 11.632869720 104.28153992 98.362701416 0.8796410561  -999.250000 0.3655810952 1.1263723373
 2748.3750000 4.0000000000 11.599977493 -0.033460289 0.3157992363 2.3128933907 11.661148071 103.51556396 97.733551025 0.8855937719  -999.250000 0.3630862236 1.1224322319
 2748.5000000 4.0000000000 11.598966599 -0.029561844 0.3146419525 2.3170309067 11.677783966 102.86448669 96.443077087 0.8984636068  -999.250000 0.3618693352 1.1210162640
 2748.6250000 4.0000000000 11.599493027 -0.029046956 0.3158482909 2.3219323158 11.677639008 102.70373535 96.576042175 0.9112837315  -999.250000 0.3621484637 1.1228287220
 2748.7500000 4.0000000000 11.601291656 -0.031260200 0.3190556169 2.3259139061 11.659429550 102.91261292 96.855133057 0.9095180035  -999.250000 0.3622128367 1.1260812283
 2748.8750000 4.0000000000 11.604146957 -0.034598157 0.3235510588 2.3273625374 11.626626968 102.90501404 96.536544800 0.8793412447  -999.250000 0.3592477441 1.1257443428
 2749.0000000 4.0000000000 11.607213974 -0.037368298 0.3278943002 2.3250265121 11.584087372 102.34393311 97.076377869 0.8330614567  -999.250000 0.3522230983 1.1182112694
 2749.1250000 4.0000000000 11.609750748 -0.038030788 0.3305677772 2.3194594383 11.542739868 101.39303589 97.867492676 0.7878491879  -999.250000 0.3425444961 1.1031496525
 2749.2500000 4.0000000000 11.611228943 -0.036388859 0.3305716813 2.3135352135 11.503334045 100.52027893 97.692535400 0.7569903135  -999.250000 0.3329068422 1.0837576389
 2749.3750000 4.0000000000 11.611469269 -0.034333862 0.3277224600 2.3092584610 11.459415436 100.14469910 97.663772583 0.7450569868  -999.250000 0.3257077932 1.0652921200
 2749.5000000 2.0000000000 11.611085892 -0.033926867 0.3235824704 2.3067364693 11.406240463 100.11070251 98.072784424 0.7423146963  -999.250000 0.3215128779 1.0505228043
 2749.6250000 2.0000000000 11.609947205 -0.035024457 0.3203141093 2.3041324615 11.350023270 100.19131470 98.098007202 0.7424222231  -999.250000 0.3192593455 1.0390944481
 2749.7500000 2.0000000000 11.606393814 -0.036226451 0.3184598684 2.2998685837 11.299072266 100.18354797 97.979286194 0.7420228720  -999.250000 0.3173704743 1.0289683342
 2749.8750000 2.0000000000 11.597599983 -0.036801733 0.3174837828 2.2943844795 11.257036209 99.896560669 97.681137085 0.7393121719  -999.250000 0.3148828745 1.0176129341
 2750.0000000 2.0000000000 11.585667610 -0.035938710 0.3177195191 2.2895894051 11.215305328 99.355209351 97.917602539 0.7329437733  -999.250000 0.3117700815 1.0048201084
 2750.1250000 2.0000000000 11.575120926 -0.032822676 0.3200463057 2.2868094444 11.158021927 98.755630493 98.070709229 0.7220879793  -999.250000 0.3085389733 0.9922190905
 2750.2502441 2.0000000000 11.570529938 -0.028854404 0.3237740397 2.2854318619 11.078298569 98.466476440 98.355010986 0.7080806494  -999.250000 0.3059665561 0.9818327427
 2750.3752441 2.0000000000 11.574264526 -0.027109582 0.3264097571 2.2845678329 10.985445023 98.915054321 98.358139038 0.6945860386  -999.250000 0.3044558764 0.9753005505
 2750.4997559 2.0000000000 11.580926895 -0.028938502 0.3242524266 2.2840232849 10.898328781 99.949584961 98.392745972 0.6858773232  -999.250000 0.3036367297 0.9713592529
 2750.6250000 2.0000000000 11.583917618 -0.031859040 0.3162119985 2.2844181061 10.824653625 101.17395020 97.719070435 0.6852033138  -999.250000 0.3029515147 0.9683539867
