# LAS format log file from PETREL
# Project units are specified as depth units
#==================================================================
~Version information
VERS.   2.0:
WRAP.   NO:
#==================================================================
~Well
STRT .m      377.87487793 :
STOP .m      3151.8757324 :
STEP .m     0.00000000 :
NULL .        -999.250000 :
COMP.           : COMPANY
WELL.  34/7-5   : WELL
FLD.            : FIELD
LOC.            : LOCATION
SRVC.           : SERVICE COMPANY
DATE.  2018-09-11 14:48:52   : Log Export Date {yyyy-MM-dd HH:mm:ss}
PROV.           : PROVINCE
UWI.   34/7-5   : UNIQUE WELL ID
API.            : API NUMBER
#==================================================================
~Curve
DEPT .m                   : DEPTH
Lithology_geolink ._      : Lithology_geolink
CALI .in                  : CALI
DRHO .g/cm3               : DRHO
NPHI .m3/m3               : NPHI
RHOB .g/cm3               : RHOB
GR .gAPI                  : GR
DTC .us/ft                : DTC
RDEP .ohm.m               : RDEP
SP .mV                    : SP
RSHA .ohm.m               : RSHA
RMED .ohm.m               : RMED
~Parameter
#==================================================================
~Ascii
# ...
 2774.8750000 6.0000000000 14.015001297 -0.007000000 0.3221900165 2.4539999962 52.762001038 105.05300140 1.7309999466 59.266998291 2.1419999599 2.1419999599
 2775.0000000 6.0000000000 14.029999733 -0.011000000 0.3183499873 2.4479999542 52.304000854 105.30699921 1.7419999838 60.375999451 2.1549999714 2.1549999714
 2775.1250000 6.0000000000 14.052000046 -0.014000000 0.3165000081 2.4430000782 51.166999817 105.43199921 1.7580000162 62.282001495 2.1659998894 2.1659998894
 2775.2500000 5.0000000000 14.081000328 -0.015000000 0.3146699965 2.4430000782 50.069999695 105.29399872 1.7829999924 64.186996460 2.1730000973 2.1730000973
 2775.3750000 5.0000000000 14.107001305 -0.016000001 0.3126100004 2.4449999332 49.061000824 105.00900269 1.8079999685 66.093002319 2.1789999008 2.1789999008
 2775.5000000 5.0000000000 14.127999306 -0.017000001 0.3093300164 2.4470000267 48.630001068 104.62999725 1.8350000381 67.998001099 2.1960000992 2.1960000992
 2775.6250000 5.0000000000 14.137999535 -0.017000001 0.3057799935 2.4500000477 48.487998962 104.30800629 1.8710000515 69.900001526 2.2349998951 2.2349998951
 2775.7500000 5.0000000000 14.137999535 -0.017999999 0.3016900122 2.4560000896 48.416000366 103.62999725 1.9090000391 71.382003784 2.2469999790 2.2469999790
 2775.8747559 5.0000000000 14.135999680 -0.017000001 0.2951000035 2.4649999142 48.418998718 103.31099701 1.9470000267 71.957000732 2.2190001011 2.2190001011
 2775.9997559 5.0000000000 14.125000000 -0.009000000 0.2887400091 2.4739999771 48.605998993 102.37100220 1.9800000191 69.535003662 2.1889998913 2.1889998913
 2776.1247559 5.0000000000 14.107001305 0.0020000001 0.2849000096 2.4830000401 49.019001007 101.51799774 1.9960000515 65.916000366 2.2249999046 2.2249999046
 2776.2497559 5.0000000000 14.088000298 0.0030000000 0.2815600038 2.4939999580 49.453998566 99.801002502 2.0120000839 62.108001709 2.3369998932 2.3369998932
 2776.3747559 5.0000000000 14.065999985 0.0030000000 0.2753899992 2.5069999695 49.909999847 98.030998230 2.0269999504 57.659000397 2.4270000458 2.4270000458
 2776.5000000 5.0000000000 14.045999527 0.0030000000 0.2662000060 2.5190000534 50.319000244 96.551002502 2.0209999084 53.905998230 2.5510001183 2.5510001183
 2776.6250000 5.0000000000 14.032999992 0.0030000000 0.2570199966 2.5250000954 50.706001282 95.934005737 2.0060000420 51.479999542 2.6129999161 2.6129999161
 2776.7500000 5.0000000000 14.024000168 0.0020000001 0.2478599995 2.5309998989 51.097000122 95.825996399 1.9910000563 49.145000458 2.6419999599 2.6419999599
 2776.8750000 5.0000000000 14.013999939 0.0010000000 0.2413599938 2.5369999409 51.655998230 96.898002625 1.9689999819 47.354999542 2.5510001183 2.5510001183
 2777.0002441 6.0000000000 13.991998672 0.0010000000 0.2437199950 2.5399999619 52.340999603 99.452003479 1.9320000410 46.148998260 2.4809999466 2.4809999466
 2777.1252441 6.0000000000 13.961000443 0.0020000001 0.2558600008 2.5350000858 53.027000427 102.15798950 1.8930000067 45.515998840 2.3770000935 2.3770000935
 2777.2502441 6.0000000000 13.925000191 0.0020000001 0.2702000141 2.5220000744 53.659999847 104.91500092 1.8550000191 45.494998932 2.2869999409 2.2869999409
 2777.3750000 6.0000000000 13.899000168 0.0030000000 0.2954300046 2.5079998970 54.083000183 108.99600220 1.8209999800 45.618999481 2.2070000172 2.2070000172
 2777.5000000 6.0000000000 13.892998695 0.0030000000 0.3189300001 2.4949998856 54.153999329 110.78399658 1.7890000343 46.238998413 2.1819999218 2.1819999218
 2777.6250000 6.0000000000 13.890000343 0.0040000002 0.3204399943 2.4879999161 53.863998413 112.64199829 1.7560000420 47.138999939 2.1819999218 2.1819999218
 2777.7500000 6.0000000000 13.887000084 0.0040000002 0.3197399974 2.4800000191 53.287998199 113.74400330 1.7239999771 48.039001465 2.1830000877 2.1830000877
 2777.8750000 6.0000000000 13.883000374 0.0049999999 0.3188699782 2.4739999771 52.639999390 114.48799896 1.7050000429 49.008998871 2.1830000877 2.1830000877
 2778.0000000 6.0000000000 13.880000114 0.0049999999 0.3203999996 2.4730000496 52.042999268 114.66000366 1.6970000267 50.036998749 2.1889998913 2.1889998913
 2778.1250000 6.0000000000 13.876000404 0.0060000001 0.3232699931 2.4730000496 51.804000854 115.06400299 1.6900000572 51.311000824 2.2009999752 2.2009999752
 2778.2497559 6.0000000000 13.873000145 0.0060000001 0.3266500235 2.4739999771 52.157001495 115.03900146 1.6820000410 52.967998505 2.2379999161 2.2379999161
 2778.3747559 6.0000000000 13.871999741 0.0070000002 0.3300800025 2.4749999046 52.833999634 114.81499481 1.6740000248 54.539001465 2.2460000515 2.2460000515
 2778.4997559 6.0000000000 13.871000290 0.0070000002 0.3342100084 2.4760000706 53.418998718 114.81400299 1.6670000553 55.363998413 2.2469999790 2.2469999790
 2778.6247559 6.0000000000 13.864000320 0.0080000004 0.3403699994 2.4749999046 53.801998138 114.81300354 1.6579999924 54.470001221 2.2469999790 2.2469999790
 2778.7500000 6.0000000000 13.842000008 0.0080000004 0.3465200067 2.4730000496 53.797000885 114.81199646 1.6490000486 51.698001862 2.2460000515 2.2460000515
 2778.8750000 6.0000000000 13.802000046 0.0089999996 0.3525199890 2.4739999771 53.484001160 114.80999756 1.6390000582 48.194000244 2.2060000896 2.2060000896
 2779.0000000 6.0000000000 13.752999306 0.0120000001 0.3540399969 2.4779999256 53.033000946 114.87799835 1.6299999952 44.810001373 2.1770000458 2.1770000458
 2779.1250000 6.0000000000 13.711000443 0.0209999997 0.3519999981 2.4820001125 52.485000610 115.05700684 1.6230000257 42.240001678 2.1760001183 2.1760001183
 2779.2500000 6.0000000000 13.682000160 0.0320000015 0.3522299826 2.4849998951 52.131999969 115.39600372 1.6310000420 39.858001709 2.1630001068 2.1630001068
 2779.3752441 6.0000000000 13.656999588 0.0419999994 0.3566199839 2.4860000610 52.223999023 116.72299957 1.6430000067 38.541999817 2.1470000744 2.1470000744
 2779.5002441 6.0000000000 13.631999969 0.0430000015 0.3649700284 2.4769999981 52.505001068 117.59799957 1.6540000439 37.999000549 2.1489999294 2.1489999294
 2779.6252441 6.0000000000 13.626998901 0.0350000001 0.3734400272 2.4679999352 53.057998657 118.63300323 1.6660000086 37.714000702 2.1489999294 2.1489999294
 2779.7500000 7.0000000000 13.656000137 0.0230000000 0.3795999885 2.4590001106 53.803001404 119.40000153 1.6770000458 37.566001892 2.1579999924 2.1579999924
 2779.8750000 7.0000000000 13.696000099 0.0109999999 0.3793399930 2.4509999752 54.823001862 119.24699402 1.6940000057 37.820999146 2.1700000763 2.1700000763
 2780.0000000 7.0000000000 13.732999802 0.0030000000 0.3750199974 2.4509999752 55.792999268 118.30999756 1.7159999609 38.319999695 2.1970000267 2.1970000267
 2780.1250000 7.0000000000 13.767999649 -0.004000000 0.3707799911 2.4549999237 56.486999512 117.19100189 1.7389999628 39.027000427 2.1909999847 2.1909999847
 2780.2500000 7.0000000000 13.804000854 -0.008000000 0.3650000095 2.4619998932 56.004001617 115.74099731 1.7610000372 40.000000000 2.1919999123 2.1919999123
 2780.3750000 7.0000000000 13.831999779 -0.008000000 0.3578799963 2.4700000286 54.870998383 114.75299835 1.7849999666 41.480998993 2.2420001030 2.2420001030
 2780.5000000 6.0000000000 13.831001282 -0.007000000 0.3507799804 2.4779999256 53.842998505 114.26300049 1.8099999428 42.457000732 2.2750000954 2.2750000954
 2780.6247559 6.0000000000 13.788999557 -0.002000000 0.3436700106 2.4860000610 53.233001709 113.72000122 1.8309999704 43.029998779 2.2950000763 2.2950000763
 2780.7497559 6.0000000000 13.711000443 0.0060000001 0.3365800083 2.4949998856 53.446998596 113.64099121 1.8309999704 43.575000763 2.3110001087 2.3110001087
 2780.8747559 6.0000000000 13.619000435 0.0149999997 0.3298899829 2.5009999275 54.006000519 113.69999695 1.8320000172 44.236999512 2.3150000572 2.3150000572
 2780.9997559 6.0000000000 13.526000023 0.0199999996 0.3278699815 2.5030000210 54.695999146 114.00599670 1.8200000525 44.923000336 2.2920000553 2.2920000553
 2781.1250000 6.0000000000 13.469999313 0.0230000000 0.3350500166 2.5030000210 54.748001099 114.28800201 1.7799999714 45.479000092 2.2669999599 2.2669999599
