# LAS format log file from PETREL
# Project units are specified as depth units
#==================================================================
~Version information
VERS.   2.0:
WRAP.   NO:
#==================================================================
~Well
STRT .m      1820.5001221 :
STOP .m      3000.6250000 :
STEP .m     0.00000000 :
NULL .        -999.250000 :
COMP.           : COMPANY
WELL.  34/7-13   : WELL
FLD.            : FIELD
LOC.            : LOCATION
SRVC.           : SERVICE COMPANY
DATE.  2018-09-11 14:48:51   : Log Export Date {yyyy-MM-dd HH:mm:ss}
PROV.           : PROVINCE
UWI.   34/7-13   : UNIQUE WELL ID
API.            : API NUMBER
#==================================================================
~Curve
DEPT .m                   : DEPTH
Lithology_geolink ._      : Lithology_geolink
CALI .in                  : CALI
BS .in                    : BS
DRHO .g/cm3               : DRHO
NPHI .m3/m3               : NPHI
RHOB .g/cm3               : RHOB
GR .gAPI                  : GR
DTC .us/ft                : DTC
RDEP .ohm.m               : RDEP
SP .mV                    : SP
RSHA .ohm.m               : RSHA
RMED .ohm.m               : RMED
~Parameter
#==================================================================
~Ascii
# ...
 1898.5000000  -999.250000 12.996999741  -999.250000 0.0149999997 0.3155502081 2.3050000668 89.126998901 120.57399750 1.3810000420 12.265000343 1.7569999695 1.7569999695
 1898.6250000  -999.250000 13.005999565  -999.250000 0.0130000003 0.3128626049 2.3120000362 88.140998840 121.25099945 1.3940000534 12.255000114 1.7970000505 1.7970000505
 1898.7500000  -999.250000 13.029000282  -999.250000 0.0089999996 0.3089177310 2.3169999123 87.691001892 121.35299683 1.4090000391 11.892999649 1.8630000353 1.8630000353
 1898.8750000  -999.250000 13.050000191  -999.250000 0.0049999999 0.3051972687 2.3190000057 88.068000793 121.02345276 1.4259999990 11.414999962 1.9410654306 1.9410654306
 1899.0001221  -999.250000 13.061000824  -999.250000 0.0030000000 0.3034916818 2.3169999123 89.362998962 120.45831299 1.4450000525 11.085000038 2.0080721378 2.0080721378
 1899.1248779  -999.250000 13.067000389  -999.250000 0.0020000001 0.3037594557 2.3130078316 91.365081787 120.10199738 1.4629648924 10.932999611 2.0450000763 2.0450000763
 1899.2500000  -999.250000 13.069000244  -999.250000 0.0020000001 0.3056781292 2.3099999428 93.656761169 120.18799591 1.4769862890 10.958999634 2.0369999409 2.0369999409
 1899.3750000  -999.250000 13.069999695  -999.250000 0.0020000001 0.3089967370 2.3110001087 95.736000061 120.69000244 1.4850000143 11.135999680 1.9980000257 1.9980000257
 1899.5000000  -999.250000 13.072999954  -999.250000 0.0010000000 0.3125864863 2.3150000572 97.178001404 121.33200073 1.4819999933 11.461000443 1.9520000219 1.9520000219
 1899.6250000  -999.250000 13.079999924  -999.250000 0.0020000001 0.3144781590 2.3220000267 97.750000000 121.84999847 1.4680000544 11.951000214 1.9259999990 1.9259999990
 1899.7500000  -999.250000 13.091999054  -999.250000 0.0040000002 0.3144899905 2.3280000687 97.492996216 122.12000275 1.4470000267 12.553999901 1.9299999475 1.9299999475
 1899.8750000  -999.250000 13.111999512  -999.250000 0.0049999999 0.3127117157 2.3329999447 96.780998230 122.23000336 1.4220000505 13.227999687 1.9459999800 1.9459999800
 1900.0000000  -999.250000 13.145999908 12.250000954 0.0049999999 0.3105841577 2.3359999657 96.175003052 122.28603363 1.4049999714 13.918000221 1.9399541616 1.9399541616
 1900.1251221  -999.250000 13.200999260 12.250000954 0.0040000002 0.3094910681 2.3359999657 96.096000671 122.32581329 1.3960000277 14.567999840 1.8928593397 1.8928613663
 1900.2498779  -999.250000 13.277999878 12.250000954 0.0040000002 0.3101087809 2.3340039253 96.499214172 122.23100281 1.3930058479 15.175000191 1.8209999800 1.8220000267
 1900.3750000  -999.250000 13.354999542 12.250000954 0.0060000001 0.3114087284 2.3320000172 96.841667175 121.91599274 1.3949980736 15.559000015 1.7530000210 1.7530000210
 1900.5000000  -999.250000 13.397000313 12.250000954 0.0080000004 0.3119194806 2.3299999237 96.439399719 121.32800293 1.4009941816 15.756999969 1.7059999704 1.7059999704
 1900.6250000  -999.250000 13.387000084 12.250000954 0.0089999996 0.3105913103 2.3259999752 95.007003784 120.46200562 1.4119999409 15.788000107 1.6890000105 1.6890000105
 1900.7500000  -999.250000 13.337000847 12.250000954 0.0080000004 0.3080724776 2.3220000267 92.903999329 119.36399841 1.4249999523 15.681000710 1.7029999495 1.7039999962
 1900.8750000  -999.250000 13.277999878 12.250000954 0.0049999999 0.3050629497 2.3159999847 90.872001648 117.92199707 1.4409999847 15.444999695 1.7489999533 1.7489999533
 1901.0000000  -999.250000 13.248998642 12.250000954 0.0030000000 0.3022127748 2.3090000153 89.550003052 116.07599640 1.4600000381 15.088999748 1.8179999590 1.8179999590
 1901.1250000  -999.250000 13.277000427 12.250000954 0.0040000002 0.2993356287 2.3029999733 89.169998169 114.31858063 1.4809999466 14.687999725 1.8880459070 1.8880459070
 1901.2500000  -999.250000 13.381999969 12.250000954 0.0070000002 0.2952879071 2.2969999313 89.594001770 112.86207581 1.5039999485 14.336000443 1.9350204468 1.9350204468
 1901.3748779  -999.250000 13.548999786 12.250000954 0.0109921955 0.2880441844 2.2940058708 90.505218506 111.92299652 1.5249589682 14.107000351 1.9559999704 1.9559999704
 1901.5000000  -999.250000 13.720000267 12.250000954 0.0149999997 0.2778699100 2.2929999828 91.567962646 111.64299774 1.5419834852 14.098999977 1.9670000076 1.9670000076
 1901.6250000  -999.250000 13.814001083 12.250000954 0.0160000008 0.2711165845 2.2980000973 92.497093201 111.84400177 1.5509911776 14.378999710 1.9859999418 1.9859999418
 1901.7500000  -999.250000 13.781999588 12.250000954 0.0140000004 0.2734677196 2.3059999943 93.153999329 112.26399994 1.5490000248 14.991000175 2.0130000114 2.0130000114
 1901.8750000  -999.250000 13.640999794 12.250000954 0.0080000004 0.2798337638 2.3190000057 93.543998718 112.86900330 1.5360000134 15.924999237 2.0320000648 2.0320000648
 1902.0000000  -999.250000 13.475000381 12.250000954 0.0040000002 0.2813785076 2.3299999237 93.736999512 113.78600311 1.5199999809 17.018999100 2.0199999809 2.0199999809
 1902.1250000  -999.250000 13.352000237 12.250000954 0.0010000000 0.2795018554 2.3410000801 93.792999268 115.16799927 1.5039999485 18.099000931 1.9800000191 1.9800000191
 1902.2500000  -999.250000 13.295000076 12.250000954 0.0010000000 0.2775138617 2.3469998837 93.732002258 116.96700287 1.4919999838 18.940000534 1.9210000038 1.9210000038
 1902.3750000  -999.250000 13.281999588 12.250000954 0.0010000000 0.2755238712 2.3519999981 93.545997620 118.82635498 1.4850000143 19.444000244 1.8609589338 1.8609589338
 1902.5001221  -999.250000 13.281999588 12.250000954 0.0010000000 0.2726028562 2.3540000916 93.188003540 120.21725464 1.4839999676 19.424999237 1.8189667463 1.8189667463
 1902.6248779  -999.250000 13.284000397 12.250000954 0.0010000000 0.2710929513 2.3520038128 92.591163635 120.85800934 1.4879921675 19.106000900 1.8020000458 1.8020000458
 1902.7500000  -999.250000 13.288000107 12.250000954 0.0000000000 0.2749262452 2.3459999561 91.720848083 120.46399689 1.4929951429 18.645999908 1.8109999895 1.8109999895
 1902.8750000  -999.250000 13.292999268 12.250000954 0.0000000000 0.2839611769 2.3359999657 90.652000427 119.07800293 1.4989999533 18.212999344 1.8420000076 1.8420000076
 1903.0000000  -999.250000 13.298000336 12.250000954 0.0010000000 0.2919721901 2.3229999542 89.556999207 117.51000214 1.5019999743 17.931999207 1.8810000420 1.8810000420
 1903.1250000  -999.250000 13.302000046 12.250000954 0.0030000000 0.2931488752 2.3069999218 88.608001709 116.20600128 1.5019999743 17.875000000 1.9229999781 1.9229999781
 1903.2500000  -999.250000 13.302999496 12.250000954 0.0080000004 0.2954078019 2.2939999104 87.919998169 115.51200104 1.5000000000 18.034000397 1.9609999657 1.9609999657
 1903.3750000  -999.250000 13.298999786 12.250000954 0.0109999999 0.2952901125 2.2860000134 87.558998108 115.39399719 1.4980000257 18.322999954 1.9869999886 1.9869999886
 1903.5000000  -999.250000 13.286999702 12.250000954 0.0130000003 0.2865570784 2.2850000858 87.567001343 115.81057739 1.4950000048 18.645000458 1.9839619398 1.9839619398
 1903.6251221  -999.250000 13.269001007 12.250000954 0.0140000004 0.2765497565 2.2899999619 87.913002014 116.40408325 1.4910000563 18.906000137 1.9448789358 1.9448789358
 1903.7498779  -999.250000 13.248998642 12.250000954 0.0140000004 0.2798435390 2.3009786606 88.411026001 116.95500183 1.4870078564 19.058000565 1.8830000162 1.8830000162
 1903.8750000  -999.250000 13.232999802 12.250000954 0.0120000001 0.2910490632 2.3120000362 88.771652222 117.29798889 1.4800068140 19.090999603 1.8350000381 1.8350000381
 1904.0000000  -999.250000 13.223999977 12.250000954 0.0089999996 0.3011800945 2.3229999542 88.832939148 117.34500122 1.4710087776 19.004999161 1.8090000153 1.8090000153
 1904.1250000  -999.250000 13.220999718 12.250000954 0.0049999999 0.3085927665 2.3289999962 88.771003723 117.11299896 1.4609999657 18.805000305 1.8059999943 1.8059999943
 1904.2500000  -999.250000 13.220000267 12.250000954 0.0020000001 0.3151735663 2.3320000172 88.972000122 116.73300171 1.4520000219 18.549999237 1.8170000315 1.8170000315
 1904.3750000  -999.250000 13.222000122 12.250000954 0.0000000000 0.3201751411 2.3289999962 89.601997375 116.26999664 1.4459999800 18.391000748 1.8329999447 1.8329999447
