# LAS format log file from PETREL
# Project units are specified as depth units
#==================================================================
~Version information
VERS.   2.0:
WRAP.   NO:
#==================================================================
~Well
STRT .m      377.87487793 :
STOP .m      3151.8757324 :
STEP .m     0.00000000 :
NULL .        -999.250000 :
COMP.           : COMPANY
WELL.  34/7-5   : WELL
FLD.            : FIELD
LOC.            : LOCATION
SRVC.           : SERVICE COMPANY
DATE.  2018-09-11 14:48:52   : Log Export Date {yyyy-MM-dd HH:mm:ss}
PROV.           : PROVINCE
UWI.   34/7-5   : UNIQUE WELL ID
API.            : API NUMBER
#==================================================================
~Curve
DEPT .m                   : DEPTH
Lithology_geolink ._      : Lithology_geolink
CALI .in                  : CALI
DRHO .g/cm3               : DRHO
NPHI .m3/m3               : NPHI
RHOB .g/cm3               : RHOB
GR .gAPI                  : GR
DTC .us/ft                : DTC
RDEP .ohm.m               : RDEP
SP .mV                    : SP
RSHA .ohm.m               : RSHA
RMED .ohm.m               : RMED
~Parameter
#==================================================================
~Ascii
# ...
 562.75012207  -999.250000 18.615999222 0.0280000009  -999.250000 2.1809999943 64.874000549 145.47099304 2.4649999142 67.986000061 2.0699999332 2.0699999332
 562.87506104  -999.250000 18.614000320 0.0230000000  -999.250000 2.1830000877 65.349998474 145.65499878 2.4560000896 68.069000244 2.0739998817 2.0739998817
 563.00006104  -999.250000 18.607000351 0.0219999999  -999.250000 2.1830000877 65.747001648 145.97799683 2.4409999847 68.152999878 2.0769999027 2.0769999027
 563.12500000  -999.250000 18.590999603 0.0209999997  -999.250000 2.1809999943 65.669998169 146.33700562 2.4270000458 68.236000061 2.0799999237 2.0799999237
 563.25000000  -999.250000 18.563999176 0.0240000002  -999.250000 2.1809999943 64.990997314 146.72399902 2.4200000763 68.249000549 2.0840001106 2.0840001106
 563.37493896  -999.250000 18.535999298 0.0350000001  -999.250000 2.1860001087 64.203002930 147.08999634 2.4289999008 68.246002197 2.0859999657 2.0859999657
 563.49993896  -999.250000 18.520000458 0.0450000018  -999.250000 2.1960000992 63.847000122 147.18099976 2.4370000362 68.242996216 2.0859999657 2.0859999657
 563.62487793  -999.250000 18.513999939 0.0540000014  -999.250000 2.2060000896 63.741001129 147.18200684 2.4449999332 68.238998413 2.0859999657 2.0859999657
 563.74987793  -999.250000 18.513000488 0.0630000010  -999.250000 2.2160000801 64.147003174 147.18400574 2.4539999962 68.236000061 2.0859999657 2.0859999657
 563.87512207  -999.250000 18.511999130 0.0719999969  -999.250000 2.2249999046 64.421997070 147.18600464 2.4609999657 68.233001709 2.0850000381 2.0850000381
 564.00006104  -999.250000 18.511999130 0.0750000030  -999.250000 2.2249999046 64.418998718 147.18699646 2.4619998932 68.228996277 2.0850000381 2.0850000381
 564.12506104  -999.250000 18.511999130 0.0710000023  -999.250000 2.2209999561 64.430000305 147.18800354 2.4619998932 68.224998474 2.0850000381 2.0850000381
 564.25000000  -999.250000 18.510999680 0.0590000004  -999.250000 2.2070000172 65.132003784 146.97000122 2.4619998932 68.097999573 2.0850000381 2.0850000381
 564.37500000  -999.250000 18.510999680 0.0469999984  -999.250000 2.1960000992 65.367996216 146.63699341 2.4619998932 67.781997681 2.0880000591 2.0880000591
 564.49993896  -999.250000 18.510000229 0.0350000001  -999.250000 2.1870000362 65.407997131 146.43299866 2.4619998932 67.420997620 2.0929999352 2.0929999352
 564.62493896  -999.250000 18.510000229 0.0219999999  -999.250000 2.1789999008 65.144996643 146.53799438 2.4619998932 67.411003113 2.0980000496 2.0980000496
 564.74987793  -999.250000 18.510000229 0.0099999998  -999.250000 2.1749999523 64.731002808 146.67700195 2.4619998932 67.293998718 2.1019999981 2.1019999981
 564.87487793  -999.250000 18.513000488 0.0040000002  -999.250000 2.1730000973 64.439002991 146.84399414 2.4609999657 67.287002563 2.0980000496 2.0980000496
 565.00012207  -999.250000 18.517999649 0.0020000001  -999.250000 2.1700000763 64.641998291 147.01100159 2.4500000477 67.427001953 2.0889999866 2.0889999866
 565.12512207  -999.250000 18.523000717 0.0040000002  -999.250000 2.1679999828 64.888000488 147.17799377 2.4379999638 67.565002441 2.0810000896 2.0810000896
 565.25006104  -999.250000 18.527999878 0.0099999998  -999.250000 2.1679999828 65.135002136 147.34500122 2.4079999924 67.692001343 2.0720000267 2.0720000267
 565.37506104  -999.250000 18.531999588 0.0199999996  -999.250000 2.1749999523 65.070999146 147.61199951 2.3759999275 67.813003540 2.0639998913 2.0639998913
 565.50000000  -999.250000 18.537000656 0.0320000015  -999.250000 2.1819999218 64.930999756 147.92599487 2.3399999142 67.934997559 2.0590000153 2.0590000153
 565.62500000  -999.250000 18.541999817 0.0430000015  -999.250000 2.1900000572 64.803001404 148.24000549 2.2769999504 68.021003723 2.0539999008 2.0539999008
 565.74993896  -999.250000 18.545999527 0.0540000014  -999.250000 2.1970000267 64.986000061 148.56700134 2.2139999866 68.081001282 2.0480000973 2.0480000973
 565.87493896  -999.250000 18.548000336 0.0659999996  -999.250000 2.2060000896 65.254997253 148.99200439 2.1510000229 68.139999390 2.0390000343 2.0390000343
 565.99987793  -999.250000 18.549999237 0.0769999996  -999.250000 2.2130000591 65.367996216 149.45100403 2.0880000591 68.176002502 2.0260000229 2.0260000229
 566.12487793  -999.250000 18.552000046 0.0839999989  -999.250000 2.2070000172 65.464996338 150.26899719 2.0260000229 68.172996521 2.0139999390 2.0139999390
 566.25012207  -999.250000 18.552999496 0.0799999982  -999.250000 2.1879999638 66.042999268 152.18202209 1.9809999466 68.169998169 1.9889999628 1.9889999628
 566.37512207  -999.250000 18.555000305 0.0649999976  -999.250000 2.1519999504 66.624000549 154.09500122 1.9450000525 68.195999146 1.9550000429 1.9550000429
 566.50006104  -999.250000 18.556999207 0.0500000007  -999.250000 2.1310000420 67.297996521 156.31500244 1.9279999733 68.308998108 1.9190000296 1.9190000296
 566.62500000  -999.250000 18.559000015 0.0359999985  -999.250000 2.1159999371 67.738998413 158.63299561 1.9190000296 68.579002380 1.8769999743 1.8769999743
 566.75000000  -999.250000 18.559999466 0.0250000004  -999.250000 2.1040000916 67.303001404 162.44599915 1.9500000477 68.974998474 1.8539999723 1.8539999723
 566.87493896  -999.250000 18.562000275 0.0199999996  -999.250000 2.1029999256 66.649002075 168.11999512 1.9859999418 69.246002197 1.8869999647 1.8869999647
 566.99993896  -999.250000 18.565999985 0.0140000004  -999.250000 2.1080000401 65.867996216 172.24000549 2.0239999294 69.296997070 1.9320000410 1.9320000410
 567.12487793  -999.250000 18.570999146 0.0099999998  -999.250000 2.1150000095 64.012001038 175.20799255 2.0899999142 69.106002808 2.0020000935 2.0020000935
 567.24987793  -999.250000 18.576000214 0.0099999998  -999.250000 2.1229999065 62.082000732 176.27699280 2.1610000134 68.589996338 2.0769999027 2.0769999027
 567.37512207  -999.250000 18.582000732 0.0160000008  -999.250000 2.1340000629 61.101001740 173.68200684 2.2320001125 68.208000183 2.1489999294 2.1489999294
 567.50012207  -999.250000 18.586999893 0.0240000002  -999.250000 2.1480000019 60.766998291 168.94500732 2.3029999733 67.846000671 2.1800000668 2.1800000668
 567.62506104  -999.250000 18.591999054 0.0309999995  -999.250000 2.1619999409 61.087001801 163.44400024 2.3689999580 67.500999451 2.1940000057 2.1940000057
 567.75006104  -999.250000 18.597999573 0.0390000008  -999.250000 2.1749999523 62.068000793 155.84799194 2.4319999218 67.084999084 2.1389999390 2.1389999390
 567.87500000  -999.250000 18.603000641 0.0460000001  -999.250000 2.1849999428 62.984001160 151.80398560 2.4930000305 66.482002258 2.0720000267 2.0720000267
 568.00000000  -999.250000 18.607999802 0.0540000014  -999.250000 2.1949999332 63.469001770 149.21002197 2.5399999619 66.870002747 2.0529999733 2.0529999733
 568.12493896  -999.250000 18.613000870 0.0610000007  -999.250000 2.2030000687 63.490001678 147.58299255 2.5820000172 67.349998474 2.0729999542 2.0729999542
 568.24993896  -999.250000 18.617000580 0.0680000037  -999.250000 2.2139999866 63.034000397 146.01800537 2.5969998837 67.445999146 2.1070001125 2.1070001125
 568.37487793  -999.250000 18.618000031 0.0689999983  -999.250000 2.2260000706 62.402000427 144.71499634 2.5969998837 67.492996216 2.1259999275 2.1259999275
 568.49987793  -999.250000 18.618000031 0.0579999983  -999.250000 2.2279999256 61.770000458 143.83399963 2.5969998837 67.453002930 2.1349999905 2.1349999905
 568.62512207  -999.250000 18.617000580 0.0480000004  -999.250000 2.2279999256 61.162998199 143.13800049 2.6019999981 67.407997131 2.1410000324 2.1410000324
 568.75012207  -999.250000 18.617000580 0.0379999988  -999.250000 2.2239999771 61.266998291 142.61000061 2.6119999886 67.362998962 2.1440000534 2.1440000534
 568.87506104  -999.250000 18.617000580 0.0329999998  -999.250000 2.2219998837 62.028999329 142.44799805 2.6229999065 67.318000793 2.1470000744 2.1470000744
 569.00000000  -999.250000 18.615999222 0.0379999988  -999.250000 2.2230000496 63.006999969 142.69000244 2.6340000629 67.431999207 2.1500000954 2.1500000954
