# LAS format log file from PETREL
# Project units are specified as depth units
#==================================================================
~Version information
VERS.   2.0:
WRAP.   NO:
#==================================================================
~Well
STRT .m      212.75000000 :
STOP .m      3019.0000000 :
STEP .m     0.00000000 :
NULL .        -999.250000 :
COMP.           : COMPANY
WELL.  34/7-21   : WELL
FLD.            : FIELD
LOC.            : LOCATION
SRVC.           : SERVICE COMPANY
DATE.  2018-09-11 14:48:52   : Log Export Date {yyyy-MM-dd HH:mm:ss}
PROV.           : PROVINCE
UWI.   34/7-21   : UNIQUE WELL ID
API.            : API NUMBER
#==================================================================
~Curve
DEPT .m                   : DEPTH
Lithology_geolink ._      : Lithology_geolink
CALI .in                  : CALI
DRHO .g/cm3               : DRHO
NPHI .m3/m3               : NPHI
RHOB .g/cm3               : RHOB
PEF .b/e                  : PEF
GR .gAPI                  : GR
DTC .us/ft                : DTC
RDEP .ohm.m               : RDEP
SP .mV                    : SP
RSHA .ohm.m               : RSHA
RMED .ohm.m               : RMED
~Parameter
#==================================================================
~Ascii
# ...
 1574.7500000  -999.250000 18.724716187 0.0216473490  -999.250000 2.0637502670 7.0115957260 82.214614868 153.27780151 0.6692636013 46.325607300  -999.250000 0.8044413328
 1574.8750000  -999.250000 18.727600098 0.0178275630  -999.250000 2.0742311478 7.0928192139 83.701766968 149.64697266 0.6831136942 46.467445374  -999.250000 0.8051376343
 1575.0000000  -999.250000 18.725105286 0.0126088951  -999.250000 2.0834822655 7.0210924149 84.618759155 146.87207031 0.6999802589 46.454780579  -999.250000 0.8072203398
 1575.1250000  -999.250000 18.721214294 0.0102410316  -999.250000 2.0877909660 6.9523735046 84.391418457 144.82461548 0.7072076797 46.300895691  -999.250000 0.8106102943
 1575.2500000  -999.250000 18.725265503 0.0132107381  -999.250000 2.0854825974 6.9376773834 83.074050903 143.06561279 0.6936738491 46.041770935  -999.250000 0.8134459257
 1575.3750000  -999.250000 18.747051239 0.0200904645  -999.250000 2.0774197578 6.9471197128 81.284362793 141.63439941 0.6549952030 45.720672607  -999.250000 0.8120577335
 1575.5001221  -999.250000 18.779834747 0.0264414251  -999.250000 2.0664987564 6.9557867050 79.823944092 141.30212402 0.6059908867 45.390220642  -999.250000 0.8056963682
 1575.6248779  -999.250000 18.812488556 0.0284625106  -999.250000 2.0560598373 6.9650039673 79.098205566 142.88787842 0.5593639612 45.145370483  -999.250000 0.7957538366
 1575.7500000  -999.250000 18.835315704 0.0261232927  -999.250000 2.0482020378 6.9844779968 79.216247559 146.54708862 0.5241200924 45.087265015  -999.250000 0.7847384214
 1575.8750000  -999.250000 18.843967438 0.0218755379  -999.250000 2.0434980392 7.0121583939 79.983673096 151.60150146 0.5074462891 45.214408875  -999.250000 0.7748789787
 1576.0000000  -999.250000 18.845726013 0.0184549242  -999.250000 2.0416626930 7.0372781754 80.685302734 156.53375244 0.5065920353 45.428504944  -999.250000 0.7665792704
 1576.1250000  -999.250000 18.846446991 0.0167959593  -999.250000 2.0416121483 7.0643310547 80.817413330 160.41534424 0.5172815323 45.552520752  -999.250000 0.7597988844
 1576.2500000  -999.250000 18.849281311 0.0165161043  -999.250000 2.0418958664 7.0967111588 80.309234619 162.81033325 0.5316797495 45.448516846  -999.250000 0.7543570995
 1576.3750000  -999.250000 18.853183746 0.0173272304  -999.250000 2.0416483879 7.1235923767 79.644515991 163.47183228 0.5432382822 45.145996094  -999.250000 0.7501710653
 1576.5000000  -999.250000 18.855930328 0.0187471248  -999.250000 2.0402975082 7.1241130829 79.474105835 162.91934204 0.5528454781 44.755020142  -999.250000 0.7469437122
 1576.6250000  -999.250000 18.858249664 0.0201345533  -999.250000 2.0377821922 7.1015644073 79.929244995 161.46649170 0.5610162020 44.403793335  -999.250000 0.7449449301
 1576.7501221  -999.250000 18.858280182 0.0211299993  -999.250000 2.0347929001 7.0750055313 80.663345337 159.45837402 0.5647011995 44.143966675  -999.250000 0.7448083162
 1576.8750000  -999.250000 18.844810486 0.0219098516  -999.250000 2.0323538780 7.0759477615 81.288101196 157.35131836 0.5586326122 43.934944153  -999.250000 0.7477239370
 1577.0000000  -999.250000 18.815353394 0.0226483308  -999.250000 2.0317015648 7.1393632889 81.914627075 155.57943726 0.5460251570 43.754425049  -999.250000 0.7531709671
 1577.1250000  -999.250000 18.780620575 0.0230317377  -999.250000 2.0334391594 7.2335586548 82.782821655 154.34759521 0.5350462198 43.661140442  -999.250000 0.7597132921
 1577.2500000  -999.250000 18.761962891 0.0229284018  -999.250000 2.0368962288 7.3129882813 83.877319336 153.71861267 0.5369242430 43.745033264  -999.250000 0.7651399374
 1577.3750000  -999.250000 18.786502838 0.0234854408  -999.250000 2.0409092903 7.3764162064 84.780639648 153.76155090 0.5618543625 43.986824036  -999.250000 0.7672269344
 1577.5000000  -999.250000 18.847434998 0.0260287635  -999.250000 2.0439801216 7.4087972641 85.138610840 154.22534180 0.5986732244 44.281494141  -999.250000 0.7664808035
 1577.6250000  -999.250000 18.921741486 0.0295179598  -999.250000 2.0451192856 7.3785896301 84.953659058 154.87377930 0.6317003965 44.466102600  -999.250000 0.7639472485
 1577.7500000  -999.250000 18.980228424 0.0308236964  -999.250000 2.0445251465 7.2699298859 84.490646362 155.49566650 0.6493473053 44.449081421  -999.250000 0.7609192133
 1577.8751221  -999.250000 19.000705719 0.0281230398  -999.250000 2.0429139137 7.1155662537 83.988113403 155.93875122 0.6459180117 44.318237305  -999.250000 0.7586207390
 1577.9998779  -999.250000 18.995532990 0.0228757709  -999.250000 2.0412240028 6.9026517868 83.556930542 156.19650269 0.6286410093 44.206779480  -999.250000 0.7570079565
 1578.1250000  -999.250000 18.979011536 0.0191643350  -999.250000 2.0400919914 6.6089715958 83.352554321 156.33758545 0.6043648720 44.209434509  -999.250000 0.7553372383
 1578.2500000  -999.250000 18.962020874 0.0198331475  -999.250000 2.0394606590 6.2335777283 83.578994751 156.49029541 0.5804929733 44.306762695  -999.250000 0.7530821562
 1578.3750000  -999.250000 18.950298309 0.0240554810  -999.250000 2.0389361382 5.8186016083 84.438827515 156.71972656 0.5636258125 44.418373108  -999.250000 0.7508525848
 1578.5000000  -999.250000 18.942989349 0.0284428820  -999.250000 2.0383124352 5.4922065735 85.646743774 156.94699097 0.5537463427 44.494361877  -999.250000 0.7500487566
 1578.6250000  -999.250000 18.939670563 0.0304617696  -999.250000 2.0379090309 5.3599920273 86.650894165 157.10943604 0.5474662781 44.493568420  -999.250000 0.7517207861
 1578.7500000  -999.250000 18.940837860 0.0306718983  -999.250000 2.0382180214 5.4164342880 86.792266846 157.20809937 0.5371774435 44.367713928  -999.250000 0.7561670542
 1578.8750000  -999.250000 18.946086884 0.0305198282  -999.250000 2.0392632484 5.5613746643 85.515930176 157.29479980 0.5124356747 44.114730835  -999.250000 0.7630511522
 1579.0001221  -999.250000 18.951881409 0.0304454900  -999.250000 2.0403385162 5.6684818268 83.393859863 157.41549683 0.4749907851 43.798477173  -999.250000 0.7708925009
 1579.1248779  -999.250000 18.955829620 0.0295426436  -999.250000 2.0403857231 5.7356719971 81.158447266 157.57931519 0.4329699874 43.560089111  -999.250000 0.7785754204
 1579.2500000  -999.250000 18.957344055 0.0267901458  -999.250000 2.0388803482 5.7755203247 79.439651489 157.78533936 0.3977770209 43.529029846  -999.250000 0.7846540213
 1579.3750000  -999.250000 18.957084656 0.0219623595  -999.250000 2.0361399651 5.7857522964 78.636123657 158.03305054 0.3850414753 43.661346436  -999.250000 0.7865418196
 1579.5000000  -999.250000 18.954551697 0.0160918422  -999.250000 2.0333700180 5.7719984055 78.392578125 158.27987671 0.3987609744 43.822761536  -999.250000 0.7841449976
 1579.6250000  -999.250000 18.947021484 0.0113471411  -999.250000 2.0320167542 5.7602500916 78.387451172 158.44290161 0.4362447858 43.884559631  -999.250000 0.7790330648
 1579.7500000  -999.250000 18.932449341 0.0097107161  -999.250000 2.0325827599 5.7601833344 78.539443970 158.41326904 0.4847778678 43.841148376  -999.250000 0.7739604712
 1579.8750000  -999.250000 18.911270142 0.0113985669  -999.250000 2.0343818665 5.7684955597 79.062698364 158.09729004 0.5199452639 43.764038086  -999.250000 0.7720935345
 1580.0000000  -999.250000 18.889362335 0.0148042552  -999.250000 2.0359191895 5.7686405182 79.914749146 157.63821411 0.5255658627 43.666870117  -999.250000 0.7738856077
 1580.1250000  -999.250000 18.872409821 0.0178275742  -999.250000 2.0361461639 5.7554979324 80.735305786 157.23422241 0.4999382496 43.499038696  -999.250000 0.7781189680
 1580.2501221  -999.250000 18.865329742 0.0196230635  -999.250000 2.0354094505 5.7417526245 81.096313477 157.06773376 0.4566898942 43.238052368  -999.250000 0.7821397781
 1580.3748779  -999.250000 18.872138977 0.0208885558  -999.250000 2.0345535278 5.7385063171 80.887207031 157.24035645 0.4212750793 42.979980469  -999.250000 0.7825411558
 1580.5000000  -999.250000 18.888774872 0.0225492194  -999.250000 2.0339374542 5.7423152924 80.649505615 157.59213257 0.4081722498 42.835494995  -999.250000 0.7792354822
 1580.6250000  -999.250000 18.912364960 0.0244644620  -999.250000 2.0330429077 5.7406072617 80.886993408 157.96578979 0.4169585109 42.845726013  -999.250000 0.7738654613
