# LAS format log file from PETREL
# Project units are specified as depth units
#==================================================================
~Version information
VERS.   2.0:
WRAP.   NO:
#==================================================================
~Well
STRT .m      806.37493896 :
STOP .m      2790.0000000 :
STEP .m     0.00000000 :
NULL .        -999.250000 :
COMP.           : COMPANY
WELL.  34/7-12   : WELL
FLD.            : FIELD
LOC.            : LOCATION
SRVC.           : SERVICE COMPANY
DATE.  2018-09-11 14:48:51   : Log Export Date {yyyy-MM-dd HH:mm:ss}
PROV.           : PROVINCE
UWI.   34/7-12   : UNIQUE WELL ID
API.            : API NUMBER
#==================================================================
~Curve
DEPT .m                   : DEPTH
Lithology_geolink ._      : Lithology_geolink
CALI .in                  : CALI
DRHO .g/cm3               : DRHO
NPHI .m3/m3               : NPHI
RHOB .g/cm3               : RHOB
GR .gAPI                  : GR
DTC .us/ft                : DTC
RDEP .ohm.m               : RDEP
SP .mV                    : SP
RSHA .ohm.m               : RSHA
RMED .ohm.m               : RMED
~Parameter
#==================================================================
~Ascii
# ...
 1998.4998779  -999.250000 13.887000084 -0.018994140 0.4150899947 2.3099951744 70.055999756 126.43000031 0.9340000153 8.9460000992 1.1460000277 1.1640000343
 1998.6248779  -999.250000 13.887999535 -0.012992187 0.4179399908 2.3049931526 69.638999939 126.26000214 0.9259999990 8.9379997253 1.1380000114 1.1679999828
 1998.7500000  -999.250000 13.890000343 -0.004994140 0.4197700024 2.2979843616 69.317001343 126.19400024 0.9210000038 8.9339923859 1.1349999905 1.1690000296
 1998.8750000  -999.250000 13.890999794 -0.002009756 0.4202800095 2.2899882793 69.097999573 126.35199738 0.9169999957 8.9299888611 1.1330000162 1.1660000086
 1999.0000000  -999.250000 13.892000198 -0.007006836 0.4194599986 2.2839970589 68.799003601 126.79599762 0.9129999876 8.9239950180 1.1310000420 1.1590000391
 1999.1250000  -999.250000 13.890999794 -0.014004883 0.4180400074 2.2809979916 68.392997742 127.32199860 0.9079999924 8.9189987183 1.1289999485 1.1499999762
 1999.2500000  -999.250000 13.890000343 -0.019002929 0.4162099957 2.2789990902 68.101997375 127.70600128 0.9029999971 8.9180088043 1.1280000210 1.1390000582
 1999.3750000  -999.250000 13.888999939 -0.022002930 0.4141600132 2.2780001163 68.237998962 127.73799896 0.8970000148 8.9270229340 1.1269999743 1.1299999952
 1999.5000000  -999.250000 13.888999939 -0.025007812 0.4118671417 2.2780010700 68.857849121 127.46051788 0.8920000196 8.9500417709 1.1250000000 1.1260000467
 1999.6248779  -999.250000 13.887999535 -0.033000000 0.4089400172 2.2790000439 69.727996826 126.97599792 0.8880039454 8.9930000305 1.1240009069 1.1250000000
 1999.7498779  -999.250000 13.887999535 -0.043007813 0.4050599933 2.2830028534 70.454002380 126.55799866 0.8849999905 9.0430002213 1.1230000257 1.1260000467
 1999.8748779  -999.250000 13.890000343 -0.051001951 0.4000999928 2.2860028744 70.920997620 126.35199738 0.8840000033 9.0910367966 1.1239999533 1.1250000000
 2000.0000000  -999.250000 13.892998695 -0.052992195 0.3944300115 2.2890000343 71.274002075 126.41699982 0.8820000291 9.1290502548 1.1280000210 1.1230000257
 2000.1250000  -999.250000 13.897999763 -0.048989255 0.3893800080 2.2889990807 71.658996582 126.59799957 0.8809999824 9.1550083160 1.1269999743 1.1230000257
 2000.2500000  -999.250000 13.902000427 -0.037986327 0.3864300251 2.2880001068 72.080001831 126.75199890 0.8780000210 9.1639862061 1.1219999790 1.1269999743
 2000.3750000  -999.250000 13.903000832 -0.023986328 0.3862900138 2.2880001068 72.334999084 126.80300140 0.8759999871 9.1499643326 1.1169999838 1.1319999695
 2000.5000000  -999.250000 13.901000023 -0.009993164 0.3880199790 2.2880001068 72.309997559 126.82598877 0.8740000129 9.1139431000 1.1130000353 1.1349999905
 2000.6250000  -999.250000 13.897999763 -0.002998047 0.3901699781 2.2880010605 72.075996399 126.95728302 0.8730000257 9.0549306870 1.1100000143 1.1319999695
 2000.7500000  -999.250000 13.896000862 -0.001000000 0.3906982839 2.2890009880 71.801765442 127.24438477 0.8740000129 8.9839267731 1.1089999676 1.1219999790
 2000.8748779  -999.250000 13.899000168 -0.000997070 0.3889600039 2.2899990082 71.558998108 127.63700104 0.8769999743 8.9090003967 1.1080000401 1.1069999933
 2000.9998779  -999.250000 13.907999992 0.0020078125 0.3858399987 2.2889981270 71.472000122 127.98000336 0.8830000162 8.8339996338 1.1069999933 1.0939999819
 2001.1250000  -999.250000 13.918000221 0.0100156246 0.3831100166 2.2869980335 71.526000977 128.11799622 0.8889999986 8.7628746033 1.1059999466 1.0870000124
 2001.2500000  -999.250000 13.926999092 0.0180058535 0.3819600046 2.2860000134 71.513000488 127.94100189 0.8949999809 8.6988868713 1.1050000191 1.0909999609
 2001.3750000  -999.250000 13.932999611 0.0209951177 0.3821600080 2.2860009670 71.259002686 127.49000549 0.9010000229 8.6409378052 1.1039999723 1.1039999723
 2001.5000000  -999.250000 13.939000130 0.0159912109 0.3826900125 2.2870028019 70.847000122 126.85299683 0.9079999924 8.5779266357 1.1030000448 1.1269999743
 2001.6250000  -999.250000 13.946000099 0.0069912113 0.3828699887 2.2900037766 70.505996704 126.16899872 0.9139999747 8.5029134750 1.1019999981 1.1529999971
 2001.7500000  -999.250000 13.953999519 -0.002007812 0.3827799857 2.2940008640 70.526000977 125.56500244 0.9210000038 8.4139080048 1.1019999981 1.1749999523
 2001.8750000  -999.250000 13.963999748 -0.010004887 0.3828305304 2.2950000763 71.167037964 125.19192505 0.9279999733 8.3199129105 1.1050000191 1.1849999428
 2001.9998779  -999.250000 13.972999573 -0.015000000 0.3833400011 2.2949991226 72.227996826 125.11499786 0.9350000024 8.2309999466 1.1100000143 1.1840000153
 2002.1248779  -999.250000 13.980999947 -0.014996094 0.3847000003 2.2939989567 73.162002563 125.41500092 0.9390000105 8.1700000763 1.1169999838 1.1710000038
 2002.2498779  -999.250000 13.989000320 -0.010992187 0.3873300254 2.2929999828 73.555999756 125.93000031 0.9419999719 8.1470174789 1.1260000467 1.1569999456
 2002.3750000  -999.250000 13.998999596 -0.002992195 0.3908199966 2.2930018902 73.360000610 126.46399689 0.9419999719 8.1650991440 1.1299999952 1.1460000277
 2002.5000000  -999.250000 14.010000229 0.0009960938 0.3940599859 2.2940008640 72.931999207 126.70500183 0.9409999847 8.2160625458 1.1319999695 1.1449999809
 2002.6250000  -999.250000 14.022001266 -0.003012695 0.3961399794 2.2950010300 72.639999390 126.59799957 0.9390000105 8.2800693512 1.1319999695 1.1510000229
 2002.7500000  -999.250000 14.031000137 -0.016014649 0.3968199790 2.2960009575 72.675003052 126.12300110 0.9369999766 8.3510780334 1.1319999695 1.1610000134
 2002.8750000  -999.250000 14.038000107 -0.031010741 0.3967399895 2.2970008850 72.777000427 125.50499725 0.9359999895 8.4310865402 1.1319999695 1.1690000296
 2003.0000000  -999.250000 14.043000221 -0.041999023 0.3966808915 2.2980020046 72.676002502 124.93367767 0.9350000024 8.5201063156 1.1319999695 1.1729999781
 2003.1250000  -999.250000 14.048000336 -0.040990226 0.3976024687 2.3000018597 72.344741821 124.60790253 0.9359999895 8.6281137466 1.1319999695 1.1720000505
 2003.2498779  -999.250000 14.053999901 -0.030983398 0.4001300037 2.3020019531 72.077003479 124.49900055 0.9380000234 8.7440004349 1.1319999695 1.1679999828
 2003.3748779  -999.250000 14.057999611 -0.013983399 0.4042699933 2.3040018082 72.186996460 124.55899048 0.9409999847 8.8621110916 1.1319999695 1.1649999619
 2003.5000000  -999.250000 14.062000275 0.0030234375 0.4092299938 2.3060059547 72.708999634 124.67900085 0.9440000057 8.9752016068 1.1330000162 1.1599999666
 2003.6250000  -999.250000 14.065999985 0.0150058530 0.4132699966 2.3090078831 73.267997742 124.77899933 0.9499999881 9.0781402588 1.1330000162 1.1560000181
 2003.7500000  -999.250000 14.069000244 0.0179951172 0.4148400128 2.3130047321 73.357002258 124.82900238 0.9570000172 9.1500148773 1.1339999437 1.1529999971
 2003.8750000  -999.250000 14.071999550 0.0129931644 0.4136900008 2.3180060387 72.778999329 124.83300018 0.9670000076 9.1659498215 1.1349999905 1.1560000181
 2004.0000000  -999.250000 14.071000099 0.0059931641 0.4111799896 2.3240046501 71.624000549 124.80100250 0.9779999852 9.1138486862 1.1369999647 1.1660000086
 2004.1250000  -999.250000 14.067999840 -0.001005859 0.4088400006 2.3290038109 70.212997437 124.71685791 0.9940000176 8.9587564468 1.1380000114 1.1829999685
 2004.2500000  -999.250000 14.063000679 -0.007001955 0.4076597989 2.3330018520 69.022224426 124.56671906 1.0110000372 8.7096586227 1.1399999857 1.2000000477
 2004.3748779  -999.250000 14.059000015 -0.008998047 0.4074800014 2.3350038528 68.222999573 124.28099823 1.0290000439 8.3599996567 1.1440000534 1.2130000591
 2004.4998779  -999.250000 14.059000015 -0.006993164 0.4067900181 2.3390047550 67.677001953 123.76599884 1.0470000505 7.9429998398 1.1499999762 1.2280000448
 2004.6250000  -999.250000 14.064000130 0.0000117188 0.4042599797 2.3440117836 67.288002014 123.04499817 1.0640000105 7.5202946663 1.1599999666 1.2519999743
 2004.7500000  -999.250000 14.071999550 0.0059980489 0.3989899755 2.3500115871 67.240997314 122.24700165 1.0789999962 7.1595158577 1.1740000248 1.2879999876
