# LAS format log file from PETREL
# Project units are specified as depth units
#==================================================================
~Version information
VERS.   2.0:
WRAP.   NO:
#==================================================================
~Well
STRT .m      212.75000000 :
STOP .m      3019.0000000 :
STEP .m     0.00000000 :
NULL .        -999.250000 :
COMP.           : COMPANY
WELL.  34/7-21   : WELL
FLD.            : FIELD
LOC.            : LOCATION
SRVC.           : SERVICE COMPANY
DATE.  2018-09-11 14:48:52   : Log Export Date {yyyy-MM-dd HH:mm:ss}
PROV.           : PROVINCE
UWI.   34/7-21   : UNIQUE WELL ID
API.            : API NUMBER
#==================================================================
~Curve
DEPT .m                   : DEPTH
Lithology_geolink ._      : Lithology_geolink
CALI .in                  : CALI
DRHO .g/cm3               : DRHO
NPHI .m3/m3               : NPHI
RHOB .g/cm3               : RHOB
PEF .b/e                  : PEF
GR .gAPI                  : GR
DTC .us/ft                : DTC
RDEP .ohm.m               : RDEP
SP .mV                    : SP
RSHA .ohm.m               : RSHA
RMED .ohm.m               : RMED
~Parameter
#==================================================================
~Ascii
# ...
 3002.7500000  -999.250000 10.000000000 -0.500000000  -999.250000 1.9499998093  -999.250000 84.870254517 99.646987915 2.1320300102  -999.250000  -999.250000  -999.250000
 3002.8750000  -999.250000 10.000000000 -0.500000000  -999.250000 1.9499998093  -999.250000 84.256546021 99.599273682 2.2335715294  -999.250000  -999.250000  -999.250000
 3003.0000000  -999.250000 10.000000000 -0.500000000  -999.250000 1.9499998093  -999.250000 84.163543701 99.424072266 2.3003869057  -999.250000  -999.250000  -999.250000
 3003.1250000  -999.250000 10.000000000 -0.500000000  -999.250000 1.9499998093  -999.250000 84.758087158 99.764541626 2.3048014641  -999.250000  -999.250000  -999.250000
 3003.2500000  -999.250000 10.000000000 -0.500000000  -999.250000 1.9499998093  -999.250000 85.591918945 100.23295593 2.2910513878  -999.250000  -999.250000  -999.250000
 3003.3752441  -999.250000 10.000000000 -0.500000000  -999.250000 1.9499998093  -999.250000 86.078201294 100.31988525 2.2669196129  -999.250000  -999.250000  -999.250000
 3003.5002441  -999.250000 10.000000000 -0.500000000  -999.250000 1.9499998093  -999.250000 86.466674805 100.07978058 2.2400264740  -999.250000  -999.250000  -999.250000
 3003.6247559  -999.250000 10.000000000 -0.500000000  -999.250000 1.9499998093  -999.250000 86.747543335 100.00895691 2.2140927315  -999.250000  -999.250000  -999.250000
 3003.7500000  -999.250000 10.000000000 -0.500000000  -999.250000 1.9499998093  -999.250000 86.963973999 99.792526245 2.1910581589  -999.250000  -999.250000  -999.250000
 3003.8750000  -999.250000 10.000000000 -0.500000000  -999.250000 1.9499998093  -999.250000 87.114303589 99.496261597 2.1719188690  -999.250000  -999.250000  -999.250000
 3004.0000000  -999.250000 10.000000000 -0.500000000  -999.250000 1.9499998093  -999.250000 87.239929199 99.601379395 2.1550927162  -999.250000  -999.250000  -999.250000
 3004.1250000  -999.250000 10.000000000 -0.500000000  -999.250000 1.9499998093  -999.250000 87.155838013 99.751129150 2.1401720047  -999.250000  -999.250000  -999.250000
 3004.2500000  -999.250000 10.000000000 -0.500000000  -999.250000 1.9499998093  -999.250000 86.838363647 97.376510620 2.1257343292  -999.250000  -999.250000  -999.250000
 3004.3750000  -999.250000 10.000000000 -0.500000000  -999.250000 1.9499998093  -999.250000 86.922637939 87.587875366 2.1610383987  -999.250000  -999.250000  -999.250000
 3004.5000000  -999.250000 10.000000000 -0.500000000  -999.250000 1.9499998093  -999.250000 87.283874512 77.523368835 2.2179331779  -999.250000  -999.250000  -999.250000
 3004.6250000  -999.250000 10.000000000 -0.500000000  -999.250000 1.9499998093  -999.250000 87.810974121 67.137435913 2.2832326889  -999.250000  -999.250000  -999.250000
 3004.7500000  -999.250000 10.000000000 -0.500000000  -999.250000 1.9499998093  -999.250000 88.268814087 57.073516846 2.3425502777  -999.250000  -999.250000  -999.250000
 3004.8750000  -999.250000 10.000000000 -0.500000000  -999.250000 1.9499998093  -999.250000 88.024551392 49.082839966 2.3782520294  -999.250000  -999.250000  -999.250000
 3005.0000000  -999.250000 10.000000000 -0.500000000  -999.250000 1.9499998093  -999.250000 87.516937256 42.628532410 2.4307126999  -999.250000  -999.250000  -999.250000
 3005.1250000  -999.250000 10.000000000 -0.500000000  -999.250000 1.9499998093  -999.250000 86.853347778 40.059440613 2.5179958344  -999.250000  -999.250000  -999.250000
 3005.2500000  -999.250000 10.000000000 -0.500000000  -999.250000 1.9499998093  -999.250000 86.189361572 40.000000000 2.6262626648  -999.250000  -999.250000  -999.250000
 3005.3750000  -999.250000 10.000000000 -0.500000000  -999.250000 1.9499998093  -999.250000 85.569396973 40.000000000 2.7307047844  -999.250000  -999.250000  -999.250000
 3005.5000000  -999.250000 10.000000000 -0.500000000  -999.250000 1.9499998093  -999.250000 85.211654663 40.000000000 2.7813487053  -999.250000  -999.250000  -999.250000
 3005.6250000  -999.250000 10.000000000 -0.500000000  -999.250000 1.9499998093  -999.250000 85.187973022 40.000000000 2.7553534508  -999.250000  -999.250000  -999.250000
 3005.7502441  -999.250000 10.000000000 -0.500000000  -999.250000 1.9499998093  -999.250000 85.348922729 40.000000000 2.6901702881  -999.250000  -999.250000  -999.250000
 3005.8747559  -999.250000 10.000000000 -0.500000000  -999.250000 1.9499998093  -999.250000 85.527603149 40.000000000 2.6187200546  -999.250000  -999.250000  -999.250000
 3005.9997559  -999.250000 10.000000000 -0.500000000  -999.250000 1.9499998093  -999.250000 85.705963135 40.000000000 2.5472660065  -999.250000  -999.250000  -999.250000
 3006.1250000  -999.250000 10.000000000 -0.500000000  -999.250000 1.9499998093  -999.250000 85.881317139 40.000000000 2.4779014587  -999.250000  -999.250000  -999.250000
 3006.2500000  -999.250000 10.000000000 -0.500000000  -999.250000 1.9499998093  -999.250000 85.872390747 40.000000000 2.4119520187  -999.250000  -999.250000  -999.250000
 3006.3750000  -999.250000 10.000000000 -0.500000000  -999.250000 1.9499998093  -999.250000 85.014221191 40.000000000 2.4792761803  -999.250000  -999.250000  -999.250000
 3006.5000000  -999.250000 10.000000000 -0.500000000  -999.250000 1.9499998093  -999.250000 83.670120239 40.000000000 2.6108684540  -999.250000  -999.250000  -999.250000
 3006.6250000  -999.250000 10.000000000 -0.500000000  -999.250000 1.9499998093  -999.250000 82.720153809 40.000000000 2.7938294411  -999.250000  -999.250000  -999.250000
 3006.7500000  -999.250000 10.000000000 -0.500000000  -999.250000 1.9499998093  -999.250000 82.631286621 40.000000000 2.9820613861  -999.250000  -999.250000  -999.250000
 3006.8750000  -999.250000 10.000000000 -0.500000000  -999.250000 1.9499998093  -999.250000 83.899353027 40.000000000 2.9703164101  -999.250000  -999.250000  -999.250000
 3007.0000000  -999.250000 10.000000000 -0.500000000  -999.250000 1.9499998093  -999.250000 84.940750122 40.000000000 2.8851132393  -999.250000  -999.250000  -999.250000
 3007.1250000  -999.250000 10.000000000 -0.500000000  -999.250000 1.9499998093  -999.250000 85.457778931 40.000000000 2.7416810989  -999.250000  -999.250000  -999.250000
 3007.2500000  -999.250000 10.000000000 -0.500000000  -999.250000 1.9499998093  -999.250000 85.610061646 40.000000000 2.5931930542  -999.250000  -999.250000  -999.250000
 3007.3750000  -999.250000 10.000000000 -0.500000000  -999.250000 1.9499998093  -999.250000 85.566787720 40.000000000 2.5201621056  -999.250000  -999.250000  -999.250000
 3007.5000000  -999.250000 10.000000000 -0.500000000  -999.250000 1.9499998093  -999.250000 85.366683960 40.000000000 2.5178456306  -999.250000  -999.250000  -999.250000
 3007.6250000  -999.250000 10.000000000 -0.500000000  -999.250000 1.9499998093  -999.250000 85.473236084 40.000000000 2.5689868927  -999.250000  -999.250000  -999.250000
 3007.7500000  -999.250000 10.000000000 -0.500000000  -999.250000 1.9499998093  -999.250000 85.678482056 40.000000000 2.6261515617  -999.250000  -999.250000  -999.250000
 3007.8750000  -999.250000 10.000000000 -0.500000000  -999.250000 1.9499998093  -999.250000 85.626541138 40.000000000 2.6815586090  -999.250000  -999.250000  -999.250000
 3008.0002441  -999.250000 10.000000000 -0.500000000  -999.250000 1.9499998093  -999.250000 85.621017456 40.000000000 2.7207269669  -999.250000  -999.250000  -999.250000
 3008.1252441  -999.250000 10.000000000 -0.500000000  -999.250000 1.9499998093  -999.250000 85.806152344 40.000000000 2.7186503410  -999.250000  -999.250000  -999.250000
 3008.2497559  -999.250000 10.000000000 -0.500000000  -999.250000 1.9499998093  -999.250000 86.129226685 40.000000000 2.6802911758  -999.250000  -999.250000  -999.250000
 3008.3747559  -999.250000 10.000000000 -0.500000000  -999.250000 1.9499998093  -999.250000 86.484222412 40.000000000 2.6077618599  -999.250000  -999.250000  -999.250000
 3008.5000000  -999.250000 10.000000000 -0.500000000  -999.250000 1.9499998093  -999.250000 86.727600098 40.000000000 2.5226793289  -999.250000  -999.250000  -999.250000
 3008.6250000  -999.250000 10.000000000 -0.500000000  -999.250000 1.9499998093  -999.250000 86.631988525 40.000000000 2.4307913780  -999.250000  -999.250000  -999.250000
