# LAS format log file from PETREL
# Project units are specified as depth units
#==================================================================
~Version information
VERS.   2.0:
WRAP.   NO:
#==================================================================
~Well
STRT .m      1820.5001221 :
STOP .m      3000.6250000 :
STEP .m     0.00000000 :
NULL .        -999.250000 :
COMP.           : COMPANY
WELL.  34/7-13   : WELL
FLD.            : FIELD
LOC.            : LOCATION
SRVC.           : SERVICE COMPANY
DATE.  2018-09-11 14:48:51   : Log Export Date {yyyy-MM-dd HH:mm:ss}
PROV.           : PROVINCE
UWI.   34/7-13   : UNIQUE WELL ID
API.            : API NUMBER
#==================================================================
~Curve
DEPT .m                   : DEPTH
Lithology_geolink ._      : Lithology_geolink
CALI .in                  : CALI
BS .in                    : BS
DRHO .g/cm3               : DRHO
NPHI .m3/m3               : NPHI
RHOB .g/cm3               : RHOB
GR .gAPI                  : GR
DTC .us/ft                : DTC
RDEP .ohm.m               : RDEP
SP .mV                    : SP
RSHA .ohm.m               : RSHA
RMED .ohm.m               : RMED
~Parameter
#==================================================================
~Ascii
# ...
 2288.5000000  -999.250000 12.822999954 12.250000954 0.0099941520 0.2888674438 2.3419981003 93.585998535 110.45400238 1.2970000505 21.406999588 2.7390000820 2.7390000820
 2288.6250000  -999.250000 12.819001198 12.250000954 0.0099999998 0.2901375294 2.3439962864 93.359001160 110.40299988 1.2940000296 20.895999908 2.7300000191 2.7300000191
 2288.7500000  -999.250000 12.812999725 12.250000954 0.0090019526 0.2912378609 2.3449981213 92.522003174 110.31600952 1.2890000343 20.666000366 2.7309999466 2.7309999466
 2288.8750000  -999.250000 12.807000160 12.250000954 0.0070000002 0.2921881378 2.3480000496 91.344001770 110.20800018 1.2840000391 20.726999283 2.7449998856 2.7449998856
 2289.0000000  -999.250000 12.803000450 12.250000954 0.0060000001 0.2930383384 2.3499999046 90.211997986 110.11699677 1.2790000439 21.024999619 2.7620000839 2.7620000839
 2289.1250000  -999.250000 12.803000450 12.250000954 0.0060000001 0.2936987281 2.3499999046 89.403999329 110.10800171 1.2749999762 21.374000549 2.7639999390 2.7639999390
 2289.2500000  -999.250000 12.805998802 12.250000954 0.0060000001 0.2941291630 2.3510000706 88.956001282 110.25199890 1.2730000019 21.642000198 2.7400000095 2.7400000095
 2289.3750000  -999.250000 12.808999062 12.250000954 0.0060000001 0.2943296134 2.3499999046 88.731002808 110.56100464 1.2719999552 21.747999191 2.6960000992 2.6960000992
 2289.5000000  -999.250000 12.810999870 12.250000954 0.0060000001 0.2942202091 2.3489999771 88.559997559 110.99900055 1.2719999552 21.673000336 2.6519999504 2.6519999504
 2289.6250000  -999.250000 12.814999580 12.250000954 0.0070000002 0.2935499847 2.3469998837 88.347999573 111.46499634 1.2719999552 21.478000641 2.6240000725 2.6240000725
 2289.7500000  -999.250000 12.819999695 12.250000954 0.0079980511 0.2923124135 2.3469998837 88.080001831 111.79599762 1.2710000277 21.365999222 2.6170001030 2.6170001030
 2289.8750000  -999.250000 12.825999260 12.250000954 0.0089980466 0.2906432450 2.3489961624 87.805999756 111.84100342 1.2680000067 21.417999268 2.6270000935 2.6270000935
 2290.0000000  -999.250000 12.831999779 12.250000954 0.0099980468 0.2890630960 2.3539903164 87.632003784 111.59300232 1.2649999857 21.662000656 2.6489999294 2.6489999294
 2290.1250000  -999.250000 12.835000038 12.250000954 0.0099999998 0.2879821062 2.3589999676 87.691001892 111.16200256 1.2630000114 21.986999512 2.6760001183 2.6760001183
 2290.2500000  -999.250000 12.835000038 12.250000954 0.0099999998 0.2873113155 2.3629999161 88.081001282 110.70800018 1.2610000372 22.229000092 2.6979999542 2.6979999542
 2290.3750000  -999.250000 12.833999634 12.250000954 0.0099999998 0.2866213620 2.3619999886 88.789001465 110.39700317 1.2599999905 22.180000305 2.7060000896 2.7060000896
 2290.5000000  -999.250000 12.832999229 12.250000954 0.0109999999 0.2857517004 2.3559999466 89.669998169 110.41100311 1.2610000372 21.665000916 2.6919999123 2.6919999123
 2290.6250000  -999.250000 12.833999634 12.250000954 0.0109999999 0.2851312160 2.3480000496 90.476997375 110.69200897 1.2630000114 20.697999954 2.6700000763 2.6700000763
 2290.7500000  -999.250000 12.832999229 12.250000954 0.0130000003 0.2850799859 2.3459999561 90.948997498 110.99299622 1.2660000324 19.559999466 2.6519999504 2.6519999504
 2290.8750000  -999.250000 12.829999924 12.250000954 0.0139980512 0.2853095531 2.3519883156 90.922996521 111.03299713 1.2680000067 18.683000565 2.6530001163 2.6530001163
 2291.0000000  -999.250000 12.824999809 12.250000954 0.0140000004 0.2851103842 2.3669707775 90.420997620 110.58499908 1.2690000534 18.337999344 2.6800000668 2.6800000668
 2291.1250000  -999.250000 12.821000099 12.250000954 0.0100078126 0.2839622200 2.3909530640 89.693000793 109.66600037 1.2690000534 18.635000229 2.7269999981 2.7269999981
 2291.2500000  -999.250000 12.819001198 12.250000954 0.0020000001 0.2828721106 2.4130001068 89.160003662 108.49501038 1.2680000067 19.475999832 2.7760000229 2.7760000229
 2291.3750000  -999.250000 12.814999580 12.250000954 -0.006000000 0.2832592130 2.4219999313 89.250000000 107.47899628 1.2669999599 20.528999329 2.8010001183 2.8010001183
 2291.5000000  -999.250000 12.810000420 12.250000954 -0.010000000 0.2860345840 2.4119999409 90.180999756 107.06400299 1.2669999599 21.430000305 2.7760000229 2.7750000954
 2291.6250000  -999.250000 12.803999901 12.250000954 -0.010000000 0.2901619375 2.3900001049 91.811996460 107.36299896 1.2690000534 21.913000107 2.7190001011 2.7190001011
 2291.7500000  -999.250000 12.798998833 12.250000954 -0.007000000 0.2939026952 2.3659999371 93.652999878 108.27500153 1.2710000277 21.673000336 2.6579999924 2.6579999924
 2291.8750000  -999.250000 12.795999527 12.250000954 -0.003000000 0.2954400182 2.3469998837 95.035003662 109.49800110 1.2719999552 20.832000732 2.6210000515 2.6210000515
 2292.0000000  -999.250000 12.795999527 12.250000954 -0.001003899 0.2948710918 2.3340253830 95.339996338 110.66599274 1.2710000277 19.729999542 2.6110000610 2.6119999886
 2292.1250000  -999.250000 12.796999931 12.250000954 0.0009960938 0.2930435836 2.3300077915 94.291000366 111.49800110 1.2690000534 18.572999954 2.6229999065 2.6229999065
 2292.2500000  -999.250000 12.795999527 12.250000954 0.0029960938 0.2916626930 2.3280038834 92.219001770 111.90699768 1.2669999599 17.656999588 2.6419999599 2.6419999599
 2292.3750000  -999.250000 12.793000221 12.250000954 0.0040000002 0.2910312414 2.3280000687 90.000000000 111.99299622 1.2649999857 17.177000046 2.6600000858 2.6600000858
 2292.5000000  -999.250000 12.789999962 12.250000954 0.0020000001 0.2903912365 2.3269999027 88.624000549 111.88100433 1.2630000114 17.403999329 2.6659998894 2.6659998894
 2292.6250000  -999.250000 12.786000252 12.250000954 0.0010000000 0.2889827490 2.3269999027 88.603996277 111.73799896 1.2610000372 17.934999466 2.6659998894 2.6659998894
 2292.7500000  -999.250000 12.781000137 12.250000954 0.0010000000 0.2867943048 2.3269999027 89.694000244 111.58399963 1.2580000162 18.440999985 2.6610000134 2.6610000134
 2292.8750000  -999.250000 12.775000572 12.250000954 0.0020000001 0.2848537862 2.3269999027 91.098999023 111.40900421 1.2539999485 18.638999939 2.6570000648 2.6570000648
 2293.0000000  -999.250000 12.770000458 12.250000954 0.0049999999 0.2840715051 2.3289999962 92.044998169 111.19400024 1.2510000467 18.565999985 2.6530001163 2.6530001163
 2293.1250000  -999.250000 12.767000198 12.250000954 0.0070000002 0.2852199972 2.3310000896 92.223999023 110.91799927 1.2480000257 18.430000305 2.6470000744 2.6470000744
 2293.2500000  -999.250000 12.765000343 12.250000954 0.0089961011 0.2875354588 2.3329961300 91.861999512 110.58899689 1.2460000515 18.406999588 2.6359999180 2.6359999180
 2293.3750000  -999.250000 12.765999794 12.250000954 0.0080019534 0.2904642820 2.3339982033 91.425003052 110.24800110 1.2460000515 18.430999756 2.6199998856 2.6199998856
 2293.5000000  -999.250000 12.768000603 12.250000954 0.0070019532 0.2929151952 2.3340001106 91.188003540 109.96900177 1.2480000257 18.287000656 2.6050000191 2.6050000191
 2293.6250000  -999.250000 12.770999908 12.250000954 0.0060000001 0.2941176593 2.3340001106 91.073997498 109.82099152 1.2510000467 17.968999863 2.5989999771 2.5989999771
 2293.7500000  -999.250000 12.774000168 12.250000954 0.0040000002 0.2936010063 2.3340001106 90.861000061 109.91000366 1.2549999952 17.784000397 2.6110000610 2.6110000610
 2293.8750000  -999.250000 12.776000023 12.250000954 0.0020000001 0.2921029031 2.3329999447 90.497001648 110.23400116 1.2589999437 18.013000488 2.6400001049 2.6400001049
 2294.0000000  -999.250000 12.775000572 12.250000954 0.0020000001 0.2905829847 2.3329999447 90.163002014 110.77300262 1.2640000582 18.584999084 2.6809999943 2.6809999943
 2294.1250000  -999.250000 12.774000168 12.250000954 0.0020000001 0.2897715867 2.3329999447 90.063003540 111.40900421 1.2690000534 19.250000000 2.7190001011 2.7190001011
 2294.2500000  -999.250000 12.774000168 12.250000954 0.0040000002 0.2894000113 2.3329999447 90.208999634 112.01899719 1.2740000486 19.636999130 2.7390000820 2.7390000820
 2294.3750000  -999.250000 12.777000427 12.250000954 0.0059961015 0.2886614203 2.3329999447 90.442001343 112.51300049 1.2779999971 19.577999115 2.7330000401 2.7330000401
