# LAS format log file from PETREL
# Project units are specified as depth units
#==================================================================
~Version information
VERS.   2.0:
WRAP.   NO:
#==================================================================
~Well
STRT .m      1820.5001221 :
STOP .m      3000.6250000 :
STEP .m     0.00000000 :
NULL .        -999.250000 :
COMP.           : COMPANY
WELL.  34/7-13   : WELL
FLD.            : FIELD
LOC.            : LOCATION
SRVC.           : SERVICE COMPANY
DATE.  2018-09-11 14:48:51   : Log Export Date {yyyy-MM-dd HH:mm:ss}
PROV.           : PROVINCE
UWI.   34/7-13   : UNIQUE WELL ID
API.            : API NUMBER
#==================================================================
~Curve
DEPT .m                   : DEPTH
Lithology_geolink ._      : Lithology_geolink
CALI .in                  : CALI
BS .in                    : BS
DRHO .g/cm3               : DRHO
NPHI .m3/m3               : NPHI
RHOB .g/cm3               : RHOB
GR .gAPI                  : GR
DTC .us/ft                : DTC
RDEP .ohm.m               : RDEP
SP .mV                    : SP
RSHA .ohm.m               : RSHA
RMED .ohm.m               : RMED
~Parameter
#==================================================================
~Ascii
# ...
 2450.5000000 13.000000000 13.430000305 12.250000954 0.0819921866 0.2951519489 2.4039962292 96.474998474 114.81099701 0.9860000014 8.0869998932 1.9880000353 1.9880000353
 2450.6250000 13.000000000 13.436000824 12.250000954 0.0849941447 0.2936030328 2.4059960842 97.578002930 114.74700165 0.9959999919 8.3889999390 1.9910000563 1.9910000563
 2450.7500000 13.000000000 13.444999695 12.250000954 0.0859980509 0.2916538119 2.4069981575 98.714996338 114.61100769 1.0060000420 8.7989997864 1.9960000515 1.9969999790
 2450.8750000 13.000000000 13.461000443 12.250000954 0.0810000002 0.2897237539 2.4079999924 99.495002747 114.39399719 1.0140000582 9.2410001755 2.0090000629 2.0090000629
 2451.0000000 13.000000000 13.484000206 12.250000954 0.0750000030 0.2885522842 2.4079999924 99.620002747 114.12300110 1.0210000277 9.5410003662 2.0309998989 2.0309998989
 2451.1250000 13.000000000 13.511000633 12.250000954 0.0670000017 0.2886797190 2.4079999924 98.976997375 113.87500000 1.0269999504 9.7309999466 2.0590000153 2.0590000153
 2451.2500000 13.000000000 13.536999702 12.250000954 0.0610000007 0.2903766930 2.4089999199 97.682998657 113.72599792 1.0340000391 9.9799995422 2.0810000896 2.0810000896
 2451.3750000 13.000000000 13.555999756 12.250000954 0.0580058470 0.2928152382 2.4099981785 96.139999390 113.70700073 1.0420000553 10.522000313 2.0910000801 2.0910000801
 2451.5000000 13.000000000 13.564999580 12.250000954 0.0579999983 0.2949158847 2.4100000858 95.033996582 113.79399872 1.0520000458 11.248000145 2.0889999866 2.0889999866
 2451.6250000 13.000000000 13.567999840 12.250000954 0.0599960908 0.2954489589 2.4109981060 95.077003479 113.90300751 1.0640000105 11.994000435 2.0739998817 2.0739998817
 2451.7500000 13.000000000 13.569999695 12.250000954 0.0599999987 0.2944918573 2.4110000134 96.563003540 113.89399719 1.0770000219 12.524000168 2.0529999733 2.0529999733
 2451.8750000 13.000000000 13.576000214 12.250000954 0.0599999987 0.2921445966 2.4110000134 99.059997559 113.62500000 1.0900000334 12.803000450 2.0360000134 2.0360000134
 2452.0000000 13.000000000 13.583999634 12.250000954 0.0579999983 0.2892256975 2.4100019932 101.61799622 113.04000092 1.1030000448 12.963999748 2.0429999828 2.0429999828
 2452.1250000 13.000000000 13.593999863 12.250000954 0.0560000017 0.2862358391 2.4089999199 103.37999725 112.22499084 1.1150000095 13.189000130 2.0829999447 2.0829999447
 2452.2500000 13.000000000 13.604000092 12.250000954 0.0540000014 0.2835652232 2.4070000648 104.08999634 111.33499908 1.1250000000 13.503999710 2.1589999199 2.1589999199
 2452.3750000 13.000000000 13.616998672 12.250000954 0.0509999990 0.2816137969 2.4049999714 104.08000183 110.56700134 1.1330000162 13.800999641 2.2449998856 2.2449998856
 2452.5000000 13.000000000 13.630001068 12.250000954 0.0500000007 0.2808614671 2.4040000439 103.80999756 110.11199951 1.1410000324 13.984000206 2.3020000458 2.3020000458
 2452.6250000 13.000000000 13.640999794 12.250000954 0.0490019470 0.2815586329 2.4020037651 103.47200012 109.98600006 1.1480000019 14.034999847 2.3099999428 2.3099999428
 2452.7500000 13.000000000 13.645999908 12.250000954 0.0499980487 0.2833465040 2.4000039101 102.97599792 110.17600250 1.1529999971 14.012999535 2.2799999714 2.2799999714
 2452.8750000 13.000000000 13.643999100 12.250000954 0.0509980470 0.2854957879 2.3990018368 102.25599670 110.51499939 1.1560000181 13.975999832 2.2449998856 2.2449998856
 2453.0000000 13.000000000 13.638999939 12.250000954 0.0529960915 0.2871168256 2.3989999294 101.49600220 110.87200165 1.1549999714 13.956000328 2.2239999771 2.2239999771
 2453.1250000 13.000000000 13.635000229 12.250000954 0.0549960919 0.2876589596 2.3999981880 101.00499725 111.20400238 1.1529999971 14.010999680 2.2200000286 2.2200000286
 2453.2500000 13.000000000 13.635999680 12.250000954 0.0560000017 0.2874603868 2.4010000229 100.89700317 111.48600006 1.1499999762 14.340000153 2.2160000801 2.2160000801
 2453.3750000 13.000000000 13.640999794 12.250000954 0.0540000014 0.2868212461 2.4010000229 100.90200043 111.72299957 1.1480000019 14.951999664 2.2019999027 2.2019999027
 2453.5000000 13.000000000 13.649000168 12.250000954 0.0480000004 0.2861313522 2.4010000229 100.54199982 111.87800598 1.1469999552 15.732999802 2.1840000153 2.1849999428
 2453.6250000 13.000000000 13.656999588 12.250000954 0.0410000011 0.2856908739 2.4000000954 99.525001526 111.91699982 1.1460000277 16.399999619 2.1789999008 2.1789999008
 2453.7500000 13.000000000 13.663000107 12.250000954 0.0360097438 0.2856700122 2.3990018368 98.032997131 111.81999969 1.1460000277 16.729000092 2.1930000782 2.1930000782
 2453.8750000 13.000000000 13.664999962 12.250000954 0.0379960909 0.2860192955 2.3989999294 96.638000488 111.59600067 1.1460000277 16.625000000 2.2269999981 2.2269999981
 2454.0000000 13.000000000 13.663000107 12.250000954 0.0459843762 0.2865290046 2.3999981880 95.896003723 111.33100128 1.1449999809 16.333999634 2.2690000534 2.2690000534
 2454.1250000 13.000000000 13.659000397 12.250000954 0.0549824201 0.2871288359 2.4009981155 95.927001953 111.12799835 1.1460000277 16.114999771 2.2999999523 2.2999999523
 2454.2500000 13.000000000 13.652999878 12.250000954 0.0619863272 0.2878286242 2.4010000229 96.329002380 111.06099701 1.1490000486 16.201000214 2.3029999733 2.3020000458
 2454.3750000 13.000000000 13.647001266 12.250000954 0.0640000030 0.2884188294 2.4030001163 96.503997803 111.10300446 1.1529999971 16.587999344 2.2760000229 2.2760000229
 2454.5000000 13.000000000 13.640999794 12.250000954 0.0610000007 0.2880607247 2.4049999714 96.107002258 111.17099762 1.1590000391 17.212999344 2.2309999466 2.2309999466
 2454.6250000 13.000000000 13.638999939 12.250000954 0.0549999997 0.2856946290 2.4070000648 95.226997375 111.16101074 1.1649999619 17.768999100 2.1940000057 2.1940000057
 2454.7500000 13.000000000 13.638999939 12.250000954 0.0489999987 0.2806398869 2.4100000858 94.210998535 110.94799805 1.1690000296 18.000000000 2.1849999428 2.1849999428
 2454.8750000 13.000000000 13.642000198 12.250000954 0.0460058488 0.2741926014 2.4119961262 93.375999451 110.56900024 1.1720000505 17.771999359 2.2070000172 2.2070000172
 2455.0000000 13.000000000 13.649000168 12.250000954 0.0460000001 0.2683913112 2.4149940014 92.898002625 110.10399628 1.1749999523 17.108999252 2.2550001144 2.2550001144
 2455.1250000 13.000000000 13.657999992 12.250000954 0.0489941388 0.2654557228 2.4179940224 92.870002747 109.64899445 1.1790000200 16.033000946 2.3229999542 2.3229999542
 2455.2500000 13.000000000 13.664999962 12.250000954 0.0519941412 0.2650008500 2.4189980030 93.324996948 109.36499786 1.1859999895 15.102999687 2.3759999275 2.3759999275
 2455.3750000 13.000000000 13.668000221 12.250000954 0.0539960936 0.2664771080 2.4199981689 94.163002014 109.31700134 1.1959999800 14.633000374 2.4000000954 2.4000000954
 2455.5000000 13.000000000 13.668000221 12.250000954 0.0559960939 0.2682664990 2.4180037975 95.119003296 109.48899078 1.2059999704 14.857999802 2.3889999390 2.3880000114
 2455.6250000 13.000000000 13.666999817 12.250000954 0.0599999987 0.2696971893 2.4149999619 95.864997864 109.66500092 1.2159999609 15.545000076 2.3610000610 2.3610000610
 2455.7500000 13.000000000 13.668000221 12.250000954 0.0640000030 0.2713268101 2.4119999409 96.164001465 109.60501099 1.2230000496 16.489999771 2.3499999046 2.3499999046
 2455.8750000 13.000000000 13.671999931 12.250000954 0.0680000037 0.2744538784 2.4079999924 95.975997925 109.30100250 1.2269999981 17.267999649 2.3789999485 2.3789999485
 2456.0000000 13.000000000 13.678999901 12.250000954 0.0719999969 0.2794303000 2.4030001163 95.484001160 108.96600342 1.2300000191 17.628000259 2.4400000572 2.4400000572
 2456.1250000 13.000000000 13.687000275 12.250000954 0.0769902542 0.2849691808 2.3960134983 95.002998352 108.95600128 1.2309999466 17.528999329 2.4939999580 2.4939999580
 2456.2500000 13.000000000 13.696000099 12.250000954 0.0829882771 0.2890220881 2.3880157471 94.811996460 109.42198944 1.2330000401 17.256999969 2.5050001144 2.5039999485
 2456.3750000 13.000000000 13.706999779 12.250000954 0.0849960968 0.2896887064 2.3810136318 94.964996338 110.33599854 1.2330000401 17.027999878 2.4809999466 2.4809999466
