# LAS format log file from PETREL
# Project units are specified as depth units
#==================================================================
~Version information
VERS.   2.0:
WRAP.   NO:
#==================================================================
~Well
STRT .m      806.37493896 :
STOP .m      2790.0000000 :
STEP .m     0.00000000 :
NULL .        -999.250000 :
COMP.           : COMPANY
WELL.  34/7-12   : WELL
FLD.            : FIELD
LOC.            : LOCATION
SRVC.           : SERVICE COMPANY
DATE.  2018-09-11 14:48:51   : Log Export Date {yyyy-MM-dd HH:mm:ss}
PROV.           : PROVINCE
UWI.   34/7-12   : UNIQUE WELL ID
API.            : API NUMBER
#==================================================================
~Curve
DEPT .m                   : DEPTH
Lithology_geolink ._      : Lithology_geolink
CALI .in                  : CALI
DRHO .g/cm3               : DRHO
NPHI .m3/m3               : NPHI
RHOB .g/cm3               : RHOB
GR .gAPI                  : GR
DTC .us/ft                : DTC
RDEP .ohm.m               : RDEP
SP .mV                    : SP
RSHA .ohm.m               : RSHA
RMED .ohm.m               : RMED
~Parameter
#==================================================================
~Ascii
# ...
 1864.6250000  -999.250000 18.245000839 0.0009980469 0.4423799813 2.3050000668 57.472999573 120.44153595 1.2929999828 7.9580006599 0.9760000110 1.0980000496
 1864.7500000  -999.250000 18.197000504 -0.001001953 0.4291099906 2.3050010204 57.792278290 120.98437500 1.3170000315 7.9579930305 0.9610000253 1.0950000286
 1864.8748779  -999.250000 18.167999268 -0.003000000 0.4208181202 2.3059999943 58.077999115 121.36799622 1.3350000381 7.9499993324 0.9559999704 1.0909999609
 1864.9998779  -999.250000 18.153999329 -0.008009766 0.4161600173 2.3059990406 58.317001343 121.57399750 1.3420000076 7.9429998398 0.9620000124 1.0920000076
 1865.1248779  -999.250000 18.145999908 -0.018013671 0.4151900113 2.3049972057 58.687999725 121.50799561 1.3370000124 7.9359998703 0.9660000205 1.1000000238
 1865.2500000  -999.250000 18.134000778 -0.032027319 0.4171300232 2.3019883633 59.340999603 121.23899841 1.3279999495 7.9249668121 0.9689999819 1.1150000095
 1865.3750000  -999.250000 18.113000870 -0.046006836 0.4211699963 2.2959930897 60.256999969 120.84200287 1.3240000010 7.9079918861 0.9720000029 1.1299999952
 1865.5000000  -999.250000 18.087999344 -0.052998047 0.4257899821 2.2889921665 61.046001434 120.49399567 1.3300000429 7.9000034332 0.9739999771 1.1380000114
 1865.6250000  -999.250000 18.061000824 -0.050991211 0.4296200275 2.2809920311 61.395000458 120.25799561 1.3450000286 7.9030089378 0.9750000238 1.1390000582
 1865.7500000  -999.250000 18.034000397 -0.041988280 0.4324100018 2.2729911804 61.046001434 120.12000275 1.3619999886 7.9119987488 0.9739999771 1.1339999437
 1865.8750000  -999.250000 18.006000519 -0.029994139 0.4344100058 2.2639939785 60.417518616 119.89154053 1.3730000257 7.9099864960 0.9700000286 1.1310000420
 1865.9998779  -999.250000 17.975000381 -0.024000000 0.4354090095 2.2579998970 59.926998138 119.42299652 1.3700029850 7.8959994316 0.9590107203 1.1360000372
 1866.1248779  -999.250000 17.941999435 -0.028000001 0.4344518781 2.2550001144 60.327999115 118.55100250 1.3500000238 7.8830003738 0.9570000172 1.1499999762
 1866.2498779  -999.250000 17.899000168 -0.037003908 0.4325000048 2.2580077648 61.583999634 117.56600189 1.3190000057 7.8760004044 0.9710000157 1.1660000086
 1866.3750000  -999.250000 17.815999985 -0.040986329 0.4309899807 2.2660195827 63.355998993 116.91799927 1.2829999924 7.8710002899 0.9800000191 1.1740000248
 1866.5000000  -999.250000 17.658000946 -0.033976588 0.4332300127 2.2760078907 64.751998901 117.35099792 1.2469999790 7.8639926910 0.9760000110 1.1640000343
 1866.6250000  -999.250000 17.450000763 -0.021991210 0.4401200116 2.2799971104 65.347999573 119.08999634 1.2100000381 7.8600120544 0.9750000238 1.1349999905
 1866.7500000  -999.250000 17.263999939 -0.013000000 0.4531199932 2.2769892216 64.900001526 122.26899719 1.1749999523 7.8720326424 0.9789999723 1.0930000544
 1866.8750000  -999.250000 17.198999405 -0.013004883 0.4694800079 2.2659873962 64.070999146 126.12300110 1.1369999647 7.9050388336 0.9890000224 1.0540000200
 1867.0000000  -999.250000 17.290000916 -0.018009765 0.4847600162 2.2529902458 63.373001099 129.67733765 1.0970000029 7.9450235367 1.0160000324 1.0269999504
 1867.1250000  -999.250000 17.534000397 -0.028006837 0.4934500158 2.2429971695 63.184238434 132.06813049 1.0579999685 7.9689993858 1.0390000343 1.0160000324
 1867.2498779  -999.250000 17.813999176 -0.035000000 0.4960374534 2.2400000095 63.429000854 133.21800232 1.0260000229 7.9689993858 1.0509999990 1.0160000324
 1867.3748779  -999.250000 18.055999756 -0.035989255 0.4946700037 2.2420048714 63.997001648 133.62100220 1.0069999695 7.9520001411 1.0590000153 1.0160000324
 1867.5000000  -999.250000 18.204999924 -0.024970703 0.4939500093 2.2470097542 64.623001099 134.02799988 1.0049999952 7.9319996834 1.0590000153 1.0080000162
 1867.6250000  -999.250000 18.229999542 -0.009980488 0.4959799945 2.2520039082 65.026000977 134.78100586 1.0180000067 7.9159803391 1.0559999943 0.9900000095
 1867.7500000  -999.250000 18.028999329 -0.000002930 0.5005400181 2.2539999485 65.070999146 135.52600098 1.0429999828 7.9059982300 1.0470000505 0.9729999900
 1867.8750000  -999.250000 17.562999725 -0.003012695 0.5053699613 2.2539989948 64.983001709 135.46099854 1.0740000010 7.9040126801 1.0499999523 0.9700000286
 1868.0000000  -999.250000 16.895000458 -0.016010743 0.5083200336 2.2529990673 64.998001099 133.57499695 1.1030000448 7.9170241356 1.1050000191 0.9990000129
 1868.1250000  -999.250000 16.191999435 -0.027002931 0.5069900155 2.2520010471 65.112998962 130.08761597 1.1289999485 7.9420356750 1.1710000038 1.0559999943
 1868.2500000  -999.250000 15.649000168 -0.029996093 0.4997600317 2.2530059814 65.055503845 125.60214996 1.1549999714 7.9790410995 1.2500000000 1.1299999952
 1868.3748779  -999.250000 15.354000092 -0.026000001 0.4866628349 2.2590000629 64.552001953 121.65799713 1.1899658442 8.0209999084 1.3269248009 1.1890000105
 1868.4998779  -999.250000 15.239000320 -0.019995118 0.4707099795 2.2700107098 63.840999603 119.11699677 1.2369999886 8.0640001297 1.3539999723 1.2170000076
 1868.6248779  -999.250000 15.147000313 -0.014999023 0.4555300176 2.2810077667 63.408000946 118.64700317 1.2879999876 8.1029996872 1.3769999743 1.2120000124
 1868.7500000  -999.250000 15.000000954 -0.014003903 0.4439499974 2.2890019417 63.325000763 119.19100189 1.3339999914 8.1290149689 1.3930000067 1.2059999704
 1868.8750000  -999.250000 14.828000069 -0.016006837 0.4352899790 2.2899980545 63.276000977 119.87100220 1.3619999886 8.1369962692 1.4090000391 1.2159999609
 1869.0000000  -999.250000 14.679999352 -0.023005860 0.4262699783 2.2879991531 62.832000732 119.86100006 1.3660000563 8.1329956055 1.4320000410 1.2469999790
 1869.1250000  -999.250000 14.570999146 -0.028998045 0.4141999781 2.2870047092 61.993999481 119.29199982 1.3539999723 8.1280021667 1.4570000172 1.2829999924
 1869.2500000  -999.250000 14.475999832 -0.026989259 0.3989199698 2.2920088768 61.180999756 118.41000366 1.3300000429 8.1300058365 1.4579999447 1.3120000362
 1869.3750000  -999.250000 14.373999596 -0.015986329 0.3837499917 2.3010079861 60.946422577 117.71467590 1.3059999943 8.1360082626 1.4529999495 1.3270000219
 1869.5000000  -999.250000 14.271000862 -0.001996094 0.3710399866 2.3090038300 61.381832123 117.38729858 1.2869999409 8.1450138092 1.4270000458 1.3339999914
 1869.6248779  -999.250000 14.192998886 0.0020000001 0.3631553948 2.3129999638 62.230998993 117.69300079 1.2749999762 8.1590003967 1.3960000277 1.3300000429
 1869.7498779  -999.250000 14.149999619 -0.009015624 0.3596900105 2.3109922409 63.050998688 118.48300171 1.2699999809 8.1870002747 1.4079999924 1.3179999590
 1869.8750000  -999.250000 14.137000084 -0.025013672 0.3610100150 2.3029725552 63.722999573 119.71800232 1.2680000067 8.2270002365 1.4359999895 1.2999999523
 1870.0000000  -999.250000 14.135999680 -0.031994149 0.3695899844 2.2889668941 64.186996460 121.15499878 1.2660000324 8.2590236664 1.4450000525 1.2790000439
 1870.1250000  -999.250000 14.137000084 -0.028990233 0.3837699890 2.2719833851 64.382003784 122.40799713 1.2610000372 8.2709941864 1.4470000267 1.2640000582
 1870.2500000  -999.250000 14.137999535 -0.018996093 0.4029999971 2.2549884319 64.055999756 123.16999817 1.2489999533 8.2649917603 1.4409999847 1.2589999437
 1870.3750000  -999.250000 14.137999535 -0.015001953 0.4226100147 2.2429931164 63.285999298 123.46099854 1.2319999933 8.2559986115 1.4309999943 1.2690000534
 1870.5000000  -999.250000 14.135999680 -0.017001955 0.4386099875 2.2360000610 62.435001373 123.51209259 1.2109999657 8.2550163269 1.4199999571 1.2899999619
 1870.6250000  -999.250000 14.131999969 -0.018999023 0.4460699856 2.2360048294 62.307685852 123.60531616 1.1920000315 8.2720365524 1.4079999924 1.3159999847
 1870.7498779  -999.250000 14.127999306 -0.017999999 0.4476884305 2.2409999371 63.011001587 123.92900085 1.1779999733 8.3090000153 1.3969999552 1.3329999447
 1870.8748779  -999.250000 14.126999855 -0.014994141 0.4468600154 2.2490079403 64.486000061 124.50700378 1.1699999571 8.3719997406 1.3849999905 1.3289999962
