# LAS format log file from PETREL
# Project units are specified as depth units
#==================================================================
~Version information
VERS.   2.0:
WRAP.   NO:
#==================================================================
~Well
STRT .m      1820.5001221 :
STOP .m      3000.6250000 :
STEP .m     0.00000000 :
NULL .        -999.250000 :
COMP.           : COMPANY
WELL.  34/7-13   : WELL
FLD.            : FIELD
LOC.            : LOCATION
SRVC.           : SERVICE COMPANY
DATE.  2018-09-11 14:48:51   : Log Export Date {yyyy-MM-dd HH:mm:ss}
PROV.           : PROVINCE
UWI.   34/7-13   : UNIQUE WELL ID
API.            : API NUMBER
#==================================================================
~Curve
DEPT .m                   : DEPTH
Lithology_geolink ._      : Lithology_geolink
CALI .in                  : CALI
BS .in                    : BS
DRHO .g/cm3               : DRHO
NPHI .m3/m3               : NPHI
RHOB .g/cm3               : RHOB
GR .gAPI                  : GR
DTC .us/ft                : DTC
RDEP .ohm.m               : RDEP
SP .mV                    : SP
RSHA .ohm.m               : RSHA
RMED .ohm.m               : RMED
~Parameter
#==================================================================
~Ascii
# ...
 2684.5000000 5.0000000000 10.619999886 8.5000000000 0.0030000000 0.2957299948 2.4449999332 69.695999146 95.522003174 2.8929998875 -15.69900131 3.3480000496 3.3480000496
 2684.6252441 5.0000000000 10.604999542 8.5000000000 -0.007000000 0.2967000008 2.4479999542 70.710998535 95.426994324 2.8770000935 -15.72999954 3.3459999561 3.3459999561
 2684.7502441 5.0000000000 10.590999603 8.5000000000 -0.013000000 0.2956100106 2.4500000477 71.415000916 95.304481506 2.8559999466 -15.21599960 3.3540704250 3.3540704250
 2684.8747559 5.0000000000 10.576000214 8.5000000000 -0.011007813 0.2917252183 2.4490036964 71.791000366 95.171997070 2.8299999237 -14.43900013 3.3719999790 3.3719999790
 2685.0000000 5.0000000000 10.557999611 8.5000000000 -0.003015625 0.2860111594 2.4480018616 71.997001648 95.027000427 2.8029999733 -13.73099995 3.3989999294 3.3989999294
 2685.1250000 5.0000000000 10.534000397 8.5000000000 0.0049843751 0.2798919678 2.4460039139 72.247001648 94.873001099 2.7769999504 -13.29300022 3.4219999313 3.4219999313
 2685.2500000 5.0000000000 10.501000404 8.5000000000 0.0099902339 0.2748498321 2.4440038204 72.693000793 94.728996277 2.7539999485 -13.14400005 3.4330000877 3.4319999218
 2685.3750000 5.0000000000 10.456000328 8.5000000000 0.0109980470 0.2709376216 2.4430019855 73.343002319 94.620002747 2.7369999886 -13.06499958 3.4179999828 3.4179999828
 2685.5000000 5.0000000000 10.399000168 8.5000000000 0.0109999999 0.2671773136 2.4449961185 74.061996460 94.555999756 2.7279999256 -12.87600040 3.3729999065 3.3729999065
 2685.6250000 5.0000000000 10.336999893 8.5000000000 0.0109999999 0.2623094916 2.4469962120 74.633003235 94.509010315 2.7239999771 -12.56799984 3.3059999943 3.3059999943
 2685.7500000 5.0000000000 10.281000137 8.5000000000 0.0119980471 0.2571401000 2.4489960670 74.876998901 94.384002686 2.7200000286 -12.26000023 3.2390000820 3.2400000095
 2685.8750000 5.0000000000 10.237999916 8.5000000000 0.0110019529 0.2535270452 2.4480018616 74.773002625 94.106994629 2.7139999866 -12.05000019 3.1949999332 3.1949999332
 2686.0000000 5.0000000000 10.208000183 8.5000000000 0.0100019528 0.2526915967 2.4479999542 74.496002197 93.658996582 2.7049999237 -11.94400024 3.1949999332 3.1949999332
 2686.1250000 5.0000000000 10.187000275 8.5000000000 0.0099999998 0.2549655437 2.4470019341 74.320999146 93.167999268 2.6960000992 -11.85200024 3.2309999466 3.2309999466
 2686.2500000 5.0000000000 10.166999817 8.5000000000 0.0149999997 0.2587226629 2.4479999542 74.420997620 92.777000427 2.6919999123 -11.67700005 3.2980000973 3.2980000973
 2686.3750000 5.0000000000 10.142000198 8.5000000000 0.0209999997 0.2616642416 2.4519999027 74.680000305 92.589004517 2.6960000992 -11.40400028 3.3659999371 3.3659999371
 2686.5000000 5.0000000000 10.112000465 8.5000000000 0.0250000004 0.2624500096 2.4560000896 74.709999084 92.609001160 2.7090001106 -11.06700039 3.4100000858 3.4100000858
 2686.6250000 5.0000000000 10.079999924 8.5000000000 0.0209999997 0.2616499960 2.4570000172 74.096000671 92.686996460 2.7290000916 -10.73299980 3.4089999199 3.4089999199
 2686.7500000 5.0000000000 10.050000191 8.5000000000 0.0109999999 0.2608900070 2.4579999447 72.702003479 92.608001709 2.7490000725 -10.41499996 3.3729999065 3.3729999065
 2686.8750000 5.0000000000 10.024998665 8.5000000000 0.0010000000 0.2609800100 2.4579999447 70.814002991 92.276000977 2.7669999599 -10.09099960 3.3329999447 3.3329999447
 2687.0002441 5.0000000000 10.003999710 8.5000000000 -0.007000000 0.2619599998 2.4590001106 68.985000610 91.786003113 2.7790000439 -9.748000145 3.3099999428 3.3099999428
 2687.1247559 5.0000000000 9.9840002060 8.5000000000 -0.009988281 0.2637131214 2.4619882107 67.701034546 91.348999023 2.7859725952 -9.423000336 3.2999999523 3.2999999523
 2687.2497559 4.0000000000 9.9650001526 8.5000000000 -0.010000000 0.2648953795 2.4649882317 67.096000671 91.230003357 2.7920000553 -9.185000420 3.2799999714 3.2799999714
 2687.3750000 4.0000000000 9.9499988556 8.5000000000 -0.010000000 0.2631035149 2.4669961929 66.999000549 91.486999512 2.7980000973 -9.022000313 3.2390000820 3.2390000820
 2687.5000000 4.0000000000 9.9399986267 8.5000000000 -0.011996094 0.2584490776 2.4650037289 67.092002869 92.066001892 2.8039999008 -8.871000290 3.1889998913 3.1889998913
 2687.6250000 4.0000000000 9.9340000153 8.5000000000 -0.012000000 0.2538788915 2.4600098133 67.163002014 92.700996399 2.8110001087 -8.651000023 3.1619999409 3.1619999409
 2687.7500000 4.0000000000 9.9270000458 8.5000000000 -0.011001953 0.2517142296 2.4540116787 67.184997559 93.198005676 2.8150000572 -8.399999619 3.1789999008 3.1800000668
 2687.8750000 4.0000000000 9.9110002518 8.5000000000 -0.008005859 0.2525683343 2.4480116367 67.209999084 93.428009033 2.8180000782 -8.251999855 3.2330000401 3.2330000401
 2688.0000000 4.0000000000 9.8849992752 8.5000000000 -0.007001953 0.2555142343 2.4450058937 67.241996765 93.468002319 2.8229999542 -8.279000282 3.2899999619 3.2899999619
 2688.1250000 4.0000000000 9.8509988785 8.5000000000 -0.007000000 0.2591828108 2.4440019131 67.202003479 93.437004089 2.8299999237 -8.447999954 3.3229999542 3.3229999542
 2688.2500000 4.0000000000 9.8159999847 8.5000000000 -0.007998047 0.2620743811 2.4459962845 66.983001709 93.417999268 2.8369998932 -8.598999977 3.3220000267 3.3220000267
 2688.3750000 4.0000000000 9.7819995880 8.5000000000 -0.010994141 0.2631279528 2.4489939213 66.533996582 93.402999878 2.8420000076 -8.623000145 3.2999999523 3.2999999523
 2688.5000000 4.0000000000 9.7500000000 8.5000000000 -0.013994141 0.2623415291 2.4509961605 65.902000427 93.360000610 2.8359999657 -8.451999664 3.2699999809 3.2699999809
 2688.6250000 4.0000000000 9.7180004120 8.5000000000 -0.017000001 0.2603937984 2.4509999752 65.209999084 93.301002502 2.8210000992 -8.218000412 3.2409999371 3.2409999371
 2688.7500000 4.0000000000 9.6840000153 8.5000000000 -0.018999999 0.2580146492 2.4489998817 64.605003357 93.265998840 2.7990000248 -8.097999573 3.2119998932 3.2119998932
 2688.8750000 4.0000000000 9.6499996185 8.5000000000 -0.018999999 0.2557300031 2.4460000992 64.209999084 93.307998657 2.7709999084 -8.234000206 3.1809999943 3.1809999943
 2689.0000000 4.0000000000 9.6149997711 8.5000000000 -0.017999999 0.2536900043 2.4419999123 64.100997925 93.462997437 2.7460000515 -8.565999985 3.1510000229 3.1510000229
 2689.1250000 4.0000000000 9.5810003281 8.5000000000 -0.017000001 0.2522900105 2.4379999638 64.292999268 93.761001587 2.7279999256 -8.946999550 3.1259999275 3.1259999275
 2689.2502441 4.0000000000 9.5500001907 8.5000000000 -0.017999999 0.2520099878 2.4349999428 64.717002869 94.175003052 2.7179999352 -9.208999634 3.1089999676 3.1089999676
 2689.3752441 4.0000000000 9.5260000229 8.5000000000 -0.023000000 0.2537499964 2.4340000153 65.189002991 94.617996216 2.7139999866 -9.312000275 3.0969998837 3.0969998837
 2689.4997559 4.0000000000 9.5069999695 8.5000000000 -0.027980469 0.2572462857 2.4340000153 65.414115906 94.958999634 2.7149960995 -9.276000023 3.0889999866 3.0889999866
 2689.6247559 4.0000000000 9.4919996262 8.5000000000 -0.032980468 0.2618420422 2.4369883537 65.092002869 95.125999451 2.7190001011 -9.199000359 3.0820000172 3.0820000172
 2689.7500000 4.0000000000 9.4809999466 8.5000000000 -0.037990235 0.2662913203 2.4399940968 64.103996277 95.069000244 2.7230000496 -9.085000038 3.0750000477 3.0750000477
 2689.8750000 4.0000000000 9.4700002670 8.5000000000 -0.039996091 0.2694638073 2.4429941177 62.655998230 94.860000610 2.7320001125 -8.920000076 3.0659999847 3.0659999847
 2690.0000000 4.0000000000 9.4619998932 8.5000000000 -0.039999999 0.2709670663 2.4459941387 61.254001617 94.595001221 2.7449998856 -8.791000366 3.0569999218 3.0569999218
 2690.1250000 4.0000000000 9.4569997787 8.5000000000 -0.038003907 0.2711296976 2.4469981194 60.479999542 94.385002136 2.7639999390 -8.880000114 3.0499999523 3.0499999523
 2690.2500000 4.0000000000 9.4560003281 8.5000000000 -0.036003906 0.2710501552 2.4470000267 60.688999176 94.325996399 2.7839999199 -9.199999809 3.0480000973 3.0480000973
 2690.3750000 4.0000000000 9.4560003281 8.5000000000 -0.033005860 0.2712995112 2.4430079460 61.784999847 94.449996948 2.8039999008 -9.647999763 3.0520000458 3.0520000458
