# LAS format log file from PETREL
# Project units are specified as depth units
#==================================================================
~Version information
VERS.   2.0:
WRAP.   NO:
#==================================================================
~Well
STRT .m      377.87487793 :
STOP .m      3151.8757324 :
STEP .m     0.00000000 :
NULL .        -999.250000 :
COMP.           : COMPANY
WELL.  34/7-5   : WELL
FLD.            : FIELD
LOC.            : LOCATION
SRVC.           : SERVICE COMPANY
DATE.  2018-09-11 14:48:52   : Log Export Date {yyyy-MM-dd HH:mm:ss}
PROV.           : PROVINCE
UWI.   34/7-5   : UNIQUE WELL ID
API.            : API NUMBER
#==================================================================
~Curve
DEPT .m                   : DEPTH
Lithology_geolink ._      : Lithology_geolink
CALI .in                  : CALI
DRHO .g/cm3               : DRHO
NPHI .m3/m3               : NPHI
RHOB .g/cm3               : RHOB
GR .gAPI                  : GR
DTC .us/ft                : DTC
RDEP .ohm.m               : RDEP
SP .mV                    : SP
RSHA .ohm.m               : RSHA
RMED .ohm.m               : RMED
~Parameter
#==================================================================
~Ascii
# ...
 2959.7500000 6.0000000000 2.9400000572 -0.122000001 0.4763799906 2.3199999332 50.435001373 94.476997375 2.0980000496 49.828998566 1.9429999590 1.9429999590
 2959.8750000 6.0000000000 2.9400000572 -0.120999999 0.4716799855 2.3180000782 50.806999207 94.474998474 2.1989998817 50.800998688 1.9539999962 1.9539999962
 2960.0000000 6.0000000000 2.9400000572 -0.119000003 0.4692299962 2.3159999847 51.095001221 93.744003296 2.2820000648 51.800998688 2.0179998875 2.0179998875
 2960.1250000 6.0000000000 2.9400000572 -0.119000003 0.4696900249 2.3139998913 51.235000610 92.335998535 2.3459999561 52.949001312 2.1400001049 2.1400001049
 2960.2500000 6.0000000000 2.9419999123 -0.119999997 0.4716400206 2.3110001087 51.084999084 89.745010376 2.4609999657 53.366001129 2.3750000000 2.3750000000
 2960.3752441 6.0000000000 2.9470000267 -0.122000001 0.4667200148 2.3069999218 50.875999451 84.748008728 2.6610000134 53.305999756 2.5490000248 2.5490000248
 2960.5002441 6.0000000000 2.9530000687 -0.125000000 0.4538000226 2.3029999733 50.331001282 83.511001587 2.8540000916 52.889999390 2.6710000038 2.6710000038
 2960.6250000 6.0000000000 2.9579999447 -0.128000006 0.4471300244 2.2990000248 50.041000366 82.609001160 2.9419999123 51.762001038 2.7920000553 2.7920000553
 2960.7500000 5.0000000000 2.9600000381 -0.131999999 0.4416700006 2.2980000973 49.930999756 82.450996399 2.9570000172 50.299999237 2.8269999027 2.8269999027
 2960.8750000 5.0000000000 2.9820001125 -0.135000005 0.4374299943 2.2999999523 50.187000275 83.866996765 2.9570000172 48.618999481 2.7769999504 2.7769999504
 2961.0000000 5.0000000000 3.0770001411 -0.136000007 0.4364599884 2.3029999733 50.508998871 85.503997803 2.9509999752 47.078998566 2.7209999561 2.7209999561
 2961.1252441 5.0000000000 3.3529999256 -0.135000005 0.4364599884 2.3059999943 50.514999390 86.496009827 2.9340000153 46.187000275 2.6889998913 2.6889998913
 2961.2502441 5.0000000000 3.9249999523 -0.134000003 0.4357899725 2.3090000153 50.243000031 88.059997559 2.9309999943 45.957000732 2.6779999733 2.6779999733
 2961.3747559 5.0000000000 4.9279999733 -0.131999999 0.4300799966 2.3110001087 49.375999451 89.788002014 2.9260001183 46.533000946 2.6919999123 2.6919999123
 2961.4997559 5.0000000000 6.6009998322 -0.130999997 0.4031700194 2.3120000362 47.345001221 91.211997986 2.8970000744 47.727001190 2.7170000076 2.7170000076
 2961.6250000 5.0000000000 8.8750000000 -0.134000003 0.3763700128 2.3099999428 45.926998138 92.117004395 2.8680000305 49.069000244 2.7880001068 2.7880001068
 2961.7495117 5.0000000000 10.484998703 -0.138999999 0.3513499796 2.3069999218 44.620998383 93.055007935 2.8389999866 50.437999725 2.8619999886 2.8619999886
 2961.8750000 5.0000000000 11.105000496 -0.143000007 0.3477199972 2.3029999733 43.358001709 93.744003296 2.8010001183 51.794998169 2.9000000954 2.9000000954
 2962.0000000 5.0000000000 11.430999756 -0.147000000 0.3537999988 2.2999999523 41.819000244 93.098991394 2.7569999695 52.985000610 2.9289999008 2.9289999008
 2962.1250000 5.0000000000 11.487000465 -0.150000006 0.3688099980 2.2980000973 40.011001587 91.553001404 2.7139999866 53.599998474 2.9539999962 2.9539999962
 2962.2500000 5.0000000000 11.498999596 -0.147000000 0.3690800071 2.2999999523 38.224998474 89.967002869 2.6700000763 53.361999512 2.8699998856 2.8699998856
 2962.3750000 5.0000000000 11.500000954 -0.143999994 0.3617599905 2.3029999733 36.886001587 88.241989136 2.6129999161 52.720001221 2.6989998817 2.6989998817
 2962.5000000 5.0000000000 11.500000954 -0.142000005 0.3477600217 2.3050000668 35.887001038 87.024002075 2.5399999619 52.062999725 2.5659999847 2.5659999847
 2962.6250000 5.0000000000 11.501999855 -0.138999999 0.3143199980 2.3080000877 35.588001251 86.492996216 2.4479999542 51.639999390 2.5000000000 2.5000000000
 2962.7502441 5.0000000000 11.505000114 -0.136000007 0.2769599855 2.3110001087 35.755001068 86.458000183 2.3399999142 51.250000000 2.4430000782 2.4430000782
 2962.8752441 5.0000000000 11.508000374 -0.133000001 0.2535899878 2.3150000572 35.325000763 86.830001831 2.2320001125 50.860000610 2.3789999485 2.3789999485
 2963.0000000 5.0000000000 11.510998726 -0.130999997 0.2427599877 2.3139998913 33.748001099 86.825996399 2.1270000935 50.458999634 2.3150000572 2.3150000572
 2963.1250000 3.0000000000 11.513998985 -0.130999997 0.2330799997 2.3110001087 32.028999329 86.397010803 2.0220000744 50.046001434 2.2500000000 2.2500000000
 2963.2500000 3.0000000000 11.517001152 -0.135000005 0.2274000049 2.3080000877 29.841999054 86.611999512 1.9179999828 49.632999420 2.0910000801 2.0910000801
 2963.3750000 3.0000000000 11.520000458 -0.138999999 0.2238599956 2.3050000668 27.392000198 87.509002686 1.7929999828 49.241001129 1.9539999962 1.9539999962
 2963.5002441 3.0000000000 11.522999763 -0.137999997 0.2200799882 2.3059999943 25.638000488 88.619003296 1.6510000229 48.984001160 1.8470000029 1.8470000029
 2963.6252441 3.0000000000 11.526000023 -0.134000003 0.2168600112 2.3129999638 24.931999207 89.773002625 1.5299999714 48.733001709 1.7519999743 1.7519999743
 2963.7497559 3.0000000000 11.529000282 -0.128000006 0.2137599885 2.3190000057 24.775999069 90.929000854 1.4550000429 48.483001709 1.7029999495 1.7029999495
 2963.8747559 3.0000000000 11.530999184 -0.122000001 0.2098699957 2.3229999542 24.718999863 92.060997009 1.3799999952 48.231998444 1.6640000343 1.6640000343
 2964.0000000 3.0000000000 11.534001350 -0.127000004 0.2059300095 2.3229999542 24.545999527 93.083999634 1.3059999943 47.981998444 1.6330000162 1.6330000162
 2964.1245117 3.0000000000 11.536999702 -0.131999999 0.2012799978 2.3180000782 24.313999176 93.711997986 1.2430000305 47.750000000 1.6039999723 1.6039999723
 2964.2495117 3.0000000000 11.537999153 -0.136999995 0.1967699975 2.3110001087 23.509000778 94.269996643 1.1929999590 47.534999847 1.5650000572 1.5650000572
 2964.3750000 3.0000000000 11.532999992 -0.143000007 0.1938999891 2.3029999733 22.704000473 94.823989868 1.1579999924 47.320999146 1.5119999647 1.5119999647
 2964.5000000 3.0000000000 11.524999619 -0.149000004 0.1931300014 2.2960000038 21.924999237 95.334999084 1.1299999952 47.116001129 1.4720000029 1.4720000029
 2964.6250000 3.0000000000 11.539999962 -0.155000001 0.1949200034 2.2890000343 21.365999222 95.831001282 1.1030000448 46.916000366 1.4490000010 1.4490000010
 2964.7500000 3.0000000000 11.576999664 -0.156000003 0.1965500116 2.2860000134 20.985000610 96.046997070 1.0909999609 46.715999603 1.4570000172 1.4570000172
 2964.8750000 3.0000000000 11.585000038 -0.153999999 0.1981399953 2.2890000343 21.190000534 95.879997253 1.0859999657 46.515998840 1.4739999771 1.4739999771
 2965.0000000 3.0000000000 11.557999611 -0.149000004 0.1986799985 2.2929999828 21.722999573 95.644996643 1.0930000544 46.465999603 1.5030000210 1.5030000210
 2965.1252441 3.0000000000 11.522000313 -0.150999993 0.1973100156 2.2950000763 22.118000031 95.116996765 1.1030000448 46.465999603 1.5089999437 1.5089999437
 2965.2502441 3.0000000000 11.503000259 -0.158999994 0.1958300024 2.2880001068 22.187000275 94.528999329 1.1130000353 46.466999054 1.5049999952 1.5049999952
 2965.3750000 3.0000000000 11.507000923 -0.167999998 0.1946099997 2.2780001163 22.035999298 93.940994263 1.1230000257 46.534000397 1.5000000000 1.5000000000
 2965.5000000 3.0000000000 11.510998726 -0.177000001 0.1941400021 2.2679998875 21.739000320 93.709999084 1.1349999905 46.932998657 1.4989999533 1.4989999533
 2965.6250000 3.0000000000 11.515000343 -0.186000004 0.1940200031 2.2609999180 21.374000549 93.708999634 1.1480000019 47.200000763 1.4989999533 1.4989999533
 2965.7500000 3.0000000000 11.517001152 -0.180999994 0.1940200031 2.2599999905 21.055000305 93.867996216 1.1610000134 46.890998840 1.4989999533 1.4989999533
 2965.8752441 3.0000000000 11.510998726 -0.173999995 0.1939100027 2.2650001049 21.000000000 94.065002441 1.1699999571 45.610000610 1.4919999838 1.4919999838
 2966.0002441 3.0000000000 11.500000954 -0.165999994 0.1930699944 2.2760000229 21.444999695 94.263000488 1.1720000505 44.166999817 1.4800000191 1.4800000191
