# LAS format log file from PETREL
# Project units are specified as depth units
#==================================================================
~Version information
VERS.   2.0:
WRAP.   NO:
#==================================================================
~Well
STRT .m      377.87487793 :
STOP .m      3151.8757324 :
STEP .m     0.00000000 :
NULL .        -999.250000 :
COMP.           : COMPANY
WELL.  34/7-5   : WELL
FLD.            : FIELD
LOC.            : LOCATION
SRVC.           : SERVICE COMPANY
DATE.  2018-09-11 14:48:52   : Log Export Date {yyyy-MM-dd HH:mm:ss}
PROV.           : PROVINCE
UWI.   34/7-5   : UNIQUE WELL ID
API.            : API NUMBER
#==================================================================
~Curve
DEPT .m                   : DEPTH
Lithology_geolink ._      : Lithology_geolink
CALI .in                  : CALI
DRHO .g/cm3               : DRHO
NPHI .m3/m3               : NPHI
RHOB .g/cm3               : RHOB
GR .gAPI                  : GR
DTC .us/ft                : DTC
RDEP .ohm.m               : RDEP
SP .mV                    : SP
RSHA .ohm.m               : RSHA
RMED .ohm.m               : RMED
~Parameter
#==================================================================
~Ascii
# ...
 2590.0000000 2.0000000000 11.950000763 -0.104000002 0.2656300068 2.2320001125 32.361000061 100.24199677 1.0019999743 48.945999146 1.1349999905 1.1349999905
 2590.1247559 2.0000000000 11.951000214 -0.107000001 0.2641600072 2.2379999161 32.542999268 99.754005432 1.0030000210 50.276000977 1.1519999504 1.1519999504
 2590.2497559 2.0000000000 11.951000214 -0.111000001 0.2626899779 2.2469999790 32.937000275 99.457000732 1.0030000210 51.002998352 1.1670000553 1.1670000553
 2590.3747559 2.0000000000 11.951000214 -0.108999997 0.2627599835 2.2569999695 33.574001312 99.358001709 1.0030000210 50.919998169 1.1749999523 1.1749999523
 2590.5000000 2.0000000000 11.951999664 -0.103000000 0.2633799911 2.2669999599 34.210998535 99.051002502 1.0030000210 50.462001801 1.1790000200 1.1790000200
 2590.6250000 2.0000000000 11.951999664 -0.097000003 0.2623499930 2.2739999294 34.898998260 98.704994202 1.0039999485 50.014999390 1.1829999685 1.1829999685
 2590.7500000 4.0000000000 11.953000069 -0.098999999 0.2599099874 2.2780001163 35.618999481 98.596000671 1.0039999485 49.660999298 1.1879999638 1.1879999638
 2590.8752441 4.0000000000 11.953000069 -0.103000000 0.2571899891 2.2799999714 36.132999420 98.252998352 1.0039999485 49.366001129 1.1940000057 1.1940000057
 2591.0002441 4.0000000000 11.953000069 -0.109999999 0.2553899884 2.2809998989 36.345001221 97.726997375 1.0039999485 49.513000488 1.2150000334 1.2150000334
 2591.1247559 4.0000000000 11.954000473 -0.118000001 0.2579799891 2.2790000439 36.685001373 97.203002930 1.0110000372 50.687000275 1.2460000515 1.2460000515
 2591.2502441 4.0000000000 11.954000473 -0.127000004 0.2645400167 2.2679998875 36.792999268 96.730003357 1.0290000439 51.939998627 1.2599999905 1.2599999905
 2591.3752441 4.0000000000 11.954999924 -0.137999997 0.2749799788 2.2579998970 36.777000427 96.625000000 1.0590000153 53.192001343 1.2719999552 1.2719999552
 2591.5002441 4.0000000000 11.954999924 -0.145999998 0.2847799957 2.2479999065 37.228000641 95.991996765 1.0920000076 54.318000793 1.2860000134 1.2860000134
 2591.6250000 4.0000000000 11.956000328 -0.151999995 0.2865599990 2.2379999161 37.578998566 95.477996826 1.1569999456 55.021999359 1.2649999857 1.2649999857
 2591.7500000 4.0000000000 11.956000328 -0.155000001 0.2830400169 2.2269999981 37.909999847 94.461997986 1.2350000143 55.173000336 1.2460000515 1.2460000515
 2591.8750000 4.0000000000 11.956000328 -0.149000004 0.2760699987 2.2219998837 38.314998627 92.856994629 1.3129999638 54.451999664 1.2380000353 1.2380000353
 2592.0000000 4.0000000000 11.957000732 -0.138999999 0.2676500082 2.2239999771 37.866001129 88.512001038 1.4019999504 53.116001129 1.3359999657 1.3359999657
 2592.1250000 4.0000000000 11.957000732 -0.127000004 0.2582499981 2.2560000420 35.942001343 82.008995056 1.5360000134 50.908000946 1.5529999733 1.5529999733
 2592.2500000 4.0000000000 11.958000183 -0.115000002 0.2486499995 2.3029999733 33.775001526 75.361999512 1.6799999475 48.944999695 1.7869999409 1.7869999409
 2592.3750000 4.0000000000 11.958000183 -0.101999998 0.2329299897 2.3589999676 32.261001587 69.694999695 1.8569999933 47.990001678 2.6319999695 2.6319999695
 2592.4997559 2.0000000000 11.958000183 -0.088000000 0.2148600072 2.4360001087 30.915000916 63.542999268 2.1389999390 47.416000366 4.1779999733 4.1779999733
 2592.6247559 2.0000000000 11.958999634 -0.072999999 0.1855400056 2.5090000629 29.962999344 59.212001801 2.5610001087 47.070999146 10.899000168 10.899000168
 2592.7497559 2.0000000000 11.958999634 -0.057999998 0.1445199996 2.5710000992 29.475000381 57.475997925 3.0850000381 47.104000092 24.114999771 24.114999771
 2592.8750000 2.0000000000 11.960000038 -0.044000000 0.1153500006 2.6180000305 29.288000107 56.935001373 3.8980000019 47.333999634 71.454002380 71.454002380
 2593.0000000 16.000000000 11.960000038 -0.033000000 0.0923700035 2.6370000839 29.503000259 56.832004547 4.7899999619 47.463001251 303.73001099 303.73001099
 2593.1250000 16.000000000 11.961000443 -0.029999999 0.0787400007 2.6500000954 29.760999680 56.520000458 6.0199999809 47.298999786 562.76599121 562.54498291
 2593.2502441 16.000000000 11.961000443 -0.037000000 0.0696400031 2.6470000744 29.597999573 56.231994629 6.8639998436 46.948001862 665.63598633 665.63598633
 2593.3747559 16.000000000 11.961000443 -0.046000000 0.0617500022 2.6410000324 29.079999924 56.152000427 7.2369999886 46.597000122 729.84802246 729.84802246
 2593.4997559 16.000000000 11.961999893 -0.054000001 0.0587400012 2.6340000629 28.333000183 56.215999603 7.5130000114 46.159000397 786.75701904 786.75701904
 2593.6252441 16.000000000 11.963000298 -0.063000001 0.0576799996 2.6280000210 27.879999161 56.222999573 7.7119998932 45.666999817 834.51300049 834.51300049
 2593.7502441 16.000000000 11.965000153 -0.068999998 0.0577600002 2.6219999790 27.892000198 56.107997894 7.8979997635 45.169998169 860.76501465 860.76501465
 2593.8752441 16.000000000 11.965999603 -0.071000002 0.0583699979 2.6180000305 27.986000061 56.131999969 7.9930000305 44.571998596 815.41998291 815.41998291
 2594.0000000 16.000000000 11.968000412 -0.071000002 0.0589799993 2.6199998856 28.007999420 56.119998932 8.0550003052 45.009998322 713.29199219 713.29199219
 2594.1250000 16.000000000 11.968999863 -0.070000000 0.0595999993 2.6270000935 27.747999191 56.494998932 8.0979995728 46.653999329 623.04998779 623.04998779
 2594.2500000 16.000000000 11.970998764 -0.070000000 0.0596600026 2.6340000629 27.225999832 56.584999084 8.1000003815 48.970001221 599.28399658 599.28399658
 2594.3750000 16.000000000 11.972000122 -0.068000004 0.0588800013 2.6440000534 26.591999054 55.960994720 8.1020002365 51.472999573 655.23199463 655.23199463
 2594.5000000 16.000000000 11.974000931 -0.067000002 0.0572500005 2.6559998989 25.909999847 55.231998444 8.1000003815 54.061000824 733.83599854 733.83599854
 2594.6250000 16.000000000 11.975000381 -0.066000000 0.0556599982 2.6649999619 24.850999832 54.479000092 8.0810003281 57.192001343 800.63897705 800.63897705
 2594.7500000 16.000000000 11.975000381 -0.066000000 0.0516499989 2.6659998894 23.687999725 53.652000427 8.0590000153 58.050998688 800.24499512 800.24499512
 2594.8747559 16.000000000 11.968000412 -0.066000000 0.0468900017 2.6619999409 23.052999496 53.078998566 8.0290002823 58.297000885 759.43499756 759.43499756
 2594.9997559 16.000000000 11.951000214 -0.066000000 0.0428199992 2.6579999924 22.561000824 52.902999878 7.9460000992 58.144001007 676.02801514 676.02801514
 2595.1247559 16.000000000 11.921999931 -0.066000000 0.0411399975 2.6600000858 22.458000183 52.727001190 7.8509998322 57.876998901 587.89599609 587.97998047
 2595.2500000 16.000000000 11.869000435 -0.063000001 0.0405200012 2.6670000553 22.459999084 52.590999603 7.6279997826 57.375999451 482.70498657 482.70498657
 2595.3750000 16.000000000 11.829000473 -0.052999999 0.0419199988 2.6800000668 22.461999893 52.826999664 6.9829998016 56.693000793 352.50601196 352.50601196
 2595.5002441 16.000000000 11.826999664 -0.041000001 0.0440299995 2.6930000782 22.774000168 52.820999146 5.9079999924 56.053001404 152.88299561 152.88299561
 2595.6252441 16.000000000 11.833000183 -0.028999999 0.0444799997 2.6940000057 23.374000549 53.068996429 4.8540000916 55.676998138 17.520000458 17.520000458
 2595.7497559 16.000000000 11.836000443 -0.022000000 0.0445999987 2.6849999428 24.545000076 54.020000458 3.8510000706 55.375000000 9.8450002670 9.8450002670
 2595.8747559 2.0000000000 11.836999893 -0.035000000 0.0467299968 2.6540000439 26.021999359 56.645999908 3.0880000591 55.262001038 6.0399999619 6.0399999619
 2596.0002441 2.0000000000 11.838999748 -0.055000000 0.0529000014 2.5759999752 28.367000580 60.360000610 2.4289999008 55.890998840 3.5699999332 3.5699999332
 2596.1252441 2.0000000000 11.840000153 -0.075999998 0.0627899989 2.4800000191 30.864000320 70.030998230 1.8990000486 57.148998260 2.0820000172 2.0820000172
 2596.2502441 2.0000000000 11.840999603 -0.097000003 0.0835799947 2.4159998894 32.651000977 77.875000000 1.6970000267 58.118000031 1.6269999743 1.6269999743
