# LAS format log file from PETREL
# Project units are specified as depth units
#==================================================================
~Version information
VERS.   2.0:
WRAP.   NO:
#==================================================================
~Well
STRT .m      417.47238159 :
STOP .m      3182.7705078 :
STEP .m     0.00000000 :
NULL .        -999.250000 :
COMP.           : COMPANY
WELL.  34/7-20   : WELL
FLD.            : FIELD
LOC.            : LOCATION
SRVC.           : SERVICE COMPANY
DATE.  2018-09-11 14:48:52   : Log Export Date {yyyy-MM-dd HH:mm:ss}
PROV.           : PROVINCE
UWI.   34/7-20   : UNIQUE WELL ID
API.            : API NUMBER
#==================================================================
~Curve
DEPT .m                   : DEPTH
Lithology_geolink ._      : Lithology_geolink
CALI .in                  : CALI
DRHO .g/cm3               : DRHO
NPHI .m3/m3               : NPHI
RHOB .g/cm3               : RHOB
GR .gAPI                  : GR
DTC .us/ft                : DTC
RDEP .ohm.m               : RDEP
SP .mV                    : SP
RSHA .ohm.m               : RSHA
RMED .ohm.m               : RMED
~Parameter
#==================================================================
~Ascii
# ...
 1567.7875977  -999.250000 18.317508698  -999.250000  -999.250000  -999.250000  -999.250000 164.78823853 0.5002154112 35.890365601 0.5968818665 0.4605464339
 1567.9400635  -999.250000 18.307395935  -999.250000  -999.250000  -999.250000  -999.250000 164.29214478 0.4990015030 35.379512787 0.5234080553 0.4651709199
 1568.0924072  -999.250000 18.081867218  -999.250000  -999.250000  -999.250000  -999.250000 163.99708557 0.4965097308 34.590126038 0.5382994413 0.4665192962
 1568.2448730  -999.250000 17.951847076  -999.250000  -999.250000  -999.250000  -999.250000 164.36654663 0.4943816662 34.338588715 0.6806615591 0.4617575407
 1568.3972168  -999.250000 17.962501526  -999.250000  -999.250000  -999.250000  -999.250000 164.64375305 0.4966779947 34.172092438 0.6971879005 0.4539505243
 1568.5496826  -999.250000 17.983734131  -999.250000  -999.250000  -999.250000  -999.250000 164.24081421 0.5007971525 34.666923523 0.6620652676 0.4484244585
 1568.7020264  -999.250000 17.903743744  -999.250000  -999.250000  -999.250000  -999.250000 164.25878906 0.5019354820 34.790420532 0.6792739630 0.4490623474
 1568.8543701  -999.250000 17.941326141  -999.250000  -999.250000  -999.250000  -999.250000 164.24093628 0.5017193556 33.684185028 0.6222381592 0.4554855227
 1569.0068359  -999.250000 17.998748779  -999.250000  -999.250000  -999.250000  -999.250000 164.20819092 0.5027087927 32.572620392 0.5238521099 0.4640355706
 1569.1591797  -999.250000 17.887432098  -999.250000  -999.250000  -999.250000  -999.250000 164.76287842 0.5019017458 32.159412384 0.5913037062 0.4710534811
 1569.3116455  -999.250000 17.893753052  -999.250000  -999.250000  -999.250000  -999.250000 164.94430542 0.5020128489 33.453445435 0.6516007185 0.4746468067
 1569.4639893  -999.250000 18.050064087  -999.250000  -999.250000  -999.250000  -999.250000 164.85192871 0.5056996346 33.769680023 0.6467648745 0.4755859375
 1569.6164551  -999.250000 18.238754272  -999.250000  -999.250000  -999.250000  -999.250000 164.84780884 0.5083190203 33.223171234 0.6995959282 0.4750782251
 1569.7687988  -999.250000 18.254367828  -999.250000  -999.250000  -999.250000  -999.250000 164.64422607 0.5090423822 33.855319977 0.7058552504 0.4738469720
 1569.9212646  -999.250000 18.098690033  -999.250000  -999.250000  -999.250000  -999.250000 164.44772339 0.5092765093 34.066406250 0.6727378368 0.4721292853
 1570.0736084  -999.250000 17.884990692  -999.250000  -999.250000  -999.250000  -999.250000 164.19219971 0.5087718964 34.066047668 0.6681689024 0.4704312086
 1570.2260742  -999.250000 17.806919098  -999.250000  -999.250000  -999.250000  -999.250000 163.74072266 0.5088092089 34.223674774 0.6963229179 0.4692186713
 1570.3784180  -999.250000 17.981258392  -999.250000  -999.250000  -999.250000  -999.250000 163.55273438 0.5100365877 35.406650543 0.6750782728 0.4682403207
 1570.5308838  -999.250000 17.955513000  -999.250000  -999.250000  -999.250000  -999.250000 163.96356201 0.5104886293 36.289630890 0.6976376772 0.4665030837
 1570.6832275  -999.250000 18.055637360  -999.250000  -999.250000  -999.250000  -999.250000 164.40312195 0.5102542639 35.802425385 0.7469313145 0.4635593295
 1570.8355713  -999.250000 18.159915924  -999.250000  -999.250000  -999.250000  -999.250000 164.13684082 0.5105067492 36.491081238 0.7066316605 0.4614094496
 1570.9880371  -999.250000 18.046249390  -999.250000  -999.250000  -999.250000  -999.250000 163.79974365 0.5104944706 39.080146790 0.6863275766 0.4622110128
 1571.1403809  -999.250000 18.031250000  -999.250000  -999.250000  -999.250000  -999.250000 163.69569397 0.5125427246 38.872695923 0.6818493605 0.4666867852
 1571.2928467  -999.250000 18.169384003  -999.250000  -999.250000  -999.250000  -999.250000 163.44390869 0.5169323683 36.091815948 0.6550276279 0.4737878442
 1571.4451904  -999.250000 18.231769562  -999.250000  -999.250000  -999.250000  -999.250000 163.09234619 0.5205640793 34.774356842 0.6801546812 0.4808347821
 1571.5976563  -999.250000 18.147480011  -999.250000  -999.250000  -999.250000  -999.250000 162.89913940 0.5227308273 34.409622192 0.6744645834 0.4856597185
 1571.7500000  -999.250000 18.043743134  -999.250000  -999.250000  -999.250000  -999.250000 162.53698730 0.5231829882 34.306854248 0.5901734829 0.4883185625
 1571.9024658  -999.250000 17.985012054  -999.250000  -999.250000  -999.250000  -999.250000 162.25224304 0.5224401951 34.829978943 0.5596208572 0.4895104766
 1572.0548096  -999.250000 17.934993744  -999.250000  -999.250000  -999.250000  -999.250000 162.50836182 0.5207041502 34.873966217 0.6378844976 0.4892353415
 1572.2072754  -999.250000 17.931919098  -999.250000  -999.250000  -999.250000  -999.250000 163.32304382 0.5177568197 33.439373016 0.6929129362 0.4859709144
 1572.3596191  -999.250000 17.976249695  -999.250000  -999.250000  -999.250000  -999.250000 164.10711670 0.5156041384 32.275909424 0.7197740078 0.4783182144
 1572.5120850  -999.250000 17.863040924  -999.250000  -999.250000  -999.250000  -999.250000 164.14422607 0.5141218901 32.418373108 0.7638206482 0.4677949548
 1572.6644287  -999.250000 17.822502136  -999.250000  -999.250000  -999.250000  -999.250000 163.99972534 0.5126757622 32.881809235 0.7344012260 0.4578432441
 1572.8168945  -999.250000 17.915657043  -999.250000  -999.250000  -999.250000  -999.250000 163.84500122 0.5111901760 33.922702789 0.7068349123 0.4518417120
 1572.9692383  -999.250000 17.936874390  -999.250000  -999.250000  -999.250000  -999.250000 164.11473083 0.5079715252 35.137767792 0.6586210728 0.4512138963
 1573.1215820  -999.250000 17.832427979  -999.250000  -999.250000  -999.250000  -999.250000 164.50064087 0.5040804148 35.472213745 0.6226170063 0.4546903372
 1573.2740479  -999.250000 17.798751831  -999.250000  -999.250000  -999.250000  -999.250000 164.75958252 0.5011718273 34.246009827 0.6857789755 0.4590604901
 1573.4263916  -999.250000 17.835609436  -999.250000  -999.250000  -999.250000  -999.250000 164.99996948 0.4987324476 33.499374390 0.7130323648 0.4616980553
 1573.5788574  -999.250000 17.828125000  -999.250000  -999.250000  -999.250000  -999.250000 165.31042480 0.4968022108 35.047592163 0.6980882883 0.4616398811
 1573.7312012  -999.250000 17.901252747  -999.250000  -999.250000  -999.250000  -999.250000 165.44332886 0.4971107244 35.789585114 0.7388584614 0.4594145417
 1573.8836670  -999.250000 17.952484131  -999.250000  -999.250000  -999.250000  -999.250000 164.88497925 0.4995695353 35.390907288 0.6998014450 0.4567386508
 1574.0360107  -999.250000 17.896869659  -999.250000  -999.250000  -999.250000  -999.250000 164.70767212 0.5019882917 36.444118500 0.6461676359 0.4545530677
 1574.1884766  -999.250000 17.900032043  -999.250000  -999.250000  -999.250000  -999.250000 165.10670471 0.5024189949 37.225952148 0.6712073088 0.4531066418
 1574.3408203  -999.250000 17.904998779  -999.250000  -999.250000  -999.250000  -999.250000 165.04055786 0.5006831884 37.314460754 0.6836026907 0.4526367188
 1574.4932861  -999.250000 17.858734131  -999.250000  -999.250000  -999.250000  -999.250000 164.85223389 0.4984968901 36.838211060 0.7193020582 0.4526363015
 1574.6456299  -999.250000 17.908752441  -999.250000  -999.250000  -999.250000  -999.250000 165.10693359 0.4970536232 35.566310883 0.6733734608 0.4523828030
 1574.7980957  -999.250000 18.001274109  -999.250000  -999.250000  -999.250000  -999.250000 165.04043579 0.4973423481 34.544570923 0.6139310598 0.4516409636
 1574.9504395  -999.250000 18.120628357  -999.250000  -999.250000  -999.250000  -999.250000 164.69609070 0.4982999563 33.741596222 0.6420776844 0.4506644011
 1575.1027832  -999.250000 18.056755066  -999.250000  -999.250000  -999.250000  -999.250000 164.49670410 0.4985327721 34.685764313 0.6858615875 0.4496873021
 1575.2552490  -999.250000 17.962501526  -999.250000  -999.250000  -999.250000  -999.250000 164.65957642 0.4975171089 35.404857635 0.6230828762 0.4489648342
 1575.4075928  -999.250000 18.048828125  -999.250000  -999.250000  -999.250000  -999.250000 164.89999390 0.4940468669 35.195632935 0.6107136011 0.4484769702
