# LAS format log file from PETREL
# Project units are specified as depth units
#==================================================================
~Version information
VERS.   2.0:
WRAP.   NO:
#==================================================================
~Well
STRT .m      377.87487793 :
STOP .m      3151.8757324 :
STEP .m     0.00000000 :
NULL .        -999.250000 :
COMP.           : COMPANY
WELL.  34/7-5   : WELL
FLD.            : FIELD
LOC.            : LOCATION
SRVC.           : SERVICE COMPANY
DATE.  2018-09-11 14:48:52   : Log Export Date {yyyy-MM-dd HH:mm:ss}
PROV.           : PROVINCE
UWI.   34/7-5   : UNIQUE WELL ID
API.            : API NUMBER
#==================================================================
~Curve
DEPT .m                   : DEPTH
Lithology_geolink ._      : Lithology_geolink
CALI .in                  : CALI
DRHO .g/cm3               : DRHO
NPHI .m3/m3               : NPHI
RHOB .g/cm3               : RHOB
GR .gAPI                  : GR
DTC .us/ft                : DTC
RDEP .ohm.m               : RDEP
SP .mV                    : SP
RSHA .ohm.m               : RSHA
RMED .ohm.m               : RMED
~Parameter
#==================================================================
~Ascii
# ...
 932.49993896  -999.250000 17.392000198 0.0989999995  -999.250000 2.2100000381 37.655998230 130.91700745 2.1370000839 60.066001892 1.3949999809 1.3949999809
 932.62487793  -999.250000 17.357000351 0.0890000015  -999.250000 2.2030000687 36.657001495 132.65400696 2.1429998875 60.469001770 1.3910000324 1.3910000324
 932.74981689  -999.250000 17.443000793 0.0829999968  -999.250000 2.2070000172 36.058998108 133.92100525 2.1419999599 60.522998810 1.3830000162 1.3830000162
 932.87518311  -999.250000 17.736000061 0.0820000023  -999.250000 2.2149999142 35.755001068 134.91499329 2.1359999180 60.435001373 1.3750000000 1.3750000000
 933.00012207  -999.250000 18.298000336 0.0820000023  -999.250000 2.2230000496 35.312999725 135.90899658 2.1289999485 60.221000671 1.3669999838 1.3669999838
 933.12506104  -999.250000 18.986000061 0.0829999968  -999.250000 2.2239999771 35.296001434 136.83900452 2.1059999466 59.891998291 1.3710000515 1.3710000515
 933.25006104  -999.250000 19.826000214 0.0810000002  -999.250000 2.2179999352 34.844001770 137.03399658 2.0810000896 59.562000275 1.3760000467 1.3760000467
 933.37500000  -999.250000 20.500000000 0.0740000010  -999.250000 2.2119998932 34.527999878 136.71800232 2.0690000057 59.449001312 1.3919999599 1.3919999599
 933.50000000  -999.250000 20.820999146 0.0640000030  -999.250000 2.2130000591 34.414001465 136.13800049 2.0559999943 59.542999268 1.4270000458 1.4270000458
 933.62493896  -999.250000 21.111999512 0.0570000000  -999.250000 2.2200000286 34.312999725 135.56300354 2.0559999943 59.667999268 1.4559999704 1.4559999704
 933.75000000  -999.250000 21.268999100 0.0570000000  -999.250000 2.2260000706 34.470001221 135.35099792 2.0659999847 59.858001709 1.4670000076 1.4670000076
 933.87493896  -999.250000 21.291999817 0.0579999983  -999.250000 2.2279999256 34.550998688 135.57800293 2.0899999142 60.048999786 1.4579999447 1.4579999447
 933.99987793  -999.250000 21.290000916 0.0549999997  -999.250000 2.2209999561 34.650001526 135.86300659 2.1199998856 60.243000031 1.4479999542 1.4479999542
 934.12512207  -999.250000 21.285999298 0.0469999984  -999.250000 2.2130000591 34.104000092 136.17300415 2.1340000629 60.469001770 1.3860000372 1.3860000372
 934.25012207  -999.250000 21.281999588 0.0390000008  -999.250000 2.2049999237 32.681999207 135.78700256 2.1419999599 60.606998444 1.3350000381 1.3350000381
 934.37506104  -999.250000 21.277999878 0.0359999985  -999.250000 2.2000000477 31.489999771 134.98500061 2.1380000114 60.556999207 1.3200000525 1.3200000525
 934.50006104  -999.250000 21.274999619 0.0390000008  -999.250000 2.2049999237 30.715999603 134.14599609 2.1089999676 60.506999969 1.3339999914 1.3339999914
 934.62500000  -999.250000 21.270999908 0.0450000018  -999.250000 2.2070000172 30.545999527 133.06199646 2.0789999962 60.458000183 1.3519999981 1.3519999981
 934.75000000  -999.250000 21.267999649 0.0520000011  -999.250000 2.2100000381 31.080999374 131.67500305 2.0539999008 60.404998779 1.3680000305 1.3680000305
 934.87493896  -999.250000 21.266000748 0.0540000014  -999.250000 2.2130000591 31.663999557 131.57699585 2.0650000572 60.348999023 1.3719999790 1.3719999790
 934.99987793  -999.250000 21.264999390 0.0489999987  -999.250000 2.2160000801 31.606000900 132.81799316 2.1080000401 60.292999268 1.3750000000 1.3750000000
 935.12481689  -999.250000 21.263999939 0.0439999998  -999.250000 2.2200000286 30.886999130 135.01400757 2.1480000019 60.160999298 1.3789999485 1.3789999485
 935.25006104  -999.250000 21.263000488 0.0359999985  -999.250000 2.2130000591 30.479000092 136.33299255 2.1840000153 59.749000549 1.3819999695 1.3819999695
 935.37512207  -999.250000 21.261999130 0.0270000007  -999.250000 2.2060000896 30.350000381 137.00199890 2.2190001011 59.450000763 1.3839999437 1.3839999437
 935.50006104  -999.250000 21.260999680 0.0230000000  -999.250000 2.2030000687 30.468999863 136.51899719 2.2360000610 59.688999176 1.3860000372 1.3860000372
 935.62506104  -999.250000 21.260999680 0.0230000000  -999.250000 2.2070000172 30.864999771 135.94400024 2.2439999580 60.338001251 1.3869999647 1.3869999647
 935.75000000  -999.250000 21.260000229 0.0260000005  -999.250000 2.2139999866 31.468000412 135.00100708 2.2500000000 61.006999969 1.3890000582 1.3890000582
 935.87500000  -999.250000 21.259000778 0.0289999992  -999.250000 2.2209999561 32.117000580 133.86900330 2.2409999371 61.676998138 1.3910000324 1.3910000324
 935.99993896  -999.250000 21.259000778 0.0329999998  -999.250000 2.2269999981 32.619998932 132.46099854 2.2279999256 62.105998993 1.3930000067 1.3930000067
 936.12500000  -999.250000 21.260999680 0.0359999985  -999.250000 2.2330000401 32.563999176 130.37899780 2.1789999008 62.056999207 1.3949999809 1.3949999809
 936.24981689  -999.250000 21.263000488 0.0379999988  -999.250000 2.2360000610 32.462001801 129.02299500 2.1210000515 61.610000610 1.3810000420 1.3810000420
 936.37487793  -999.250000 21.264999390 0.0370000005  -999.250000 2.2360000610 32.374000549 127.96099854 2.0729999542 61.089000702 1.3660000563 1.3660000563
 936.50012207  -999.250000 21.267000198 0.0359999985  -999.250000 2.2349998951 32.376998901 127.17501068 2.0329999924 60.337001801 1.3450000286 1.3450000286
 936.62512207  -999.250000 21.268999100 0.0329999998  -999.250000 2.2320001125 32.444999695 127.77300262 1.9930000305 59.594001770 1.3179999590 1.3179999590
 936.75006104  -999.250000 21.270999908 0.0299999993  -999.250000 2.2290000916 32.590999603 130.75199890 1.9809999466 59.195999146 1.2910000086 1.2910000086
 936.87506104  -999.250000 21.277999878 0.0320000015  -999.250000 2.2260000706 33.057998657 133.76899719 1.9809999466 59.376998901 1.2660000324 1.2660000324
 937.00000000  -999.250000 21.290000916 0.0350000001  -999.250000 2.2219998837 34.523998260 136.48599243 1.9809999466 60.070999146 1.2699999809 1.2699999809
 937.12500000  -999.250000 21.302000046 0.0390000008  -999.250000 2.2139999866 36.888999939 139.04200745 1.9809999466 60.868999481 1.2730000019 1.2730000019
 937.24993896  -999.250000 21.295000076 0.0439999998  -999.250000 2.2039999962 38.564998627 140.91299438 1.9809999466 61.338001251 1.2730000019 1.2730000019
 937.37493896  -999.250000 21.263000488 0.0439999998  -999.250000 2.1949999332 39.769001007 140.87600708 1.9809999466 61.498001099 1.2790000439 1.2790000439
 937.49987793  -999.250000 21.214998245 0.0379999988  -999.250000 2.1860001087 40.549999237 139.65600586 1.9769999981 61.500999451 1.2990000248 1.2990000248
 937.62506104  -999.250000 21.150999069 0.0260000005  -999.250000 2.1770000458 41.326000214 137.60299683 1.9709999561 61.504001617 1.3140000105 1.3140000105
 937.75012207  -999.250000 21.086999893 0.0149999997  -999.250000 2.1559998989 42.180999756 135.38200378 1.9630000591 61.529998779 1.3240000010 1.3240000010
 937.87506104  -999.250000 21.021999359 0.0030000000  -999.250000 2.1370000839 42.736999512 133.68099976 1.9379999638 61.874000549 1.3309999704 1.3309999704
 938.00006104  -999.250000 20.958000183 -0.009000000  -999.250000 2.1319999695 43.116001129 132.97799683 1.8819999695 62.641002655 1.3159999847 1.3159999847
 938.12500000  -999.250000 20.913999557 -0.018999999  -999.250000 2.1319999695 42.405998230 132.66400146 1.8129999638 63.643001556 1.2840000391 1.2840000391
 938.25000000  -999.250000 20.938999176 -0.018999999  -999.250000 2.1370000839 39.842998505 133.58999634 1.7319999933 64.646003723 1.2450000048 1.2450000048
 938.37493896  -999.250000 21.010002136 -0.007000000  -999.250000 2.1459999084 37.389999390 135.45799255 1.6430000067 65.461997986 1.2020000219 1.2020000219
 938.49987793  -999.250000 21.076000214 0.0040000002  -999.250000 2.1570000648 34.972999573 139.62699890 1.5559999943 65.882003784 1.1579999924 1.1579999924
 938.62481689  -999.250000 21.127000809 0.0040000002  -999.250000 2.1679999828 30.537000656 141.49499512 1.4780000448 66.030998230 1.1160000563 1.1160000563
 938.74987793  -999.250000 21.152000427 -0.001000000  -999.250000 2.1800000668 28.819000244 143.01600647 1.4010000229 66.083999634 1.0759999752 1.0759999752
