# LAS format log file from PETREL
# Project units are specified as depth units
#==================================================================
~Version information
VERS.   2.0:
WRAP.   NO:
#==================================================================
~Well
STRT .m      417.47238159 :
STOP .m      3182.7705078 :
STEP .m     0.00000000 :
NULL .        -999.250000 :
COMP.           : COMPANY
WELL.  34/7-20   : WELL
FLD.            : FIELD
LOC.            : LOCATION
SRVC.           : SERVICE COMPANY
DATE.  2018-09-11 14:48:52   : Log Export Date {yyyy-MM-dd HH:mm:ss}
PROV.           : PROVINCE
UWI.   34/7-20   : UNIQUE WELL ID
API.            : API NUMBER
#==================================================================
~Curve
DEPT .m                   : DEPTH
Lithology_geolink ._      : Lithology_geolink
CALI .in                  : CALI
DRHO .g/cm3               : DRHO
NPHI .m3/m3               : NPHI
RHOB .g/cm3               : RHOB
GR .gAPI                  : GR
DTC .us/ft                : DTC
RDEP .ohm.m               : RDEP
SP .mV                    : SP
RSHA .ohm.m               : RSHA
RMED .ohm.m               : RMED
~Parameter
#==================================================================
~Ascii
# ...
 2640.3786621 3.0000000000 11.828125000 -0.028097147 0.2861821055 2.1915075779 87.892288208 96.762496948 0.7650396824 119.54827881 0.2371466458 0.4826408625
 2640.5312500 3.0000000000 11.828125000 -0.029046915 0.3021177948 2.1834151745 88.966438293 98.257125854 0.7300087214 119.99271393 0.2306592464 0.4630099535
 2640.6835938 3.0000000000 11.828125000 -0.027947359 0.3121753931 2.1804802418 91.727470398 99.940979004 0.6818655729 120.72229767 0.2240138948 0.4401279688
 2640.8359375 3.0000000000 11.828125000 -0.025270831 0.3206476569 2.1852984428 93.257354736 101.25587463 0.6413400173 121.37997437 0.2201463878 0.4196769595
 2640.9882813 3.0000000000 11.828125000 -0.024411062 0.3332743943 2.1883816719 91.033035278 102.02850342 0.6466480494 121.46225739 0.2192114890 0.4225133061
 2641.1406250 3.0000000000 11.828125000 -0.033363510 0.3472310603 2.1263222694 90.540725708 101.99121094 0.7081044912 121.13570404 0.2305650711 0.4600920677
 2641.2932129 3.0000000000 11.828125000 -0.039973754 0.3495743573 2.0831875801 93.412864685 100.59291077 0.7931435108 120.75239563 0.2587457895 0.5102578402
 2641.4455566 3.0000000000 11.828125000 -0.035497304 0.3355637491 2.1042897701 95.201148987 98.130004883 0.8632336855 120.40410614 0.2698425055 0.5550478697
 2641.5979004 3.0000000000 11.828125000 -0.025308263 0.3161668479 2.1449775696 95.900093079 95.708206177 0.9091312885 120.27984619 0.2555891871 0.5918220282
 2641.7502441 4.0000000000 11.828125000 -0.017950533 0.3019679189 2.1624777317 97.434814453 93.783676147 0.9440758228 120.52510834 0.2558324337 0.6222366095
 2641.9028320 4.0000000000 11.828125000 -0.015661299 0.2939513326 2.1967251301 102.14405060 92.498306274 0.9881529808 120.94575500 0.2890484333 0.6538031101
 2642.0551758 4.0000000000 11.828125000 -0.013987394 0.2959917486 2.2495372295 104.53072357 92.425918579 1.0761883259 121.42841339 0.3276064992 0.6996854544
 2642.2075195 4.0000000000 11.828125000 -0.013273304 0.3152473569 2.2867903709 104.94420624 93.528305054 1.2016427517 122.03211212 0.3453683853 0.7775145769
 2642.3598633 3.0000000000 11.832046509 -0.014264297 0.3405319154 2.2978119850 104.99020386 94.803192139 1.2935099602 122.42456818 0.3532356024 0.8567678928
 2642.5124512 3.0000000000 11.831956863 -0.015499353 0.3524814546 2.3041224480 100.29254913 95.443344116 1.3044095039 122.25937653 0.3864425421 0.8765507936
 2642.6647949 3.0000000000 11.828323364 -0.016231656 0.3470112681 2.3075714111 92.399902344 95.462844849 1.2484171391 121.85047913 0.4382696748 0.8471192122
 2642.8171387 3.0000000000 11.828125954 -0.018937854 0.3287258148 2.2838490009 87.466232300 95.041465759 1.1699364185 121.62141418 0.4334740043 0.8021469116
 2642.9694824 3.0000000000 11.828125000 -0.023308203 0.3060704470 2.2446353436 86.090904236 94.332794189 1.0959479809 121.53899384 0.3765130043 0.7565668821
 2643.1218262 3.0000000000 11.828125000 -0.027569622 0.2907597423 2.2190089226 88.264808655 93.505569458 1.0385844707 121.54033661 0.3559635878 0.7264653444
 2643.2744141 3.0000000000 11.828125000 -0.026340986 0.2860799432 2.2588191032 92.158386230 92.763702393 1.0299758911 121.73168945 0.4238573909 0.7226498127
 2643.4267578 4.0000000000 11.828125000 -0.022066988 0.2887202501 2.3270339966 98.153030396 92.178207397 1.1139791012 122.12141418 0.5788263083 0.7723708153
 2643.5791016 4.0000000000 11.828125000 -0.019327691 0.2949521244 2.3700826168 104.00453186 91.532608032 1.2937111855 122.58159637 0.6599428654 0.8893615007
 2643.7314453 4.0000000000 11.828125000 -0.019294830 0.3005002737 2.3823881149 108.13301849 90.861572266 1.5345795155 123.04053497 0.6565485001 1.0537705421
 2643.8840332 4.0000000000 11.828125000 -0.021740586 0.3022584021 2.3920476437 112.82222748 90.539367676 1.7507567406 123.30775452 0.7733569145 1.1959497929
 2644.0363770 4.0000000000 11.828125000 -0.025067804 0.3000887632 2.4224731922 113.61294556 90.813240051 1.7871143818 122.87644196 0.9881699085 1.2008171082
 2644.1887207 5.0000000000 11.828125000 -0.027740231 0.2960916758 2.4487845898 109.90080261 91.531936646 1.6085622311 121.63628387 1.1428253651 1.0754728317
 2644.3410645 5.0000000000 11.828125000 -0.032447979 0.2899650633 2.4244964123 104.24633026 92.276962280 1.3691339493 120.38112640 1.0813052654 0.9481084347
 2644.4936523 4.0000000000 11.828125000 -0.038905296 0.2815909982 2.3450415134 99.167221069 92.754791260 1.2230753899 119.88968658 0.7751280069 0.8766918182
 2644.6459961 4.0000000000 11.828125000 -0.038869329 0.2751469910 2.2793254852 94.545654297 92.808105469 1.1693143845 120.00852203 0.4829534888 0.8373701572
 2644.7983398 4.0000000000 11.828125000 -0.036965728 0.2706195116 2.2406361103 88.659706116 92.249771118 1.1530637741 120.30189514 0.3449124694 0.8155832291
 2644.9506836 4.0000000000 11.828125000 -0.034581717 0.2660902143 2.2215251923 85.695060730 91.428329468 1.1485841274 120.51034546 0.2945054770 0.8064591885
 2645.1030273 3.0000000000 11.828125000 -0.029909289 0.2635563016 2.2218220234 86.971351624 91.033676147 1.1147217751 120.52958679 0.2733803988 0.7853103876
 2645.2556152 3.0000000000 11.828125000 -0.022464734 0.2657470703 2.2382507324 89.291465759 91.001617432 1.0329182148 120.51699066 0.2577158213 0.7386360168
 2645.4079590 3.0000000000 11.828125000 -0.018424604 0.2723963559 2.2591681480 91.570869446 91.000823975 0.9651197195 120.65404510 0.2601599097 0.7025128603
 2645.5603027 3.0000000000 11.828125000 -0.017564103 0.2784089148 2.2795412540 93.673698425 91.071121216 0.9808360338 120.96990967 0.2740861773 0.7175507545
 2645.7126465 3.0000000000 11.828125000 -0.018932257 0.2795848846 2.2934312820 94.130104065 91.319969177 1.0662381649 121.33248901 0.2844549417 0.7698935270
 2645.8652344 3.0000000000 11.828125000 -0.023301577 0.2756890059 2.2958595753 92.892623901 91.528068542 1.1499595642 121.48568726 0.2894384861 0.8158901930
 2646.0175781 3.0000000000 11.828125000 -0.029869039 0.2708697915 2.2847173214 92.033607483 91.305435181 1.1822226048 121.19382477 0.2919127941 0.8319222927
 2646.1699219 3.0000000000 11.828125000 -0.030953733 0.2706632614 2.2669141293 90.662666321 90.737640381 1.1779448986 120.66522980 0.2885255814 0.8242366314
 2646.3222656 3.0000000000 11.828125000 -0.028332489 0.2733969986 2.2553792000 88.348442078 90.219451904 1.1579160690 120.38468933 0.2779738307 0.8075724840
 2646.4748535 3.0000000000 11.828125000 -0.025593661 0.2737835348 2.2569708824 86.295730591 89.984664917 1.1146988869 120.51389313 0.2674511671 0.7888072729
 2646.6271973 3.0000000000 11.828125000 -0.025012974 0.2711593509 2.2659280300 84.937271118 89.932258606 1.0667247772 120.66329193 0.2656884193 0.7692075968
 2646.7795410 3.0000000000 11.828125000 -0.025884973 0.2681739032 2.2658402920 84.648406982 89.897697449 1.0413610935 120.42646790 0.2728729844 0.7551742792
 2646.9318848 3.0000000000 11.828125000 -0.025120357 0.2659415007 2.2624578476 84.348663330 89.863571167 1.0417394638 119.96066284 0.2780201435 0.7587991953
 2647.0844727 3.0000000000 11.828125000 -0.024085311 0.2630000412 2.2585930824 83.946464539 89.823928833 1.0508875847 119.71729279 0.2732648253 0.7711887360
 2647.2368164 3.0000000000 11.828125000 -0.024920419 0.2589904368 2.2535936832 84.397743225 89.744277954 1.0383582115 119.86389923 0.2671126723 0.7653100491
 2647.3891602 3.0000000000 11.828125000 -0.028360533 0.2548822761 2.2437541485 84.041229248 89.629165649 0.9945392609 120.14636993 0.2670980096 0.7404861450
 2647.5415039 3.0000000000 11.828125000 -0.029480245 0.2513734698 2.2400970459 83.169120789 90.248718262 0.9370567799 120.29063416 0.2661262155 0.7115982771
 2647.6938477 3.0000000000 11.828125000 -0.027349560 0.2495259792 2.2457225323 84.387313843 92.767639160 0.8926707506 120.25597382 0.2598869801 0.6891025305
 2647.8464355 3.0000000000 11.828125000 -0.024438575 0.2501646876 2.2500874996 86.700958252 95.944023132 0.8773102760 120.13848114 0.2530560493 0.6849281788
 2647.9987793 3.0000000000 11.828125000 -0.023082599 0.2527847588 2.2479362488 87.727775574 96.126953125 0.8880715370 120.01382446 0.2510169744 0.7003613710
