# LAS format log file from PETREL
# Project units are specified as depth units
#==================================================================
~Version information
VERS.   2.0:
WRAP.   NO:
#==================================================================
~Well
STRT .m      417.47238159 :
STOP .m      3182.7705078 :
STEP .m     0.00000000 :
NULL .        -999.250000 :
COMP.           : COMPANY
WELL.  34/7-20   : WELL
FLD.            : FIELD
LOC.            : LOCATION
SRVC.           : SERVICE COMPANY
DATE.  2018-09-11 14:48:52   : Log Export Date {yyyy-MM-dd HH:mm:ss}
PROV.           : PROVINCE
UWI.   34/7-20   : UNIQUE WELL ID
API.            : API NUMBER
#==================================================================
~Curve
DEPT .m                   : DEPTH
Lithology_geolink ._      : Lithology_geolink
CALI .in                  : CALI
DRHO .g/cm3               : DRHO
NPHI .m3/m3               : NPHI
RHOB .g/cm3               : RHOB
GR .gAPI                  : GR
DTC .us/ft                : DTC
RDEP .ohm.m               : RDEP
SP .mV                    : SP
RSHA .ohm.m               : RSHA
RMED .ohm.m               : RMED
~Parameter
#==================================================================
~Ascii
# ...
 2772.5095215 6.0000000000 11.828125000 -0.024742633 0.3067701757 2.3600797653 115.17268372 94.516113281 1.5284593105 189.50282288 0.4607690573 1.3576786518
 2772.6618652 6.0000000000 11.828125000 -0.023853388 0.3082680106 2.3850138187 117.30361176 93.776313782 1.6393277645 189.61920166 0.4328266978 1.4368715286
 2772.8142090 6.0000000000 11.828125000 -0.021354485 0.3139338195 2.4010164738 117.70063019 93.364028931 1.8007361889 189.69494629 0.5077602863 1.5745916367
 2772.9667969 6.0000000000 11.828125000 -0.020553110 0.3224949539 2.3970019817 117.54788971 93.630317688 1.9453861713 189.58802795 0.6763973236 1.7065966129
 2773.1191406 6.0000000000 11.828125000 -0.024090288 0.3274060190 2.3747212887 115.97772217 94.148284912 2.0209550858 189.33718872 0.7758169174 1.7620663643
 2773.2714844 6.0000000000 11.828125000 -0.028077940 0.3219679296 2.3617858887 112.14366150 94.411010742 2.0101943016 189.15705872 0.7843416929 1.7398846149
 2773.4238281 6.0000000000 11.828125000 -0.028891575 0.3115983903 2.3598840237 110.26351166 94.105941772 1.9484443665 189.16766357 0.6943302155 1.6974728107
 2773.5764160 6.0000000000 11.831652641 -0.030197699 0.3080781996 2.3553967476 110.90233612 93.453277588 1.8831584454 189.21931458 0.5679830313 1.6696856022
 2773.7287598 6.0000000000 11.831713676 -0.032541543 0.3155588508 2.3467147350 112.21669006 93.795486450 1.8307621479 189.01716614 0.6089752913 1.6450080872
 2773.8811035 5.0000000000 11.832357407 -0.033665609 0.3269647956 2.3386313915 111.49665833 93.992889404 1.7981927395 188.39248657 0.6943544149 1.6201393604
 2774.0334473 5.0000000000 11.831808090 -0.028629895 0.3327378035 2.3443708420 112.86523438 93.811203003 1.7861447334 187.44473267 0.6576204300 1.6138024330
 2774.1857910 5.0000000000 11.828183174 -0.021703398 0.3288927376 2.3590323925 114.04021454 93.730354309 1.7811076641 186.44853210 0.5873228312 1.6222436428
 2774.3383789 5.0000000000 11.828125000 -0.016892828 0.3188502491 2.3615353107 112.34577942 94.072692871 1.7695186138 185.35032654 0.5745674372 1.6260690689
 2774.4907227 5.0000000000 11.828125000 -0.014534661 0.3110319078 2.3401086330 110.12683105 94.731750488 1.7343533039 183.53150940 0.6054898500 1.6071734428
 2774.6430664 5.0000000000 11.828125000 -0.014165156 0.3073790073 2.3152790070 111.99874115 94.943054199 1.6693708897 180.91654968 0.6448982954 1.5586223602
 2774.7954102 5.0000000000 11.828125000 -0.018449845 0.3064197302 2.3055591583 113.07973480 94.994583130 1.5841825008 178.45436096 0.6184958220 1.4938848019
 2774.9479980 5.0000000000 11.828125000 -0.025235308 0.3084909022 2.3127281666 113.38557434 94.705139160 1.4850902557 176.85902405 0.4844878316 1.4263379574
 2775.1003418 5.0000000000 11.828125000 -0.029825153 0.3131609261 2.3388476372 114.54507446 94.584030151 1.4048001766 176.02998352 0.3976516724 1.3620090485
 2775.2526855 6.0000000000 11.828125000 -0.028380033 0.3192533851 2.3732719421 116.26462555 94.723999023 1.4030752182 175.70269775 0.3979010582 1.3223302364
 2775.4050293 6.0000000000 11.828125000 -0.024423625 0.3262075782 2.3758537769 115.78887177 94.653869629 1.4880647659 175.77326965 0.4237045646 1.3486690521
 2775.5576172 6.0000000000 11.828125000 -0.021767408 0.3333634138 2.3692717552 114.13973999 94.411270142 1.6140854359 176.15084839 0.4861143231 1.4434764385
 2775.7099609 5.0000000000 11.828125000 -0.020058703 0.3373971581 2.3729927540 113.63613892 94.220184326 1.7417125702 176.63722229 0.5765218735 1.5563375950
 2775.8623047 5.0000000000 11.828125000 -0.019363264 0.3332463205 2.3906657696 115.42916107 94.283462524 1.8705899715 177.00094604 0.6609065533 1.6666479111
 2776.0146484 5.0000000000 11.828125000 -0.018852582 0.3165061176 2.4205808640 117.37730408 94.098144531 2.0346627235 177.08491516 0.6546497345 1.8101449013
 2776.1669922 5.0000000000 11.828125000 -0.015970888 0.2889252603 2.4693138599 116.39906311 92.131668091 2.2791538239 177.07975769 0.6471872330 2.0219664574
 2776.3195801 5.0000000000 11.828125000 -0.014592343 0.2576082349 2.5083611012 112.71070862 87.998611450 2.6220774651 177.31730652 0.7989073992 2.2827415466
 2776.4719238 5.0000000000 11.828125000 -0.018401276 0.2297124416 2.5062682629 108.85826874 83.695793152 2.9732222557 177.71122742 2.8032875061 2.5572729111
 2776.6242676 16.000000000 11.828125000 -0.021503961 0.2108028382 2.4589285851 107.47928619 80.984008789 3.2342877388 177.97457886 9.2623462677 2.8120188713
 2776.7766113 16.000000000 11.828125000 -0.010857311 0.2071735412 2.4280776978 108.99366760 80.255050659 3.3475012779 177.97689819 15.938858032 2.9215698242
 2776.9291992 6.0000000000 11.828125000 -0.006672824 0.2235896736 2.4176421165 109.83476257 81.092224121 3.1328687668 177.82002258 14.153043747 2.7125878334
 2777.0815430 6.0000000000 11.828125000 -0.008807778 0.2497898042 2.4021871090 109.95163727 82.653869629 2.6134529114 177.66629028 6.2387123108 2.2222304344
 2777.2338867 6.0000000000 11.828125000 -0.012142144 0.2648642659 2.3763210773 110.09930420 84.199890137 2.1148366928 177.68249512 1.6677732468 1.7683024406
 2777.3862305 6.0000000000 11.828125000 -0.011750700 0.2717673481 2.3620550632 110.61578369 85.575836182 1.8035578728 178.00402832 0.9914915562 1.5796091557
 2777.5388184 5.0000000000 11.828125000 -0.013042892 0.2841039896 2.3597714901 111.81258392 87.069488525 1.6531124115 178.58073425 0.7984273434 1.5322260857
 2777.6911621 5.0000000000 11.828125000 -0.017057402 0.2968750894 2.3568668365 112.50695801 88.825393677 1.6038239002 179.28521729 0.6125171185 1.5102474689
 2777.8435059 5.0000000000 11.828125000 -0.020347033 0.3030495942 2.3523268700 112.79806519 90.752128601 1.6005458832 180.25357056 0.5568416119 1.5177569389
 2777.9958496 5.0000000000 11.828125000 -0.021848796 0.3028506339 2.3453986645 113.75486755 92.435363770 1.6204438210 181.43676758 0.6230615377 1.5326809883
 2778.1484375 5.0000000000 11.828125000 -0.020670375 0.2977480590 2.3369154930 113.36037445 93.609657288 1.6393582821 182.63182068 0.6030429602 1.5454623699
 2778.3007813 5.0000000000 11.828125000 -0.019616442 0.2925096154 2.3314645290 112.19934082 94.291641235 1.6417551041 183.71371460 0.5681213140 1.5433120728
 2778.4531250 5.0000000000 11.828125000 -0.019852325 0.2927494943 2.3278980255 112.24012756 94.638275146 1.6290016174 184.53726196 0.5598069429 1.5195567608
 2778.6054688 5.0000000000 11.828125000 -0.021643154 0.2985261679 2.3214023113 113.60858154 94.909729004 1.5947952271 185.13131714 0.5564684868 1.4843106270
 2778.7578125 5.0000000000 11.828125000 -0.024877613 0.3063184023 2.3077862263 113.46096039 95.297119141 1.5432429314 185.63790894 0.5611246824 1.4465334415
 2778.9104004 5.0000000000 11.828125000 -0.028041141 0.3100432456 2.2970340252 109.71816254 95.707489014 1.4913842678 186.12580872 0.5388197899 1.4067785740
 2779.0627441 5.0000000000 11.828125000 -0.026740087 0.3076646328 2.2942099571 107.72135162 95.958526611 1.4375221729 186.54086304 0.5006014109 1.3647732735
 2779.2150879 5.0000000000 11.828125000 -0.022390027 0.3047181964 2.2976477146 108.17613983 96.042152405 1.3823916912 186.79469299 0.4457266331 1.3292074203
 2779.3674316 5.0000000000 11.828125000 -0.019223273 0.3039194345 2.3069951534 109.01578522 95.846435547 1.3620562553 186.88943481 0.4317917228 1.3176078796
 2779.5200195 5.0000000000 11.828125000 -0.018156841 0.3035515547 2.3301181793 107.56429291 95.279388428 1.3934109211 186.93299866 0.4514122605 1.3400714397
 2779.6723633 6.0000000000 11.828125000 -0.019308574 0.3031578064 2.3481259346 108.23277283 94.577758789 1.4583377838 186.98066711 0.4322443008 1.3915264606
 2779.8247070 6.0000000000 11.828125000 -0.020365616 0.3027667701 2.3589978218 110.24354553 93.942573547 1.5376296043 187.07504272 0.4606152773 1.4543557167
 2779.9770508 6.0000000000 11.828125000 -0.022453731 0.3019441664 2.3695199490 111.14017487 93.366188049 1.6286594868 187.29960632 0.5564475060 1.5250844955
 2780.1296387 5.0000000000 11.839605331 -0.023910288 0.3005157709 2.3869292736 110.69784546 92.858566284 1.7567460537 187.65635681 0.5950692892 1.6351613998
