# LAS format log file from PETREL
# Project units are specified as depth units
#==================================================================
~Version information
VERS.   2.0:
WRAP.   NO:
#==================================================================
~Well
STRT .m      1820.5001221 :
STOP .m      3000.6250000 :
STEP .m     0.00000000 :
NULL .        -999.250000 :
COMP.           : COMPANY
WELL.  34/7-13   : WELL
FLD.            : FIELD
LOC.            : LOCATION
SRVC.           : SERVICE COMPANY
DATE.  2018-09-11 14:48:51   : Log Export Date {yyyy-MM-dd HH:mm:ss}
PROV.           : PROVINCE
UWI.   34/7-13   : UNIQUE WELL ID
API.            : API NUMBER
#==================================================================
~Curve
DEPT .m                   : DEPTH
Lithology_geolink ._      : Lithology_geolink
CALI .in                  : CALI
BS .in                    : BS
DRHO .g/cm3               : DRHO
NPHI .m3/m3               : NPHI
RHOB .g/cm3               : RHOB
GR .gAPI                  : GR
DTC .us/ft                : DTC
RDEP .ohm.m               : RDEP
SP .mV                    : SP
RSHA .ohm.m               : RSHA
RMED .ohm.m               : RMED
~Parameter
#==================================================================
~Ascii
# ...
 2528.5000000 4.0000000000 12.055000305 12.250000954 -0.050001953 0.2426034063 2.2360060215 84.445999146 105.23400116 1.0970000029 25.135999680 1.4060000181 1.4060000181
 2528.6250000 4.0000000000 12.055998802 12.250000954 -0.050998047 0.2469016016 2.2300117016 84.553001404 104.57099915 1.0260000229 25.187999725 1.4340000153 1.4340000153
 2528.7500000 4.0000000000 12.055000305 12.250000954 -0.051998049 0.2503333092 2.2210175991 83.861000061 103.47000122 0.9760000110 25.284000397 1.4390000105 1.4390000105
 2528.8750000 2.0000000000 12.053000450 12.250000954 -0.053996094 0.2506793439 2.2120175362 82.430000305 102.44000244 0.9449999928 25.464000702 1.4170000553 1.4170000553
 2529.0000000 2.0000000000 12.050000191 12.250000954 -0.054000001 0.2488635629 2.2039999962 80.752998352 101.78399658 0.9290000200 25.687999725 1.3769999743 1.3769999743
 2529.1250000 2.0000000000 12.049000740 12.250000954 -0.054000001 0.2473928779 2.1989998817 79.379997253 101.45200348 0.9229999781 25.864999771 1.3420000076 1.3420000076
 2529.2500000 2.0000000000 12.050999641 12.250000954 -0.055000000 0.2472203225 2.1960000992 78.579002380 101.19499969 0.9219999909 25.919000626 1.3250000477 1.3250000477
 2529.3750000 2.0000000000 12.053999901 12.250000954 -0.056000002 0.2479799986 2.1940000057 78.291000366 100.87599945 0.9240000248 25.827999115 1.3190000057 1.3190000057
 2529.5000000 2.0000000000 12.055000305 12.250000954 -0.057999998 0.2489699870 2.1909999847 78.277999878 100.45400238 0.9259999990 25.641000748 1.3179999590 1.3179999590
 2529.6250000 2.0000000000 12.050999641 12.250000954 -0.059000000 0.2500199974 2.1900000572 78.300003052 99.913002014 0.9309999943 25.433000565 1.3150000572 1.3150000572
 2529.7500000 2.0000000000 12.045000076 12.250000954 -0.061000001 0.2509700060 2.1879999638 78.246002197 99.175003052 0.9419999719 25.267000198 1.3099999428 1.3099999428
 2529.8752441 2.0000000000 12.041000366 12.250000954 -0.063000001 0.2515999973 2.1870000362 78.164001465 98.179000854 0.9610000253 25.166000366 1.3079999685 1.3079999685
 2530.0002441 2.0000000000 12.042000771 12.250000954 -0.063000001 0.2522699833 2.1879999638 78.203002930 96.789932251 0.9940000176 25.114999771 1.3130390644 1.3130390644
 2530.1247559 2.0000000000 12.045998573 12.250000954 -0.063996099 0.2536446154 2.1899921894 78.491867065 95.242996216 1.0378280878 25.041999817 1.3229999542 1.3229999542
 2530.2497559 2.0000000000 12.050000191 12.250000954 -0.062007811 0.2555923760 2.1939842701 79.051002502 93.841003418 1.0950000286 24.930000305 1.3350000381 1.3350000381
 2530.3750000 2.0000000000 12.053000450 12.250000954 -0.061001953 0.2569773197 2.1979920864 79.740997314 93.012001038 1.1670000553 24.812999725 1.3509999514 1.3509999514
 2530.5000000 2.0000000000 12.053000450 12.250000954 -0.061000001 0.2571197450 2.2029902935 80.313003540 92.892005920 1.2439999580 24.681999207 1.3750000000 1.3750000000
 2530.6250000 2.0000000000 12.050000191 12.250000954 -0.062996097 0.2560321093 2.2059941292 80.488998413 93.305999756 1.3170000315 24.497999191 1.4149999619 1.4149999619
 2530.7500000 2.0000000000 12.048000336 12.250000954 -0.063998051 0.2551517189 2.2089941502 80.097000122 93.546997070 1.3760000467 24.204000473 1.4689999819 1.4689999819
 2530.8750000 2.0000000000 12.046999931 12.250000954 -0.064000003 0.2550302446 2.2099981308 79.224998474 93.334991455 1.4210000038 23.822999954 1.5260000229 1.5260000229
 2531.0000000 2.0000000000 12.043999672 12.250000954 -0.063001953 0.2550399601 2.2109980583 78.277000427 92.589004517 1.4400000572 23.424999237 1.5579999685 1.5579999685
 2531.1250000 2.0000000000 12.039000511 12.250000954 -0.061003909 0.2545409799 2.2119979858 77.796997070 91.637001038 1.4450000525 23.104000092 1.5490000248 1.5490000248
 2531.2500000 2.0000000000 12.032000542 12.250000954 -0.061999999 0.2536717057 2.2139999866 78.083999634 90.732994080 1.4390000105 22.908000946 1.5190000534 1.5190000534
 2531.3750000 2.0000000000 12.026000023 12.250000954 -0.063000001 0.2527617812 2.2170000076 78.936996460 90.069999695 1.4229999781 22.794000626 1.4889999628 1.4889999628
 2531.5000000 2.0000000000 12.024999619 12.250000954 -0.064000003 0.2518318295 2.2209999561 79.738998413 89.720001221 1.3940000534 22.690999985 1.4720000029 1.4720000029
 2531.6250000 2.0000000000 12.027000427 12.250000954 -0.059999999 0.2509716749 2.2239999771 79.907997131 89.810997009 1.3519999981 22.563999176 1.4700000286 1.4700000286
 2531.7500000 2.0000000000 12.031000137 12.250000954 -0.054000001 0.2504200041 2.2249999046 79.339996338 90.457000732 1.3020000458 22.399000168 1.4759999514 1.4759999514
 2531.8750000 2.0000000000 12.036000252 12.250000954 -0.048000000 0.2505199909 2.2260000706 78.444999695 91.565002441 1.2489999533 22.228000641 1.4769999981 1.4769999981
 2532.0000000 2.0000000000 12.042000771 12.250000954 -0.045000002 0.2511300147 2.2249999046 77.819000244 92.960998535 1.2000000477 22.000999451 1.4620000124 1.4620000124
 2532.1250000 2.0000000000 12.045998573 12.250000954 -0.046999998 0.2516599894 2.2249999046 77.861999512 94.345993042 1.1610000134 21.673000336 1.4370000362 1.4370000362
 2532.2502441 2.0000000000 12.046999931 12.250000954 -0.050999999 0.2515299916 2.2260000706 78.607002258 95.674003601 1.1360000372 21.257999420 1.4069999456 1.4069999456
 2532.3752441 2.0000000000 12.045000076 12.250000954 -0.056000002 0.2509799898 2.2279999256 79.788002014 96.593322754 1.1180000305 20.864000320 1.3819648027 1.3819648027
 2532.4997559 2.0000000000 12.039000511 12.250000954 -0.058988281 0.2505018711 2.2289962769 81.002243042 97.184005737 1.1060467958 20.617000580 1.3730000257 1.3730000257
 2532.6247559 2.0000000000 12.036000252 12.250000954 -0.059000000 0.2504800856 2.2270078659 81.916999817 97.579002380 1.0939999819 20.604999542 1.3799999952 1.3799999952
 2532.7500000 2.0000000000 12.036999702 12.250000954 -0.057003908 0.2506796122 2.2240059376 82.344001770 97.907997131 1.0779999495 20.732000351 1.3899999857 1.3899999857
 2532.8750000 2.0000000000 12.039999962 12.250000954 -0.055003908 0.2507199049 2.2190098763 82.331001282 98.320999146 1.0609999895 20.836999893 1.3919999599 1.3919999599
 2533.0000000 2.0000000000 12.043000221 12.250000954 -0.052005861 0.2505104244 2.2150077820 82.044998169 98.996002197 1.0429999828 20.761999130 1.3780000210 1.3780000210
 2533.1250000 2.0000000000 12.043999672 12.250000954 -0.052000001 0.2501507103 2.2110078335 81.652000427 99.936996460 1.0279999971 20.513999939 1.3539999723 1.3539999723
 2533.2500000 2.0000000000 12.045998573 12.250000954 -0.052000001 0.2498306185 2.2090039253 81.272003174 101.02600098 1.0160000324 20.194000244 1.3279999495 1.3279999495
 2533.3750000 2.0000000000 12.046999931 12.250000954 -0.052000001 0.2496902645 2.2070038319 80.974998474 102.00599670 1.0060000420 19.968000412 1.3079999685 1.3079999685
 2533.5000000 2.0000000000 12.049000740 12.250000954 -0.051001951 0.2496800125 2.2060019970 80.806999207 102.61399841 0.9969999790 19.957000732 1.2970000505 1.2970000505
 2533.6250000 2.0000000000 12.048000336 12.250000954 -0.048999999 0.2496001422 2.2060000896 80.822998047 102.75799561 0.9879999757 20.052000046 1.2910000086 1.2910000086
 2533.7500000 2.0000000000 12.045000076 12.250000954 -0.046000000 0.2493904084 2.2079999447 81.088996887 102.59200287 0.9789999723 20.089000702 1.2899999619 1.2899999619
 2533.8750000 2.0000000000 12.042000771 12.250000954 -0.046000000 0.2491205335 2.2090001106 81.642997742 102.36799622 0.9700000286 19.958000183 1.2899999619 1.2899999619
 2534.0000000 2.0000000000 12.039999962 12.250000954 -0.048000000 0.2490002364 2.2119998932 82.402999878 102.19899750 0.9629999995 19.673999786 1.2890000343 1.2890000343
 2534.1250000 2.0000000000 12.042000771 12.250000954 -0.050999999 0.2491600066 2.2130000591 83.132003784 102.06800079 0.9580000043 19.322999954 1.2879999876 1.2879999876
 2534.2500000 2.0000000000 12.048000336 12.250000954 -0.056000002 0.2494199872 2.2139999866 83.513999939 101.94400024 0.9539999962 18.983999252 1.2840000391 1.2840000391
 2534.3750000 2.0000000000 12.052000046 12.250000954 -0.059000000 0.2495200038 2.2160000801 83.357002258 101.81199646 0.9520000219 18.680000305 1.2790000439 1.2790000439
