# LAS format log file from PETREL
# Project units are specified as depth units
#==================================================================
~Version information
VERS.   2.0:
WRAP.   NO:
#==================================================================
~Well
STRT .m      806.37493896 :
STOP .m      2790.0000000 :
STEP .m     0.00000000 :
NULL .        -999.250000 :
COMP.           : COMPANY
WELL.  34/7-12   : WELL
FLD.            : FIELD
LOC.            : LOCATION
SRVC.           : SERVICE COMPANY
DATE.  2018-09-11 14:48:51   : Log Export Date {yyyy-MM-dd HH:mm:ss}
PROV.           : PROVINCE
UWI.   34/7-12   : UNIQUE WELL ID
API.            : API NUMBER
#==================================================================
~Curve
DEPT .m                   : DEPTH
Lithology_geolink ._      : Lithology_geolink
CALI .in                  : CALI
DRHO .g/cm3               : DRHO
NPHI .m3/m3               : NPHI
RHOB .g/cm3               : RHOB
GR .gAPI                  : GR
DTC .us/ft                : DTC
RDEP .ohm.m               : RDEP
SP .mV                    : SP
RSHA .ohm.m               : RSHA
RMED .ohm.m               : RMED
~Parameter
#==================================================================
~Ascii
# ...
 2259.8750000 1.0000000000 12.250000954 -0.179001957 0.2799800038 2.1279902458 51.846000671 106.48999786 0.7030000091 8.7020034790  -999.250000 0.7030000091
 2260.0000000 1.0000000000 12.250000954 -0.179992199 0.2802499831 2.1229939461 51.134998322 106.89399719 0.7120000124 8.7040357590  -999.250000 0.7009999752
 2260.1250000 1.0000000000 12.248999596 -0.175980464 0.2796800137 2.1199998856 50.127998352 107.11900330 0.7220000029 8.7220392227  -999.250000 0.7020000219
 2260.2500000 1.0000000000 12.246000290 -0.165978506 0.2779400051 2.1200037003 49.092998505 107.05100250 0.7319999933 8.7420034409  -999.250000 0.7080000043
 2260.3750000 1.0000000000 12.243000984 -0.154982418 0.2753043771 2.1220037937 48.536998749 106.72399902 0.7440000176 8.7439594269  -999.250000 0.7179999948
 2260.5000000 1.0000000000 12.241000175 -0.145996094 0.2724153399 2.1240019798 48.634998322 106.24800110 0.7570000291 8.7229328156  -999.250000 0.7310000062
 2260.6250000 1.0000000000 12.241999626 -0.144009754 0.2700174749 2.1249980927 49.022998810 105.75299835 0.7710000277 8.6889457703  -999.250000 0.7450000048
 2260.7500000 1.0000000000 12.244999886 -0.149021491 0.2687207460 2.1239941120 49.077999115 105.32399750 0.7860000134 8.6609745026  -999.250000 0.7570000291
 2260.8750000 1.0000000000 12.246998787 -0.160021484 0.2691000104 2.1209962368 48.495998383 104.98899841 0.8000000119 8.6479997635  -999.250000 0.7649999857
 2261.0000000 1.0000000000 12.246000290 -0.171015635 0.2711700201 2.1189961433 47.507999420 104.74501038 0.8109999895 8.6449966431  -999.250000 0.7680000067
 2261.1250000 1.0000000000 12.244000435 -0.179003909 0.2742899954 2.1169962883 46.641998291 104.61499786 0.8169999719 8.6429824829  -999.250000 0.7680000067
 2261.2500000 1.0000000000 12.239998817 -0.180994138 0.2774299979 2.1149961948 46.353000641 104.61100769 0.8159999847 8.6339778900  -999.250000 0.7659999728
 2261.3750000 1.0000000000 12.236000061 -0.177986324 0.2795999944 2.1129939556 46.730998993 104.70800018 0.8059999943 8.6229848862  -999.250000 0.7630000114
 2261.5000000 1.0000000000 12.234999657 -0.170986325 0.2803893089 2.1099960804 47.439998627 104.86499786 0.7889999747 8.6149883270  -999.250000 0.7599999905
 2261.6250000 1.0000000000 12.233000755 -0.163990244 0.2800378799 2.1079962254 47.999000549 105.02400208 0.7670000196 8.6089706421  -999.250000 0.7540000081
 2261.7500000 1.0000000000 12.233000755 -0.158998042 0.2789576352 2.1059999466 48.173000336 105.17199707 0.7419999838 8.5939292908  -999.250000 0.7440000176
 2261.8750000 1.0000000000 12.233000755 -0.158005863 0.2777482867 2.1060097218 48.016998291 105.33999634 0.7189999819 8.5578985214  -999.250000 0.7269999981
 2262.0000000 1.0000000000 12.236000061 -0.161011711 0.2768799961 2.1110157967 47.692001343 105.54199982 0.6980000138 8.5059995651  -999.250000 0.7059999704
 2262.1250000 1.0000000000 12.241999626 -0.167001948 0.2768400013 2.1190156937 47.417999268 105.77700043 0.6819999814 8.4599666595  -999.250000 0.6840000153
 2262.2500000 1.0000000000 12.250000954 -0.167992190 0.2777799964 2.1270117760 47.319000244 106.00100708 0.6669999957 8.4430541992  -999.250000 0.6650000215
 2262.3750000 1.0000000000 12.255999565 -0.163984373 0.2794100046 2.1329979897 47.444000244 106.19799805 0.6529999971 8.4711618423  -999.250000 0.6529999971
 2262.5000000 1.0000000000 12.258000374 -0.155990243 0.2810199857 2.1319940090 47.881999969 106.37500000 0.6380000114 8.5542144775  -999.250000 0.6489999890
 2262.6250000 1.0000000000 12.256999016 -0.151001945 0.2820907831 2.1289939880 48.652999878 106.55899811 0.6230000257 8.6642494202  -999.250000 0.6489999890
 2262.7500000 1.0000000000 12.251999855 -0.152011707 0.2824901044 2.1259999275 49.662998199 106.75399780 0.6079999804 8.7922401428  -999.250000 0.6489999890
 2262.8750000 1.0000000000 12.246998787 -0.158015639 0.2825400829 2.1260077953 50.465000153 106.92500305 0.5929999948 8.9151935577  -999.250000 0.6449999809
 2263.0000000 1.0000000000 12.241000175 -0.166007802 0.2825908959 2.1300117970 50.743000031 107.04400635 0.5780000091 9.0140581131  -999.250000 0.6389999986
 2263.1250000 1.0000000000 12.237000465 -0.170001954 0.2830500007 2.1360077858 50.291000366 107.09700012 0.5630000234 9.0439996719  -999.250000 0.6320000291
 2263.2500000 1.0000000000 12.234999657 -0.170996100 0.2838900089 2.1400001049 49.659999847 107.14099884 0.5490000248 8.9890003204  -999.250000 0.6240000129
 2263.3750000 1.0000000000 12.237000465 -0.168994144 0.2848100066 2.1399981976 49.419998169 107.20700073 0.5370000005 8.8204431534  -999.250000 0.6110000014
 2263.5000000 1.0000000000 12.241999626 -0.165994138 0.2849200070 2.1389980316 50.134998322 107.29499054 0.5310000181 8.5353422165  -999.250000 0.5920000076
 2263.6250000 1.0000000000 12.248000145 -0.162998050 0.2838200033 2.1380059719 51.638999939 107.35000610 0.5320000052 8.1983613968  -999.250000 0.5709999800
 2263.7500000 1.0000000000 12.251999855 -0.162005857 0.2810199857 2.1410098076 53.485000610 107.28899384 0.5410000086 7.8715062141  -999.250000 0.5550000072
 2263.8750000 1.0000000000 12.253999710 -0.165007815 0.2769110799 2.1460115910 54.856998444 107.08499146 0.5569999814 7.6186876297  -999.250000 0.5550000072
 2264.0000000 1.0000000000 12.253001213 -0.169005856 0.2723519206 2.1520018578 55.390998840 106.79599762 0.5780000091 7.4588713646  -999.250000 0.5740000010
 2264.1250000 1.0000000000 12.250000954 -0.171998054 0.2682138979 2.1529963017 55.021999359 106.53800201 0.6079999804 7.3930058479  -999.250000 0.6169999838
 2264.2500000 1.0000000000 12.248000145 -0.170988292 0.2650867105 2.1509902477 54.373001099 106.44399261 0.6439999938 7.3961634636  -999.250000 0.6719999909
 2264.3750000 1.0000000000 12.246998787 -0.164986327 0.2633900046 2.1459920406 53.798999786 106.60900116 0.6859999895 7.4800000191  -999.250000 0.7250000238
 2264.5000000 1.0000000000 12.244999886 -0.157984376 0.2633300126 2.1419980526 53.490001678 106.96700287 0.7310000062 7.6454296112  -999.250000 0.7609999776
 2264.6250000 1.0000000000 12.241999626 -0.149990246 0.2643699944 2.1410019398 53.316001892 107.36100006 0.7720000148 7.8654332161  -999.250000 0.7739999890
 2264.7500000 1.0000000000 12.237999916 -0.144994140 0.2661000192 2.1420037746 53.091999054 107.59899902 0.8029999733 8.0873374939  -999.250000 0.7689999938
 2264.8750000 1.0000000000 12.234999657 -0.142001957 0.2677800059 2.1440060139 52.695999146 107.58600616 0.8180000186 8.2601957321  -999.250000 0.7540000081
 2265.0000000 1.0000000000 12.234000206 -0.143000007 0.2687592804 2.1470060349 52.185001373 107.32398987 0.8149999976 8.3601055145  -999.250000 0.7360000014
 2265.1250000 1.0000000000 12.234000206 -0.142996103 0.2683865726 2.1500098705 51.784999847 106.97699738 0.7969999909 8.4140663147  -999.250000 0.7210000157
 2265.2500000 1.0000000000 12.234000206 -0.140986323 0.2666249871 2.1550116539 51.615001678 106.72000122 0.7720000148 8.4480581284  -999.250000 0.7120000124
 2265.3750000 1.0000000000 12.230999947 -0.133982420 0.2640559077 2.1610097885 51.512001038 106.67500305 0.7509999871 8.4780502319  -999.250000 0.7070000172
 2265.5000000 1.0000000000 12.227999687 -0.124984376 0.2619599998 2.1660058498 51.305999756 106.82199860 0.7400000095 8.5039997101  -999.250000 0.7020000219
 2265.6250000 1.0000000000 12.225000381 -0.116990231 0.2613700032 2.1690037251 50.990001678 107.11000061 0.7429999709 8.5280523300  -999.250000 0.6970000267
 2265.7500000 1.0000000000 12.227000237 -0.111994147 0.2623200119 2.1710038185 50.716999054 107.39199829 0.7580000162 8.5550603867  -999.250000 0.6919999719
 2265.8750000 1.0000000000 12.233000755 -0.109001949 0.2635000050 2.1730020046 50.776000977 107.58999634 0.7820000052 8.5860586166  -999.250000 0.6940000057
 2266.0000000 1.0000000000 12.239998817 -0.110005856 0.2635700107 2.1740059853 51.223999023 107.64600372 0.8100000024 8.6160469055  -999.250000 0.7080000043
 2266.1250000 1.0000000000 12.244000435 -0.113011718 0.2627499998 2.1770038605 51.744998932 107.59700012 0.8379999995 8.6400260925  -999.250000 0.7319999933
