# LAS format log file from PETREL
# Project units are specified as depth units
#==================================================================
~Version information
VERS.   2.0:
WRAP.   NO:
#==================================================================
~Well
STRT .m      212.75000000 :
STOP .m      3019.0000000 :
STEP .m     0.00000000 :
NULL .        -999.250000 :
COMP.           : COMPANY
WELL.  34/7-21   : WELL
FLD.            : FIELD
LOC.            : LOCATION
SRVC.           : SERVICE COMPANY
DATE.  2018-09-11 14:48:52   : Log Export Date {yyyy-MM-dd HH:mm:ss}
PROV.           : PROVINCE
UWI.   34/7-21   : UNIQUE WELL ID
API.            : API NUMBER
#==================================================================
~Curve
DEPT .m                   : DEPTH
Lithology_geolink ._      : Lithology_geolink
CALI .in                  : CALI
DRHO .g/cm3               : DRHO
NPHI .m3/m3               : NPHI
RHOB .g/cm3               : RHOB
PEF .b/e                  : PEF
GR .gAPI                  : GR
DTC .us/ft                : DTC
RDEP .ohm.m               : RDEP
SP .mV                    : SP
RSHA .ohm.m               : RSHA
RMED .ohm.m               : RMED
~Parameter
#==================================================================
~Ascii
# ...
 2612.7500000 5.0000000000 14.103511810 0.0321930647 0.7519267797 2.4255309105 6.0828895569 147.68884277 121.26789856 1.4024934769  -999.250000 1.1271970272 1.7330245972
 2612.8750000 5.0000000000 14.127035141 0.0291639380 0.7504299879 2.4251670837 5.6924018860 146.49090576 120.61233521 1.4121983051  -999.250000 1.2307653427 1.7306816578
 2613.0000000 5.0000000000 14.139503479 0.0261131302 0.7461225390 2.4267735481 5.5145130157 146.13229370 118.69590759 1.4185218811  -999.250000 1.1995368004 1.7272613049
 2613.1250000 5.0000000000 14.146945000 0.0244738683 0.7399477959 2.4257621765 5.4891471863 146.64065552 117.99850464 1.4164762497  -999.250000 1.0429356098 1.7168276310
 2613.2500000 5.0000000000 14.154575348 0.0257627517 0.7317235470 2.4212884903 5.5336856842 147.68490601 117.49082947 1.4029440880  -999.250000 0.7891559601 1.6937224865
 2613.3750000 5.0000000000 14.153644562 0.0302731171 0.7210724354 2.4156112671 5.5611085892 148.94421387 117.35061646 1.3759281635  -999.250000 0.5483447313 1.6550033092
 2613.5000000 5.0000000000 14.118370056 0.0359759033 0.7077810764 2.4129090309 5.5701341629 150.28466797 117.59703064 1.3414945602  -999.250000 0.3978266120 1.6104474068
 2613.6250000 5.0000000000 14.016866684 0.0401753560 0.6900122166 2.4163551331 5.6020498276 151.59793091 116.84197998 1.3070602417  -999.250000 0.3311007023 1.5715186596
 2613.7500000 5.0000000000 13.831619263 0.0408084840 0.6656759381 2.4246659279 5.6353597641 152.42218018 115.13387299 1.2832467556  -999.250000 0.3271515369 1.5505325794
 2613.8750000 5.0000000000 13.574986458 0.0373200923 0.6312729120 2.4339299202 5.6335496902 151.91085815 115.18995667 1.2899851799  -999.250000 0.3722629547 1.5652759075
 2614.0000000 5.0000000000 13.315561295 0.0345621333 0.5753973722 2.4429035187 5.6539983749 150.20321655 116.37658691 1.3396923542  -999.250000 0.4497911334 1.6210439205
 2614.1250000 5.0000000000 13.107195854 0.0401856676 0.4969688654 2.4568941593 5.7755184174 147.79388428 116.61045837 1.4444243908  -999.250000 0.5216643810 1.7252922058
 2614.2502441 5.0000000000 12.978054047 0.0513201728 0.4215322733 2.4830365181 5.9882726669 144.95434570 112.55522156 1.6098480225  -999.250000 0.5445932150 1.8847699165
 2614.3752441 16.000000000 12.930261612 0.0536493957 0.3719615042 2.5194106102 6.2801322937 140.87710571 105.69107056 1.8367130756  -999.250000 0.5277428627 2.1104984283
 2614.4997559 16.000000000 12.918659210 0.0351321995 0.3590738773 2.5497922897 6.6917743683 134.85577393 99.010009766 2.0809707642  -999.250000 0.5160542727 2.3685908318
 2614.6247559 16.000000000 12.913320541 0.0065001305 0.3841648102 2.5581088066 7.0665645599 127.29763794 94.098121643 2.2703728676  -999.250000 0.5297440290 2.5878262520
 2614.7500000 16.000000000 12.893953323 -0.004775300 0.4360570014 2.5408849716 7.1276750565 120.26928711 94.523483276 2.3145127296  -999.250000 0.5573837757 2.6651401520
 2614.8750000 16.000000000 12.843931198 0.0084502064 0.4990143478 2.5013670921 6.7151222229 117.70649719 101.75064087 2.1584634781  -999.250000 0.5692119598 2.5195093155
 2615.0000000 16.000000000 12.765232086 0.0288136788 0.5470257998 2.4570984840 6.0768203735 120.78361511 110.72550964 1.9190444946  -999.250000 0.5499092340 2.2645268440
 2615.1250000 16.000000000 12.668594360 0.0379438549 0.5709458590 2.4277257919 5.5889263153 128.45468140 118.64396667 1.6948342323  -999.250000 0.5146014690 2.0126862526
 2615.2500000 16.000000000 12.575815201 0.0370885581 0.5873632431 2.4173140526 5.3960132599 137.94827271 123.28772736 1.5363960266  -999.250000 0.4957572818 1.8303101063
 2615.3750000 5.0000000000 12.518487930 0.0349706262 0.6060342789 2.4194860458 5.5054502487 145.76452637 122.40882874 1.4566321373  -999.250000 0.5171720982 1.7404754162
 2615.5000000 5.0000000000 12.508508682 0.0352585167 0.6291637421 2.4242243767 5.9926300049 150.51168823 120.48258972 1.4184272289  -999.250000 0.5895854235 1.7051446438
 2615.6250000 5.0000000000 12.554040909 0.0375940427 0.6553987265 2.4241938591 6.6176795959 152.32351685 118.61027527 1.3940541744  -999.250000 0.7261739969 1.6945965290
 2615.7500000 5.0000000000 12.659347534 0.0450983420 0.6807356477 2.4154186249 7.0191135406 151.94116211 117.58755493 1.3646662235  -999.250000 0.9030616283 1.6847934723
 2615.8750000 5.0000000000 12.822312355 0.0585476458 0.7005212307 2.3980240822 6.8843364716 149.97048950 117.14129639 1.3285360336  -999.250000 0.9969508648 1.6633892059
 2616.0000000 4.0000000000 12.995843887 0.0678801090 0.7084912062 2.3796195984 6.3168392181 147.18289185 117.10624695 1.3013713360  -999.250000 0.8978326321 1.6385819912
 2616.1250000 4.0000000000 13.122499466 0.0624516308 0.7002251148 2.3711290359 5.7859077454 143.99462891 116.50366211 1.2962417603  -999.250000 0.6955291033 1.6233532429
 2616.2500000 4.0000000000 13.150805473 0.0464149863 0.6793609858 2.3763833046 5.4838447571 141.07971191 113.61399841 1.3169603348  -999.250000 0.5562288761 1.6283040047
 2616.3750000 4.0000000000 13.055122375 0.0328208506 0.6551181078 2.3900341988 5.3755340576 139.69247437 110.63687134 1.3579208851  -999.250000 0.5266240835 1.6591579914
 2616.5000000 4.0000000000 12.903907776 0.0295693167 0.6372752190 2.4026651382 5.3773860931 140.13281250 109.84352112 1.4004714489  -999.250000 0.5937449932 1.7028067112
 2616.6252441 4.0000000000 12.760580063 0.0318203643 0.6293003559 2.4089183807 5.3968238831 141.84771729 109.57081604 1.4314053059  -999.250000 0.7643198967 1.7446761131
 2616.7502441 4.0000000000 12.666448593 0.0313101932 0.6286753416 2.4111857414 5.4078025818 143.70159912 109.50520325 1.4447305202  -999.250000 1.0145699978 1.7715628147
 2616.8747559 4.0000000000 12.632696152 0.0284002908 0.6347906590 2.4130587578 5.4216575623 144.69854736 111.31108093 1.4427461624  -999.250000 1.2390804291 1.7752797604
 2616.9997559 4.0000000000 12.626254082 0.0267811194 0.6461755633 2.4160385132 5.4375238419 145.15728760 111.86375427 1.4359149933  -999.250000 1.3485884666 1.7647480965
 2617.1250000 4.0000000000 12.627367973 0.0275620408 0.6595117450 2.4185557365 5.4225339890 145.88992310 111.35639954 1.4271502495  -999.250000 1.3705375195 1.7468800545
 2617.2500000 5.0000000000 12.628368378 0.0284618177 0.6714328527 2.4185938835 5.4057188034 147.53958130 112.69569397 1.4147629738  -999.250000 1.3603425026 1.7244277000
 2617.3750000 5.0000000000 12.629272461 0.0275288895 0.6799113750 2.4164109230 5.4394254684 149.93594360 114.47334290 1.3956520557  -999.250000 1.3335063457 1.6958699226
 2617.5000000 5.0000000000 12.632902145 0.0247789323 0.6818506122 2.4140658379 5.4342164993 151.94326782 115.50556946 1.3726427555  -999.250000 1.2968015671 1.6640057564
 2617.6250000 5.0000000000 12.640962601 0.0219412595 0.6746695042 2.4136848450 5.3054227829 152.98431396 115.91278076 1.3509910107  -999.250000 1.2622299194 1.6355705261
 2617.7500000 5.0000000000 12.652826309 0.0212585367 0.6599382162 2.4161400795 5.1483268738 153.15814209 115.44480896 1.3373541832  -999.250000 1.2277684212 1.6188411713
 2617.8750000 5.0000000000 12.665830612 0.0242380574 0.6421279907 2.4216856956 5.0867052078 152.81500244 114.22608948 1.3375704288  -999.250000 1.1560294628 1.6206324100
 2618.0000000 5.0000000000 12.677593231 0.0307644159 0.6268428564 2.4301466942 5.1835031509 152.20989990 113.27549744 1.3454391956  -999.250000 1.0103018284 1.6334338188
 2618.1250000 5.0000000000 12.687765121 0.0377688333 0.6172603369 2.4405527115 5.3143348694 151.27291870 113.09527588 1.3532714844  -999.250000 0.8165959120 1.6479046345
 2618.2500000 5.0000000000 12.695665359 0.0404742807 0.6126958132 2.4512100220 5.3479375839 149.86486816 113.34686279 1.3561162949  -999.250000 0.6481322050 1.6564769745
 2618.3750000 5.0000000000 12.696983337 0.0376512855 0.6107767820 2.4615244865 5.2710981369 148.05780029 113.21716309 1.3539795876  -999.250000 0.5541477203 1.6568281651
 2618.5000000 5.0000000000 12.688249588 0.0336914361 0.6092944145 2.4716157913 5.2447185516 146.48803711 112.09398651 1.3509025574  -999.250000 0.5388728380 1.6546721458
 2618.6250000 5.0000000000 12.669595718 0.0343722776 0.6086312532 2.4802246094 5.4170064926 145.71228027 110.76098633 1.3470208645  -999.250000 0.6024892330 1.6533789635
