# LAS format log file from PETREL
# Project units are specified as depth units
#==================================================================
~Version information
VERS.   2.0:
WRAP.   NO:
#==================================================================
~Well
STRT .m      212.75000000 :
STOP .m      3019.0000000 :
STEP .m     0.00000000 :
NULL .        -999.250000 :
COMP.           : COMPANY
WELL.  34/7-21   : WELL
FLD.            : FIELD
LOC.            : LOCATION
SRVC.           : SERVICE COMPANY
DATE.  2018-09-11 14:48:52   : Log Export Date {yyyy-MM-dd HH:mm:ss}
PROV.           : PROVINCE
UWI.   34/7-21   : UNIQUE WELL ID
API.            : API NUMBER
#==================================================================
~Curve
DEPT .m                   : DEPTH
Lithology_geolink ._      : Lithology_geolink
CALI .in                  : CALI
DRHO .g/cm3               : DRHO
NPHI .m3/m3               : NPHI
RHOB .g/cm3               : RHOB
PEF .b/e                  : PEF
GR .gAPI                  : GR
DTC .us/ft                : DTC
RDEP .ohm.m               : RDEP
SP .mV                    : SP
RSHA .ohm.m               : RSHA
RMED .ohm.m               : RMED
~Parameter
#==================================================================
~Ascii
# ...
 2096.7500000  -999.250000 12.480596542 0.0391060635 0.4525432587 2.3589010239 4.6293525696 90.692733765 116.26747894 1.3763306141  -999.250000 1.3991043568 1.7654531002
 2096.8750000  -999.250000 12.482896805 0.0394256189 0.4497035742 2.3675389290 4.7087316513 89.473129272 115.69351196 1.3839688301  -999.250000 1.4392194748 1.7988333702
 2097.0000000  -999.250000 12.483861923 0.0388793349 0.4474195242 2.3771481514 4.7866849899 88.171157837 114.98822021 1.3905236721  -999.250000 1.4956238270 1.8242838383
 2097.1250000  -999.250000 12.483316422 0.0382881761 0.4459851384 2.3847222328 4.8518590927 86.642913818 114.32330322 1.3915412426  -999.250000 1.5502963066 1.8358681202
 2097.2500000  -999.250000 12.482087135 0.0379632115 0.4489796758 2.3874897957 4.9089078903 84.985916138 114.13652039 1.3837318420  -999.250000 1.5824823380 1.8308284283
 2097.3750000  -999.250000 12.481798172 0.0375835076 0.4563496709 2.3851947784 4.9530792236 83.728225708 114.60322571 1.3684911728  -999.250000 1.5831387043 1.8087234497
 2097.5000000  -999.250000 12.482938766 0.0375401527 0.4629467726 2.3795146942 4.9452142715 83.301681519 115.13800049 1.3548922539  -999.250000 1.5598845482 1.7774240971
 2097.6250000  -999.250000 12.485033035 0.0393918082 0.4645611644 2.3723783493 4.8705787659 83.834625244 115.91545868 1.3499984741  -999.250000 1.5254509449 1.7423515320
 2097.7500000  -999.250000 12.487377167 0.0431058444 0.4621627331 2.3646025658 4.7652416229 85.100891113 116.97816467 1.3545255661  -999.250000 1.4922630787 1.7082905769
 2097.8750000  -999.250000 12.489676476 0.0460321382 0.4585030675 2.3560009003 4.6787242889 86.716873169 118.12373352 1.3590285778  -999.250000 1.4677183628 1.6802480221
 2098.0000000  -999.250000 12.491928101 0.0460416749 0.4563621283 2.3473410606 4.5957851410 88.359222412 118.68925476 1.3518338203  -999.250000 1.4518561363 1.6595623493
 2098.1250000  -999.250000 12.493605614 0.0446742401 0.4566882253 2.3406782150 4.4617671967 89.945388794 119.07583618 1.3297951221  -999.250000 1.4406266212 1.6462004185
 2098.2500000  -999.250000 12.493746758 0.0448429212 0.4584891796 2.3376035690 4.2919006348 91.361465454 119.59117126 1.2986316681  -999.250000 1.4290165901 1.6385881901
 2098.3750000  -999.250000 12.491445541 0.0462409630 0.4609729052 2.3376927376 4.1471271515 92.342010498 119.81237793 1.2728636265  -999.250000 1.4146556854 1.6343860626
 2098.5000000  -999.250000 12.487464905 0.0466172621 0.4640594721 2.3388714790 4.0696411133 92.851531982 119.78731537 1.2666370869  -999.250000 1.3985166550 1.6304333210
 2098.6250000  -999.250000 12.482919693 0.0452231541 0.4667314291 2.3391804695 4.0273838043 92.971832275 119.83258057 1.2860772610  -999.250000 1.3822863102 1.6258585453
 2098.7500000  -999.250000 12.479200363 0.0433468670 0.4672268629 2.3385396004 4.0086507797 92.936599731 119.70849609 1.3248481750  -999.250000 1.3673357964 1.6215064526
 2098.8750000  -999.250000 12.477609634 0.0419862717 0.4658450186 2.3377876282 4.0093336105 92.945816040 119.50569153 1.3636908531  -999.250000 1.3552756310 1.6198122501
 2099.0000000  -999.250000 12.477695465 0.0412694365 0.4653134048 2.3375506401 4.0251197815 92.894210815 119.49765778 1.3842136860  -999.250000 1.3488273621 1.6222784519
 2099.1250000  -999.250000 12.478276253 0.0401563570 0.4675357342 2.3378510475 4.0566301346 92.698440552 119.20500183 1.3809032440  -999.250000 1.3511991501 1.6294150352
 2099.2500000  -999.250000 12.477788925 0.0378033668 0.4717575908 2.3383874893 4.0860910416 92.482055664 118.81484222 1.3600108624  -999.250000 1.3633780479 1.6400191784
 2099.3750000  -999.250000 12.474655151 0.0352088064 0.4773899913 2.3390951157 4.0957670212 92.511169434 118.81587219 1.3364512920  -999.250000 1.3807518482 1.6504333019
 2099.5000000  -999.250000 12.469583511 0.0345139652 0.4840889871 2.3403291702 4.0979623795 92.825973511 118.81562805 1.3212034702  -999.250000 1.3949530125 1.6565978527
 2099.6250000  -999.250000 12.464221001 0.0364000499 0.4890561700 2.3426160812 4.0716876984 93.301803589 118.59631348 1.3118822575  -999.250000 1.4004242420 1.6565494537
 2099.7500000  -999.250000 12.460063934 0.0387795419 0.4899663031 2.3458681107 4.0029468536 93.721694946 118.42285156 1.3001582623  -999.250000 1.3980970383 1.6503567696
 2099.8750000  -999.250000 12.457649231 0.0393289551 0.4893538952 2.3490099907 3.9716625214 93.684860229 118.62014771 1.2782793045  -999.250000 1.3938806057 1.6399061680
 2100.0000000  -999.250000 12.456253052 0.0377027839 0.4906427860 2.3505244255 3.9846210480 93.097335815 119.13487244 1.2482769489  -999.250000 1.3921663761 1.6293725967
 2100.1250000  -999.250000 12.455772400 0.0358448252 0.4918557107 2.3502311707 3.9948053360 92.175262451 119.71449280 1.2158737183  -999.250000 1.3927266598 1.6212904453
 2100.2500000  -999.250000 12.456409454 0.0354692116 0.4908236563 2.3494739532 4.0007448196 91.337265015 120.03865051 1.1878297329  -999.250000 1.3927941322 1.6171109676
 2100.3750000  -999.250000 12.458089828 0.0355835706 0.4900615215 2.3485689163 4.0124635696 91.184112549 120.39260864 1.1701478958  -999.250000 1.3911309242 1.6175839901
 2100.5000000  -999.250000 12.459739685 0.0337944105 0.4904532731 2.3464722633 4.0856981277 91.798385620 120.42883301 1.1624166965  -999.250000 1.3901002407 1.6205828190
 2100.6250000  -999.250000 12.460470200 0.0298650675 0.4901900589 2.3426346779 4.2208976746 92.868179321 120.23780823 1.1649448872  -999.250000 1.3928050995 1.6239485741
 2100.7500000  -999.250000 12.460138321 0.0264417753 0.4889913797 2.3382711411 4.3399610519 93.869995117 119.90031433 1.1776587963  -999.250000 1.3990166187 1.6256382465
 2100.8750000  -999.250000 12.459560394 0.0252754278 0.4889607131 2.3345842361 4.3745174408 94.270233154 120.29655457 1.1983656883  -999.250000 1.4044415951 1.6237652302
 2101.0000000  -999.250000 12.459520340 0.0265586637 0.4915729761 2.3318386078 4.3172321320 94.136566162 120.79769897 1.2210845947  -999.250000 1.4050030708 1.6185765266
 2101.1250000  -999.250000 12.459999084 0.0293402150 0.4949650466 2.3301105499 4.2689781189 93.699035645 120.95741272 1.2437176704  -999.250000 1.4003040791 1.6115000248
 2101.2500000  -999.250000 12.460380554 0.0318635553 0.4957087636 2.3303604126 4.3211612701 93.089309692 120.86708069 1.2668695450  -999.250000 1.3961210251 1.6062848568
 2101.3750000  -999.250000 12.459627151 0.0328755006 0.4928294122 2.3352766037 4.5465030670 92.275573730 120.55783081 1.2934496403  -999.250000 1.4033279419 1.6111605167
 2101.5000000  -999.250000 12.457715988 0.0305482969 0.4865515232 2.3506770134 4.9308795929 91.283843994 119.48405457 1.3233170509  -999.250000 1.4296531677 1.6311492920
 2101.6250000  -999.250000 12.455400467 0.0220693089 0.4778484106 2.3817787170 5.2731933594 90.108337402 117.42420959 1.3518009186  -999.250000 1.4723882675 1.6661674976
 2101.7500000  -999.250000 12.453943253 0.0068439571 0.4690433741 2.4251508713 5.3701572418 88.634445190 114.48665619 1.3716375828  -999.250000 1.5146389008 1.7056860924
 2101.8750000  -999.250000 12.454849243 -0.010284670 0.4625369012 2.4658184052 5.1435995102 86.641479492 112.05152130 1.3771102428  -999.250000 1.5352482796 1.7245397568
 2102.0000000  -999.250000 12.458276749 -0.018473674 0.4601090550 2.4773788452 4.7237968445 84.447814941 111.23925781 1.3730559349  -999.250000 1.5276410580 1.7103974819
 2102.1250000  -999.250000 12.463926315 -0.010302385 0.4622555673 2.4513034821 4.3802824020 82.770187378 112.09001923 1.3615145683  -999.250000 1.5015237331 1.6692202091
 2102.2500000  -999.250000 12.470811844 0.0081182793 0.4679273367 2.4120454788 4.2174873352 82.501541138 113.93331909 1.3401660919  -999.250000 1.4728374481 1.6202716827
 2102.3750000  -999.250000 12.477542877 0.0261268914 0.4750179946 2.3795046806 4.1896257401 84.465377808 116.74299622 1.3024916649  -999.250000 1.4505593777 1.5856659412
 2102.5000000  -999.250000 12.483014107 0.0366290435 0.4799649119 2.3590073586 4.1913547516 87.852798462 119.07713318 1.2550237179  -999.250000 1.4327828884 1.5689725876
 2102.6250000  -999.250000 12.486379623 0.0403462276 0.4811344147 2.3490605354 4.1952266693 91.566726685 119.86993408 1.2130236626  -999.250000 1.4161217213 1.5633599758
