# LAS format log file from PETREL
# Project units are specified as depth units
#==================================================================
~Version information
VERS.   2.0:
WRAP.   NO:
#==================================================================
~Well
STRT .m      212.75000000 :
STOP .m      3019.0000000 :
STEP .m     0.00000000 :
NULL .        -999.250000 :
COMP.           : COMPANY
WELL.  34/7-21   : WELL
FLD.            : FIELD
LOC.            : LOCATION
SRVC.           : SERVICE COMPANY
DATE.  2018-09-11 14:48:52   : Log Export Date {yyyy-MM-dd HH:mm:ss}
PROV.           : PROVINCE
UWI.   34/7-21   : UNIQUE WELL ID
API.            : API NUMBER
#==================================================================
~Curve
DEPT .m                   : DEPTH
Lithology_geolink ._      : Lithology_geolink
CALI .in                  : CALI
DRHO .g/cm3               : DRHO
NPHI .m3/m3               : NPHI
RHOB .g/cm3               : RHOB
PEF .b/e                  : PEF
GR .gAPI                  : GR
DTC .us/ft                : DTC
RDEP .ohm.m               : RDEP
SP .mV                    : SP
RSHA .ohm.m               : RSHA
RMED .ohm.m               : RMED
~Parameter
#==================================================================
~Ascii
# ...
 2354.7500000  -999.250000 12.149576187 0.0280075967 0.4180761576 2.3346452713 3.5464611053 89.073928833 117.61408997 1.4899413586  -999.250000 1.3048710823 1.7395291328
 2354.8750000  -999.250000 12.161365509 0.0278737731 0.4189247787 2.3350219727 3.5571069717 89.493041992 118.28466797 1.5032792091  -999.250000 1.3192265034 1.7413272858
 2355.0000000  -999.250000 12.169734955 0.0268307365 0.4198926091 2.3367152214 3.5689835548 90.322357178 118.28973389 1.5022621155  -999.250000 1.3411471844 1.7447144985
 2355.1250000  -999.250000 12.172754288 0.0246290825 0.4214886725 2.3386263847 3.5837182999 91.401550293 116.83941650 1.4905726910  -999.250000 1.3616580963 1.7512974739
 2355.2500000  -999.250000 12.171762466 0.0229407065 0.4242449701 2.3395533562 3.5990943909 92.717620850 114.90959167 1.4712042809  -999.250000 1.3731524944 1.7614147663
 2355.3750000  -999.250000 12.171274185 0.0235548317 0.4270469546 2.3392324448 3.6143598557 94.060317993 113.28686523 1.4453208447  -999.250000 1.3754441738 1.7726142406
 2355.5000000  -999.250000 12.174679756 0.0262276679 0.4274709225 2.3380370140 3.6294746399 94.818542480 111.39855957 1.4181387424  -999.250000 1.3763160706 1.7807469368
 2355.6250000  -999.250000 12.180932999 0.0288852751 0.4247668982 2.3364443779 3.6439456940 94.592117310 110.28746033 1.3938574791  -999.250000 1.3836274147 1.7839825153
 2355.7500000  -999.250000 12.185378075 0.0298964828 0.4211937189 2.3350124359 3.6572756767 93.512527466 110.48746490 1.3725984097  -999.250000 1.3959090710 1.7828834057
 2355.8750000  -999.250000 12.181552887 0.0294184946 0.4184772372 2.3342623711 3.6692047119 92.309265137 110.56314087 1.3500542641  -999.250000 1.3990488052 1.7795987129
 2356.0000000  -999.250000 12.169734955 0.0282682218 0.4168428183 2.3344454765 3.6838250160 91.701416016 111.37596893 1.3220150471  -999.250000 1.3793604374 1.7773261070
 2356.1250000  -999.250000 12.153264999 0.0272027776 0.4160237908 2.3352179527 3.7001128197 91.695098877 112.35394287 1.2884323597  -999.250000 1.3372550011 1.7776169777
 2356.2500000  -999.250000 12.136762619 0.0265720747 0.4163201451 2.3360834122 3.7069969177 91.817031860 112.80007935 1.2566571236  -999.250000 1.2879142761 1.7804567814
 2356.3750000  -999.250000 12.124950409 0.0264144130 0.4180064499 2.3370094299 3.7006244659 91.581100464 112.77737427 1.2445638180  -999.250000 1.2499899864 1.7846677303
 2356.5000000  -999.250000 12.119516373 0.0268491432 0.4203624725 2.3382053375 3.6985130310 91.297058105 112.93260193 1.2579081059  -999.250000 1.2335243225 1.7886250019
 2356.6250000  -999.250000 12.121978760 0.0278057121 0.4221507311 2.3397188187 3.7221589088 91.551589966 113.00814819 1.2903819084  -999.250000 1.2412223816 1.7913618088
 2356.7500000  -999.250000 12.133006096 0.0287318751 0.4229674637 2.3414158821 3.7296867371 92.543411255 113.33526611 1.3294351101  -999.250000 1.2709772587 1.7917795181
 2356.8750000  -999.250000 12.151748657 0.0288923234 0.4231597781 2.3431882858 3.6585502625 93.749176025 114.20117188 1.3646726608  -999.250000 1.3157675266 1.7888767719
 2357.0000000  -999.250000 12.172464371 0.0280318260 0.4228882492 2.3447408676 3.5792307854 94.385208130 115.03147888 1.3931405544  -999.250000 1.3662185669 1.7842910290
 2357.1250000  -999.250000 12.191342354 0.0271615684 0.4221526980 2.3460011482 3.5586457253 94.168075562 115.43409729 1.4117691517  -999.250000 1.4119057655 1.7805833817
 2357.2500000  -999.250000 12.208356857 0.0275248699 0.4212724566 2.3480114937 3.5569400787 93.200408936 115.13026428 1.4137122631  -999.250000 1.4438002110 1.7807133198
 2357.3750000  -999.250000 12.228607178 0.0296877734 0.4201983511 2.3528862000 3.5969867706 91.881484985 114.56214905 1.3897774220  -999.250000 1.4641029835 1.7862889767
 2357.5000000  -999.250000 12.256038666 0.0334896743 0.4180697203 2.3618311882 3.6504716873 90.806335449 112.90829468 1.3518993855  -999.250000 1.4859864712 1.7932035923
 2357.6250000  -999.250000 12.289306641 0.0375036821 0.4154268503 2.3718323708 3.6535668373 90.273056030 111.49479675 1.3190250397  -999.250000 1.5210795403 1.7964141369
 2357.7500000  -999.250000 12.321763992 0.0402721688 0.4152103662 2.3768396378 3.6331491470 90.356872559 111.56500244 1.3080995083  -999.250000 1.5669004917 1.7921941280
 2357.8750000  -999.250000 12.344135284 0.0414354056 0.4192180634 2.3739385605 3.6133842468 90.900207520 112.60856628 1.3246467113  -999.250000 1.6059963703 1.7793903351
 2358.0000000  -999.250000 12.356060028 0.0411266983 0.4258336127 2.3655772209 3.6056523323 91.342208862 113.95606995 1.3504674435  -999.250000 1.6240146160 1.7622294426
 2358.1250000  -999.250000 12.361183167 0.0394721329 0.4319173694 2.3571548462 3.6030063629 91.388168335 115.53659058 1.3703629971  -999.250000 1.6199514866 1.7433373928
 2358.2500000  -999.250000 12.364034653 0.0368052125 0.4358512163 2.3523335457 3.5894570351 91.274047852 116.14707947 1.3753437996  -999.250000 1.6038150787 1.7239394188
 2358.3750000  -999.250000 12.366521835 0.0341272503 0.4375716150 2.3509950638 3.5452146530 91.776504517 116.09111023 1.3628659248  -999.250000 1.5866508484 1.7040817738
 2358.5000000  -999.250000 12.368120193 0.0323822349 0.4382244349 2.3511281013 3.4893488884 92.963806152 115.77202606 1.3416578770  -999.250000 1.5709648132 1.6837844849
 2358.6250000  -999.250000 12.368868828 0.0313716382 0.4399298728 2.3505399227 3.4618735313 94.163375854 115.69717407 1.3190312386  -999.250000 1.5534350872 1.6631164551
 2358.7500000  -999.250000 12.369836807 0.0308052376 0.4431761503 2.3490467072 3.4550518990 94.503158569 115.71188354 1.3018543720  -999.250000 1.5316612720 1.6421792507
 2358.8750000  -999.250000 12.371938705 0.0311551988 0.4467330277 2.3479409218 3.4550943375 93.428756714 115.37541199 1.2947015762  -999.250000 1.5090575218 1.6217920780
 2359.0000000  -999.250000 12.374366760 0.0325167030 0.4491322637 2.3482065201 3.4541077614 91.669357300 114.96469879 1.2922413349  -999.250000 1.4906635284 1.6033327579
 2359.1250000  -999.250000 12.376119614 0.0342948139 0.4494724274 2.3495478630 3.4599657059 90.020492554 114.88307190 1.2878146172  -999.250000 1.4774227142 1.5881686211
 2359.2500000  -999.250000 12.376663208 0.0354944915 0.4480825663 2.3509893417 3.4910044670 89.076965332 114.41459656 1.2762417793  -999.250000 1.4681203365 1.5771005154
 2359.3750000  -999.250000 12.376045227 0.0347607955 0.4468876719 2.3519172668 3.5431880951 89.141937256 114.80967712 1.2560939789  -999.250000 1.4609460831 1.5705566406
 2359.5000000  -999.250000 12.375091553 0.0311633870 0.4483827353 2.3521399498 3.5851736069 89.795349121 115.44992065 1.2342236042  -999.250000 1.4540302753 1.5669136047
 2359.6250000  -999.250000 12.374226570 0.0265608542 0.4523985982 2.3522291183 3.6096777916 90.635787964 115.76702881 1.2162470818  -999.250000 1.4459106922 1.5653614998
 2359.7500000  -999.250000 12.373512268 0.0245836638 0.4555835724 2.3529338837 3.6287846565 91.295410156 115.77191162 1.2033472061  -999.250000 1.4364757538 1.5653774738
 2359.8750000  -999.250000 12.373170853 0.0261925533 0.4553768039 2.3540449142 3.6494703293 91.410476685 115.95309448 1.1913523674  -999.250000 1.4272727966 1.5659923553
 2360.0000000  -999.250000 12.373476028 0.0285858661 0.4526194334 2.3545088768 3.6699504852 91.047958374 116.08634949 1.1768145561  -999.250000 1.4197666645 1.5647561550
 2360.1250000  -999.250000 12.374457359 0.0295454413 0.4509009421 2.3541522026 3.6918606758 90.542709351 116.95431519 1.1617319584  -999.250000 1.4149215221 1.5593588352
 2360.2500000  -999.250000 12.375649452 0.0304756649 0.4527306259 2.3543491364 3.7077860832 90.323348999 118.21559143 1.1508004665  -999.250000 1.4140591621 1.5491163731
 2360.3750000  -999.250000 12.375965118 0.0327212736 0.4573509097 2.3559303284 3.7157497406 90.650787354 119.17846680 1.1492207050  -999.250000 1.4183163643 1.5359985828
 2360.5000000  -999.250000 12.374963760 0.0346275568 0.4622203708 2.3580670357 3.7216224670 91.269348145 119.83421326 1.1538636684  -999.250000 1.4283430576 1.5247251987
 2360.6250000  -999.250000 12.372945786 0.0333921388 0.4654603601 2.3590540886 3.7276339531 91.884246826 119.79206848 1.1589295864  -999.250000 1.4438540936 1.5186288357
