# LAS format log file from PETREL
# Project units are specified as depth units
#==================================================================
~Version information
VERS.   2.0:
WRAP.   NO:
#==================================================================
~Well
STRT .m      1820.5001221 :
STOP .m      3000.6250000 :
STEP .m     0.00000000 :
NULL .        -999.250000 :
COMP.           : COMPANY
WELL.  34/7-13   : WELL
FLD.            : FIELD
LOC.            : LOCATION
SRVC.           : SERVICE COMPANY
DATE.  2018-09-11 14:48:51   : Log Export Date {yyyy-MM-dd HH:mm:ss}
PROV.           : PROVINCE
UWI.   34/7-13   : UNIQUE WELL ID
API.            : API NUMBER
#==================================================================
~Curve
DEPT .m                   : DEPTH
Lithology_geolink ._      : Lithology_geolink
CALI .in                  : CALI
BS .in                    : BS
DRHO .g/cm3               : DRHO
NPHI .m3/m3               : NPHI
RHOB .g/cm3               : RHOB
GR .gAPI                  : GR
DTC .us/ft                : DTC
RDEP .ohm.m               : RDEP
SP .mV                    : SP
RSHA .ohm.m               : RSHA
RMED .ohm.m               : RMED
~Parameter
#==================================================================
~Ascii
# ...
 2996.4997559  -999.250000 8.5760002136  -999.250000 0.0859921873 0.3887402713 2.4640078545 63.388000488 32.762001038 1.1250000000 -7.288000107 1.3739999533 1.3739999533
 2996.6247559  -999.250000 8.5760002136  -999.250000 0.0899843797 0.3896863759 2.4610116482 63.388000488 32.762001038 1.1250000000 -7.288000107 1.3739999533 1.3739999533
 2996.7500000  -999.250000 8.5769996643  -999.250000 0.0949902311 0.3896700144 2.4590039253 63.388000488 32.762001038 1.1250000000 -7.288000107 1.3739999533 1.3739999533
 2996.8750000  -999.250000 8.5769996643  -999.250000 0.0979941413 0.3896600306 2.4570038319 63.388000488 32.762001038 1.1250000000 -7.288000107 1.3739999533 1.3739999533
 2997.0000000  -999.250000 8.5760002136  -999.250000 0.1019921824 0.3897198737 2.4550037384 63.388000488 32.762001038 1.1250000000 -7.288000107 1.3739999533 1.3739999533
 2997.1250000  -999.250000 8.5740003586  -999.250000 0.1049941406 0.3901591301 2.4540019035 63.388000488 32.762001038 1.1250000000 -7.288000107 1.3739999533 1.3739999533
 2997.2500000  -999.250000 8.5699996948  -999.250000 0.1109882817 0.3906889558 2.4530019760 63.388000488 32.762001038 1.1250000000 -7.288000107 1.3730000257 1.3730000257
 2997.3750000  -999.250000 8.5659999847  -999.250000 0.1149921864 0.3905702233 2.4559941292 63.388000488 32.762001038 1.1250000000 -7.288000107 1.3730000257 1.3730000257
 2997.5000000  -999.250000 8.5629997253  -999.250000 0.1110078171 0.3902506530 2.4579961300 63.159999847 32.762001038 1.1250000000 -7.288000107 1.3730000257 1.3730000257
 2997.6250000  -999.250000 8.5640001297  -999.250000 0.1090039015 0.3897409737 2.4550058842 64.236999512 32.762001038 1.1250000000 -7.288000107 1.3730000257 1.3730000257
 2997.7500000  -999.250000 8.5690002441  -999.250000 0.1070039049 0.3898697197 2.4520058632 64.699996948 32.762001038 1.1250000000 -7.288000107 1.3730000257 1.3730000257
 2997.8750000  -999.250000 8.5760002136  -999.250000 0.1050039008 0.3904688358 2.4490058422 58.228000641 32.762001038 1.1250000000 -7.288000107 1.3719999790 1.3719999790
 2998.0000000  -999.250000 8.5830001831  -999.250000 0.1030039042 0.3916277289 2.4450078011 42.127998352 32.762001038 1.1250000000 -7.288000107 1.3719999790 1.3719999790
 2998.1250000  -999.250000 8.5900001526  -999.250000 0.0970117226 0.3917597234 2.4380135536 21.260000229 32.762001038  -999.250000 -5.181000233 1.3719999790 1.3719999790
 2998.2500000  -999.250000 8.5970001221  -999.250000 0.0750857741 0.3915707469 2.4280390739 5.1599998474  -999.250000  -999.250000  -999.250000  -999.250000  -999.250000
 2998.3750000  -999.250000 8.5989999771  -999.250000 0.0421289057 0.3913907111 2.4150507450 -1.312000036  -999.250000  -999.250000  -999.250000  -999.250000  -999.250000
 2998.5000000  -999.250000 8.5939998627  -999.250000 -0.001000000 0.3911899924 2.4030001163 -0.849398971  -999.250000  -999.250000  -999.250000  -999.250000  -999.250000
 2998.6252441  -999.250000 8.5860004425  -999.250000 -0.037000000 0.3909299970 2.3959999084 0.2281969935  -999.250000  -999.250000  -999.250000  -999.250000  -999.250000
 2998.7502441  -999.250000 8.5780000687  -999.250000 -0.055000000 0.3906800151 2.3959999084 0.0000000000  -999.250000  -999.250000  -999.250000  -999.250000  -999.250000
 2998.8747559  -999.250000 8.5699996948  -999.250000 -0.040058594 0.3904210031 2.3959999084 0.0000000000  -999.250000  -999.250000  -999.250000  -999.250000  -999.250000
 2998.9997559  -999.250000 8.5659999847  -999.250000 -0.004140625 0.3901709616 2.3950037956 0.0000000000  -999.250000  -999.250000  -999.250000  -999.250000  -999.250000
 2999.1250000  -999.250000 8.5659999847  -999.250000 0.0329277329 0.3896310627 2.3910079002 0.0000000000  -999.250000  -999.250000  -999.250000  -999.250000  -999.250000
 2999.2500000  -999.250000 8.5670003891  -999.250000 0.0809062496 0.3883924186 2.3840136528 0.0000000000  -999.250000  -999.250000  -999.250000  -999.250000  -999.250000
 2999.3750000  -999.250000 8.5670003891  -999.250000 0.1019589826 0.3696167469 2.4009668827 0.0000000000  -999.250000  -999.250000  -999.250000  -999.250000  -999.250000
 2999.5000000  -999.250000 8.5679998398  -999.250000 0.0620781258 0.3018924892 2.4229571819 0.0000000000  -999.250000  -999.250000  -999.250000  -999.250000  -999.250000
 2999.6250000  -999.250000 8.5670003891  -999.250000 0.0091035152 0.2029832900 2.4768946171 0.0000000000  -999.250000  -999.250000  -999.250000  -999.250000  -999.250000
 2999.7500000  -999.250000 8.5649995804  -999.250000 0.0020136719 0.1569696665 2.5079393387 0.0000000000  -999.250000  -999.250000  -999.250000  -999.250000  -999.250000
 2999.8750000  -999.250000 8.5620002747  -999.250000 0.0020000001 0.1441748738 2.5119922161 0.0000000000  -999.250000  -999.250000  -999.250000  -999.250000  -999.250000
 3000.0000000  -999.250000 8.5590000153  -999.250000 0.0020000001 0.1436210275 2.5090060234 0.0000000000  -999.250000  -999.250000  -999.250000  -999.250000  -999.250000
 3000.1250000  -999.250000 8.5559997559  -999.250000 0.0020000001 0.1437696964 2.5080018044 0.0000000000  -999.250000  -999.250000  -999.250000  -999.250000  -999.250000
 3000.2500000  -999.250000 8.5539999008  -999.250000 0.0020000001 0.1439197063 2.5089981556 0.0000000000  -999.250000  -999.250000  -999.250000  -999.250000  -999.250000
 3000.3750000  -999.250000 8.5530004501  -999.250000 0.0020000001 0.1438900530 2.5099980831 0.0000000000  -999.250000  -999.250000  -999.250000  -999.250000  -999.250000
 3000.5000000  -999.250000 8.5570001602  -999.250000 0.0029980468 0.1437901855 2.5109980106 0.0000000000  -999.250000  -999.250000  -999.250000  -999.250000  -999.250000
 3000.6250000  -999.250000 8.5620002747  -999.250000 0.0030000000 0.1437003613 2.5119962692 0.0000000000  -999.250000  -999.250000  -999.250000  -999.250000  -999.250000
