# LAS format log file from PETREL
# Project units are specified as depth units
#==================================================================
~Version information
VERS.   2.0:
WRAP.   NO:
#==================================================================
~Well
STRT .m      1820.5001221 :
STOP .m      3000.6250000 :
STEP .m     0.00000000 :
NULL .        -999.250000 :
COMP.           : COMPANY
WELL.  34/7-13   : WELL
FLD.            : FIELD
LOC.            : LOCATION
SRVC.           : SERVICE COMPANY
DATE.  2018-09-11 14:48:51   : Log Export Date {yyyy-MM-dd HH:mm:ss}
PROV.           : PROVINCE
UWI.   34/7-13   : UNIQUE WELL ID
API.            : API NUMBER
#==================================================================
~Curve
DEPT .m                   : DEPTH
Lithology_geolink ._      : Lithology_geolink
CALI .in                  : CALI
BS .in                    : BS
DRHO .g/cm3               : DRHO
NPHI .m3/m3               : NPHI
RHOB .g/cm3               : RHOB
GR .gAPI                  : GR
DTC .us/ft                : DTC
RDEP .ohm.m               : RDEP
SP .mV                    : SP
RSHA .ohm.m               : RSHA
RMED .ohm.m               : RMED
~Parameter
#==================================================================
~Ascii
# ...
 2366.5000000  -999.250000 13.236000061 12.250000954 0.0130000003 0.2562764585 2.3859999180 87.922996521 106.50599670 1.3980000019 32.217998505 2.7860000134 2.7869999409
 2366.6250000  -999.250000 13.241000175 12.250000954 0.0170000009 0.2570485175 2.3699998856 87.333000183 107.21599579 1.3980000019 32.252998352 2.7760000229 2.7760000229
 2366.7500000  -999.250000 13.245000839 12.250000954 0.0170000009 0.2573094964 2.3580000401 87.051002502 107.89600372 1.3960000277 32.548999786 2.7880001068 2.7880001068
 2366.8750000  -999.250000 13.251000404 12.250000954 0.0149999997 0.2579487562 2.3519999981 87.468002319 108.40299988 1.3940000534 32.978000641 2.7999999523 2.7999999523
 2367.0000000  -999.250000 13.256999969 12.250000954 0.0130038988 0.2592574358 2.3500037193 88.690002441 108.71299744 1.3910000324 33.354999542 2.7980000973 2.7980000973
 2367.1250000  -999.250000 13.262999535 12.250000954 0.0110039059 0.2610165775 2.3480038643 90.371002197 108.91100311 1.3899999857 33.415000916 2.7809998989 2.7809998989
 2367.2500000  -999.250000 13.269001007 12.250000954 0.0100019528 0.2626168728 2.3480000496 91.837997437 109.09400177 1.3890000582 32.855998993 2.7599999905 2.7599999905
 2367.3750000  -999.250000 13.272999763 12.250000954 0.0099999998 0.2633785009 2.3480000496 92.467002869 109.27999878 1.3890000582 31.818002701 2.7439999580 2.7439999580
 2367.5000000  -999.250000 13.277000427 12.250000954 0.0109999999 0.2633101344 2.3480000496 92.033996582 109.44000244 1.3910000324 30.631999969 2.7369999886 2.7369999886
 2367.6250000  -999.250000 13.279999733 12.250000954 0.0109999999 0.2626612782 2.3480000496 90.820999146 109.53900146 1.3940000534 29.615999222 2.7330000401 2.7330000401
 2367.7500000  -999.250000 13.281000137 12.250000954 0.0109999999 0.2618914843 2.3489999771 89.447998047 109.55699921 1.3980000019 29.069000244 2.7330000401 2.7330000401
 2367.8750000  -999.250000 13.279999733 12.250000954 0.0080000004 0.2611214817 2.3510000706 88.543998718 109.51300049 1.4029999971 28.971000671 2.7390000820 2.7390000820
 2368.0000000  -999.250000 13.277999878 12.250000954 0.0049999999 0.2603315711 2.3550000191 88.436996460 109.37200928 1.4079999924 29.256000519 2.7630000114 2.7630000114
 2368.1250000  -999.250000 13.277000427 12.250000954 0.0020000001 0.2597999871 2.3619999886 89.035003662 109.07200623 1.4119999409 29.670999527 2.8069999218 2.8069999218
 2368.2500000  -999.250000 13.277999878 12.250000954 -0.001992203 0.2599297464 2.3709824085 89.946998596 108.62200165 1.4140000343 29.962999344 2.8789999485 2.8780000210
 2368.3750000  -999.250000 13.279001236 12.250000954 -0.005992188 0.2608881295 2.3789842129 90.787002563 108.13500214 1.4140000343 29.839000702 2.9400000572 2.9400000572
 2368.5000000  -999.250000 13.277999878 12.250000954 -0.007996094 0.2620177865 2.3849883080 91.442001343 107.72499847 1.4129999876 29.254999161 2.9609999657 2.9600000381
 2368.6250000  -999.250000 13.274000168 12.250000954 -0.007001953 0.2625889182 2.3830037117 92.106002808 107.52799225 1.4110000134 28.290000916 2.9349999428 2.9349999428
 2368.7500000  -999.250000 13.270000458 12.250000954 -0.003000000 0.2626798153 2.3780000210 93.049003601 107.65799713 1.4090000391 27.252000809 2.8719999790 2.8719999790
 2368.8750000  -999.250000 13.267999649 12.250000954 0.0030000000 0.2627099454 2.3680000305 94.291000366 108.00900269 1.4060000181 26.431999207 2.8059999943 2.8059999943
 2369.0000000  -999.250000 13.265998840 12.250000954 0.0070000002 0.2631491423 2.3589999676 95.467002869 108.46299744 1.4019999504 26.097000122 2.7639999390 2.7650001049
 2369.1250000  -999.250000 13.265998840 12.250000954 0.0080000004 0.2641280890 2.3519999981 96.026000977 108.85399628 1.3960000277 26.184999466 2.7479999065 2.7479999065
 2369.2500000  -999.250000 13.265998840 12.250000954 0.0049999999 0.2655472457 2.3459999561 95.635002136 109.10500336 1.3890000582 26.368000031 2.7490000725 2.7490000725
 2369.3750000  -999.250000 13.267000198 12.250000954 0.0020058481 0.2669672370 2.3450019360 94.462997437 109.23300171 1.3819999695 26.374000549 2.7530000210 2.7530000210
 2369.5000000  -999.250000 13.270000458 12.250000954 -0.000994141 0.2678882182 2.3440020084 93.084999084 109.30800629 1.3769999743 26.125999451 2.7539999485 2.7539999485
 2369.6250000  -999.250000 13.274999619 12.250000954 -0.001998047 0.2676205337 2.3449981213 92.069000244 109.38300323 1.3760000467 25.667999268 2.7530000210 2.7530000210
 2369.7500000  -999.250000 13.281000137 12.250000954 -0.002000000 0.2667117715 2.3450000286 91.634002686 109.49500275 1.3780000210 25.212999344 2.7530000210 2.7530000210
 2369.8750000  -999.250000 13.288000107 12.250000954 -0.001000000 0.2656620443 2.3480000496 91.621002197 109.72899628 1.3810000420 24.944000244 2.7579998970 2.7579998970
 2370.0000000  -999.250000 13.295000076 12.250000954 -0.002000000 0.2649214268 2.3499999046 91.722000122 110.12799835 1.3860000372 25.048999786 2.7739999294 2.7739999294
 2370.1250000  -999.250000 13.298000336 12.250000954 -0.002000000 0.2647403777 2.3519999981 91.710998535 110.49600220 1.3890000582 25.315999985 2.8039999008 2.8039999008
 2370.2500000  -999.250000 13.298000336 12.250000954 -0.002000000 0.2652490139 2.3529999256 91.531997681 110.54799652 1.3910000324 25.489000320 2.8450000286 2.8450000286
 2370.3750000  -999.250000 13.295999527 12.250000954 0.0000000000 0.2660185099 2.3529999256 91.228996277 110.25499725 1.3919999599 25.343000412 2.8770000935 2.8770000935
 2370.5000000  -999.250000 13.293999672 12.250000954 0.0009980507 0.2666887045 2.3529999256 90.861000061 109.76899719 1.3919999599 24.839000702 2.8910000324 2.8900001049
 2370.6250000  -999.250000 13.291000366 12.250000954 0.0019980469 0.2670193315 2.3529999256 90.466003418 109.34899139 1.3910000324 24.114999771 2.8789999485 2.8789999485
 2370.7500000  -999.250000 13.288999557 12.250000954 0.0029980468 0.2670998275 2.3529999256 90.091003418 109.17600250 1.3910000324 23.461000443 2.8519999981 2.8519999981
 2370.8750000  -999.250000 13.284999847 12.250000954 0.0049960935 0.2671598792 2.3549962044 89.861999512 109.21099854 1.3899999857 23.075000763 2.8259999752 2.8259999752
 2371.0000000  -999.250000 13.281000137 12.250000954 0.0070000002 0.2674694061 2.3569962978 89.980003357 109.28399658 1.3899999857 22.930000305 2.8139998913 2.8139998913
 2371.1250000  -999.250000 13.275999069 12.250000954 0.0080000004 0.2680388987 2.3580000401 90.559997559 109.30999756 1.3910000324 22.905000687 2.8150000572 2.8150000572
 2371.2500000  -999.250000 13.274000168 12.250000954 0.0089999996 0.2686188519 2.3610000610 91.439002991 109.29799652 1.3940000534 22.857999802 2.8229999542 2.8229999542
 2371.3750000  -999.250000 13.274000168 12.250000954 0.0109999999 0.2687497437 2.3659999371 92.197998047 109.27799988 1.4010000229 22.719999313 2.8299999237 2.8299999237
 2371.5000000  -999.250000 13.275999069 12.250000954 0.0120000001 0.2680114508 2.3750000000 92.470001221 109.23500061 1.4099999666 22.413000107 2.8350000381 2.8350000381
 2371.6250000  -999.250000 13.281000137 12.250000954 0.0099999998 0.2664999962 2.3889999390 92.210998535 109.08200073 1.4170000553 21.858999252 2.8559999466 2.8559999466
 2371.7500000  -999.250000 13.286999702 12.250000954 0.0040116962 0.2648332417 2.4059667587 91.657997131 108.72399902 1.4210000038 21.097000122 2.9089999199 2.9089999199
 2371.8750000  -999.250000 13.291000366 12.250000954 -0.004982422 0.2640215755 2.4209706783 91.028999329 108.12000275 1.4220000505 20.242000580 2.9990000725 2.9990000725
 2372.0000000  -999.250000 13.292999268 12.250000954 -0.011986328 0.2644292116 2.4269883633 90.323997498 107.39099121 1.4190000296 19.468999863 3.0910000801 3.0899999142
 2372.1250000  -999.250000 13.292999268 12.250000954 -0.012000000 0.2660867572 2.4220097065 89.477996826 106.68598938 1.4140000343 18.902999878 3.1270000935 3.1270000935
 2372.2500000  -999.250000 13.288999557 12.250000954 -0.006000000 0.2678665221 2.4079999924 88.629997253 106.43599701 1.4079999924 18.632999420 3.0590000153 3.0590000153
 2372.3750000  -999.250000 13.282999039 12.250000954 0.0010000000 0.2689079940 2.3900001049 88.133003235 106.65799713 1.4010000229 18.607999802 2.9419999123 2.9419999123
