# LAS format log file from PETREL
# Project units are specified as depth units
#==================================================================
~Version information
VERS.   2.0:
WRAP.   NO:
#==================================================================
~Well
STRT .m      806.37493896 :
STOP .m      2790.0000000 :
STEP .m     0.00000000 :
NULL .        -999.250000 :
COMP.           : COMPANY
WELL.  34/7-12   : WELL
FLD.            : FIELD
LOC.            : LOCATION
SRVC.           : SERVICE COMPANY
DATE.  2018-09-11 14:48:51   : Log Export Date {yyyy-MM-dd HH:mm:ss}
PROV.           : PROVINCE
UWI.   34/7-12   : UNIQUE WELL ID
API.            : API NUMBER
#==================================================================
~Curve
DEPT .m                   : DEPTH
Lithology_geolink ._      : Lithology_geolink
CALI .in                  : CALI
DRHO .g/cm3               : DRHO
NPHI .m3/m3               : NPHI
RHOB .g/cm3               : RHOB
GR .gAPI                  : GR
DTC .us/ft                : DTC
RDEP .ohm.m               : RDEP
SP .mV                    : SP
RSHA .ohm.m               : RSHA
RMED .ohm.m               : RMED
~Parameter
#==================================================================
~Ascii
# ...
 2387.3750000 6.0000000000 14.223999977 -0.020984374 0.3922499716 2.4130020142 82.890998840 115.05799866 1.3990000486 10.387019157 1.8070000410 1.9700000286
 2387.5000000 6.0000000000 14.225000381 -0.012978516 0.3888199925 2.4139981270 82.587997437 115.21199799 1.3960000277 10.396985054 1.7480000257 1.9750000238
 2387.6250000 6.0000000000 14.225999832 -0.001978516 0.3850299716 2.4129962921 81.797996521 115.40899658 1.3919999599 10.388955116 1.7230000496 1.9800000191
 2387.7500000 6.0000000000 14.229000092 0.0090214843 0.3828600049 2.4109940529 81.272003174 115.60800171 1.3860000372 10.365931511 1.7209999561 1.9830000401
 2387.8750000 6.0000000000 14.234000206 0.0200136714 0.3829250634 2.4079921246 81.789001465 115.78600311 1.3789999485 10.330931664 1.7339999676 1.9839999676
 2388.0000000 6.0000000000 14.239000320 0.0270097665 0.3855277896 2.4039921761 83.378997803 115.92099762 1.3730000257 10.295948982 1.7580000162 1.9889999628
 2388.1250000 6.0000000000 14.243000031 0.0320000015 0.3895289600 2.3999941349 85.190002441 116.03099823 1.3680000305 10.269985199 1.7669999599 2.0000000000
 2388.2500000 6.0000000000 14.244999886 0.0319882818 0.3941273391 2.3970060349 86.017997742 116.16000366 1.3669999838 10.262017250 1.7669999599 2.0120000839
 2388.3750000 6.0000000000 14.246000290 0.0259746108 0.3978945911 2.4000234604 85.426002502 116.38800049 1.3689999580 10.271044731 1.7569999695 2.0120000839
 2388.5000000 6.0000000000 14.246000290 0.0129609378 0.4002399743 2.4120488167 83.855003357 116.65599823 1.3719999790 10.293999672 1.7419999838 1.9939999580
 2388.6250000 6.0000000000 14.244000435 -0.007027344 0.4009899795 2.4370586872 82.234001160 116.58200073 1.3730000257 10.335093498 1.7339999676 1.9630000591
 2388.7500000 6.0000000000 14.234999657 -0.021009766 0.4018200040 2.4670469761 81.219001770 115.87200165 1.3700000048 10.383080482 1.7300000191 1.9509999752
 2388.8750000 6.0000000000 14.218000412 -0.025988283 0.4039500058 2.4910058975 80.945999146 114.43800354 1.3619999886 10.424042702 1.7350000143 1.9750000238
 2389.0000000 6.0000000000 14.192998886 -0.019980468 0.4087429643 2.4939706326 81.000999451 112.82900238 1.3519999981 10.446027756 1.7450000048 2.0299999714
 2389.1250000 6.0000000000 14.156000137 -0.009982422 0.4153757989 2.4789512157 81.065002441 111.90999603 1.3450000286 10.460035324 1.7489999533 2.0750000477
 2389.2500000 6.0000000000 14.103999138 -0.000996094 0.4234660566 2.4539530277 81.129997253 112.55599976 1.3430000544 10.478059769 1.7510000467 2.0650000572
 2389.3750000 6.0000000000 14.043999672 0.0009921875 0.4316738546 2.4299688339 81.407997131 114.69100189 1.3450000286 10.509066582 1.7410000563 1.9989999533
 2389.5000000 6.0000000000 14.005001068 -0.003017578 0.4387567043 2.4139902592 82.005996704 117.47399902 1.3489999771 10.543037415 1.7280000448 1.9199999571
 2389.6250000 6.0000000000 14.026000023 -0.012019532 0.4421782196 2.4090018272 82.811996460 119.79699707 1.3500000238 10.561985016 1.7100000381 1.8730000257
 2389.7500000 6.0000000000 14.103999138 -0.022017578 0.4412799776 2.4100117683 83.530998230 120.95400238 1.3459999561 10.553925514 1.6920000315 1.8669999838
 2389.8750000 6.0000000000 14.218000412 -0.031007811 0.4360400140 2.4160175323 83.973999023 120.68800354 1.3380000591 10.515890121 1.6779999733 1.8960000277
 2390.0000000 6.0000000000 14.321999550 -0.034990236 0.4282000065 2.4250156879 84.107002258 119.41899109 1.3289999962 10.459875107 1.6690000296 1.9359999895
 2390.1250000 6.0000000000 14.388999939 -0.029980468 0.4205495417 2.4330060482 84.068000793 117.73699951 1.3200000525 10.395873070 1.6970000267 1.9700000286
 2390.2500000 6.0000000000 14.409999847 -0.019982422 0.4151960909 2.4359884262 83.907997131 116.17700195 1.3150000572 10.330892563 1.7359999418 1.9850000143
 2390.3750000 6.0000000000 14.413000107 -0.010988281 0.4132019579 2.4299747944 83.678001404 115.16400146 1.3120000362 10.275931358 1.7339999676 1.9789999723
 2390.5000000 6.0000000000 14.413000107 -0.004990234 0.4142065048 2.4169747829 83.535003662 115.05000305 1.3099999428 10.240983009 1.7269999981 1.9589999914
 2390.6250000 6.0000000000 14.413999557 0.0000058594 0.4175471961 2.4039804935 83.657997131 115.80899048 1.3090000153 10.232050896 1.7189999819 1.9340000153
 2390.7500000 6.0000000000 14.416999817 0.0030058594 0.4212136567 2.3939902782 83.952003479 117.23600006 1.3059999943 10.258149147 1.7109999657 1.9119999409
 2390.8750000 6.0000000000 14.420000076 0.0059980471 0.4230899811 2.3889980316 84.220001221 118.75199890 1.3009999990 10.334239960 1.7029999495 1.8940000534
 2391.0000000 6.0000000000 14.421999931 0.0049941405 0.4222300053 2.3880038261 84.420997620 119.86799622 1.2960000038 10.457310677 1.6959999800 1.8789999485
 2391.1250000 6.0000000000 14.423000336 0.0019882813 0.4190599918 2.3900039196 84.693000793 120.15000916 1.2910000086 10.616307259 1.6890000105 1.8660000563
 2391.2500000 6.0000000000 14.421000481 -0.004009766 0.4149700105 2.3920059204 85.162002563 119.70600128 1.2879999876 10.773253441 1.6820000410 1.8589999676
 2391.3750000 6.0000000000 14.418000221 -0.009009765 0.4114357829 2.3950059414 85.794998169 118.82900238 1.2869999409 10.903189659 1.6809999943 1.8589999676
 2391.5000000 6.0000000000 14.414999962 -0.014011719 0.4092673063 2.3980059624 86.303001404 117.90100098 1.2890000343 11.000164032 1.6799999475 1.8639999628
 2391.6250000 6.0000000000 14.416000366 -0.020009765 0.4078865349 2.4010038376 86.388999939 117.15899658 1.2940000296 11.084161758 1.6790000200 1.8689999580
 2391.7500000 6.0000000000 14.418999672 -0.025001954 0.4060931206 2.4030020237 85.997001648 116.71299744 1.3009999990 11.167138100 1.6809999943 1.8760000467
 2391.8750000 6.0000000000 14.425000191 -0.025994141 0.4025697410 2.4040019512 85.588996887 116.47799683 1.3090000153 11.238078117 1.6879999638 1.8839999437
 2392.0000000 6.0000000000 14.430000305 -0.022990234 0.3973167539 2.4049961567 85.478996277 116.31400299 1.3190000057 11.277917862 1.6959999800 1.8940000534
 2392.1250000 6.0000000000 14.428999901 -0.017988281 0.3905199766 2.4029941559 85.522003174 116.13099670 1.3309999704 11.235761642 1.7000000477 1.9060000181
 2392.2500000 6.0000000000 14.423999786 -0.011988281 0.3834400177 2.3999941349 85.450996399 115.89899445 1.3430000544 11.113611221 1.7020000219 1.9179999828
 2392.3750000 6.0000000000 14.418999672 -0.005982422 0.3770500124 2.3970000744 85.224998474 115.60198975 1.3569999933 10.914541245 1.6920000315 1.9290000200
 2392.5000000 6.0000000000 14.416999817 0.0030195313 0.3728364110 2.3970038891 85.106002808 115.21099854 1.3719999790 10.679586411 1.6870000362 1.9420000315
 2392.6250000 6.0000000000 14.418999672 0.0130175781 0.3709928393 2.3990097046 85.275001526 114.75499725 1.3880000114 10.467724800 1.7009999752 1.9559999704
 2392.7500000 7.0000000000 14.421000481 0.0220097657 0.3724685609 2.4040117264 85.805999756 114.26100159 1.4049999714 10.326859474 1.7230000496 1.9670000076
 2392.8750000 7.0000000000 14.423000336 0.0270039067 0.3768606186 2.4100098610 86.480003357 113.80599976 1.4259999990 10.254912376 1.7589999437 1.9769999981
 2393.0000000 7.0000000000 14.423000336 0.0289980453 0.3822877407 2.4150018692 87.082000732 113.43599701 1.4490000010 10.209849358 1.7899999619 1.9859999418
 2393.1250000 7.0000000000 14.421000481 0.0279902350 0.3862431943 2.4159979820 87.313003540 113.20999908 1.4759999514 10.132771492 1.7910000086 1.9969999790
 2393.2500000 6.0000000000 14.418999672 0.0229824223 0.3878699839 2.4149901867 87.164001465 113.07800293 1.5030000210 10.015751839 1.7910000086 2.0109999180
 2393.3750000 6.0000000000 14.416000366 0.0139726568 0.3881300092 2.4099903107 86.496002197 112.98799896 1.5269999504 9.8888807297 1.7910000086 2.0280001163
 2393.5000000 6.0000000000 14.416000366 -0.000027344 0.3896200061 2.4049901962 85.416999817 112.83999634 1.5470000505 9.8280858994 1.7890000343 2.0499999523
 2393.6250000 6.0000000000 14.418000221 -0.014023438 0.3927776515 2.3999962807 84.176002502 112.57099915 1.5659999847 9.8723125458 1.7810000181 2.0769999027
