# LAS format log file from PETREL
# Project units are specified as depth units
#==================================================================
~Version information
VERS.   2.0:
WRAP.   NO:
#==================================================================
~Well
STRT .m      377.87487793 :
STOP .m      3151.8757324 :
STEP .m     0.00000000 :
NULL .        -999.250000 :
COMP.           : COMPANY
WELL.  34/7-5   : WELL
FLD.            : FIELD
LOC.            : LOCATION
SRVC.           : SERVICE COMPANY
DATE.  2018-09-11 14:48:52   : Log Export Date {yyyy-MM-dd HH:mm:ss}
PROV.           : PROVINCE
UWI.   34/7-5   : UNIQUE WELL ID
API.            : API NUMBER
#==================================================================
~Curve
DEPT .m                   : DEPTH
Lithology_geolink ._      : Lithology_geolink
CALI .in                  : CALI
DRHO .g/cm3               : DRHO
NPHI .m3/m3               : NPHI
RHOB .g/cm3               : RHOB
GR .gAPI                  : GR
DTC .us/ft                : DTC
RDEP .ohm.m               : RDEP
SP .mV                    : SP
RSHA .ohm.m               : RSHA
RMED .ohm.m               : RMED
~Parameter
#==================================================================
~Ascii
# ...
 1850.4998779  -999.250000 15.494999886 -0.437000006 0.3449700177 2.1429998875 21.788000107 117.37999725 1.2860000134 17.593000412 1.1269999743 1.1269999743
 1850.6248779  -999.250000 15.491999626 -0.442999989 0.3511600196 2.1429998875 22.319000244 116.85700226 1.2810000181 17.656000137 1.1250000000 1.1250000000
 1850.7502441  -999.250000 15.489999771 -0.449000001 0.3572899997 2.1419999599 22.687999725 116.67500305 1.2769999504 18.038999557 1.1239999533 1.1239999533
 1850.8748779  -999.250000 15.487000465 -0.458999991 0.3616999686 2.1389999390 23.000000000 117.13600159 1.2710000277 18.372999191 1.1239999533 1.1239999533
 1850.9997559  -999.250000 15.484001160 -0.476000011 0.3660699725 2.1349999905 23.194999695 117.73699951 1.2660000324 18.700000763 1.1250000000 1.1250000000
 1851.1251221  -999.250000 15.480998993 -0.493999988 0.3704499900 2.1280000210 22.863000870 117.84200287 1.2610000372 19.027000427 1.1250000000 1.1250000000
 1851.2500000  -999.250000 15.477999687 -0.495999992 0.3703700006 2.1210000515 22.117000580 117.83000183 1.2580000162 19.353000641 1.1260000467 1.1260000467
 1851.3750000  -999.250000 15.475000381 -0.493999988 0.3618299961 2.1150000095 21.415000916 117.81301117 1.2580000162 19.662000656 1.1269999743 1.1269999743
 1851.5000000  -999.250000 15.472000122 -0.490999997 0.3519600034 2.1119999886 20.725000381 117.68000031 1.2589999437 19.944000244 1.1269999743 1.1269999743
 1851.6250000  -999.250000 15.470000267 -0.486000001 0.3420999944 2.1089999676 20.049999237 118.58799744 1.2599999905 20.225999832 1.1280000210 1.1280000210
 1851.7498779  -999.250000 15.468000412 -0.481000006 0.3322300017 2.1089999676 19.587999344 121.21299744 1.2649999857 20.506999969 1.1319999695 1.1319999695
 1851.8752441  -999.250000 15.465999603 -0.476000011 0.3255899847 2.1129999161 19.589000702 123.88800049 1.2699999809 20.746000290 1.1460000277 1.1460000277
 1852.0000000  -999.250000 15.463998795 -0.470999986 0.3270999789 2.1210000515 19.995000839 126.56301117 1.2760000229 20.511999130 1.1579999924 1.1579999924
 1852.1248779  -999.250000 15.461999893 -0.465999991 0.3367899954 2.1310000420 20.548000336 129.23800659 1.2810000181 19.166999817 1.1710000038 1.1710000038
 1852.2501221  -999.250000 15.460000038 -0.460999995 0.3479299843 2.1400001049 21.204000473 131.14300537 1.2860000134 17.525999069 1.1710000038 1.1710000038
 1852.3750000  -999.250000 15.458000183 -0.458999991 0.3590599895 2.1500000954 21.464000702 130.57400513 1.2869999409 15.960000038 1.1690000296 1.1690000296
 1852.5000000  -999.250000 15.453000069 -0.458000004 0.3659299910 2.1589999199 21.229000092 128.78399658 1.2879999876 14.670000076 1.1670000553 1.1670000553
 1852.6250000  -999.250000 15.444999695 -0.456999987 0.3641999960 2.1619999409 20.945999146 125.30200195 1.2890000343 13.380999565 1.1640000343 1.1640000343
 1852.7500000  -999.250000 15.425999641 -0.463000000 0.3587200046 2.1619999409 20.645999908 121.94800568 1.2890000343 12.293000221 1.1599999666 1.1599999666
 1852.8748779  -999.250000 15.390999794 -0.472999990 0.3528900146 2.1600000858 20.384000778 120.25499725 1.2869999409 12.697999954 1.1540000439 1.1540000439
 1852.9998779  -999.250000 15.355000496 -0.442999989 0.3497999907 2.1589999199 20.913999557 119.49600220 1.2840000391 13.479999542 1.1490000486 1.1490000486
 1853.1250000  -999.250000 15.333999634 -0.388000011 0.3527700007 2.1700000763 21.562999725 120.10900116 1.2810000181 14.767000198 1.1440000534 1.1440000534
 1853.2498779  -999.250000 15.326999664 -0.314000010 0.3639500141 2.1919999123 22.222999573 121.24700165 1.2730000019 16.107999802 1.1410000324 1.1410000324
 1853.3747559  -999.250000 15.326000214 -0.248999998 0.3773300052 2.2149999142 22.931999207 122.38099670 1.2619999647 16.712999344 1.1380000114 1.1380000114
 1853.5001221  -999.250000 15.331999779 -0.215000004 0.3895399868 2.2369999886 23.351999283 123.51499939 1.2569999695 16.988000870 1.1390000582 1.1390000582
 1853.6250000  -999.250000 15.338000298 -0.193000004 0.3889199793 2.2469999790 23.343999863 124.21500397 1.2549999952 17.083999634 1.1430000067 1.1430000067
 1853.7500000  -999.250000 15.345000267 -0.200000003 0.3809299767 2.2320001125 23.177000046 124.10600281 1.2539999485 17.100000381 1.1469999552 1.1469999552
 1853.8750000  -999.250000 15.352000237 -0.246999994 0.3659700155 2.2139999866 23.091999054 123.23400116 1.2519999743 16.561000824 1.1519999504 1.1519999504
 1854.0000000  -999.250000 15.358000755 -0.303999990 0.3513900042 2.1970000267 23.145000458 121.93399811 1.2510000467 15.817999840 1.1590000391 1.1590000391
 1854.1248779  -999.250000 15.365000725 -0.335000008 0.3379399776 2.1809999943 23.204000473 120.61100006 1.2560000420 14.699999809 1.1649999619 1.1649999619
 1854.2502441  -999.250000 15.371998787 -0.328999996 0.3246300220 2.1800000668 23.263000488 119.32900238 1.2640000582 12.770000458 1.1720000505 1.1720000505
 1854.3750000  -999.250000 15.378998756 -0.303000003 0.3185999990 2.1909999847 23.322999954 118.47399902 1.2719999552 11.522999763 1.1790000200 1.1790000200
 1854.4998779  -999.250000 15.385001183 -0.277000010 0.3198699951 2.2019999027 23.384000778 118.29299927 1.2810000181 10.609000206 1.1870000362 1.1870000362
 1854.6251221  -999.250000 15.392001152 -0.263000011 0.3201299906 2.2130000591 23.444999695 118.08399963 1.2899999619 10.517999649 1.2109999657 1.2109999657
 1854.7501221  -999.250000 15.398999214 -0.275000006 0.3139199913 2.2200000286 23.506999969 117.87000275 1.3059999943 10.972000122 1.2280000448 1.2280000448
 1854.8750000  -999.250000 15.404999733 -0.293000013 0.3045099974 2.2219998837 23.566999435 117.63300323 1.3229999542 12.034000397 1.2430000305 1.2430000305
 1855.0000000  -999.250000 15.409999847 -0.312000006 0.2961100042 2.2239999771 22.996000290 117.39299774 1.3400000334 13.182999611 1.2569999695 1.2569999695
 1855.1250000  -999.250000 15.407999992 -0.331000000 0.2953700125 2.2219998837 22.555000305 117.30100250 1.3569999933 14.326000214 1.2710000277 1.2710000277
 1855.2498779  -999.250000 15.402999878 -0.349000007 0.2995299995 2.2190001011 22.120000839 117.38700104 1.3739999533 15.442999840 1.2799999714 1.2799999714
 1855.3748779  -999.250000 15.398999214 -0.360000014 0.3149999976 2.2139999866 21.805000305 117.54299927 1.3949999809 16.385999680 1.2810000181 1.2810000181
 1855.5000000  -999.250000 15.394000053 -0.349000007 0.3297699988 2.2130000591 21.704999924 117.79799652 1.4179999828 17.055999756 1.2810000181 1.2810000181
 1855.6248779  -999.250000 15.388998985 -0.314999998 0.3389799893 2.2139999866 22.000000000 118.11499786 1.4320000410 17.580999374 1.2810000181 1.2810000181
 1855.7497559  -999.250000 15.385001183 -0.277999997 0.3462300003 2.2260000706 22.481000900 118.62799835 1.4329999685 17.721000671 1.2769999504 1.2769999504
 1855.8751221  -999.250000 15.383000374 -0.240999997 0.3481799960 2.2369999886 22.958999634 118.58499908 1.4340000153 17.643999100 1.2710000277 1.2710000277
 1856.0000000  -999.250000 15.397000313 -0.207000002 0.3485800028 2.2479999065 22.934000015 118.19100189 1.4309999943 17.597000122 1.2660000324 1.2660000324
 1856.1250000  -999.250000 15.425000191 -0.187000006 0.3496699929 2.2539999485 22.781999588 117.61199951 1.4259999990 17.606000900 1.2619999647 1.2619999647
 1856.2500000  -999.250000 15.454000473 -0.169000000 0.3547900021 2.2569999695 22.496000290 117.02600098 1.4199999571 17.829999924 1.2589999437 1.2589999437
 1856.3750000  -999.250000 15.475000381 -0.165999994 0.3535100222 2.2609999180 22.017000198 116.64900208 1.4140000343 18.614000320 1.2569999695 1.2569999695
 1856.4998779  -999.250000 15.484999657 -0.194000006 0.3456299901 2.2639999390 21.434000015 116.36399841 1.4110000134 19.452999115 1.2549999952 1.2549999952
 1856.6252441  -999.250000 15.489000320 -0.224999994 0.3312799931 2.2530000210 20.820999146 116.36799622 1.4119999409 20.357999802 1.2519999743 1.2519999743
 1856.7501221  -999.250000 15.493000031 -0.256000012 0.3160199821 2.2390000820 20.406999588 116.41000366 1.4129999876 21.263999939 1.2489999533 1.2489999533
