# LAS format log file from PETREL
# Project units are specified as depth units
#==================================================================
~Version information
VERS.   2.0:
WRAP.   NO:
#==================================================================
~Well
STRT .m      417.47238159 :
STOP .m      3182.7705078 :
STEP .m     0.00000000 :
NULL .        -999.250000 :
COMP.           : COMPANY
WELL.  34/7-20   : WELL
FLD.            : FIELD
LOC.            : LOCATION
SRVC.           : SERVICE COMPANY
DATE.  2018-09-11 14:48:52   : Log Export Date {yyyy-MM-dd HH:mm:ss}
PROV.           : PROVINCE
UWI.   34/7-20   : UNIQUE WELL ID
API.            : API NUMBER
#==================================================================
~Curve
DEPT .m                   : DEPTH
Lithology_geolink ._      : Lithology_geolink
CALI .in                  : CALI
DRHO .g/cm3               : DRHO
NPHI .m3/m3               : NPHI
RHOB .g/cm3               : RHOB
GR .gAPI                  : GR
DTC .us/ft                : DTC
RDEP .ohm.m               : RDEP
SP .mV                    : SP
RSHA .ohm.m               : RSHA
RMED .ohm.m               : RMED
~Parameter
#==================================================================
~Ascii
# ...
 1699.9183350  -999.250000 17.757499695  -999.250000  -999.250000  -999.250000  -999.250000 117.14085388 1.3689489365 44.141483307 2.6243643761 1.1357433796
 1700.0708008  -999.250000 17.750000000  -999.250000  -999.250000  -999.250000  -999.250000 116.84860992 1.3576655388 43.457443237 2.6704878807 1.1362535954
 1700.2231445  -999.250000 17.725605011  -999.250000  -999.250000  -999.250000  -999.250000 117.00749207 1.3490395546 42.608753204 2.7536296844 1.1387548447
 1700.3756104  -999.250000 17.727500916  -999.250000  -999.250000  -999.250000  -999.250000 117.09597778 1.3542935848 42.222606659 2.7685604095 1.1456954479
 1700.5279541  -999.250000 17.766262054  -999.250000  -999.250000  -999.250000  -999.250000 116.79183960 1.3740022182 42.945907593 2.7643256187 1.1554629803
 1700.6804199  -999.250000 17.773124695  -999.250000  -999.250000  -999.250000  -999.250000 116.34146118 1.3892860413 44.225765228 2.7218718529 1.1626844406
 1700.8327637  -999.250000 17.724967957  -999.250000  -999.250000  -999.250000  -999.250000 116.46426392 1.3915762901 46.052330017 2.8922529221 1.1630060673
 1700.9852295  -999.250000 17.695625305  -999.250000  -999.250000  -999.250000  -999.250000 117.31732178 1.3982300758 47.127380371 3.0832324028 1.1580927372
 1701.1375732  -999.250000 17.727519989  -999.250000  -999.250000  -999.250000  -999.250000 117.12548828 1.4123604298 47.112613678 3.0865616798 1.1537582874
 1701.2900391  -999.250000 17.733749390  -999.250000  -999.250000  -999.250000  -999.250000 116.44802856 1.4153869152 46.761657715 2.9491319656 1.1553933620
 1701.4423828  -999.250000 17.678092957  -999.250000  -999.250000  -999.250000  -999.250000 116.34728241 1.4060144424 47.236534119 2.6890950203 1.1632881165
 1701.5948486  -999.250000 17.648750305  -999.250000  -999.250000  -999.250000  -999.250000 115.98852539 1.3978595734 47.150978088 2.5627121925 1.1725342274
 1701.7471924  -999.250000 17.672523499  -999.250000  -999.250000  -999.250000  -999.250000 115.70002747 1.3980429173 45.944946289 2.6018590927 1.1782789230
 1701.8995361  -999.250000 17.679367065  -999.250000  -999.250000  -999.250000  -999.250000 115.07975769 1.4044449329 45.854667664 2.6732358932 1.1771423817
 1702.0520020  -999.250000 17.671875000  -999.250000  -999.250000  -999.250000  -999.250000 115.07153320 1.4112441540 46.321418762 2.6281085014 1.1681978703
 1702.2043457  -999.250000 17.663742065  -999.250000  -999.250000  -999.250000  -999.250000 115.96381378 1.4145629406 47.532695770 2.7353582382 1.1534781456
 1702.3568115  -999.250000 17.648124695  -999.250000  -999.250000  -999.250000  -999.250000 116.55943298 1.4109647274 48.522521973 2.7856159210 1.1379075050
 1702.5091553  -999.250000 17.648754120  -999.250000  -999.250000  -999.250000  -999.250000 116.95603943 1.3920130730 48.076309204 2.7834858894 1.1268055439
 1702.6616211  -999.250000 17.688751221  -999.250000  -999.250000  -999.250000  -999.250000 117.35894775 1.3688182831 47.985736847 2.7899856567 1.1225430965
 1702.8139648  -999.250000 17.718750000  -999.250000  -999.250000  -999.250000  -999.250000 117.49674988 1.3608698845 47.122077942 2.6418428421 1.1230857372
 1702.9664307  -999.250000 17.751251221  -999.250000  -999.250000  -999.250000  -999.250000 117.76237488 1.3684220314 46.585285187 2.6238045692 1.1250333786
 1703.1187744  -999.250000 17.773117065  -999.250000  -999.250000  -999.250000  -999.250000 117.78879547 1.3790504932 46.379428864 2.6101913452 1.1244518757
 1703.2712402  -999.250000 17.765625000  -999.250000  -999.250000  -999.250000  -999.250000 117.55134583 1.3812875748 45.057937622 2.6305174828 1.1200067997
 1703.4235840  -999.250000 17.700572968  -999.250000  -999.250000  -999.250000  -999.250000 117.39178467 1.3773419857 44.628021240 2.6279215813 1.1161775589
 1703.5760498  -999.250000 17.681251526  -999.250000  -999.250000  -999.250000  -999.250000 117.04481506 1.3734805584 45.390510559 2.5140128136 1.1172695160
 1703.7283936  -999.250000 17.743164063  -999.250000  -999.250000  -999.250000  -999.250000 117.26345825 1.3730843067 46.154129028 2.4949655533 1.1237039566
 1703.8808594  -999.250000 17.741230011  -999.250000  -999.250000  -999.250000  -999.250000 117.60087585 1.3709857464 46.448013306 2.5543045998 1.1309587955
 1704.0332031  -999.250000 17.743125916  -999.250000  -999.250000  -999.250000  -999.250000 117.96289063 1.3671786785 46.650966644 2.6866989136 1.1312401295
 1704.1855469  -999.250000 17.749359131  -999.250000  -999.250000  -999.250000  -999.250000 118.19625092 1.3778929710 47.523921967 2.6030964851 1.1223053932
 1704.3380127  -999.250000 17.758750916  -999.250000  -999.250000  -999.250000  -999.250000 118.15141296 1.4018409252 47.914756775 2.5426077843 1.1101341248
 1704.4903564  -999.250000 17.756855011  -999.250000  -999.250000  -999.250000  -999.250000 117.93951416 1.4181082249 47.618633270 2.6062984467 1.1034910679
 1704.6428223  -999.250000 17.758750916  -999.250000  -999.250000  -999.250000  -999.250000 117.02172852 1.4173126221 47.433025360 2.5640664101 1.1101691723
 1704.7951660  -999.250000 17.781250000  -999.250000  -999.250000  -999.250000  -999.250000 114.58274841 1.4105606079 46.910938263 2.5998249054 1.1324274540
 1704.9476318  -999.250000 17.781250000  -999.250000  -999.250000  -999.250000  -999.250000 112.79693604 1.4143064022 46.651397705 2.8763957024 1.1652424335
 1705.0999756  -999.250000 17.781250000  -999.250000  -999.250000  -999.250000  -999.250000 113.06309509 1.4376862049 47.600357056 3.0926933289 1.1993513107
 1705.2524414  -999.250000 17.781250000  -999.250000  -999.250000  -999.250000  -999.250000 113.34793091 1.4743771553 49.410018921 3.0205168724 1.2244648933
 1705.4047852  -999.250000 17.781250000  -999.250000  -999.250000  -999.250000  -999.250000 113.19720459 1.5038220882 49.618972778 2.8139758110 1.2344059944
 1705.5572510  -999.250000 17.781250000  -999.250000  -999.250000  -999.250000  -999.250000 113.56643677 1.5146582127 49.240356445 2.6359558105 1.2323062420
 1705.7095947  -999.250000 17.781250000  -999.250000  -999.250000  -999.250000  -999.250000 113.48080444 1.4983859062 48.213562012 2.6496734619 1.2274639606
 1705.8620605  -999.250000 17.781250000  -999.250000  -999.250000  -999.250000  -999.250000 112.89888000 1.4646737576 48.383224487 2.7687983513 1.2255809307
 1706.0144043  -999.250000 17.781250000  -999.250000  -999.250000  -999.250000  -999.250000 113.84004211 1.4304714203 48.191635132 2.8198609352 1.2235338688
 1706.1667480  -999.250000 17.781250000  -999.250000  -999.250000  -999.250000  -999.250000 115.83940887 1.3978228569 46.830963135 2.7464303970 1.2110002041
 1706.3192139  -999.250000 17.781250000  -999.250000  -999.250000  -999.250000  -999.250000 117.47557068 1.3731880188 46.332176208 2.5864186287 1.1808829308
 1706.4715576  -999.250000 17.773117065  -999.250000  -999.250000  -999.250000  -999.250000 119.13980103 1.3607072830 45.479545593 2.5549712181 1.1377570629
 1706.6240234  -999.250000 17.773750305  -999.250000  -999.250000  -999.250000  -999.250000 121.49969482 1.3548760414 45.519641876 2.6332850456 1.0939414501
 1706.7763672  -999.250000 17.773117065  -999.250000  -999.250000  -999.250000  -999.250000 122.79966736 1.3464386463 46.309349060 2.5214877129 1.0615379810
 1706.9288330  -999.250000 17.765625000  -999.250000  -999.250000  -999.250000  -999.250000 122.59295654 1.3306806087 47.178535461 2.4146261215 1.0462648869
 1707.0811768  -999.250000 17.773754120  -999.250000  -999.250000  -999.250000  -999.250000 122.60816956 1.3121616840 47.333671570 2.4226531982 1.0455091000
 1707.2336426  -999.250000 17.781250000  -999.250000  -999.250000  -999.250000  -999.250000 123.21545410 1.2986471653 46.536270142 2.4523539543 1.0524151325
 1707.3859863  -999.250000 17.781250000  -999.250000  -999.250000  -999.250000  -999.250000 123.91285706 1.2934353352 46.564666748 2.4396781921 1.0596814156
 1707.5384521  -999.250000 17.781250000  -999.250000  -999.250000  -999.250000  -999.250000 124.66731262 1.2919523716 46.427234650 2.4095516205 1.0609707832
