# LAS format log file from PETREL
# Project units are specified as depth units
#==================================================================
~Version information
VERS.   2.0:
WRAP.   NO:
#==================================================================
~Well
STRT .m      377.87487793 :
STOP .m      3151.8757324 :
STEP .m     0.00000000 :
NULL .        -999.250000 :
COMP.           : COMPANY
WELL.  34/7-5   : WELL
FLD.            : FIELD
LOC.            : LOCATION
SRVC.           : SERVICE COMPANY
DATE.  2018-09-11 14:48:52   : Log Export Date {yyyy-MM-dd HH:mm:ss}
PROV.           : PROVINCE
UWI.   34/7-5   : UNIQUE WELL ID
API.            : API NUMBER
#==================================================================
~Curve
DEPT .m                   : DEPTH
Lithology_geolink ._      : Lithology_geolink
CALI .in                  : CALI
DRHO .g/cm3               : DRHO
NPHI .m3/m3               : NPHI
RHOB .g/cm3               : RHOB
GR .gAPI                  : GR
DTC .us/ft                : DTC
RDEP .ohm.m               : RDEP
SP .mV                    : SP
RSHA .ohm.m               : RSHA
RMED .ohm.m               : RMED
~Parameter
#==================================================================
~Ascii
# ...
 1487.1250000  -999.250000 17.708000183 0.0299999993  -999.250000 2.0469999313 29.687999725 145.61900330 0.7179999948 54.957000732 0.7950000167 0.7950000167
 1487.2500000  -999.250000 17.576999664 0.0250000004  -999.250000 2.0469999313 30.091999054 146.32499695 0.7139999866 55.437000275 0.7860000134 0.7860000134
 1487.3748779  -999.250000 17.455999374 0.0230000000  -999.250000 2.0510001183 30.875999451 148.51100159 0.7110000253 55.880001068 0.7699999809 0.7699999809
 1487.5002441  -999.250000 17.409999847 0.0230000000  -999.250000 2.0559999943 31.722000122 150.66499329 0.7080000043 56.323001862 0.7580000162 0.7580000162
 1487.6251221  -999.250000 17.444000244 0.0270000007  -999.250000 2.0599999428 32.529998779 153.42100525 0.7020000219 56.764999390 0.7500000000 0.7500000000
 1487.7498779  -999.250000 17.488000870 0.0299999993  -999.250000 2.0639998913 33.337001801 156.44500732 0.6949999928 57.154998779 0.7429999709 0.7429999709
 1487.8747559  -999.250000 17.527000427 0.0340000018  -999.250000 2.0650000572 33.994998932 158.41099548 0.6869999766 57.518001556 0.7360000014 0.7360000014
 1488.0001221  -999.250000 17.559999466 0.0350000001  -999.250000 2.0629999638 33.801998138 159.38800049 0.6809999943 57.456001282 0.7360000014 0.7360000014
 1488.1250000  -999.250000 17.586000443 0.0350000001  -999.250000 2.0610001087 32.811000824 158.59298706 0.6809999943 56.837001801 0.7400000095 0.7400000095
 1488.2500000  -999.250000 17.596000671 0.0320000015  -999.250000 2.0610001087 32.067001343 157.82000732 0.6830000281 56.013999939 0.7469999790 0.7469999790
 1488.3750000  -999.250000 17.587999344 0.0299999993  -999.250000 2.0629999638 31.533000946 157.07600403 0.6899999976 55.146999359 0.7559999824 0.7559999824
 1488.5000000  -999.250000 17.570999146 0.0329999998  -999.250000 2.0690000057 31.584999084 156.45500183 0.6980000138 54.279998779 0.7689999938 0.7689999938
 1488.6248779  -999.250000 17.551000595 0.0379999988  -999.250000 2.0759999752 31.974000931 155.90699768 0.7059999704 53.692001343 0.7749999762 0.7749999762
 1488.7502441  -999.250000 17.533000946 0.0430000015  -999.250000 2.0850000381 32.381000519 155.43699646 0.7129999995 53.556999207 0.7749999762 0.7749999762
 1488.8751221  -999.250000 17.525999069 0.0480000004  -999.250000 2.0940001011 32.824001312 154.97401428 0.7189999819 53.957000732 0.7749999762 0.7749999762
 1488.9997559  -999.250000 17.541999817 0.0529999994  -999.250000 2.0989999771 33.090999603 153.89900208 0.7200000286 54.516998291 0.7749999762 0.7749999762
 1489.1251221  -999.250000 17.566999435 0.0529999994  -999.250000 2.0999999046 33.071998596 152.56399536 0.7200000286 55.118000031 0.7749999762 0.7749999762
 1489.2500000  -999.250000 17.591999054 0.0500000007  -999.250000 2.0989999771 32.770000458 151.13499451 0.7200000286 55.729999542 0.7760000229 0.7760000229
 1489.3750000  -999.250000 17.617000580 0.0469999984  -999.250000 2.0929999352 32.587001801 149.80400085 0.7200000286 56.264999390 0.7760000229 0.7760000229
 1489.5000000  -999.250000 17.642000198 0.0430000015  -999.250000 2.0820000172 32.585998535 148.66400146 0.7179999948 56.631999969 0.7760000229 0.7760000229
 1489.6250000  -999.250000 17.663999557 0.0390000008  -999.250000 2.0699999332 32.791000366 148.19700623 0.7170000076 56.669998169 0.7760000229 0.7760000229
 1489.7498779  -999.250000 17.672000885 0.0350000001  -999.250000 2.0550000668 32.819999695 148.42300415 0.7160000205 56.520999908 0.7760000229 0.7760000229
 1489.8752441  -999.250000 17.672000885 0.0309999995  -999.250000 2.0369999409 32.180000305 149.00599670 0.7139999866 56.080001831 0.7760000229 0.7760000229
 1490.0001221  -999.250000 17.666000366 0.0270000007  -999.250000 2.0320000648 31.393999100 149.33700562 0.7120000124 55.551998138 0.7760000229 0.7760000229
 1490.1248779  -999.250000 17.645999908 0.0230000000  -999.250000 2.0309998989 30.753000259 149.27999878 0.7080000043 55.055000305 0.7749999762 0.7749999762
 1490.2497559  -999.250000 17.618999481 0.0209999997  -999.250000 2.0350000858 30.424999237 149.49299622 0.7049999833 54.823001862 0.7739999890 0.7739999890
 1490.3751221  -999.250000 17.596000671 0.0199999996  -999.250000 2.0450000763 30.309999466 150.13800049 0.7020000219 54.672000885 0.7730000019 0.7730000019
 1490.5000000  -999.250000 17.579000473 0.0240000002  -999.250000 2.0529999733 30.277000427 150.88900757 0.6970000267 54.646999359 0.7720000148 0.7720000148
 1490.6250000  -999.250000 17.583000183 0.0320000015  -999.250000 2.0639998913 29.643999100 152.02999878 0.6919999719 55.020999908 0.7699999809 0.7699999809
 1490.7500000  -999.250000 17.608999252 0.0399999991  -999.250000 2.0710000992 29.599000931 153.70199585 0.6890000105 55.472000122 0.7689999938 0.7689999938
 1490.8750000  -999.250000 17.632999420 0.0419999994  -999.250000 2.0729999542 30.025999069 155.40400696 0.6890000105 55.969001770 0.7680000067 0.7680000067
 1490.9998779  -999.250000 17.628999710 0.0410000011  -999.250000 2.0739998817 30.284000397 156.09100342 0.6899999976 56.466999054 0.7670000196 0.7670000196
 1491.1252441  -999.250000 17.601999283 0.0390000008  -999.250000 2.0720000267 30.319999695 156.17999268 0.6959999800 56.867000580 0.7649999857 0.7649999857
 1491.2501221  -999.250000 17.577999115 0.0379999988  -999.250000 2.0720000267 30.322000504 155.74800110 0.7020000219 57.117000580 0.7639999986 0.7639999986
 1491.3750000  -999.250000 17.561000824 0.0379999988  -999.250000 2.0710000992 30.163000107 155.64799500 0.7039999962 56.712001801 0.7630000114 0.7630000114
 1491.5001221  -999.250000 17.555000305 0.0379999988  -999.250000 2.0729999542 29.847000122 155.79600525 0.7070000172 55.820999146 0.7680000067 0.7680000067
 1491.6250000  -999.250000 17.573999405 0.0390000008  -999.250000 2.0769999027 29.885999680 156.00900269 0.7099999785 54.830001831 0.7760000229 0.7760000229
 1491.7500000  -999.250000 17.620000839 0.0439999998  -999.250000 2.0829999447 30.499000549 156.17300415 0.7129999995 54.138000488 0.7839999795 0.7839999795
 1491.8750000  -999.250000 17.670999527 0.0489999987  -999.250000 2.0910000801 31.045000076 156.18800354 0.7149999738 53.703998566 0.7910000086 0.7910000086
 1492.0000000  -999.250000 17.698999405 0.0540000014  -999.250000 2.0969998837 31.245000839 156.18800354 0.7139999866 53.340000153 0.7919999957 0.7919999957
 1492.1248779  -999.250000 17.695999146 0.0590000004  -999.250000 2.1010000706 31.270000458 156.22000122 0.7129999995 53.104999542 0.7900000215 0.7900000215
 1492.2498779  -999.250000 17.688999176 0.0640000030  -999.250000 2.1040000916 31.148000717 156.35099792 0.7120000124 53.474998474 0.7879999876 0.7879999876
 1492.3751221  -999.250000 17.684999466 0.0689999983  -999.250000 2.1040000916 31.018999100 156.49299622 0.7110000253 54.016998291 0.7860000134 0.7860000134
 1492.5000000  -999.250000 17.687000275 0.0729999989  -999.250000 2.1010000706 30.888999939 156.66000366 0.7099999785 54.340000153 0.7799999714 0.7799999714
 1492.6247559  -999.250000 17.701000214 0.0659999996  -999.250000 2.0980000496 30.761999130 156.87800598 0.7089999914 54.555999756 0.7699999809 0.7699999809
 1492.7501221  -999.250000 17.704999924 0.0560000017  -999.250000 2.0920000076 30.746000290 156.93899536 0.7080000043 54.527999878 0.7599999905 0.7599999905
 1492.8750000  -999.250000 17.673999786 0.0460000001  -999.250000 2.0840001106 30.576000214 156.84800720 0.7070000172 54.453998566 0.7559999824 0.7559999824
 1493.0000000  -999.250000 17.628999710 0.0399999991  -999.250000 2.0759999752 29.958000183 156.73500061 0.7059999704 54.316001892 0.7570000291 0.7570000291
 1493.1250000  -999.250000 17.583999634 0.0340000018  -999.250000 2.0710000992 29.295999527 156.53700256 0.7049999833 53.988998413 0.7590000033 0.7590000033
 1493.2500000  -999.250000 17.544000626 0.0270000007  -999.250000 2.0629999638 28.610000610 156.25199890 0.7039999962 53.659999847 0.7670000196 0.7670000196
 1493.3748779  -999.250000 17.513000488 0.0189999994  -999.250000 2.0550000668 28.031000137 156.18499756 0.7030000091 53.332000732 0.7749999762 0.7749999762
