# LAS format log file from PETREL
# Project units are specified as depth units
#==================================================================
~Version information
VERS.   2.0:
WRAP.   NO:
#==================================================================
~Well
STRT .m      806.37493896 :
STOP .m      2790.0000000 :
STEP .m     0.00000000 :
NULL .        -999.250000 :
COMP.           : COMPANY
WELL.  34/7-12   : WELL
FLD.            : FIELD
LOC.            : LOCATION
SRVC.           : SERVICE COMPANY
DATE.  2018-09-11 14:48:51   : Log Export Date {yyyy-MM-dd HH:mm:ss}
PROV.           : PROVINCE
UWI.   34/7-12   : UNIQUE WELL ID
API.            : API NUMBER
#==================================================================
~Curve
DEPT .m                   : DEPTH
Lithology_geolink ._      : Lithology_geolink
CALI .in                  : CALI
DRHO .g/cm3               : DRHO
NPHI .m3/m3               : NPHI
RHOB .g/cm3               : RHOB
GR .gAPI                  : GR
DTC .us/ft                : DTC
RDEP .ohm.m               : RDEP
SP .mV                    : SP
RSHA .ohm.m               : RSHA
RMED .ohm.m               : RMED
~Parameter
#==================================================================
~Ascii
# ...
 1462.9998779  -999.250000 18.149000168 -0.006000000  -999.250000 2.0929999352 68.053001404 149.51800537 0.7369999886  -999.250000 0.3919999897 0.8799999952
 1463.1248779  -999.250000 18.148000717 -0.010000000  -999.250000 2.0940001011 67.536003113 149.59899902 0.7360000014  -999.250000 0.3860000074 0.8730000257
 1463.2500000  -999.250000 18.148000717 -0.010000000  -999.250000 2.0959999561 67.220001221 149.91700745 0.7350000143  -999.250000 0.3829999864 0.8659999967
 1463.3750000  -999.250000 18.159000397 -0.006998049  -999.250000 2.0980038643 66.785003662 150.39599609 0.7340000272  -999.250000 0.3910000026 0.8600000143
 1463.5000000  -999.250000 18.201999664 -0.006003906  -999.250000 2.1000008583 65.940002441 151.11799622 0.7310000062  -999.250000 0.3989999890 0.8560000062
 1463.6250000  -999.250000 18.243999481 -0.010004883  -999.250000 2.1010000706 65.513999939 151.40518188 0.7269999981  -999.250000 0.4050000012 0.8550000191
 1463.7500000  -999.250000 18.284000397 -0.015003906  -999.250000 2.1009972095 65.355278015 151.58599854 0.7220000029  -999.250000 0.4090000093 0.8560000062
 1463.8750000  -999.250000 18.305000305 -0.018999999  -999.250000 2.0979952812 65.635581970 151.59278870 0.7139999866  -999.250000 0.4020000100 0.8600000143
 1463.9998779  -999.250000 18.291000366 -0.018999999  -999.250000 2.0929999352 66.224998474 151.37802124 0.7049999833  -999.250000 0.3970000148 0.8690000176
 1464.1248779  -999.250000 18.249000549 -0.017000001  -999.250000 2.0889999866 66.586997986 151.11601257 0.6999999881  -999.250000 0.3980000019 0.8759999871
 1464.2498779  -999.250000 18.204000473 -0.013000000  -999.250000 2.0859999657 66.738998413 150.82099915 0.6990000010  -999.250000 0.3989999890 0.8809999824
 1464.3750000  -999.250000 18.184000015 -0.007000000  -999.250000 2.0820000172 66.638999939 150.56100464 0.6999999881  -999.250000 0.4029999971 0.8820000291
 1464.5000000  -999.250000 18.218000412 0.0030136586  -999.250000 2.0769960880 66.203002930 150.41700745 0.7049999833  -999.250000 0.4059999883 0.8790000081
 1464.6250000  -999.250000 18.281999588 0.0100029297  -999.250000 2.0749990940 66.051002502 150.60299683 0.7099999785  -999.250000 0.4050000012 0.8780000210
 1464.7500000  -999.250000 18.358999252 0.0129951173  -999.250000 2.0739998817 66.152000427 150.93400574 0.7129999995  -999.250000 0.4029999971 0.8790000081
 1464.8750000  -999.250000 18.451999664 0.0079804687  -999.250000 2.0739998817 66.653999329 151.48585510 0.7160000205  -999.250000 0.3989999890 0.8799999952
 1465.0000000  -999.250000 18.561000824 -0.012013672  -999.250000 2.0739979744 67.416206360 152.36444092 0.7170000076  -999.250000 0.3959999979 0.8780000210
 1465.1248779  -999.250000 18.613000870 -0.026000001  -999.250000 2.0720000267 67.625999451 152.82400513 0.7160009742  -999.250000 0.3950009942 0.8730000257
 1465.2498779  -999.250000 18.621999741 -0.034000002  -999.250000 2.0669999123 67.387001038 153.12300110 0.7160000205  -999.250000 0.3950000107 0.8669999838
 1465.3748779  -999.250000 18.579000473 -0.035000000  -999.250000 2.0590000153 66.793998718 153.26400757 0.7200000286  -999.250000 0.3959999979 0.8619999886
 1465.4998779  -999.250000 18.458999634 -0.029999999  -999.250000 2.0490000248 65.824996948 153.23101807 0.7310000062  -999.250000 0.3970000148 0.8600000143
 1465.6250000  -999.250000 18.350000381 -0.028000001  -999.250000 2.0480000973 65.209999084 153.00199890 0.7409999967  -999.250000 0.3950000107 0.8659999967
 1465.7500000  -999.250000 18.239000320 -0.025001954  -999.250000 2.0500097275 64.652000427 152.57901001 0.7519999743  -999.250000 0.3919999897 0.8759999871
 1465.8750000  -999.250000 18.108999252 -0.027013673  -999.250000 2.0600233078 64.207000732 151.56100464 0.7639999986  -999.250000 0.3860000074 0.8899999857
 1466.0000000  -999.250000 17.930000305 -0.041020509  -999.250000 2.0840187073 63.902999878 148.90173340 0.7789999843  -999.250000 0.3810000122 0.9029999971
 1466.1250000  -999.250000 17.802999496 -0.062023435  -999.250000 2.1030185223 63.769870758 146.57057190 0.7860000134  -999.250000 0.3759999871 0.8989999890
 1466.2500000  -999.250000 17.693000793 -0.086017579  -999.250000 2.1220176220 63.637069702 144.09161377 0.7919999957  -999.250000 0.3729999959 0.8899999857
 1466.3748779  -999.250000 17.590000153 -0.104000002  -999.250000 2.1400001049 63.708000183 141.66299438 0.7960000038  -999.250000 0.3729999959 0.8809999824
 1466.4998779  -999.250000 17.500999451 -0.103000000  -999.250000 2.1519999504 64.306999207 139.78700256 0.7979999781  -999.250000 0.3720000088 0.8769999743
 1466.6248779  -999.250000 17.496999741 -0.079999998  -999.250000 2.1459999084 65.411003113 140.52999878 0.7969999909  -999.250000 0.3689999878 0.8790000081
 1466.7500000  -999.250000 17.510000229 -0.052999999  -999.250000 2.1349999905 66.705001831 142.53100586 0.7960000038  -999.250000 0.3670000136 0.8790000081
 1466.8750000  -999.250000 17.531999588 -0.031982441  -999.250000 2.1229629517 67.911003113 145.52200317 0.7919999957  -999.250000 0.3639999926 0.8750000000
 1467.0000000  -999.250000 17.562999725 -0.023007812  -999.250000 2.1039912701 68.644996643 149.92102051 0.7850000262  -999.250000 0.3659999967 0.8700000048
 1467.1250000  -999.250000 17.582000732 -0.031011717  -999.250000 2.0949940681 68.482002258 151.44900513 0.7789999843  -999.250000 0.3759999871 0.8730000257
 1467.2500000  -999.250000 17.597000122 -0.043007813  -999.250000 2.0889980793 68.085998535 152.19512939 0.7720000148  -999.250000 0.3869999945 0.8790000081
 1467.3750000  -999.250000 17.611999512 -0.050997071  -999.250000 2.0870008469 67.773735046 152.32000732 0.7620000243  -999.250000 0.3950000107 0.8849999905
 1467.4998779  -999.250000 17.632999420 -0.048000000  -999.250000 2.0880000591 67.501998901 152.31900024 0.7510107160  -999.250000 0.3999951184 0.8859999776
 1467.6248779  -999.250000 17.663000107 -0.037000000  -999.250000 2.0880000591 67.240997314 152.48300171 0.7469999790  -999.250000 0.4000000060 0.8809999824
 1467.7498779  -999.250000 17.721000671 -0.024000000  -999.250000 2.0850000381 66.849998474 152.75799561 0.7459999919  -999.250000 0.3989999890 0.8750000000
 1467.8748779  -999.250000 17.833000183 -0.015000000  -999.250000 2.0799999237 66.388999939 153.02499390 0.7440000176  -999.250000 0.4000000060 0.8719999790
 1468.0000000  -999.250000 18.048000336 -0.018021462  -999.250000 2.0719962120 65.956001282 153.18699646 0.7390000224  -999.250000 0.4020000100 0.8740000129
 1468.1250000  -999.250000 18.183000565 -0.029010741  -999.250000 2.0699989796 66.004997253 153.03500366 0.7329999804  -999.250000 0.4070000052 0.8780000210
 1468.2500000  -999.250000 18.284999847 -0.040004883  -999.250000 2.0689980984 66.303001404 152.78399658 0.7260000110  -999.250000 0.4120000005 0.8820000291
 1468.3750000  -999.250000 18.360000610 -0.044995118  -999.250000 2.0669960976 66.974998474 152.38142395 0.7200000286  -999.250000 0.4169999957 0.8840000033
 1468.5000000  -999.250000 18.423000336 -0.039994139  -999.250000 2.0629980564 67.840270996 151.79475403 0.7160000205  -999.250000 0.4219999909 0.8849999905
 1468.6250000  -999.250000 18.437999725 -0.033998050  -999.250000 2.0610001087 68.117767334 151.54495239 0.7170000076  -999.250000 0.4269999862 0.8849999905
 1468.7498779  -999.250000 18.413000107 -0.032000002  -999.250000 2.0610001087 67.879997253 151.49501038 0.7200000286  -999.250000 0.4320000112 0.8820000291
 1468.8748779  -999.250000 18.340000153 -0.035999998  -999.250000 2.0629999638 67.186996460 151.69700623 0.7250000238  -999.250000 0.4370000064 0.8759999871
 1468.9998779  -999.250000 18.202999115 -0.045000002  -999.250000 2.0680000782 66.036003113 152.18499756 0.7300000191  -999.250000 0.4399999976 0.8659999967
 1469.1250000  -999.250000 18.128000259 -0.045000002  -999.250000 2.0699999332 65.566001892 152.44799805 0.7310000062  -999.250000 0.4390000105 0.8610000014
 1469.2500000  -999.250000 18.083000183 -0.036976587  -999.250000 2.0720019341 65.275001526 152.57901001 0.7300000191  -999.250000 0.4370000064 0.8590000272
