# LAS format log file from PETREL
# Project units are specified as depth units
#==================================================================
~Version information
VERS.   2.0:
WRAP.   NO:
#==================================================================
~Well
STRT .m      212.75000000 :
STOP .m      3019.0000000 :
STEP .m     0.00000000 :
NULL .        -999.250000 :
COMP.           : COMPANY
WELL.  34/7-21   : WELL
FLD.            : FIELD
LOC.            : LOCATION
SRVC.           : SERVICE COMPANY
DATE.  2018-09-11 14:48:52   : Log Export Date {yyyy-MM-dd HH:mm:ss}
PROV.           : PROVINCE
UWI.   34/7-21   : UNIQUE WELL ID
API.            : API NUMBER
#==================================================================
~Curve
DEPT .m                   : DEPTH
Lithology_geolink ._      : Lithology_geolink
CALI .in                  : CALI
DRHO .g/cm3               : DRHO
NPHI .m3/m3               : NPHI
RHOB .g/cm3               : RHOB
PEF .b/e                  : PEF
GR .gAPI                  : GR
DTC .us/ft                : DTC
RDEP .ohm.m               : RDEP
SP .mV                    : SP
RSHA .ohm.m               : RSHA
RMED .ohm.m               : RMED
~Parameter
#==================================================================
~Ascii
# ...
 1838.7500000  -999.250000 12.582424164 0.0246221721 0.6570864916 2.1635231972 6.3463459015 87.069442749 137.65042114 1.0151588917  -999.250000 0.4725216627 1.2046825886
 1838.8750000  -999.250000 12.549560547 0.0242043026 0.6256327629 2.1687431335 6.3571081161 88.214950562 134.66873169 1.0459842682  -999.250000 0.5014548302 1.2311601639
 1839.0000000  -999.250000 12.559110641 0.0183881223 0.6062521935 2.1800179482 6.6611928940 88.160751343 130.17312622 1.0691931248  -999.250000 0.5231618881 1.2587261200
 1839.1250000  -999.250000 12.603802681 0.0107708983 0.6043837070 2.1931099892 7.0382308960 86.724578857 127.40636444 1.0851271152  -999.250000 0.5110858679 1.2836964130
 1839.2501221  -999.250000 12.661680222 0.0074779401 0.6224284172 2.1995263100 7.2605266571 84.264343262 128.53207397 1.0945961475  -999.250000 0.4686341286 1.3022668362
 1839.3750000  -999.250000 12.701189041 0.0090658478 0.6532096863 2.1940157413 7.3447093964 81.623214722 132.05535889 1.0970981121  -999.250000 0.4287501574 1.3063418865
 1839.5000000  -999.250000 12.706024170 0.0110521112 0.6747174263 2.1800837517 7.4288206100 79.761520386 136.52130127 1.0928652287  -999.250000 0.4146385789 1.2938745022
 1839.6250000  -999.250000 12.676506042 0.0107330177 0.6715418100 2.1680474281 7.5678110123 79.232589722 140.89184570 1.0805208683  -999.250000 0.4322723746 1.2671189308
 1839.7500000  -999.250000 12.629590988 0.0104023535 0.6566390991 2.1636910439 7.6879625320 80.122039795 141.97970581 1.0591175556  -999.250000 0.4752848744 1.2331373692
 1839.8750000  -999.250000 12.594755173 0.0111683309 0.6480648518 2.1646428108 7.7932806015 82.108917236 138.78213501 1.0276415348  -999.250000 0.5154492855 1.2003669739
 1840.0000000  -999.250000 12.586376190 0.0136305653 0.6544642448 2.1653838158 7.9923515320 84.266220093 136.51638794 0.9905021191  -999.250000 0.5155779123 1.1728923321
 1840.1250000  -999.250000 12.597738266 0.0203482583 0.6692941785 2.1624665260 8.1194572449 86.000778198 136.02102661 0.9545540810  -999.250000 0.4698446393 1.1519298553
 1840.2500000  -999.250000 12.609641075 0.0294024125 0.6788855195 2.1565041542 7.9251108170 86.979049683 136.38488770 0.9291949272  -999.250000 0.4132130146 1.1385056973
 1840.3751221  -999.250000 12.601995468 0.0326082855 0.6788843274 2.1504278183 7.4246101379 87.013061523 136.88815308 0.9246027470  -999.250000 0.3814475536 1.1357593536
 1840.4998779  -999.250000 12.577306747 0.0250307247 0.6734051704 2.1473612785 6.9602155685 86.519454956 138.06387329 0.9366040230  -999.250000 0.3861021399 1.1417889595
 1840.6250000  -999.250000 12.547410965 0.0130400173 0.6669131517 2.1481208801 6.6477718353 85.953521729 138.09463501 0.9562807083  -999.250000 0.4281526804 1.1528334618
 1840.7500000  -999.250000 12.523853302 0.0064429631 0.6583173275 2.1509814262 6.4074592590 85.628524780 137.91787720 0.9714953899  -999.250000 0.4967888594 1.1630849838
 1840.8750000  -999.250000 12.513849258 0.0066943737 0.6459642649 2.1543855667 6.2415723801 85.572463989 139.18707275 0.9729257822  -999.250000 0.5650373697 1.1663696766
 1841.0000000  -999.250000 12.515511513 0.0114780776 0.6340897083 2.1577463150 6.2372341156 85.598495483 139.40322876 0.9664497375  -999.250000 0.6094652414 1.1630098820
 1841.1250000  -999.250000 12.527797699 0.0201096982 0.6303604841 2.1606473923 6.2912654877 85.786926270 138.66952515 0.9602329731  -999.250000 0.6281446218 1.1557979584
 1841.2500000  -999.250000 12.548450470 0.0298339352 0.6366701126 2.1618065834 6.4337902069 86.491226196 137.59426880 0.9596858025  -999.250000 0.6316902637 1.1486139297
 1841.3750000  -999.250000 12.572497368 0.0350540206 0.6477348804 2.1598477364 6.6487541199 88.221237183 133.92700195 0.9666703939  -999.250000 0.6308860779 1.1461646557
 1841.5001221  -999.250000 12.594104767 0.0320190415 0.6554095745 2.1545591354 6.8492040634 90.668426514 133.53900146 0.9796378613  -999.250000 0.6327015162 1.1500184536
 1841.6248779  -999.250000 12.611467361 0.0234570280 0.6573345661 2.1464552879 7.0254898071 93.229583740 136.35107422 0.9983181953  -999.250000 0.6421637535 1.1600811481
 1841.7500000  -999.250000 12.625306129 0.0165185928 0.6594151258 2.1352310181 7.2430429459 95.351440430 137.15893555 1.0194120407  -999.250000 0.6630654335 1.1745264530
 1841.8750000  -999.250000 12.635023117 0.0163299479 0.6647527814 2.1216511726 7.5782108307 96.702255249 138.00259399 1.0309367180  -999.250000 0.6913245916 1.1894466877
 1842.0000000  -999.250000 12.637826920 0.0225891061 0.6647523642 2.1119685173 7.9837093353 97.253524780 140.53216553 1.0220396519  -999.250000 0.7134686708 1.1993978024
 1842.1250000  -999.250000 12.628650665 0.0279275328 0.6493292451 2.1134381294 8.2504310608 96.858947754 138.94274902 0.9906532764  -999.250000 0.7151275873 1.1987731457
 1842.2500000  -999.250000 12.602128983 0.0243322849 0.6244221926 2.1251981258 8.2958278656 95.577041626 132.66995239 0.9459450245  -999.250000 0.6910313368 1.1835248470
 1842.3750000  -999.250000 12.550785065 0.0123679303 0.6034566164 2.1405811310 8.2999782562 93.705657959 131.68740845 0.9039529562  -999.250000 0.6506195068 1.1536774635
 1842.5000000  -999.250000 12.480131149 -0.000370572 0.5963430405 2.1537532806 8.6208915710 91.934616089 132.73254395 0.8752964735  -999.250000 0.6085088253 1.1211688519
 1842.6250000  -999.250000 12.399427414 -0.010776617 0.6031762362 2.1639885902 9.2015247345 90.766601563 134.31161499 0.8644152880  -999.250000 0.5745865107 1.0988104343
 1842.7501221  -999.250000 12.321872711 -0.023662262 0.6158221960 2.1724462509 9.6368789673 90.343322754 137.85775757 0.8716120720  -999.250000 0.5552377701 1.0986914635
 1842.8748779  -999.250000 12.263005257 -0.036235437 0.6240286827 2.1828675270 9.6513309479 90.332504272 139.24484253 0.8937225342  -999.250000 0.5531513691 1.1320858002
 1843.0000000  -999.250000 12.224241257 -0.039488062 0.6189024448 2.1996912956 9.3008728027 90.016403198 131.43173218 0.9186195135  -999.250000 0.5668807030 1.1867783070
 1843.1250000  -999.250000 12.201406479 -0.037365280 0.6035799980 2.2203793526 8.8866996765 88.991119385 125.43574524 0.9366421700  -999.250000 0.5912868977 1.2399938107
 1843.2500000  -999.250000 12.187278748 -0.043869622 0.5942684412 2.2340912819 8.6886882782 87.187957764 119.53185272 0.9437071085  -999.250000 0.6160949469 1.2622804642
 1843.3750000  -999.250000 12.177005768 -0.057789415 0.6021265984 2.2302274704 8.6941337585 85.040664673 112.22045898 0.9456604719  -999.250000 0.6304533482 1.2319512367
 1843.5000000  -999.250000 12.168533325 -0.061180137 0.6251307726 2.2072844505 8.6176071167 83.382141113 115.64674377 0.9530097246  -999.250000 0.6294721365 1.1751637459
 1843.6250000  -999.250000 12.161809921 -0.047090188 0.6508384943 2.1764512062 8.6300048828 82.548599243 124.92680359 0.9659731388  -999.250000 0.6150928736 1.1204729080
 1843.7500000  -999.250000 12.156785965 -0.032378115 0.6675790548 2.1525197029 8.8082542419 82.356674194 129.70635986 0.9759892225  -999.250000 0.5959888697 1.0868644714
 1843.8751221  -999.250000 12.154003143 -0.026753079 0.6730916500 2.1413516998 8.9933700562 82.454193115 134.56265259 0.9724451303  -999.250000 0.5829133987 1.0818233490
 1843.9998779  -999.250000 12.152906418 -0.025376659 0.6721314788 2.1415882111 9.0858421326 82.721405029 139.12088013 0.9592124224  -999.250000 0.5819811821 1.0924096107
 1844.1250000  -999.250000 12.152432442 -0.022720169 0.6726254225 2.1475486755 9.1878128052 83.500167847 138.55612183 0.9460177422  -999.250000 0.5927755833 1.1072652340
 1844.2500000  -999.250000 12.151512146 -0.020033970 0.6762811542 2.1559834480 9.3627376556 85.182205200 134.71203613 0.9418805838  -999.250000 0.6062260866 1.1176402569
 1844.3750000  -999.250000 12.150012970 -0.020622313 0.6758325696 2.1664214134 9.5885410309 87.768936157 134.69479370 0.9476583004  -999.250000 0.6089413166 1.1195712090
 1844.5000000  -999.250000 12.149247169 -0.025897138 0.6668766737 2.1751847267 9.7661437988 90.367095947 134.54046631 0.9515407085  -999.250000 0.5964797735 1.1172406673
 1844.6250000  -999.250000 12.150365829 -0.033439972 0.6581997871 2.1761083603 9.8101329803 92.185424805 134.27676392 0.9444829226  -999.250000 0.5780322552 1.1143410206
