# LAS format log file from PETREL
# Project units are specified as depth units
#==================================================================
~Version information
VERS.   2.0:
WRAP.   NO:
#==================================================================
~Well
STRT .m      417.47238159 :
STOP .m      3182.7705078 :
STEP .m     0.00000000 :
NULL .        -999.250000 :
COMP.           : COMPANY
WELL.  34/7-20   : WELL
FLD.            : FIELD
LOC.            : LOCATION
SRVC.           : SERVICE COMPANY
DATE.  2018-09-11 14:48:52   : Log Export Date {yyyy-MM-dd HH:mm:ss}
PROV.           : PROVINCE
UWI.   34/7-20   : UNIQUE WELL ID
API.            : API NUMBER
#==================================================================
~Curve
DEPT .m                   : DEPTH
Lithology_geolink ._      : Lithology_geolink
CALI .in                  : CALI
DRHO .g/cm3               : DRHO
NPHI .m3/m3               : NPHI
RHOB .g/cm3               : RHOB
GR .gAPI                  : GR
DTC .us/ft                : DTC
RDEP .ohm.m               : RDEP
SP .mV                    : SP
RSHA .ohm.m               : RSHA
RMED .ohm.m               : RMED
~Parameter
#==================================================================
~Ascii
# ...
 2912.4130859 6.0000000000 12.476707458 -0.014249612 0.3485126495 2.5096406937 118.26722717 94.943191528 2.7854213715 158.69808960 3.8031949997 1.9214458466
 2912.5654297 6.0000000000 12.459030151 -0.015580053 0.3271076977 2.5143473148 118.19451141 94.888717651 2.8012394905 159.10290527 3.7576212883 1.9313514233
 2912.7177734 6.0000000000 12.442743301 -0.014851717 0.3149724305 2.5217757225 115.08912659 94.765594482 2.8201961517 157.91735840 3.8497886658 1.9432637691
 2912.8701172 6.0000000000 12.442456245 -0.013322465 0.3104272485 2.5273931026 112.12541199 94.572830200 2.8222374916 156.24197388 3.9010796547 1.9483766556
 2913.0227051 6.0000000000 12.442456245 -0.013605799 0.3138826489 2.5274403095 112.06719971 94.362777710 2.7865037918 153.77697754 3.8506531715 1.9355678558
 2913.1750488 6.0000000000 12.442144394 -0.014859556 0.3226559460 2.5213942528 113.16522980 94.240753174 2.7289023399 154.70327759 3.7823600769 1.9099991322
 2913.3273926 6.0000000000 12.424467087 -0.016393622 0.3312422931 2.5122034550 114.71568298 94.286102295 2.6944007874 155.35800171 3.8204712868 1.8934404850
 2913.4797363 6.0000000000 12.408468246 -0.016615620 0.3303572834 2.5054414272 116.51955414 94.607803345 2.7074527740 153.64865112 3.8810906410 1.9003524780
 2913.6320801 6.0000000000 12.425832748 -0.015672147 0.3289476633 2.5034046173 117.52175140 95.196929932 2.7452020645 154.69601440 3.9469976425 1.9212107658
 2913.7846680 6.0000000000 12.442195892 -0.015619189 0.3321602643 2.5062649250 116.81891632 95.895828247 2.7566227913 154.71249390 3.9676980972 1.9307777882
 2913.9370117 6.0000000000 12.442173004 -0.014154846 0.3427385688 2.5128276348 115.64291382 96.613967896 2.7080445290 153.17010498 3.9125599861 1.9109010696
 2914.0893555 6.0000000000 12.424776077 -0.012297994 0.3545314670 2.5224027634 115.21142578 97.358673096 2.6119546890 153.14999390 3.8839859962 1.8651695251
 2914.2416992 6.0000000000 12.425785065 -0.011271292 0.3512567282 2.5340878963 115.21215057 98.122375488 2.5104455948 154.55294800 3.8384037018 1.8135945797
 2914.3942871 6.0000000000 12.424543381 -0.011467959 0.3452017903 2.5375351906 115.18963623 98.786361694 2.4376468658 155.24121094 3.7865939140 1.7752084732
 2914.5466309 7.0000000000 12.426145554 -0.010410737 0.3460161686 2.5355608463 117.74036407 99.167709351 2.3968982697 154.91281128 3.6554527283 1.7539284229
 2914.6989746 7.0000000000 12.441856384 -0.009060828 0.3699877858 2.5340545177 120.15901947 99.101974487 2.3678045273 154.89144897 3.5130181313 1.7395114899
 2914.8513184 7.0000000000 12.424491882 -0.008564561 0.3929756284 2.5360817909 120.78195190 98.649070740 2.3368558884 156.82168579 3.4670996666 1.7238218784
 2915.0039063 7.0000000000 12.407817841 -0.008256755 0.3749791086 2.5434496403 119.39770508 98.151367188 2.3140573502 156.56768799 3.4768018723 1.7117440701
 2915.1562500 7.0000000000 12.389878273 -0.007814933 0.3418254852 2.5518913269 120.06722260 97.777412415 2.3155474663 154.81506348 3.3940324783 1.7125012875
 2915.3085938 7.0000000000 12.373849869 -0.008809245 0.3275416493 2.5512206554 121.49758148 97.555160522 2.3398976326 155.40045166 3.3615994453 1.7260210514
 2915.4609375 7.0000000000 12.390960693 -0.010545166 0.3415065110 2.5430529118 120.04882050 97.542739868 2.3713030815 155.51898193 3.4184198380 1.7440712452
 2915.6132813 6.0000000000 12.389667511 -0.010244575 0.3586754501 2.5330517292 116.16691589 97.659347534 2.3978948593 154.89157104 3.5134406090 1.7597944736
 2915.7658691 6.0000000000 12.373851776 -0.008531063 0.3650094569 2.5300927162 114.76837921 97.655532837 2.4170579910 154.66281128 3.5856337547 1.7712693214
 2915.9179688 6.0000000000 12.390956879 -0.008274643 0.3784860373 2.5299887657 116.28619385 97.358383179 2.4279313087 153.62312317 3.5057458878 1.7780470848
 2916.0703125 6.0000000000 12.389591217 -0.007776034 0.3853751421 2.5299947262 117.36994171 96.895004272 2.4338665009 155.09333801 3.4497776031 1.7818014622
 2916.2226563 6.0000000000 12.373540878 -0.007528303 0.3761337996 2.5325176716 115.95189667 96.303497314 2.4496860504 155.44471741 3.3513798714 1.7902750969
 2916.3750000 6.0000000000 12.373619080 -0.007938018 0.3630881608 2.5367236137 114.26684570 95.537200928 2.4857964516 153.69102478 3.4552159309 1.8096635342
 2916.5275879 6.0000000000 12.391012192 -0.006955971 0.3489997983 2.5438675880 113.75066376 94.757766724 2.5242967606 152.87785339 3.5487418175 1.8313825130
 2916.6799316 6.0000000000 12.389616966 -0.006497781 0.3341080546 2.5466196537 114.91911316 94.069290161 2.5406913757 154.46214294 3.5311322212 1.8418619633
 2916.8322754 6.0000000000 12.373540878 -0.006835923 0.3144396842 2.5475265980 116.65071869 93.430015564 2.5485301018 154.56932068 3.5896196365 1.8465788364
 2916.9846191 6.0000000000 12.373280525 -0.006881252 0.3121535480 2.5499737263 117.73152161 92.843551636 2.5866036415 152.82061768 3.5716552734 1.8659827709
 2917.1372070 6.0000000000 12.373280525 -0.007080946 0.3293710947 2.5548913479 117.11001587 92.390335083 2.6587352753 153.14427185 3.6801819801 1.9039080143
 2917.2895508 6.0000000000 12.373280525 -0.008340986 0.3454922438 2.5663185120 114.72100067 92.067504883 2.7259120941 154.04138184 3.7107582092 1.9407002926
 2917.4418945 6.0000000000 12.372966766 -0.010552194 0.3417872488 2.5758666992 112.43083954 91.870620728 2.7666459084 154.50447083 3.9476242065 1.9635996819
 2917.5942383 6.0000000000 12.355625153 -0.013037964 0.3236553967 2.5806882381 111.30045319 91.873916626 2.7955479622 153.64642334 4.2038135529 1.9794631004
 2917.7465820 6.0000000000 12.356943130 -0.014428155 0.3137005270 2.5803287029 111.65167999 92.085083008 2.8133292198 157.23944092 3.9547433853 1.9902434349
 2917.8991699 6.0000000000 12.373275757 -0.014337660 0.3079717159 2.5759460926 111.96652985 92.378669739 2.7960462570 158.03822327 4.4306173325 1.9839503765
 2918.0515137 6.0000000000 12.390960693 -0.015166334 0.3133721948 2.5634872913 111.94316864 92.669586182 2.7472739220 156.21493530 4.3889541626 1.9600071907
 2918.2038574 6.0000000000 12.389667511 -0.014776346 0.3258097768 2.5473914146 112.10208893 92.905776978 2.7077956200 155.47923279 3.7014169693 1.9387099743
 2918.3562012 6.0000000000 12.373540878 -0.011995357 0.3356613815 2.5356438160 112.76392365 93.056549072 2.6970529556 155.20285034 4.2289762497 1.9324769974
 2918.5087891 6.0000000000 12.373280525 -0.009263783 0.3447692990 2.5345590115 112.67075348 93.194686890 2.6850886345 155.36393738 4.3057279587 1.9271180630
 2918.6611328 6.0000000000 12.373591423 -0.008777046 0.3528389037 2.5418882370 111.41224670 93.412948608 2.6432170868 154.54275513 3.8948044777 1.9061050415
 2918.8134766 6.0000000000 12.390933990 -0.008132817 0.3650270700 2.5481803417 112.78011322 93.812103271 2.5871782303 154.90277100 3.9229860306 1.8760249615
 2918.9658203 7.0000000000 12.389900208 -0.007297993 0.3631544411 2.5493669510 117.10567474 94.379592896 2.5484676361 155.14576721 3.8181610107 1.8543043137
 2919.1184082 7.0000000000 12.391530991 -0.008088958 0.3399859667 2.5420093536 121.27687073 94.950790405 2.5285420418 152.72306824 3.7874169350 1.8433821201
 2919.2707520 7.0000000000 12.407299042 -0.010329328 0.3202420175 2.5335426331 120.36692047 95.512649536 2.4993181229 154.63522339 3.6668930054 1.8286397457
 2919.4230957 6.0000000000 12.389904022 -0.010317819 0.3314142525 2.5333507061 117.26352692 96.048721313 2.4434180260 156.16697693 3.4611382484 1.7995748520
 2919.5754395 6.0000000000 12.373824120 -0.009683939 0.3539509475 2.5357639790 115.11495972 96.348274231 2.3749651909 152.91793823 3.3379282951 1.7624866962
 2919.7277832 6.0000000000 12.391244888 -0.010879185 0.3548203409 2.5347924232 114.36983490 96.411239624 2.3167967796 152.29966736 3.2273674011 1.7297730446
 2919.8803711 6.0000000000 12.407270432 -0.014480009 0.3396494985 2.5265831947 115.80828857 96.412971497 2.2776632309 154.30021667 3.2680206299 1.7070999146
 2920.0327148 6.0000000000 12.389878273 -0.016511435 0.3264606595 2.5221395493 117.39642334 96.448272705 2.2577023506 153.45552063 3.5534372330 1.6950922012
