# LAS format log file from PETREL
# Project units are specified as depth units
#==================================================================
~Version information
VERS.   2.0:
WRAP.   NO:
#==================================================================
~Well
STRT .m      212.75000000 :
STOP .m      3019.0000000 :
STEP .m     0.00000000 :
NULL .        -999.250000 :
COMP.           : COMPANY
WELL.  34/7-21   : WELL
FLD.            : FIELD
LOC.            : LOCATION
SRVC.           : SERVICE COMPANY
DATE.  2018-09-11 14:48:52   : Log Export Date {yyyy-MM-dd HH:mm:ss}
PROV.           : PROVINCE
UWI.   34/7-21   : UNIQUE WELL ID
API.            : API NUMBER
#==================================================================
~Curve
DEPT .m                   : DEPTH
Lithology_geolink ._      : Lithology_geolink
CALI .in                  : CALI
DRHO .g/cm3               : DRHO
NPHI .m3/m3               : NPHI
RHOB .g/cm3               : RHOB
PEF .b/e                  : PEF
GR .gAPI                  : GR
DTC .us/ft                : DTC
RDEP .ohm.m               : RDEP
SP .mV                    : SP
RSHA .ohm.m               : RSHA
RMED .ohm.m               : RMED
~Parameter
#==================================================================
~Ascii
# ...
 1190.7500000  -999.250000 18.043518066 -0.102960289  -999.250000 1.9149770737 8.6273460388 79.638885498 133.56951904 1.0066857338 54.191200256  -999.250000 1.0187008381
 1190.8750000  -999.250000 18.043518066 -0.093757078  -999.250000 1.9461264610 8.5904941559 81.773712158 133.27447510 1.0340559483 54.446762085  -999.250000 1.0644333363
 1191.0000000  -999.250000 18.043518066 -0.080834165  -999.250000 1.9464986324 8.4609088898 84.392578125 133.99719238 1.0360567570 54.646720886  -999.250000 1.0967695713
 1191.1250000  -999.250000 18.043518066 -0.071766958  -999.250000 1.9146800041 8.2043037415 86.647064209 135.36810303 1.0134079456 54.818305969  -999.250000 1.1087021828
 1191.2500000  -999.250000 18.043518066 -0.069488555  -999.250000 1.8648631573 7.8728246689 87.983535767 137.17175293 0.9798213243 55.057014465  -999.250000 1.1010386944
 1191.3750000  -999.250000 18.043518066 -0.071645305  -999.250000 1.8109810352 7.6746759415 88.211837769 139.37341309 0.9570063353 55.421218872  -999.250000 1.0803120136
 1191.5000000  -999.250000 18.043518066 -0.073232204  -999.250000 1.7647757530 7.6603126526 87.812225342 141.87313843 0.9531513453 55.889747620  -999.250000 1.0570063591
 1191.6250000  -999.250000 18.043518066 -0.070600793  -999.250000 1.7317502499 7.6974277496 87.142608643 144.55029297 0.9645900726 56.314804077  -999.250000 1.0354373455
 1191.7500000  -999.250000 18.043518066 -0.064410016  -999.250000 1.7101871967 7.6986837387 86.556701660 147.19546509 0.9793441296 56.466491699  -999.250000 1.0171535015
 1191.8750000  -999.250000 18.043518066 -0.058152586  -999.250000 1.6970274448 7.6682195663 86.325088501 149.49038696 0.9807801247 56.251739502  -999.250000 1.0029606819
 1192.0000000  -999.250000 18.043518066 -0.055739023  -999.250000 1.6894800663 7.6311416626 86.291198730 151.33337402 0.9643720388 55.710319519  -999.250000 0.9918301105
 1192.1250000  -999.250000 18.043518066 -0.057974070  -999.250000 1.6859002113 7.5961856842 86.154525757 152.69525146 0.9348214865 55.016601563  -999.250000 0.9828711748
 1192.2500000  -999.250000 18.043518066 -0.062414870  -999.250000 1.6854628325 7.5739021301 85.589218140 153.60110474 0.9032440186 54.456924438  -999.250000 0.9749644995
 1192.3750000  -999.250000 18.043518066 -0.067119166  -999.250000 1.6878688335 7.5784597397 84.468612671 154.03158569 0.8831177950 54.220504761  -999.250000 0.9679313898
 1192.5000000  -999.250000 18.043518066 -0.071312353  -999.250000 1.6923003197 7.6196012497 83.302963257 154.14083862 0.8750805855 54.350776672  -999.250000 0.9627602100
 1192.6250000  -999.250000 18.043518066 -0.075016588  -999.250000 1.6978330612 7.7297916412 82.610351563 154.03033447 0.8700860739 54.788070679  -999.250000 0.9607912302
 1192.7500000  -999.250000 18.043518066 -0.077994511  -999.250000 1.7040917873 7.9702415466 82.584136963 153.79753113 0.8569498062 55.392036438  -999.250000 0.9623138905
 1192.8750000  -999.250000 18.043518066 -0.080174491  -999.250000 1.7109820843 8.3311595917 82.968582153 153.51091003 0.8341391087 55.980468750  -999.250000 0.9658921957
 1193.0000000  -999.250000 18.043518066 -0.082530439  -999.250000 1.7170577049 8.3488674164 83.302413940 153.20007324 0.8171535730 56.406120300  -999.250000 0.9686774015
 1193.1250000  -999.250000 18.043518066 -0.086486235  -999.250000 1.7193095684 7.9867210388 83.525756836 152.86196899 0.8189405203 56.571746826  -999.250000 0.9697952271
 1193.2500000  -999.250000 18.043518066 -0.092128456  -999.250000 1.7151882648 7.3473367691 83.774261475 152.51986694 0.8394821882 56.477569580  -999.250000 0.9705771208
 1193.3750000  -999.250000 18.044212341 -0.096785575  -999.250000 1.7043147087 6.6022129059 84.186859131 152.26797485 0.8618228436 56.199302673  -999.250000 0.9740493298
 1193.5000000  -999.250000 18.047397614 -0.095038995  -999.250000 1.6895990372 5.9466724396 84.730331421 152.17767334 0.8690406084 55.792160034  -999.250000 0.9808512926
 1193.6250000  -999.250000 18.052993774 -0.083729759  -999.250000 1.6765382290 5.5369596481 85.310028076 152.25085449 0.8627469540 55.343521118  -999.250000 0.9890273809
 1193.7500000  -999.250000 18.056385040 -0.066765159  -999.250000 1.6703145504 5.4598264694 85.831756592 152.38607788 0.8589118719 54.964996338  -999.250000 0.9947669506
 1193.8750000  -999.250000 18.048427582 -0.051546112  -999.250000 1.6737892628 5.7214469910 86.171615601 152.36288452 0.8784008026 54.713989258  -999.250000 0.9938149452
 1194.0000000  -999.250000 18.027614594 -0.045641109  -999.250000 1.6881904602 6.2676105499 86.190902710 152.05172729 0.9191932678 54.601394653  -999.250000 0.9876563549
 1194.1250000  -999.250000 17.998424530 -0.050633267  -999.250000 1.7121962309 6.7700452805 85.851531982 151.47552490 0.9670540094 54.603446960  -999.250000 0.9796255827
 1194.2500000  -999.250000 17.969867706 -0.060188539  -999.250000 1.7417232990 6.9661788940 85.345794678 150.80847168 1.0026814938 54.679306030  -999.250000 0.9736430645
 1194.3750000  -999.250000 17.953628540 -0.067416504  -999.250000 1.7730162144 6.9161767960 85.111297607 150.32260132 1.0061626434 54.816528320  -999.250000 0.9737461805
 1194.5000000  -999.250000 17.952346802 -0.067991972  -999.250000 1.8013932705 6.8635921478 85.372268677 150.10009766 0.9822988510 55.033393860  -999.250000 0.9797034264
 1194.6250000  -999.250000 17.963928223 -0.062979117  -999.250000 1.8224608898 6.9409952164 85.944366455 150.07821655 0.9443920851 55.322135925  -999.250000 0.9897229671
 1194.7500000  -999.250000 17.983795166 -0.056978889  -999.250000 1.8343343735 7.0604400635 86.388015747 150.15127563 0.9102782011 55.587646484  -999.250000 1.0009081364
 1194.8750000  -999.250000 18.008121490 -0.052166507  -999.250000 1.8372972012 7.0459241867 86.399139404 150.32690430 0.8990018368 55.710388184  -999.250000 1.0106272697
 1195.0000000  -999.250000 18.034805298 -0.047396347  -999.250000 1.8342955112 6.7507324219 86.289947510 150.75186157 0.9089895487 55.615623474  -999.250000 1.0188028812
 1195.1250000  -999.250000 18.068878174 -0.040637150  -999.250000 1.8304059505 6.4458532333 86.468200684 151.58648682 0.9275760651 55.286666870  -999.250000 1.0260221958
 1195.2500000  -999.250000 18.123744965 -0.031964883  -999.250000 1.8303084373 6.2972822189 87.134552002 152.78671265 0.9383411407 54.764678955  -999.250000 1.0322072506
 1195.3750000  -999.250000 18.213882446 -0.022856973  -999.250000 1.8356363773 6.2948875427 87.991744995 153.87359619 0.9314296246 54.138229370  -999.250000 1.0355911255
 1195.5000000  -999.250000 18.312828064 -0.014927408  -999.250000 1.8452370167 6.2845840454 88.341384888 154.17407227 0.9177734852 53.508277893  -999.250000 1.0356132984
 1195.6250000  -999.250000 18.378295898 -0.009279512  -999.250000 1.8558435440 6.1540136337 87.853530884 153.24047852 0.9092692137 53.003234863  -999.250000 1.0330729485
 1195.7500000  -999.250000 18.375061035 -0.006373635  -999.250000 1.8644735813 5.9623575211 86.769470215 151.08587646 0.9130799770 52.721443176  -999.250000 1.0299241543
 1195.8750000  -999.250000 18.291889191 -0.006560806  -999.250000 1.8708209991 5.8653774261 85.926437378 148.29910278 0.9261883497 52.666740417  -999.250000 1.0286009312
 1196.0000000  -999.250000 18.183048248 -0.009456310  -999.250000 1.8768129349 5.8775796890 85.956802368 145.92001343 0.9327839613 52.824050903  -999.250000 1.0297191143
 1196.1250000  -999.250000 18.102638245 -0.013369251  -999.250000 1.8847084045 5.9013032913 86.804534912 144.55322266 0.9237967730 53.143379211  -999.250000 1.0328354836
 1196.2500000  -999.250000 18.088661194 -0.015414311  -999.250000 1.8950827122 5.9031620026 87.943847656 144.32974243 0.9023536444 53.494766235  -999.250000 1.0368089676
 1196.3750000  -999.250000 18.141498566 -0.013425371  -999.250000 1.9074888229 5.8851366043 88.940841675 145.06680298 0.8819948435 53.734100342  -999.250000 1.0398211479
 1196.5000000  -999.250000 18.205764771 -0.008291334  -999.250000 1.9218163490 5.8645000458 90.010147095 146.21530151 0.8696283102 53.760696411  -999.250000 1.0404558182
 1196.6250000  -999.250000 18.251533508 -0.004557131  -999.250000 1.9383342266 5.8822402954 91.385177612 147.59417725 0.8582576513 53.572494507  -999.250000 1.0373456478
