# LAS format log file from PETREL
# Project units are specified as depth units
#==================================================================
~Version information
VERS.   2.0:
WRAP.   NO:
#==================================================================
~Well
STRT .m      212.75000000 :
STOP .m      3019.0000000 :
STEP .m     0.00000000 :
NULL .        -999.250000 :
COMP.           : COMPANY
WELL.  34/7-21   : WELL
FLD.            : FIELD
LOC.            : LOCATION
SRVC.           : SERVICE COMPANY
DATE.  2018-09-11 14:48:52   : Log Export Date {yyyy-MM-dd HH:mm:ss}
PROV.           : PROVINCE
UWI.   34/7-21   : UNIQUE WELL ID
API.            : API NUMBER
#==================================================================
~Curve
DEPT .m                   : DEPTH
Lithology_geolink ._      : Lithology_geolink
CALI .in                  : CALI
DRHO .g/cm3               : DRHO
NPHI .m3/m3               : NPHI
RHOB .g/cm3               : RHOB
PEF .b/e                  : PEF
GR .gAPI                  : GR
DTC .us/ft                : DTC
RDEP .ohm.m               : RDEP
SP .mV                    : SP
RSHA .ohm.m               : RSHA
RMED .ohm.m               : RMED
~Parameter
#==================================================================
~Ascii
# ...
 2486.7500000  -999.250000 12.761949539 0.0359626412 0.4633549452 2.3777327538 3.7792301178 89.461349487 118.40171814 1.0617868900  -999.250000 1.6298842430 1.4875397682
 2486.8750000  -999.250000 12.760074615 0.0315220952 0.4639412761 2.3766827583 3.8945322037 89.896224976 117.98616028 1.0721371174  -999.250000 1.6218233109 1.4973089695
 2487.0000000  -999.250000 12.757186890 0.0265614204 0.4627970457 2.3745508194 3.9585838318 90.641693115 117.71775818 1.0871469975  -999.250000 1.6139202118 1.5029287338
 2487.1250000  -999.250000 12.753725052 0.0237212330 0.4607603550 2.3734045029 3.9732408524 91.306610107 117.64286804 1.1093192101  -999.250000 1.6107614040 1.5041923523
 2487.2500000  -999.250000 12.751058578 0.0232216343 0.4598363638 2.3739600182 3.9758300781 91.534561157 117.86206055 1.1369955540  -999.250000 1.6129324436 1.5020232201
 2487.3750000  -999.250000 12.750866890 0.0246591568 0.4607427120 2.3756704330 3.9758272171 91.375244141 118.05798340 1.1651806831  -999.250000 1.6169712543 1.4975221157
 2487.5000000  -999.250000 12.752548218 0.0276238807 0.4631775618 2.3778033257 3.9753370285 91.519317627 117.97200012 1.1908419132  -999.250000 1.6186161041 1.4920454025
 2487.6250000  -999.250000 12.754585266 0.0309483968 0.4663079977 2.3797893524 3.9707026482 92.437637329 118.03963470 1.2146255970  -999.250000 1.6160016060 1.4860243797
 2487.7500000  -999.250000 12.755634308 0.0336143933 0.4694765806 2.3813524246 3.9306273460 93.977127075 118.32279968 1.2378754616  -999.250000 1.6101737022 1.4795751572
 2487.8750000  -999.250000 12.755496979 0.0359989926 0.4722813666 2.3824515343 3.8648939133 95.278549194 117.86614990 1.2589128017  -999.250000 1.6041507721 1.4728779793
 2488.0000000  -999.250000 12.755311966 0.0384671539 0.4741255045 2.3831095695 3.8400106430 95.652252197 117.68743896 1.2714443207  -999.250000 1.5999579430 1.4666790962
 2488.1250000  -999.250000 12.755742073 0.0399597064 0.4743469954 2.3834528923 3.8432888985 94.955917358 117.89842224 1.2678050995  -999.250000 1.5969932079 1.4618883133
 2488.2500000  -999.250000 12.756849289 0.0390438214 0.4723981619 2.3838448524 3.8391819000 93.382965088 118.04635620 1.2462096214  -999.250000 1.5933005810 1.4593262672
 2488.3750000  -999.250000 12.758195877 0.0359536186 0.4685193896 2.3845400810 3.8274087906 91.202911377 118.08000183 1.2153255939  -999.250000 1.5885205269 1.4604423046
 2488.5000000  -999.250000 12.759346008 0.0329451784 0.4655028284 2.3853154182 3.8122892380 88.933853149 118.26925659 1.1912915707  -999.250000 1.5844044685 1.4658732414
 2488.6250000  -999.250000 12.760244370 0.0320803002 0.4671520889 2.3856062889 3.7844476700 87.096893311 118.26687622 1.1831326485  -999.250000 1.5801019669 1.4763929844
 2488.7500000  -999.250000 12.761125565 0.0327569768 0.4743236303 2.3854222298 3.7413978577 86.294586182 117.86146545 1.1940143108  -999.250000 1.5699079037 1.4919641018
 2488.8750000  -999.250000 12.762235641 0.0332794189 0.4851011634 2.3855481148 3.6884574890 87.170211792 117.65548706 1.2214436531  -999.250000 1.5494172573 1.5123653412
 2489.0000000  -999.250000 12.763673782 0.0331578106 0.4966540635 2.3869414330 3.6702079773 89.044769287 117.09277344 1.2497637272  -999.250000 1.5122597218 1.5352754593
 2489.1250000  -999.250000 12.766096115 0.0334774777 0.5070916414 2.3895277977 3.7465000153 90.794021606 116.07725525 1.2658600807  -999.250000 1.4367468357 1.5577952862
 2489.2500000  -999.250000 12.770162582 0.0343782529 0.5145771503 2.3917040825 3.9054927826 91.393493652 115.28153992 1.2632346153  -999.250000 1.3137199879 1.5753045082
 2489.3750000  -999.250000 12.775533676 0.0342013463 0.5163978338 2.3918952942 4.0655956268 90.503814697 115.16709900 1.2436749935  -999.250000 1.1831843853 1.5803768635
 2489.5000000  -999.250000 12.780412674 0.0323123410 0.5132877827 2.3898854256 4.1303005219 89.135894775 115.10247803 1.2198376656  -999.250000 1.1000864506 1.5725030899
 2489.6250000  -999.250000 12.783576965 0.0306387320 0.5115432739 2.3872313499 4.1208848953 88.125656128 115.40504456 1.1991608143  -999.250000 1.0956885815 1.5544071198
 2489.7500000  -999.250000 12.784963608 0.0306260847 0.5146806240 2.3854603767 4.0750436783 87.978775024 116.15759277 1.1845557690  -999.250000 1.1776852608 1.5316300392
 2489.8750000  -999.250000 12.785678864 0.0306795016 0.5192651749 2.3845829964 3.9904212952 88.763931274 116.44465637 1.1762046814  -999.250000 1.3169536591 1.5106730461
 2490.0000000  -999.250000 12.786910057 0.0285383686 0.5187844038 2.3840675354 3.8628087044 89.808517456 116.38887787 1.1722555161  -999.250000 1.4505181313 1.4948101044
 2490.1250000  -999.250000 12.788244247 0.0252426341 0.5110710859 2.3841052055 3.7844047546 90.753326416 116.29882813 1.1720843315  -999.250000 1.5248649120 1.4847538471
 2490.2500000  -999.250000 12.788257599 0.0244423039 0.5007902384 2.3853492737 3.7890057564 91.496612549 116.39991760 1.1730797291  -999.250000 1.5420200825 1.4800713062
 2490.3750000  -999.250000 12.785768509 0.0272208117 0.4905506372 2.3877763748 3.8172569275 91.985412598 116.41706085 1.1689090729  -999.250000 1.5457742214 1.4801833630
 2490.5000000  -999.250000 12.781803131 0.0316696092 0.4815039039 2.3904385567 3.8392310143 92.335494995 116.67768860 1.1554527283  -999.250000 1.5583195686 1.4826772213
 2490.6250000  -999.250000 12.777339935 0.0353822932 0.4753764868 2.3923130035 3.8539586067 92.694961548 116.91685486 1.1314394474  -999.250000 1.5755884647 1.4861431122
 2490.7500000  -999.250000 12.772849083 0.0372364819 0.4736711979 2.3928451538 3.8619256020 93.140060425 117.02687836 1.0987856388  -999.250000 1.5840284824 1.4897239208
 2490.8750000  -999.250000 12.768281937 0.0369884744 0.4764866531 2.3916749954 3.8717479706 93.590637207 117.26634216 1.0643217564  -999.250000 1.5694427490 1.4926576614
 2491.0000000  -999.250000 12.763969421 0.0356081352 0.4811244309 2.3888721466 3.9080171585 93.888504028 117.71406555 1.0380220413  -999.250000 1.5298526287 1.4941635132
 2491.1250000  -999.250000 12.760597229 0.0347984359 0.4834825993 2.3855161667 3.9312343597 93.930770874 117.99205017 1.0274162292  -999.250000 1.4772365093 1.4932429790
 2491.2500000  -999.250000 12.758102417 0.0346924365 0.4814671576 2.3830561638 3.8686056137 93.657043457 118.37440491 1.0360531807  -999.250000 1.4312076569 1.4894032478
 2491.3750000  -999.250000 12.754117012 0.0338988304 0.4754722714 2.3821077347 3.7247543335 93.108825684 118.63110352 1.0616126060  -999.250000 1.4079363346 1.4833822250
 2491.5000000  -999.250000 12.745754242 0.0322210267 0.4673208594 2.3828511238 3.5762505531 92.593002319 118.37844086 1.0905523300  -999.250000 1.4128644466 1.4777863026
 2491.6250000  -999.250000 12.731864929 0.0314195231 0.4590624571 2.3849163055 3.5166358948 92.311004639 117.80171204 1.1125304699  -999.250000 1.4433310032 1.4748604298
 2491.7500000  -999.250000 12.714151382 0.0321806595 0.4525992870 2.3868575096 3.5728263855 92.312911987 117.34521484 1.1206462383  -999.250000 1.4891242981 1.4760787487
 2491.8750000  -999.250000 12.697408676 0.0333696604 0.4498657882 2.3871026039 3.7323198318 92.405990601 116.94531250 1.1134724617  -999.250000 1.5354752541 1.4816102982
 2492.0000000  -999.250000 12.685657501 0.0346481428 0.4521316290 2.3853945732 3.9489607811 92.281616211 116.60577393 1.1017513275  -999.250000 1.5704681873 1.4885373116
 2492.1250000  -999.250000 12.679865837 0.0363363326 0.4578221440 2.3835144043 4.1645240784 91.896728516 116.62579346 1.0938155651  -999.250000 1.5877814293 1.4945104122
 2492.2500000  -999.250000 12.678607941 0.0380115435 0.4637014270 2.3837170601 4.3066816330 91.375839233 116.83374023 1.0931408405  -999.250000 1.5884113312 1.4981567860
 2492.3750000  -999.250000 12.679439545 0.0387934595 0.4682031274 2.3865847588 4.2989034653 90.952148438 116.89053345 1.0978474617  -999.250000 1.5812106133 1.4993419647
 2492.5000000  -999.250000 12.679941177 0.0376085714 0.4711850286 2.3904042244 4.1115694046 90.651657104 117.00195313 1.1031184196  -999.250000 1.5746300220 1.4996526241
 2492.6250000  -999.250000 12.679395676 0.0339056849 0.4732180834 2.3923029900 3.8924045563 90.232360840 117.05274963 1.1082377434  -999.250000 1.5726087093 1.4999747276
