# LAS format log file from PETREL
# Project units are specified as depth units
#==================================================================
~Version information
VERS.   2.0:
WRAP.   NO:
#==================================================================
~Well
STRT .m      377.87487793 :
STOP .m      3151.8757324 :
STEP .m     0.00000000 :
NULL .        -999.250000 :
COMP.           : COMPANY
WELL.  34/7-5   : WELL
FLD.            : FIELD
LOC.            : LOCATION
SRVC.           : SERVICE COMPANY
DATE.  2018-09-11 14:48:52   : Log Export Date {yyyy-MM-dd HH:mm:ss}
PROV.           : PROVINCE
UWI.   34/7-5   : UNIQUE WELL ID
API.            : API NUMBER
#==================================================================
~Curve
DEPT .m                   : DEPTH
Lithology_geolink ._      : Lithology_geolink
CALI .in                  : CALI
DRHO .g/cm3               : DRHO
NPHI .m3/m3               : NPHI
RHOB .g/cm3               : RHOB
GR .gAPI                  : GR
DTC .us/ft                : DTC
RDEP .ohm.m               : RDEP
SP .mV                    : SP
RSHA .ohm.m               : RSHA
RMED .ohm.m               : RMED
~Parameter
#==================================================================
~Ascii
# ...
 1671.9998779  -999.250000 17.333000183 0.0590000004  -999.250000 2.1710000038 20.011999130 142.51699829 0.6589999795 63.298000336 0.7540000081 0.7540000081
 1672.1251221  -999.250000 17.343000412 0.0630000010  -999.250000 2.1809999943 18.825000763 141.47399902 0.6529999971 62.562004089 0.7540000081 0.7540000081
 1672.2498779  -999.250000 17.353000641 0.0659999996  -999.250000 2.1840000153 18.433000565 140.94299316 0.6480000019 61.995998383 0.7570000291 0.7570000291
 1672.3747559  -999.250000 17.361999512 0.0680000037  -999.250000 2.1809999943 18.429000854 140.61399841 0.6460000277 61.430999756 0.7590000033 0.7590000033
 1672.5001221  -999.250000 17.371999741 0.0599999987  -999.250000 2.1619999409 19.173000336 140.33900452 0.6430000067 61.221000671 0.7549999952 0.7549999952
 1672.6250000  -999.250000 17.381999969 0.0500000007  -999.250000 2.1419999599 20.100999832 140.14100647 0.6409999728 61.362998962 0.7509999871 0.7509999871
 1672.7501221  -999.250000 17.392000198 0.0399999991  -999.250000 2.1329998970 20.965999603 139.76400757 0.6380000114 61.591999054 0.7429999709 0.7429999709
 1672.8748779  -999.250000 17.400999069 0.0370000005  -999.250000 2.1280000210 22.034999847 139.27000427 0.6399999857 61.798999786 0.7450000048 0.7450000048
 1673.0000000  -999.250000 17.408000946 0.0399999991  -999.250000 2.1280000210 23.024999619 139.23300171 0.6430000067 61.888999939 0.7540000081 0.7540000081
 1673.1247559  -999.250000 17.412000656 0.0419999994  -999.250000 2.1280000210 23.086000443 139.40499878 0.6470000148 61.951999664 0.7609999776 0.7609999776
 1673.2502441  -999.250000 17.416000366 0.0450000018  -999.250000 2.1300001144 22.247999191 139.77600098 0.6499999762 62.013000488 0.7639999986 0.7639999986
 1673.3751221  -999.250000 17.420000076 0.0439999998  -999.250000 2.1329998970 21.170000076 140.17199707 0.6529999971 62.033000946 0.7670000196 0.7670000196
 1673.4998779  -999.250000 17.423999786 0.0419999994  -999.250000 2.1359999180 20.127000809 140.64599609 0.6579999924 62.034000397 0.7760000229 0.7760000229
 1673.6251221  -999.250000 17.427000046 0.0390000008  -999.250000 2.1389999390 19.441999435 140.64599609 0.6669999957 62.034999847 0.7870000005 0.7870000005
 1673.7502441  -999.250000 17.429000854 0.0370000005  -999.250000 2.1400001049 19.083999634 139.79600525 0.6769999862 62.035999298 0.7960000038 0.7960000038
 1673.8750000  -999.250000 17.430000305 0.0340000018  -999.250000 2.1400001049 19.194000244 139.48300171 0.6880000234 62.037998199 0.7979999781 0.7979999781
 1674.0001221  -999.250000 17.430999756 0.0309999995  -999.250000 2.1359999180 19.419000626 140.01600647 0.6949999928 62.039001465 0.8000000119 0.8000000119
 1674.1248779  -999.250000 17.430999756 0.0289999992  -999.250000 2.1310000420 19.832000732 140.72900391 0.6990000010 62.040000916 0.8019999862 0.8019999862
 1674.2500000  -999.250000 17.431999207 0.0270000007  -999.250000 2.1300001144 20.295000076 140.85499573 0.7039999962 62.587997437 0.8040000200 0.8040000200
 1674.3748779  -999.250000 17.433000565 0.0250000004  -999.250000 2.1359999180 21.118000031 140.42399597 0.7080000043 63.303001404 0.8069999814 0.8069999814
 1674.5001221  -999.250000 17.433000565 0.0240000002  -999.250000 2.1489999294 22.031000137 140.02799988 0.7120000124 63.551002502 0.8100000024 0.8100000024
 1674.6248779  -999.250000 17.434000015 0.0219999999  -999.250000 2.1640000343 22.749000549 139.82800293 0.7129999995 63.651004791 0.8069999814 0.8069999814
 1674.7497559  -999.250000 17.434999466 0.0209999997  -999.250000 2.1770000458 22.986000061 139.29699707 0.7129999995 63.630996704 0.8009999990 0.8009999990
 1674.8751221  -999.250000 17.434999466 0.0219999999  -999.250000 2.1849999428 22.728000641 138.76499939 0.7129999995 63.269004822 0.7940000296 0.7940000296
 1675.0000000  -999.250000 17.436000824 0.0280000009  -999.250000 2.1860001087 22.179000854 138.28799438 0.7170000076 62.674999237 0.7929999828 0.7929999828
 1675.1251221  -999.250000 17.436000824 0.0340000018  -999.250000 2.1830000877 21.665000916 137.83500671 0.7289999723 62.145000458 0.8059999943 0.8059999943
 1675.2498779  -999.250000 17.437000275 0.0399999991  -999.250000 2.1779999733 21.163000107 137.48100281 0.7360000014 61.861999512 0.8190000057 0.8190000057
 1675.3750000  -999.250000 17.437999725 0.0399999991  -999.250000 2.1719999313 20.688999176 137.21699524 0.7429999709 61.605998993 0.8320000172 0.8320000172
 1675.4997559  -999.250000 17.437999725 0.0399999991  -999.250000 2.1670000553 20.249000549 136.86000061 0.7540000081 61.354999542 0.8389999866 0.8389999866
 1675.6252441  -999.250000 17.438999176 0.0370000005  -999.250000 2.1610000134 19.809999466 136.47599792 0.7680000067 61.328998566 0.8379999995 0.8379999995
 1675.7501221  -999.250000 17.438999176 0.0329999998  -999.250000 2.1570000648 19.386999130 136.03999329 0.7810000181 61.472999573 0.8379999995 0.8379999995
 1675.8748779  -999.250000 17.438999176 0.0299999993  -999.250000 2.1579999924 19.010000229 135.48399353 0.7900000215 61.617000580 0.8579999804 0.8579999804
 1676.0001221  -999.250000 17.437999725 0.0289999992  -999.250000 2.1619999409 19.363000870 135.04100037 0.7979999781 61.761001587 0.8640000224 0.8640000224
 1676.1252441  -999.250000 17.437000275 0.0299999993  -999.250000 2.1700000763 19.948999405 134.70700073 0.8059999943 61.851001740 0.8700000048 0.8700000048
 1676.2500000  -999.250000 17.436000824 0.0350000001  -999.250000 2.1809999943 20.490999222 134.37399292 0.8109999895 61.851001740 0.8750000000 0.8750000000
 1676.3748779  -999.250000 17.434999466 0.0439999998  -999.250000 2.1919999123 20.923000336 134.04100037 0.8109999895 61.852001190 0.8780000210 0.8780000210
 1676.5000000  -999.250000 17.434000015 0.0520000011  -999.250000 2.2000000477 21.047000885 133.75999451 0.8109999895 61.852001190 0.8820000291 0.8820000291
 1676.6250000  -999.250000 17.433000565 0.0529999994  -999.250000 2.2030000687 20.711000443 133.59300232 0.8109999895 61.962001801 0.8870000243 0.8870000243
 1676.7498779  -999.250000 17.431999207 0.0509999990  -999.250000 2.2030000687 20.243000031 133.40699768 0.8149999976 62.229999542 0.8909999728 0.8909999728
 1676.8752441  -999.250000 17.430999756 0.0489999987  -999.250000 2.1989998817 19.690999985 133.10699463 0.8240000010 62.514999390 0.8960000277 0.8960000277
 1676.9998779  -999.250000 17.430000305 0.0460000001  -999.250000 2.1930000782 19.714000702 132.84500122 0.8370000124 62.811000824 0.8970000148 0.8970000148
 1677.1247559  -999.250000 17.429000854 0.0439999998  -999.250000 2.1849999428 20.204999924 132.81300354 0.8510000110 62.858001709 0.8980000019 0.8980000019
 1677.2502441  -999.250000 17.423999786 0.0439999998  -999.250000 2.1760001183 20.875000000 132.94599915 0.8690000176 62.724002838 0.9029999971 0.9029999971
 1677.3750000  -999.250000 17.413000107 0.0450000018  -999.250000 2.1679999828 21.559999466 133.37399292 0.8889999986 62.492000580 0.9100000262 0.9100000262
 1677.5001221  -999.250000 17.399000168 0.0460000001  -999.250000 2.1630001068 22.302999496 133.81599426 0.9089999795 62.254001617 0.9200000167 0.9200000167
 1677.6248779  -999.250000 17.378000259 0.0469999984  -999.250000 2.1610000134 22.795999527 133.47000122 0.9290000200 61.965999603 0.9350000024 0.9350000024
 1677.7500000  -999.250000 17.347999573 0.0480000004  -999.250000 2.1640000343 22.791999817 132.75199890 0.9499999881 61.671001434 0.9520000219 0.9520000219
 1677.8748779  -999.250000 17.315000534 0.0489999987  -999.250000 2.1700000763 22.507999420 131.50199890 0.9739999771 61.376998901 0.9689999819 0.9689999819
 1678.0002441  -999.250000 17.295999527 0.0529999994  -999.250000 2.1809999943 21.799999237 129.77000427 1.0000000000 61.126998901 0.9980000257 0.9980000257
 1678.1251221  -999.250000 17.292999268 0.0610000007  -999.250000 2.1909999847 20.982999802 128.25000000 1.0249999762 60.911998749 1.0249999762 1.0249999762
 1678.2498779  -999.250000 17.295000076 0.0670000017  -999.250000 2.1949999332 20.165000916 127.14800262 1.0449999571 60.707000732 1.0460000038 1.0460000038
