# LAS format log file from PETREL
# Project units are specified as depth units
#==================================================================
~Version information
VERS.   2.0:
WRAP.   NO:
#==================================================================
~Well
STRT .m      377.87487793 :
STOP .m      3151.8757324 :
STEP .m     0.00000000 :
NULL .        -999.250000 :
COMP.           : COMPANY
WELL.  34/7-5   : WELL
FLD.            : FIELD
LOC.            : LOCATION
SRVC.           : SERVICE COMPANY
DATE.  2018-09-11 14:48:52   : Log Export Date {yyyy-MM-dd HH:mm:ss}
PROV.           : PROVINCE
UWI.   34/7-5   : UNIQUE WELL ID
API.            : API NUMBER
#==================================================================
~Curve
DEPT .m                   : DEPTH
Lithology_geolink ._      : Lithology_geolink
CALI .in                  : CALI
DRHO .g/cm3               : DRHO
NPHI .m3/m3               : NPHI
RHOB .g/cm3               : RHOB
GR .gAPI                  : GR
DTC .us/ft                : DTC
RDEP .ohm.m               : RDEP
SP .mV                    : SP
RSHA .ohm.m               : RSHA
RMED .ohm.m               : RMED
~Parameter
#==================================================================
~Ascii
# ...
 1117.3748779  -999.250000 17.100999832 -0.059999999  -999.250000 1.7269999981 29.201000214 158.11700439 0.9440000057 58.084999084 0.9139999747 0.9139999747
 1117.5001221  -999.250000 17.094999313 -0.046999998  -999.250000 1.7330000401 29.667999268 158.08900452 0.9409999847 58.492000580 0.9160000086 0.9160000086
 1117.6251221  -999.250000 17.089000702 -0.039000001  -999.250000 1.7389999628 29.944999695 157.76699829 0.9390000105 59.034000397 0.9169999957 0.9169999957
 1117.7501221  -999.250000 17.083999634 -0.037000000  -999.250000 1.7430000305 30.464000702 157.63800049 0.9459999800 59.516998291 0.9190000296 0.9190000296
 1117.8750000  -999.250000 17.077999115 -0.037999999  -999.250000 1.7450000048 30.926000595 157.42399597 0.9530000091 59.930000305 0.9219999909 0.9219999909
 1118.0000000  -999.250000 17.072000504 -0.041000001  -999.250000 1.7489999533 31.325000763 157.18499756 0.9610000253 59.534999847 0.9279999733 0.9279999733
 1118.1250000  -999.250000 17.065999985 -0.044000000  -999.250000 1.7549999952 31.865999222 157.04898071 0.9739999771 58.963001251 0.9330000281 0.9330000281
 1118.2498779  -999.250000 17.061000824 -0.039000001  -999.250000 1.7649999857 32.583000183 156.71899414 0.9909999967 58.460998535 0.9390000105 0.9390000105
 1118.3748779  -999.250000 17.055000305 -0.029999999  -999.250000 1.7819999456 33.103000641 156.37500000 1.0080000162 57.960998535 0.9459999800 0.9459999800
 1118.4998779  -999.250000 17.048999786 -0.022000000  -999.250000 1.7999999523 33.127998352 155.85998535 1.0169999599 57.751998901 0.9530000091 0.9530000091
 1118.6251221  -999.250000 17.045999527 -0.017999999  -999.250000 1.8070000410 33.127998352 155.55900574 1.0140000582 57.736000061 0.9549999833 0.9549999833
 1118.7501221  -999.250000 17.047000885 -0.016000001  -999.250000 1.8049999475 32.452999115 155.81500244 1.0110000372 58.191001892 0.9539999962 0.9539999962
 1118.8751221  -999.250000 17.051000595 -0.017999999  -999.250000 1.7990000248 31.511999130 156.34500122 1.0069999695 58.863998413 0.9539999962 0.9539999962
 1119.0000000  -999.250000 17.054000854 -0.023000000  -999.250000 1.7929999828 30.583000183 157.24600220 1.0030000210 59.528999329 0.9480000138 0.9480000138
 1119.1250000  -999.250000 17.056999207 -0.027000001  -999.250000 1.7869999409 30.455999374 157.88198853 1.0000000000 60.089000702 0.9409999847 0.9409999847
 1119.2500000  -999.250000 17.061000824 -0.029999999  -999.250000 1.7769999504 31.496999741 158.23399353 0.9919999838 60.490001678 0.9330000281 0.9330000281
 1119.3750000  -999.250000 17.063999176 -0.028999999  -999.250000 1.7669999599 32.465000153 158.28700256 0.9829999804 60.613998413 0.9250000119 0.9250000119
 1119.4998779  -999.250000 17.068000793 -0.025000000  -999.250000 1.7649999857 33.048000336 157.79600525 0.9739999771 60.519001007 0.9200000167 0.9200000167
 1119.6248779  -999.250000 17.070999146 -0.021000000  -999.250000 1.7640000582 33.134998322 157.26300049 0.9660000205 60.352001190 0.9190000296 0.9190000296
 1119.7498779  -999.250000 17.075000763 -0.016000001  -999.250000 1.7660000324 32.953998566 156.85400391 0.9589999914 60.200000763 0.9190000296 0.9190000296
 1119.8751221  -999.250000 17.077999115 -0.017000001  -999.250000 1.7660000324 32.293998718 156.47702026 0.9539999962 60.064998627 0.9190000296 0.9190000296
 1120.0001221  -999.250000 17.082000732 -0.020000000  -999.250000 1.7640000582 31.506000519 156.57299805 0.9589999914 59.827999115 0.9190000296 0.9190000296
 1120.1251221  -999.250000 17.084999084 -0.025000000  -999.250000 1.7630000114 30.753000259 156.58201599 0.9670000076 59.673000336 0.9210000038 0.9210000038
 1120.2500000  -999.250000 17.087999344 -0.028999999  -999.250000 1.7619999647 30.357000351 156.52099609 0.9800000191 59.758998871 0.9290000200 0.9290000200
 1120.3750000  -999.250000 17.091999054 -0.033000000  -999.250000 1.7669999599 30.056999207 155.94699097 0.9919999838 59.886001587 0.9380000234 0.9380000234
 1120.5000000  -999.250000 17.093000412 -0.032000002  -999.250000 1.7760000229 29.885999680 155.76602173 0.9990000129 60.174999237 0.9459999800 0.9459999800
 1120.6248779  -999.250000 17.093000412 -0.023000000  -999.250000 1.7849999666 29.888000488 155.63600159 1.0019999743 60.435001373 0.9499999881 0.9499999881
 1120.7498779  -999.250000 17.091999054 -0.014000000  -999.250000 1.7940000296 29.249000549 155.59700012 1.0049999952 60.354999542 0.9549999833 0.9549999833
 1120.8748779  -999.250000 17.090999603 -0.005000000  -999.250000 1.8029999733 28.674999237 155.54299927 1.0080000162 59.983001709 0.9589999914 0.9589999914
 1121.0001221  -999.250000 17.090000153 -0.005000000  -999.250000 1.8059999943 28.349000931 155.40299988 1.0099999905 59.506999969 0.9629999995 0.9629999995
 1121.1251221  -999.250000 17.090000153 -0.010000000  -999.250000 1.8040000200 28.056999207 155.40600586 1.0130000114 58.645999908 0.9660000205 0.9660000205
 1121.2501221  -999.250000 17.089000702 -0.013000000  -999.250000 1.8049999475 28.083999634 155.40899658 1.0149999857 58.314998627 0.9679999948 0.9679999948
 1121.3750000  -999.250000 17.087999344 -0.011000000  -999.250000 1.8159999847 28.541000366 155.28700256 1.0199999809 58.414001465 0.9689999819 0.9689999819
 1121.5000000  -999.250000 17.087999344 -0.008000000  -999.250000 1.8279999495 29.197999954 154.95700073 1.0249999762 59.000000000 0.9660000205 0.9660000205
 1121.6250000  -999.250000 17.086999893 -0.006000000  -999.250000 1.8409999609 30.332000732 154.62800598 1.0310000181 59.633998871 0.9639999866 0.9639999866
 1121.7500000  -999.250000 17.086000443 -0.012000000  -999.250000 1.8489999771 31.347999573 154.42599487 1.0269999504 60.297000885 0.9620000124 0.9620000124
 1121.8748779  -999.250000 17.084999084 -0.020000000  -999.250000 1.8470000029 31.927999496 154.28399658 1.0160000324 60.910999298 0.9589999914 0.9589999914
 1121.9998779  -999.250000 17.084999084 -0.028000001  -999.250000 1.8420000076 32.213001251 154.38299561 1.0049999952 61.386001587 0.9549999833 0.9549999833
 1122.1248779  -999.250000 17.083999634 -0.028999999  -999.250000 1.8359999657 32.187999725 154.42999268 1.0030000210 61.091999054 0.9509999752 0.9509999752
 1122.2501221  -999.250000 17.083000183 -0.023000000  -999.250000 1.8270000219 32.111999512 154.66099548 1.0019999743 60.234001160 0.9470000267 0.9470000267
 1122.3751221  -999.250000 17.083000183 -0.017999999  -999.250000 1.8129999638 32.273998260 155.03700256 1.0000000000 59.370998383 0.9430000186 0.9430000186
 1122.5001221  -999.250000 17.082000732 -0.016000001  -999.250000 1.8049999475 32.139999390 155.16499329 0.9990000129 58.869998932 0.9409999847 0.9409999847
 1122.6250000  -999.250000 17.080999374 -0.018999999  -999.250000 1.7979999781 31.879999161 155.24299622 0.9969999790 58.525001526 0.9390000105 0.9390000105
 1122.7500000  -999.250000 17.080999374 -0.025000000  -999.250000 1.7890000343 30.955999374 155.45899963 0.9950000048 58.785999298 0.9369999766 0.9369999766
 1122.8750000  -999.250000 17.079999924 -0.030999999  -999.250000 1.7790000439 29.983999252 155.85398865 0.9940000176 59.261001587 0.9350000024 0.9350000024
 1122.9998779  -999.250000 17.079000473 -0.033000000  -999.250000 1.7740000486 29.535999298 156.24099731 0.9929999709 59.757999420 0.9330000281 0.9330000281
 1123.1248779  -999.250000 17.077999115 -0.030999999  -999.250000 1.7710000277 29.204999924 156.51799011 0.9909999967 60.255001068 0.9300000072 0.9300000072
 1123.2498779  -999.250000 17.077999115 -0.027000001  -999.250000 1.7690000534 29.093000412 156.74299622 0.9900000095 60.277999878 0.9269999862 0.9269999862
 1123.3751221  -999.250000 17.076999664 -0.025000000  -999.250000 1.7669999599 28.913999557 156.96800232 0.9879999757 59.847999573 0.9240000248 0.9240000248
 1123.5001221  -999.250000 17.076000214 -0.028000001  -999.250000 1.7640000582 29.087999344 157.08799744 0.9869999886 59.307998657 0.9200000167 0.9200000167
 1123.6251221  -999.250000 17.073999405 -0.032000002  -999.250000 1.7610000372 29.204999924 156.80599976 0.9860000014 58.743000031 0.9169999957 0.9169999957
