# LAS format log file from PETREL
# Project units are specified as depth units
#==================================================================
~Version information
VERS.   2.0:
WRAP.   NO:
#==================================================================
~Well
STRT .m      212.75000000 :
STOP .m      3019.0000000 :
STEP .m     0.00000000 :
NULL .        -999.250000 :
COMP.           : COMPANY
WELL.  34/7-21   : WELL
FLD.            : FIELD
LOC.            : LOCATION
SRVC.           : SERVICE COMPANY
DATE.  2018-09-11 14:48:52   : Log Export Date {yyyy-MM-dd HH:mm:ss}
PROV.           : PROVINCE
UWI.   34/7-21   : UNIQUE WELL ID
API.            : API NUMBER
#==================================================================
~Curve
DEPT .m                   : DEPTH
Lithology_geolink ._      : Lithology_geolink
CALI .in                  : CALI
DRHO .g/cm3               : DRHO
NPHI .m3/m3               : NPHI
RHOB .g/cm3               : RHOB
PEF .b/e                  : PEF
GR .gAPI                  : GR
DTC .us/ft                : DTC
RDEP .ohm.m               : RDEP
SP .mV                    : SP
RSHA .ohm.m               : RSHA
RMED .ohm.m               : RMED
~Parameter
#==================================================================
~Ascii
# ...
 1448.7500000  -999.250000 18.646907806 0.0219873413  -999.250000 2.0461907387 6.4129629135 91.860565186 153.70172119 0.7173238993 44.274864197  -999.250000 0.9131063223
 1448.8750000  -999.250000 18.697032928 0.0214324445  -999.250000 2.0464477539 6.7322397232 89.026016235 153.85833740 0.7306941748 44.248229980  -999.250000 0.9202775955
 1449.0001221  -999.250000 18.706314087 0.0205731392  -999.250000 2.0462403297 6.7322969437 86.729705811 154.04116821 0.7501763105 44.176460266  -999.250000 0.9273109436
 1449.1248779  -999.250000 18.675628662 0.0200750045  -999.250000 2.0460801125 6.4978780746 85.764251709 154.20529175 0.7684016228 44.206657410  -999.250000 0.9336007833
 1449.2500000  -999.250000 18.623275757 0.0199170820  -999.250000 2.0467290878 6.2123880386 86.311691284 154.25657654 0.7800004482 44.332382202  -999.250000 0.9387143850
 1449.3750000  -999.250000 18.574813843 0.0200870521  -999.250000 2.0485663414 5.9632396698 87.994735718 154.08169556 0.7822390795 44.396934509  -999.250000 0.9418064356
 1449.5000000  -999.250000 18.540977478 0.0208281316  -999.250000 2.0512623787 5.8805513382 89.902984619 153.72882080 0.7792158127 44.290061951  -999.250000 0.9428482056
 1449.6250000  -999.250000 18.518402100 0.0220584646  -999.250000 2.0538992882 5.8819017410 91.468078613 153.28851318 0.7731816769 44.047935486  -999.250000 0.9418666363
 1449.7500000  -999.250000 18.502738953 0.0232566930  -999.250000 2.0557780266 5.9470348358 92.242248535 152.87188721 0.7642192841 43.849563599  -999.250000 0.9389306307
 1449.8750000  -999.250000 18.496212006 0.0241201855  -999.250000 2.0569849014 6.0593605042 91.831466675 152.58584595 0.7521861792 43.856285095  -999.250000 0.9335222244
 1450.0000000  -999.250000 18.498878479 0.0248384923  -999.250000 2.0581493378 6.1975517273 90.612716675 152.44235229 0.7412883043 44.132987976  -999.250000 0.9258472919
 1450.1251221  -999.250000 18.508506775 0.0259606317  -999.250000 2.0598368645 6.3208456039 89.061416626 152.42579651 0.7375824451 44.655418396  -999.250000 0.9166935682
 1450.2498779  -999.250000 18.520980835 0.0277503133  -999.250000 2.0620694160 6.4166517258 87.701156616 152.48834229 0.7445744276 45.285903931  -999.250000 0.9079445601
 1450.3750000  -999.250000 18.533828735 0.0301202349  -999.250000 2.0645794868 6.5055055618 86.984741211 152.55715942 0.7577886581 45.819847107  -999.250000 0.9023683071
 1450.5000000  -999.250000 18.548389435 0.0326370299  -999.250000 2.0669517517 6.6436729431 86.665588379 152.57293701 0.7652555704 46.093719482  -999.250000 0.9003952742
 1450.6250000  -999.250000 18.565753937 0.0346534327  -999.250000 2.0686736107 6.8823175430 86.313339233 152.52319336 0.7599633932 46.010017395  -999.250000 0.9011944532
 1450.7500000  -999.250000 18.585414886 0.0359012261  -999.250000 2.0692820549 7.1796169281 85.721633911 152.42045593 0.7420505285 45.673278809  -999.250000 0.9031070471
 1450.8750000  -999.250000 18.608215332 0.0364835188  -999.250000 2.0684041977 7.3745832443 85.174224854 152.26599121 0.7184059620 45.340690613  -999.250000 0.9045795202
 1451.0000000  -999.250000 18.635833740 0.0361353755  -999.250000 2.0658054352 7.4060697556 85.097442627 152.05743408 0.6990166903 45.180541992  -999.250000 0.9055241346
 1451.1250000  -999.250000 18.667396545 0.0347091928  -999.250000 2.0617642403 7.3358974457 85.682067871 151.79515076 0.6888750792 45.228271484  -999.250000 0.9066395760
 1451.2500000  -999.250000 18.693664551 0.0328877941  -999.250000 2.0572972298 7.2152423859 86.814819336 151.50021362 0.6894296408 45.383773804  -999.250000 0.9086844921
 1451.3748779  -999.250000 18.688480377 0.0313353613  -999.250000 2.0536403656 7.0934801102 87.976272583 151.17111206 0.7039954662 45.563102722  -999.250000 0.9128632545
 1451.5000000  -999.250000 18.638229370 0.0304345489  -999.250000 2.0525808334 7.1180019379 88.621047974 150.74029541 0.7322816849 45.776672363  -999.250000 0.9199528694
 1451.6250000  -999.250000 18.545837402 0.0300769322  -999.250000 2.0560312271 7.1622905731 88.781646729 150.10989380 0.7703652382 46.055122375  -999.250000 0.9302190542
 1451.7500000  -999.250000 18.434371948 0.0297169127  -999.250000 2.0651178360 7.1785058975 88.847778320 149.24243164 0.8069151640 46.365150452  -999.250000 0.9421529770
 1451.8750000  -999.250000 18.344226837 0.0295076892  -999.250000 2.0800533295 7.2331228256 89.088653564 148.24426270 0.8225481510 46.597152710  -999.250000 0.9509439468
 1452.0000000  -999.250000 18.298439026 0.0305134021  -999.250000 2.0985102654 7.1668796539 89.375473022 147.35855103 0.8121169806 46.652244568  -999.250000 0.9523100853
 1452.1250000  -999.250000 18.296718597 0.0330596492  -999.250000 2.1150717735 7.1784267426 89.554428101 146.75335693 0.7834482193 46.476509094  -999.250000 0.9450550079
 1452.2500000  -999.250000 18.318412781 0.0353896171  -999.250000 2.1239590645 7.1335983276 89.560226440 146.50152588 0.7547411919 46.113265991  -999.250000 0.9324328899
 1452.3750000  -999.250000 18.336540222 0.0350522026  -999.250000 2.1228404045 6.9687347412 89.456985474 146.65423584 0.7449613810 45.711326599  -999.250000 0.9212450981
 1452.5001221  -999.250000 18.343627930 0.0309004597  -999.250000 2.1140561104 6.8509006500 89.382766724 147.10327148 0.7507443428 45.412406921  -999.250000 0.9155765772
 1452.6248779  -999.250000 18.348003387 0.0246176608  -999.250000 2.1035728455 6.7837514877 89.222717285 147.76489258 0.7609041929 45.341468811  -999.250000 0.9153486490
 1452.7500000  -999.250000 18.359668732 0.0196737908  -999.250000 2.0966210365 6.7383241653 88.713409424 148.48925781 0.7658379078 45.546440125  -999.250000 0.9180006981
 1452.8750000  -999.250000 18.379356384 0.0184251703  -999.250000 2.0943193436 6.7025175095 87.820007324 148.98825073 0.7653383017 45.917846680  -999.250000 0.9204522371
 1453.0000000  -999.250000 18.392711639 0.0205570981  -999.250000 2.0955495834 6.6857652664 87.045913696 149.03663635 0.7693336010 46.307426453  -999.250000 0.9225072861
 1453.1250000  -999.250000 18.388885498 0.0237299837  -999.250000 2.0992326736 6.6491127014 86.804107666 148.47793579 0.7828611135 46.577873230  -999.250000 0.9266893864
 1453.2500000  -999.250000 18.368865967 0.0260645933  -999.250000 2.1060934067 6.5912342072 87.219345093 147.27954102 0.8021360636 46.679550171  -999.250000 0.9359040260
 1453.3750000  -999.250000 18.344154358 0.0268684588  -999.250000 2.1185417175 6.6423902512 88.010162354 145.53958130 0.8152534962 46.668495178  -999.250000 0.9512418509
 1453.5000000  -999.250000 18.325740814 0.0277035534  -999.250000 2.1381168365 6.6847152710 88.556411743 143.69418335 0.8159922361 46.583274841  -999.250000 0.9672349691
 1453.6251221  -999.250000 18.316856384 0.0316340253  -999.250000 2.1614594460 6.7012529373 88.653274536 142.15341187 0.8078724146 46.411155701  -999.250000 0.9772825241
 1453.7498779  -999.250000 18.317783356 0.0386589915  -999.250000 2.1797647476 6.6901798248 88.581069946 141.26382446 0.8006689548 46.103973389  -999.250000 0.9768400192
 1453.8750000  -999.250000 18.329975128 0.0450192094  -999.250000 2.1850061417 6.6425991058 88.840469360 141.32086182 0.8064709902 45.685264587  -999.250000 0.9663275480
 1454.0000000  -999.250000 18.352119446 0.0465906933  -999.250000 2.1739521027 6.5551977158 89.428955078 142.07543945 0.8261202574 45.297325134  -999.250000 0.9543609619
 1454.1250000  -999.250000 18.383121490 0.0433327034  -999.250000 2.1523184776 6.5069608688 89.979385376 143.26062012 0.8543112278 45.146034241  -999.250000 0.9468566179
 1454.2500000  -999.250000 18.418418884 0.0382852703  -999.250000 2.1315121651 6.5117597580 90.180007935 144.57907104 0.8830802441 45.318115234  -999.250000 0.9465076923
 1454.3750000  -999.250000 18.450298309 0.0332285240  -999.250000 2.1186704636 6.4949378967 90.126403809 145.73477173 0.9037505388 45.694152832  -999.250000 0.9537172318
 1454.5000000  -999.250000 18.474197388 0.0291369781  -999.250000 2.1162123680 6.4680929184 90.310913086 146.61605835 0.9154003859 46.137840271  -999.250000 0.9649561644
 1454.6250000  -999.250000 18.487621307 0.0260935798  -999.250000 2.1212873459 6.4853143692 90.992691040 147.21908569 0.9191738367 46.542121887  -999.250000 0.9780569077
