# LAS format log file from PETREL
# Project units are specified as depth units
#==================================================================
~Version information
VERS.   2.0:
WRAP.   NO:
#==================================================================
~Well
STRT .m      417.47238159 :
STOP .m      3182.7705078 :
STEP .m     0.00000000 :
NULL .        -999.250000 :
COMP.           : COMPANY
WELL.  34/7-20   : WELL
FLD.            : FIELD
LOC.            : LOCATION
SRVC.           : SERVICE COMPANY
DATE.  2018-09-11 14:48:52   : Log Export Date {yyyy-MM-dd HH:mm:ss}
PROV.           : PROVINCE
UWI.   34/7-20   : UNIQUE WELL ID
API.            : API NUMBER
#==================================================================
~Curve
DEPT .m                   : DEPTH
Lithology_geolink ._      : Lithology_geolink
CALI .in                  : CALI
DRHO .g/cm3               : DRHO
NPHI .m3/m3               : NPHI
RHOB .g/cm3               : RHOB
GR .gAPI                  : GR
DTC .us/ft                : DTC
RDEP .ohm.m               : RDEP
SP .mV                    : SP
RSHA .ohm.m               : RSHA
RMED .ohm.m               : RMED
~Parameter
#==================================================================
~Ascii
# ...
 2104.0832520  -999.250000 12.890625000  -999.250000 0.4098168910  -999.250000  -999.250000 121.51580811 1.1993925571 73.898666382 1.4414312840 1.2251281738
 2104.2355957  -999.250000 12.890625000  -999.250000 0.4023945630  -999.250000  -999.250000 121.62759399 1.1854138374 74.183288574 1.4128999710 1.2226114273
 2104.3879395  -999.250000 12.890625000  -999.250000 0.3738226295  -999.250000  -999.250000 121.11860657 1.1904249191 74.754302979 1.3357093334 1.2272145748
 2104.5405273  -999.250000 12.890802383  -999.250000 0.3513951898  -999.250000  -999.250000 119.59405518 1.2152156830 75.296524048 1.3214478493 1.2428159714
 2104.6928711  -999.250000 12.894668579  -999.250000 0.3503408730  -999.250000  -999.250000 118.11962891 1.2451391220 75.591003418 1.3993885517 1.2720510960
 2104.8452148  -999.250000 12.894744873  -999.250000 0.3709420860  -999.250000  -999.250000 117.83280945 1.2660608292 75.329216003 1.4858920574 1.2966437340
 2104.9975586  -999.250000 12.903150558  -999.250000 0.3902291954  -999.250000  -999.250000 118.55323792 1.2854022980 74.701049805 1.5353450775 1.3084156513
 2105.1501465  -999.250000 12.909476280  -999.250000 0.4090020657  -999.250000  -999.250000 121.57395935 1.2907493114 74.421936035 1.5922787189 1.3094744682
 2105.3024902  -999.250000 12.897805214  -999.250000 0.4256494939  -999.250000  -999.250000 124.40118408 1.2651662827 74.707397461 1.6314542294 1.2937176228
 2105.4548340  -999.250000 12.890083313  -999.250000 0.4347215891  -999.250000  -999.250000 126.10026550 1.2233886719 75.188621521 1.3279561996 1.2600247860
 2105.6071777  -999.250000 12.875569344  -999.250000 0.4299627542  -999.250000  -999.250000 127.25650024 1.1535105705 75.688926697 0.8033806086 1.1909761429
 2105.7597656  -999.250000 12.813285828  -999.250000 0.4063110352  -999.250000  -999.250000 124.93064880 1.0841345787 76.242324829 0.8371347189 1.1169953346
 2105.9121094  -999.250000 12.790248871  -999.250000 0.4011567831  -999.250000  -999.250000 123.00713348 1.0395717621 76.844055176 1.2234146595 1.0746691227
 2106.0644531  -999.250000 12.795923233  -999.250000 0.4034467936  -999.250000  -999.250000 122.93106079 1.0599999428 77.304161072 1.3759646416 1.0889046192
 2106.2167969  -999.250000 12.790297508  -999.250000 0.4061350226  -999.250000  -999.250000 122.81080627 1.1185059547 77.348228455 1.3896434307 1.1443653107
 2106.3691406  -999.250000 12.813144684  -999.250000 0.4022676051  -999.250000  -999.250000 122.95297241 1.1496374607 77.088600159 1.4090299606 1.1806571484
 2106.5217285  -999.250000 12.814358711  -999.250000 0.3903523386  -999.250000  -999.250000 123.11492920 1.1674840450 76.949600220 1.4113698006 1.1837565899
 2106.6740723  -999.250000 12.779351234  -999.250000 0.3790013194  -999.250000  -999.250000 123.35540771 1.1693294048 77.300903320 1.4181060791 1.1836490631
 2106.8264160  -999.250000 12.757271767  -999.250000 0.3736136556  -999.250000  -999.250000 123.52587891 1.1550667286 77.962654114 1.4459743500 1.1835889816
 2106.9787598  -999.250000 12.743327141  -999.250000 0.3853012919  -999.250000  -999.250000 124.04673767 1.1456828117 78.297851563 1.4504938126 1.1700923443
 2107.1313477  -999.250000 12.691570282  -999.250000 0.4022973776  -999.250000  -999.250000 124.77262878 1.1357228756 78.243545532 1.4414098263 1.1534450054
 2107.2836914  -999.250000 12.643938065  -999.250000 0.3963951766  -999.250000  -999.250000 124.99002075 1.1253297329 78.518630981 1.4663844109 1.1429717541
 2107.4360352  -999.250000 12.640739441  -999.250000 0.3739788830  -999.250000  -999.250000 124.89184570 1.1196775436 79.492729187 1.4643940926 1.1341543198
 2107.5883789  -999.250000 12.635934830  -999.250000 0.3812284768  -999.250000  -999.250000 125.78204346 1.1080613136 80.579040527 1.4249155521 1.1300632954
 2107.7409668  -999.250000 12.625185013  -999.250000 0.4394361973  -999.250000  -999.250000 126.02088928 1.0960845947 81.278427124 1.4238228798 1.1275966167
 2107.8933105  -999.250000 12.624999046  -999.250000 0.4903587997  -999.250000  -999.250000 125.99315643 1.0871498585 81.360351563 1.4246110916 1.1171336174
 2108.0456543  -999.250000 12.624999046  -999.250000 0.4865550995  -999.250000  -999.250000 126.45028687 1.0814855099 80.414512634 1.4183328152 1.1101889610
 2108.1979980  -999.250000 12.624999046  -999.250000 0.4459183514  -999.250000  -999.250000 125.54866028 1.0848612785 78.588851929 1.4195647240 1.1075644493
 2108.3505859  -999.250000 12.624999046  -999.250000 0.4042559862  -999.250000  -999.250000 125.17575073 1.0873427391 77.164367676 1.4002466202 1.1048762798
 2108.5029297  -999.250000 12.624999046  -999.250000 0.3832449317  -999.250000  -999.250000 125.39143372 1.0843555927 77.202682495 1.3682284355 1.1082825661
 2108.6552734  -999.250000 12.624999046  -999.250000 0.3782842159  -999.250000  -999.250000 125.36868286 1.0834178925 78.347305298 1.3710601330 1.1114575863
 2108.8076172  -999.250000 12.624999046  -999.250000 0.3872114420  -999.250000  -999.250000 125.66442871 1.0880784988 79.611907959 1.3672077656 1.1085433960
 2108.9599609  -999.250000 12.624999046  -999.250000 0.4117466807  -999.250000  -999.250000 125.86786652 1.0898880959 79.945602417 1.3736431599 1.1067736149
 2109.1125488  -999.250000 12.624999046  -999.250000 0.4351965189  -999.250000  -999.250000 126.22775269 1.0763900280 79.356338501 1.4071314335 1.0982971191
 2109.2648926  -999.250000 12.624999046  -999.250000 0.4445864856  -999.250000  -999.250000 126.70212555 1.0587692261 78.836936951 1.3753011227 1.0836052895
 2109.4172363  -999.250000 12.624999046  -999.250000 0.4253247082  -999.250000  -999.250000 126.68669128 1.0461418629 78.674072266 1.3323588371 1.0670902729
 2109.5695801  -999.250000 12.624999046  -999.250000 0.3968950510  -999.250000  -999.250000 126.54286194 1.0341801643 78.358444214 1.3317599297 1.0615727901
 2109.7221680  -999.250000 12.624999046  -999.250000 0.3875006139  -999.250000  -999.250000 126.31498718 1.0364208221 77.725463867 1.3221609592 1.0653624535
 2109.8745117  -999.250000 12.624999046  -999.250000 0.3925182223  -999.250000  -999.250000 125.72723389 1.0465335846 77.229934692 1.3080155849 1.0689961910
 2110.0268555  -999.250000 12.624999046  -999.250000 0.3933184743  -999.250000  -999.250000 125.51454163 1.0566027164 77.021682739 1.2981631756 1.0758893490
 2110.1791992  -999.250000 12.624999046  -999.250000 0.4039408863  -999.250000  -999.250000 125.77073669 1.0621428490 76.804229736 1.3249037266 1.0811219215
 2110.3317871  -999.250000 12.624642372  -999.250000 0.4192692637  -999.250000  -999.250000 126.15888977 1.0652363300 76.313034058 1.3646347523 1.0849695206
 2110.4841309  -999.250000 12.616903305  -999.250000 0.4272256494  -999.250000  -999.250000 126.27917480 1.0708158016 75.562850952 1.3464033604 1.0857641697
 2110.6364746  -999.250000 12.617815971  -999.250000 0.4187335968  -999.250000  -999.250000 125.93008423 1.0688843727 74.738975525 1.3349354267 1.0826394558
 2110.7888184  -999.250000 12.624458313  -999.250000 0.4046390653  -999.250000  -999.250000 125.64834595 1.0589735508 73.945045471 1.3696777821 1.0747478008
 2110.9411621  -999.250000 12.612116814  -999.250000 0.4106677175  -999.250000  -999.250000 125.64941406 1.0538077354 73.398277283 1.3724853992 1.0660231113
 2111.0937500  -999.250000 12.597692490  -999.250000 0.4229770005  -999.250000  -999.250000 125.59687805 1.0547933578 73.274734497 1.3553857803 1.0687866211
 2111.2460938  -999.250000 12.602549553  -999.250000 0.4234417677  -999.250000  -999.250000 125.61444092 1.0600750446 73.214607239 1.3971090317 1.0772757530
 2111.3984375  -999.250000 12.617126465  -999.250000 0.4010043442  -999.250000  -999.250000 125.85201263 1.0576486588 72.914665222 1.3853669167 1.0764949322
 2111.5507813  -999.250000 12.607116699  -999.250000 0.3858853877  -999.250000  -999.250000 125.79379272 1.0483512878 72.630142212 1.3457319736 1.0732080936
 2111.7033691  -999.250000 12.564793587  -999.250000 0.4005072117  -999.250000  -999.250000 125.75086975 1.0508520603 72.590515137 1.3994908333 1.0722811222
