# LAS format log file from PETREL
# Project units are specified as depth units
#==================================================================
~Version information
VERS.   2.0:
WRAP.   NO:
#==================================================================
~Well
STRT .m      417.47238159 :
STOP .m      3182.7705078 :
STEP .m     0.00000000 :
NULL .        -999.250000 :
COMP.           : COMPANY
WELL.  34/7-20   : WELL
FLD.            : FIELD
LOC.            : LOCATION
SRVC.           : SERVICE COMPANY
DATE.  2018-09-11 14:48:52   : Log Export Date {yyyy-MM-dd HH:mm:ss}
PROV.           : PROVINCE
UWI.   34/7-20   : UNIQUE WELL ID
API.            : API NUMBER
#==================================================================
~Curve
DEPT .m                   : DEPTH
Lithology_geolink ._      : Lithology_geolink
CALI .in                  : CALI
DRHO .g/cm3               : DRHO
NPHI .m3/m3               : NPHI
RHOB .g/cm3               : RHOB
GR .gAPI                  : GR
DTC .us/ft                : DTC
RDEP .ohm.m               : RDEP
SP .mV                    : SP
RSHA .ohm.m               : RSHA
RMED .ohm.m               : RMED
~Parameter
#==================================================================
~Ascii
# ...
 2508.2480469  -999.250000 12.484491348  -999.250000 0.3575271666  -999.250000  -999.250000 112.11395264 1.2651946545 134.19834900 1.7716164589 1.2474045753
 2508.4003906  -999.250000 12.483507156  -999.250000 0.3535140157  -999.250000  -999.250000 112.19998169 1.2735037804 134.59393311 1.7499141693 1.2602820396
 2508.5527344  -999.250000 12.471943855  -999.250000 0.3588580191  -999.250000  -999.250000 112.19998169 1.2804121971 134.94245911 1.7487030029 1.2662189007
 2508.7050781  -999.250000 12.458572388  -999.250000 0.3605890572  -999.250000  -999.250000 112.21726990 1.2755789757 134.97375488 1.7389237881 1.2676045895
 2508.8576660  -999.250000 12.415287018  -999.250000 0.3517668843  -999.250000  -999.250000 112.55281067 1.3434665203 134.77445984 1.6982402802 1.3526272774
 2509.0100098  -999.250000 12.378949165  -999.250000 0.3343386054  -999.250000  -999.250000 112.32327271 1.5763111115 134.68687439 1.6833260059 1.5948002338
 2509.1623535  -999.250000 12.371444702  -999.250000 0.3212164938  -999.250000  -999.250000 109.75433350 1.8222107887 134.90315247 1.6845834255 1.8419256210
 2509.3146973 16.000000000 12.379394531  -999.250000 0.3374732137  -999.250000  -999.250000 104.13052368 1.8923156261 135.30937195 1.7777240276 1.9219117165
 2509.4672852 16.000000000 12.381612778  -999.250000 0.3447026908  -999.250000  -999.250000 99.337799072 1.8856649399 135.70639038 2.0391178131 1.9082665443
 2509.6196289 16.000000000 12.366510391  -999.250000 0.3318688273  -999.250000  -999.250000 97.772506714 1.8806445599 135.95394897 2.5921044350 1.9084312916
 2509.7719727 16.000000000 12.359375000  -999.250000 0.3203678131  -999.250000  -999.250000 97.448150635 1.8721094131 136.02661133 2.5813846588 1.9178316593
 2509.9243164 16.000000000 12.359375000  -999.250000 0.3179055750  -999.250000  -999.250000 97.488327026 1.8622133732 136.06103516 2.1101040840 1.8910741806
 2510.0766602 13.000000000 12.359375000  -999.250000 0.3222196102  -999.250000  -999.250000 98.285842896 1.7202022076 136.26713562 1.9816796780 1.7249662876
 2510.2292480 13.000000000 12.359936714  -999.250000 0.3108532727  -999.250000  -999.250000 99.944503784 1.5083620548 136.69123840 1.7851371765 1.5143282413
 2510.3815918 13.000000000 12.374518394  -999.250000 0.3012153208  -999.250000  -999.250000 103.76193237 1.4189665318 136.97552490 1.6557002068 1.4297077656
 2510.5339355 13.000000000 12.441610336  -999.250000 0.3109152317  -999.250000  -999.250000 107.10374451 1.4505233765 136.89794922 1.8888313770 1.4592280388
 2510.6862793 13.000000000 12.501642227  -999.250000 0.3232373893  -999.250000  -999.250000 107.88482666 1.4841432571 136.88931274 2.0389561653 1.4945425987
 2510.8388672 13.000000000 12.463026047  -999.250000 0.3193205297  -999.250000  -999.250000 107.64964294 1.4779648781 137.47927856 2.0198693275 1.4869589806
 2510.9912109 13.000000000 12.387918472  -999.250000 0.3067542613  -999.250000  -999.250000 106.98361206 1.4764354229 138.38035583 2.0423431396 1.4841930866
 2511.1435547 13.000000000 12.359375000  -999.250000 0.3010989726  -999.250000  -999.250000 106.86264038 1.4817426205 138.90919495 2.0573029518 1.4890446663
 2511.2958984 13.000000000 12.359375000  -999.250000 0.3019573987  -999.250000  -999.250000 107.00238037 1.4859111309 139.02282715 1.9402446747 1.4916617870
 2511.4484863 13.000000000 12.359375000  -999.250000 0.3117359877  -999.250000  -999.250000 107.05090332 1.4892718792 139.03808594 1.9427115917 1.4967334270
 2511.6008301 13.000000000 12.359375000  -999.250000 0.3200739920  -999.250000  -999.250000 107.08192444 1.4854414463 139.18449402 2.0277066231 1.4971761703
 2511.7531738 13.000000000 12.359375000  -999.250000 0.3460733891  -999.250000  -999.250000 107.77680206 1.4737644196 139.65646362 1.9858634472 1.4814193249
 2511.9055176 13.000000000 12.361248016  -999.250000 0.3658808768  -999.250000  -999.250000 108.02651978 1.4566459656 140.42869568 1.9856185913 1.4526817799
 2512.0578613 13.000000000 12.402362823  -999.250000 0.3595610857  -999.250000  -999.250000 108.01023865 1.4159994125 141.57649231 1.9658041000 1.4029350281
 2512.2104492 13.000000000 12.466620445  -999.250000 0.3395236135  -999.250000  -999.250000 108.98208618 1.3679680824 143.25189209 1.9439153671 1.3528344631
 2512.3627930 13.000000000 12.491233826  -999.250000 0.3266739547  -999.250000  -999.250000 109.30330658 1.3413243294 144.87651062 1.8958179951 1.3242371082
 2512.5151367 13.000000000 12.468900681  -999.250000 0.3397930861  -999.250000  -999.250000 109.54901123 1.3314421177 145.74308777 1.8926887512 1.3092522621
 2512.6674805 13.000000000 12.406946182  -999.250000 0.3546548486  -999.250000  -999.250000 110.11037445 1.3237388134 145.68948364 1.9122309685 1.3076736927
 2512.8200684 13.000000000 12.376091003  -999.250000 0.3614979684  -999.250000  -999.250000 110.25337219 1.3138668537 144.82249451 1.8239245415 1.3100092411
 2512.9724121 13.000000000 12.394863129  -999.250000 0.3647324443  -999.250000  -999.250000 110.30169678 1.3095929623 143.80238342 1.7815828323 1.3055746555
 2513.1247559 13.000000000 12.397731781  -999.250000 0.3566876352  -999.250000  -999.250000 110.34368896 1.3180181980 143.41741943 1.8339745998 1.2996878624
 2513.2770996 13.000000000 12.390375137  -999.250000 0.3474771082  -999.250000  -999.250000 110.17706299 1.3410792351 144.07826233 1.8833060265 1.3190307617
 2513.4296875 13.000000000 12.382736206  -999.250000 0.3367196620  -999.250000  -999.250000 109.77020264 1.3655505180 145.67672729 1.9003777504 1.3572576046
 2513.5820313 13.000000000 12.390022278  -999.250000 0.3282938302  -999.250000  -999.250000 109.23197937 1.3877930641 147.12036133 1.8916847706 1.3798096180
 2513.7343750 13.000000000 12.448989868  -999.250000 0.3279337287  -999.250000  -999.250000 109.15368652 1.3645434380 147.37480164 1.9139544964 1.3449909687
 2513.8867188 13.000000000 12.484090805  -999.250000 0.3242529333  -999.250000  -999.250000 110.10607910 1.3119177818 146.59860229 1.9324426651 1.2941393852
 2514.0390625 13.000000000 12.484905243  -999.250000 0.3310687244  -999.250000  -999.250000 110.70344543 1.2908048630 145.44491577 1.8897311687 1.2837603092
 2514.1916504 13.000000000 12.493200302  -999.250000 0.3374398053  -999.250000  -999.250000 110.81468201 1.3000395298 144.48709106 1.7156286240 1.2902739048
 2514.3439941 13.000000000 12.517639160  -999.250000 0.3321022689  -999.250000  -999.250000 110.99005127 1.3136758804 144.22055054 1.7495076656 1.2978086472
 2514.4963379 13.000000000 12.547064781  -999.250000 0.3196122050  -999.250000  -999.250000 110.82873535 1.3360738754 144.93586731 1.8870549202 1.3161933422
 2514.6486816 13.000000000 12.554945946  -999.250000 0.3008805513  -999.250000  -999.250000 110.42497253 1.3672389984 146.26194763 1.9372966290 1.3510692120
 2514.8012695 13.000000000 12.563908577  -999.250000 0.3004734516  -999.250000  -999.250000 109.93186951 1.3888466358 146.94465637 1.9649817944 1.3837306499
 2514.9536133 13.000000000 12.587861061  -999.250000 0.3102001846  -999.250000  -999.250000 109.67166138 1.4007027149 146.47091675 1.9273908138 1.3931097984
 2515.1059570 13.000000000 12.615058899  -999.250000 0.3191887736  -999.250000  -999.250000 110.16767883 1.3770403862 145.21817017 1.8914103508 1.3659965992
 2515.2583008 13.000000000 12.639858246  -999.250000 0.3230978251  -999.250000  -999.250000 111.21098328 1.3157746792 143.30201721 1.8399333954 1.3022460938
 2515.4108887 13.000000000 12.608489990  -999.250000 0.3220717609  -999.250000  -999.250000 112.04136658 1.2870242596 140.89042664 1.7623736858 1.2737824917
 2515.5632324 13.000000000 12.529134750  -999.250000 0.3121318519  -999.250000  -999.250000 111.69174194 1.3312077522 138.91012573 1.6952147484 1.3182909489
 2515.7155762 13.000000000 12.492757797  -999.250000 0.3020130098  -999.250000  -999.250000 110.88192749 1.3986012936 138.51765442 1.8098437786 1.3844380379
 2515.8679199 13.000000000 12.492187500  -999.250000 0.2988850772  -999.250000  -999.250000 110.36267853 1.4479584694 139.49415588 1.9510686398 1.4254653454
