# LAS format log file from PETREL
# Project units are specified as depth units
#==================================================================
~Version information
VERS.   2.0:
WRAP.   NO:
#==================================================================
~Well
STRT .m      212.75000000 :
STOP .m      3019.0000000 :
STEP .m     0.00000000 :
NULL .        -999.250000 :
COMP.           : COMPANY
WELL.  34/7-21   : WELL
FLD.            : FIELD
LOC.            : LOCATION
SRVC.           : SERVICE COMPANY
DATE.  2018-09-11 14:48:52   : Log Export Date {yyyy-MM-dd HH:mm:ss}
PROV.           : PROVINCE
UWI.   34/7-21   : UNIQUE WELL ID
API.            : API NUMBER
#==================================================================
~Curve
DEPT .m                   : DEPTH
Lithology_geolink ._      : Lithology_geolink
CALI .in                  : CALI
DRHO .g/cm3               : DRHO
NPHI .m3/m3               : NPHI
RHOB .g/cm3               : RHOB
PEF .b/e                  : PEF
GR .gAPI                  : GR
DTC .us/ft                : DTC
RDEP .ohm.m               : RDEP
SP .mV                    : SP
RSHA .ohm.m               : RSHA
RMED .ohm.m               : RMED
~Parameter
#==================================================================
~Ascii
# ...
 1964.7498779  -999.250000 12.731481552 0.0330196917 0.4574311972 2.3294124603 4.4597778320 84.384918213 118.86495972 1.5835971832  -999.250000 1.1887242794 1.8240473270
 1964.8750000  -999.250000 12.727714539 0.0359662622 0.4497873187 2.3344311714 4.4899091721 82.940048218 118.46841431 1.5766336918  -999.250000 1.2038280964 1.8250446320
 1965.0000000  -999.250000 12.722417831 0.0326266363 0.4448419809 2.3411898613 4.2777290344 81.071212769 117.48028564 1.5617563725  -999.250000 1.2216272354 1.8323440552
 1965.1250000  -999.250000 12.716344833 0.0266718604 0.4417002797 2.3461990356 4.0208854675 78.927551270 117.13074493 1.5413849354  -999.250000 1.2468147278 1.8439862728
 1965.2500000  -999.250000 12.711075783 0.0249589980 0.4345653057 2.3497438431 3.9296450615 76.529434204 116.44818115 1.5222496986  -999.250000 1.2726821899 1.8573043346
 1965.3750000  -999.250000 12.707307816 0.0294850096 0.4205960333 2.3561339378 4.0573492050 73.840270996 114.67170715 1.5118417740  -999.250000 1.2880644798 1.8719789982
 1965.5000000  -999.250000 12.702369690 0.0353013650 0.4047690332 2.3684120178 4.2767648697 71.112228394 111.70839691 1.5086379051  -999.250000 1.2883291245 1.8898134232
 1965.6250000  -999.250000 12.693660736 0.0366590843 0.3959805965 2.3819799423 4.3851633072 68.827453613 108.51496887 1.5073516369  -999.250000 1.2764203548 1.9110844135
 1965.7501221  -999.250000 12.680944443 0.0337191522 0.3993138373 2.3873476982 4.3350620270 67.575225830 107.65234375 1.5007739067  -999.250000 1.2570123672 1.9308483601
 1965.8748779  -999.250000 12.667522430 0.0296920128 0.4147374034 2.3805570602 4.1558837891 67.872711182 108.58658600 1.4830000401  -999.250000 1.2313539982 1.9338901043
 1966.0000000  -999.250000 12.657646179 0.0259116907 0.4378010035 2.3654088974 3.9327263832 69.149826050 110.42605591 1.4597392082  -999.250000 1.2003405094 1.9107263088
 1966.1250000  -999.250000 12.652746201 0.0226151198 0.4616242349 2.3489542007 3.7604403496 70.925109863 114.68649292 1.4388971329  -999.250000 1.1684727669 1.8615622520
 1966.2500000  -999.250000 12.651630402 0.0212977044 0.4816112518 2.3343477249 3.7005643845 72.989166260 118.79506683 1.4249210358  -999.250000 1.1426160336 1.7977814674
 1966.3750000  -999.250000 12.652557373 0.0229117721 0.4955621362 2.3222537041 3.7464056015 75.399917603 119.57835388 1.4161975384  -999.250000 1.1267530918 1.7373285294
 1966.5000000  -999.250000 12.655628204 0.0254277624 0.5023965836 2.3142867088 3.8664846420 77.984909058 119.82147217 1.4060518742  -999.250000 1.1188175678 1.6903204918
 1966.6250000  -999.250000 12.663114548 0.0258227549 0.5044561625 2.3108687401 4.0286979675 80.448394775 120.64407349 1.3898894787  -999.250000 1.1115179062 1.6573736668
 1966.7500000  -999.250000 12.676056862 0.0237475224 0.5080337524 2.3085274696 4.2372522354 82.554443359 121.78874207 1.3650090694  -999.250000 1.0946750641 1.6337027550
 1966.8750000  -999.250000 12.692628860 0.0215602219 0.5168081522 2.3039875031 4.4194355011 84.107604980 122.93502045 1.3305025101  -999.250000 1.0657048225 1.6136376858
 1966.9998779  -999.250000 12.708088875 0.0224796198 0.5292474031 2.2972469330 4.4071378708 85.296905518 123.40407562 1.2906885147  -999.250000 1.0332026482 1.5937306881
 1967.1250000  -999.250000 12.719507217 0.0276117213 0.5395004749 2.2918109894 4.2142772675 86.275512695 124.30555725 1.2514081001  -999.250000 1.0069274902 1.5748467445
 1967.2500000  -999.250000 12.725996017 0.0345589295 0.5439540148 2.2911276817 4.0062446594 87.117965698 125.43876648 1.2211692333  -999.250000 0.9896024466 1.5594661236
 1967.3750000  -999.250000 12.727327347 0.0410138443 0.5444930792 2.2965335846 3.9440860748 87.905303955 125.55667114 1.2108235359  -999.250000 0.9691210985 1.5518927574
 1967.5000000  -999.250000 12.723850250 0.0457937792 0.5439707041 2.3077878952 4.1057996750 88.715667725 125.27232361 1.2175922394  -999.250000 0.9263867140 1.5529708862
 1967.6250000  -999.250000 12.713877678 0.0475392938 0.5420228243 2.3225684166 4.3393745422 89.356307983 125.21131897 1.2356958389  -999.250000 0.8613964319 1.5628569126
 1967.7500000  -999.250000 12.697000504 0.0436711237 0.5378863811 2.3370127678 4.5338621140 89.527633667 124.40968323 1.2582726479  -999.250000 0.8025792837 1.5799777508
 1967.8750000  -999.250000 12.676383018 0.0334350243 0.5342055559 2.3483033180 4.6041278839 88.928878784 122.70487976 1.2787518501  -999.250000 0.7808096409 1.6003494263
 1968.0000000  -999.250000 12.658452988 0.0227183029 0.5349924564 2.3523874283 4.5009031296 87.778289795 121.64839172 1.2940101624  -999.250000 0.8051580191 1.6176013947
 1968.1251221  -999.250000 12.647010803 0.0201115385 0.5395392179 2.3457775116 4.3264236450 86.442321777 121.76937866 1.3035969734  -999.250000 0.8652092218 1.6277663708
 1968.2498779  -999.250000 12.642507553 0.0270818397 0.5410382748 2.3312091827 4.2306690216 85.363815308 122.55204773 1.3090467453  -999.250000 0.9314147234 1.6304719448
 1968.3750000  -999.250000 12.642549515 0.0365565419 0.5344263315 2.3168992996 4.2978439331 84.975570679 123.15450287 1.3145310879  -999.250000 0.9739078283 1.6295850277
 1968.5000000  -999.250000 12.642503738 0.0395701751 0.5216213465 2.3121600151 4.4300069809 84.979095459 122.66313171 1.3256971836  -999.250000 0.9925009012 1.6323041916
 1968.6250000  -999.250000 12.640480995 0.0334712416 0.5091667175 2.3192129135 4.4470214844 84.797348022 121.45809937 1.3457448483  -999.250000 1.0113644600 1.6432831287
 1968.7500000  -999.250000 12.636447906 0.0235958137 0.4998160601 2.3302273750 4.3566808701 83.932662964 119.53591919 1.3733825684  -999.250000 1.0488750935 1.6640517712
 1968.8750000  -999.250000 12.630985260 0.0157881789 0.4900485873 2.3376479149 4.3182563782 82.301086426 118.73721313 1.4009666443  -999.250000 1.0988874435 1.6940250397
 1969.0000000  -999.250000 12.624656677 0.0144947581 0.4744750857 2.3397111893 4.5216541290 80.651550293 119.11598969 1.4204983711  -999.250000 1.1424167156 1.7288453579
 1969.1250000  -999.250000 12.617197037 0.0192430280 0.4522967637 2.3424363136 4.8947811127 79.430938721 117.09396362 1.4290146828  -999.250000 1.1646907330 1.7660193443
 1969.2501221  -999.250000 12.608072281 0.0237544887 0.4311763644 2.3517584801 5.1925210953 78.406204224 112.06630707 1.4279444218  -999.250000 1.1623706818 1.8019497395
 1969.3748779  -999.250000 12.597674370 0.0227287933 0.4228962660 2.3639173508 5.1667814255 76.828979492 108.71073914 1.4208798409  -999.250000 1.1427707672 1.8262479305
 1969.5000000  -999.250000 12.589277267 0.0175100546 0.4382160902 2.3668770790 4.8508939743 74.700500488 107.31187439 1.4109072685  -999.250000 1.1129727364 1.8297643661
 1969.6250000  -999.250000 12.586380005 0.0155585520 0.4771210551 2.3528213501 4.5797052383 72.899856567 107.51699829 1.3958759308  -999.250000 1.0747451782 1.8079731464
 1969.7500000  -999.250000 12.590242386 0.0213644393 0.5242613554 2.3282504082 4.5264110565 72.493408203 111.90081787 1.3727149963  -999.250000 1.0318102837 1.7662410736
 1969.8750000  -999.250000 12.598960876 0.0314406455 0.5612556934 2.3050265312 4.6299686432 74.026092529 119.15579987 1.3429577351  -999.250000 0.9952468872 1.7197072506
 1970.0000000  -999.250000 12.607290268 0.0382576436 0.5806670189 2.2925839424 4.6835451126 76.323806763 122.68417358 1.3163213730  -999.250000 0.9777319431 1.6839823723
 1970.1250000  -999.250000 12.612458229 0.0382264853 0.5910817385 2.2903413773 4.5598487854 78.302932739 122.93688965 1.3001124859  -999.250000 0.9870320559 1.6640653610
 1970.2500000  -999.250000 12.614299774 0.0342676342 0.6037222147 2.2894020081 4.3108301163 79.504013062 122.84971619 1.2969541550  -999.250000 1.0206744671 1.6562910080
 1970.3750000  -999.250000 12.614664078 0.0302620605 0.6175701618 2.2845010757 4.0754213333 80.386215210 122.80920410 1.3048462868  -999.250000 1.0625755787 1.6522185802
 1970.5001221  -999.250000 12.615442276 0.0286746658 0.6240034103 2.2764582634 3.9938392639 81.788177490 122.63316345 1.3138725758  -999.250000 1.0923397541 1.6449716091
 1970.6250000  -999.250000 12.616231918 0.0292916745 0.6177129745 2.2694816589 4.0582590103 83.819519043 123.75495911 1.3173174858  -999.250000 1.0997469425 1.6342606544
