# LAS format log file from PETREL
# Project units are specified as depth units
#==================================================================
~Version information
VERS.   2.0:
WRAP.   NO:
#==================================================================
~Well
STRT .m      212.75000000 :
STOP .m      3019.0000000 :
STEP .m     0.00000000 :
NULL .        -999.250000 :
COMP.           : COMPANY
WELL.  34/7-21   : WELL
FLD.            : FIELD
LOC.            : LOCATION
SRVC.           : SERVICE COMPANY
DATE.  2018-09-11 14:48:52   : Log Export Date {yyyy-MM-dd HH:mm:ss}
PROV.           : PROVINCE
UWI.   34/7-21   : UNIQUE WELL ID
API.            : API NUMBER
#==================================================================
~Curve
DEPT .m                   : DEPTH
Lithology_geolink ._      : Lithology_geolink
CALI .in                  : CALI
DRHO .g/cm3               : DRHO
NPHI .m3/m3               : NPHI
RHOB .g/cm3               : RHOB
PEF .b/e                  : PEF
GR .gAPI                  : GR
DTC .us/ft                : DTC
RDEP .ohm.m               : RDEP
SP .mV                    : SP
RSHA .ohm.m               : RSHA
RMED .ohm.m               : RMED
~Parameter
#==================================================================
~Ascii
# ...
 1706.7501221  -999.250000 18.602008820 0.0174978413  -999.250000 2.0103626251 8.0915260315 91.675521851 152.37417603 0.6053378582 53.231781006  -999.250000 0.7245012522
 1706.8748779  -999.250000 18.529071808 0.0191830248  -999.250000 2.0141735077 7.6024160385 94.218185425 151.90704346 0.5634092093 53.302093506  -999.250000 0.7314648628
 1707.0000000  -999.250000 18.480361938 0.0206808858  -999.250000 2.0201244354 7.4171209335 95.722732544 151.46844482 0.5265666246 53.338973999  -999.250000 0.7398774624
 1707.1250000  -999.250000 18.461570740 0.0213667266  -999.250000 2.0274667740 7.3843212128 95.226287842 151.14846802 0.5068502426 53.367683411  -999.250000 0.7488961220
 1707.2500000  -999.250000 18.474185944 0.0207590349  -999.250000 2.0346369743 7.3498811722 92.736541748 150.98699951 0.5047112703 53.381019592  -999.250000 0.7572039366
 1707.3750000  -999.250000 18.510162354 0.0191898383  -999.250000 2.0398168564 7.2732124329 89.457992554 151.02987671 0.5134037733 53.345764160  -999.250000 0.7626456022
 1707.5000000  -999.250000 18.545471191 0.0180731304  -999.250000 2.0413832664 7.1519508362 87.009017944 151.25500488 0.5223463774 53.237419128  -999.250000 0.7644522190
 1707.6250000  -999.250000 18.563964844 0.0188525431  -999.250000 2.0394649506 7.0487289429 85.883865356 151.62622070 0.5282362700 53.053085327  -999.250000 0.7626404762
 1707.7500000  -999.250000 18.559299469 0.0214241818  -999.250000 2.0364484787 7.0392122269 85.675628662 152.03729248 0.5328853130 52.825042725  -999.250000 0.7582526207
 1707.8750000  -999.250000 18.537017822 0.0239858218  -999.250000 2.0347929001 7.1441926956 85.655487061 152.30987549 0.5412708521 52.620750427  -999.250000 0.7534128428
 1708.0001221  -999.250000 18.515083313 0.0243738219  -999.250000 2.0363292694 7.1777830124 85.444519043 152.36450195 0.5543928146 52.504112244  -999.250000 0.7510261536
 1708.1250000  -999.250000 18.503627777 0.0222544372  -999.250000 2.0412783623 7.0176715851 85.164260864 152.20114136 0.5693064928 52.506248474  -999.250000 0.7534546852
 1708.2500000  -999.250000 18.503734589 0.0193240717  -999.250000 2.0483880043 6.8479852676 85.049804688 151.84613037 0.5814344883 52.600753784  -999.250000 0.7618666887
 1708.3750000  -999.250000 18.509082794 0.0179184601  -999.250000 2.0565147400 7.1136236191 85.156234741 151.26811218 0.5847541094 52.719505310  -999.250000 0.7755428553
 1708.5000000  -999.250000 18.514015198 0.0199730508  -999.250000 2.0640606880 7.8083877563 85.233245850 150.52050781 0.5805317163 52.778663635  -999.250000 0.7895288467
 1708.6250000  -999.250000 18.519084930 0.0251121111  -999.250000 2.0689959526 8.5299396515 85.106002808 149.72746277 0.5751894712 52.669021606  -999.250000 0.7993295193
 1708.7500000  -999.250000 18.525932312 0.0305480510  -999.250000 2.0698580742 8.9429626465 84.710617065 149.09782410 0.5775315762 52.335716248  -999.250000 0.8021692038
 1708.8750000  -999.250000 18.533252716 0.0334114656  -999.250000 2.0663676262 8.9290847778 84.049819946 148.86016846 0.5953531265 51.878959656  -999.250000 0.7978745699
 1709.0000000  -999.250000 18.535423279 0.0320603885  -999.250000 2.0601572990 8.5516586304 83.306442261 148.88876343 0.6217904091 51.464523315  -999.250000 0.7911717892
 1709.1251221  -999.250000 18.528236389 0.0268147551  -999.250000 2.0544886589 8.2279567719 82.679794312 148.93093872 0.6456964016 51.301124573  -999.250000 0.7853251696
 1709.2498779  -999.250000 18.512855530 0.0197847411  -999.250000 2.0521011353 7.9222288132 82.436401367 148.73089600 0.6578643322 51.473739624  -999.250000 0.7823135853
 1709.3750000  -999.250000 18.494083405 0.0138100013  -999.250000 2.0532603264 7.7228717804 82.946090698 148.16213989 0.6541972160 51.801536560  -999.250000 0.7832716703
 1709.5000000  -999.250000 18.473918915 0.0112534519  -999.250000 2.0556411743 7.6789855957 84.037979126 147.42941284 0.6410747766 52.065742493  -999.250000 0.7865074873
 1709.6250000  -999.250000 18.449508667 0.0126519818  -999.250000 2.0557293892 7.6707534790 85.387802124 146.72207642 0.6242430210 52.122688293  -999.250000 0.7901314497
 1709.7500000  -999.250000 18.419242859 0.0164876170  -999.250000 2.0515751839 7.6546869278 86.604675293 146.14572144 0.6108568907 51.995018005  -999.250000 0.7929797173
 1709.8750000  -999.250000 18.388088226 0.0206937715  -999.250000 2.0437936783 7.6139163971 87.330261230 145.69958496 0.6091083288 51.804649353  -999.250000 0.7961785793
 1710.0000000  -999.250000 18.364597321 0.0228098966  -999.250000 2.0349793434 7.5420951843 87.741455078 145.25708008 0.6194821596 51.647583008  -999.250000 0.8023409843
 1710.1250000  -999.250000 18.352256775 0.0218442529  -999.250000 2.0278582573 7.4544448853 88.200653076 144.72518921 0.6401830912 51.609436035  -999.250000 0.8132615089
 1710.2501221  -999.250000 18.348461151 0.0201496370  -999.250000 2.0233778954 7.3567752838 88.988082886 144.06970215 0.6644529104 51.706115723  -999.250000 0.8289954662
 1710.3748779  -999.250000 18.348209381 0.0200183950  -999.250000 2.0211043358 7.2637214661 89.848266602 143.34442139 0.6783533096 51.838706970  -999.250000 0.8474270105
 1710.5000000  -999.250000 18.348979950 0.0212134235  -999.250000 2.0205955505 7.1434669495 89.932723999 142.66473389 0.6750639677 51.871017456  -999.250000 0.8644078970
 1710.6250000  -999.250000 18.353836060 0.0215122662  -999.250000 2.0223174095 6.9092350006 88.666915894 142.07208252 0.6585853100 51.669410706  -999.250000 0.8773695230
 1710.7500000  -999.250000 18.369537354 0.0182741992  -999.250000 2.0274114609 6.5625915527 86.170166016 141.51925659 0.6410330534 51.232643127  -999.250000 0.8860034943
 1710.8750000  -999.250000 18.402240753 0.0109283719  -999.250000 2.0370168686 6.2302503586 83.378067017 140.87811279 0.6338479519 50.743087769  -999.250000 0.8916435242
 1711.0000000  -999.250000 18.439998627 0.0026430511  -999.250000 2.0513110161 6.0278730392 81.517959595 140.05804443 0.6332638264 50.394363403  -999.250000 0.8963469267
 1711.1250000  -999.250000 18.465606689 -0.001618491  -999.250000 2.0685968399 5.9077796936 81.102462769 139.04278564 0.6283627748 50.285530090  -999.250000 0.8998091221
 1711.2500000  -999.250000 18.465366364 -0.000252436  -999.250000 2.0858283043 5.8125715256 81.855789185 137.88308716 0.6093491316 50.329421997  -999.250000 0.9000055790
 1711.3750000  -999.250000 18.435981750 0.0041406527  -999.250000 2.1008615494 5.7208471298 82.920242310 136.73501587 0.5776840448 50.351142883  -999.250000 0.8936153650
 1711.5001221  -999.250000 18.397766113 0.0078387931  -999.250000 2.1123909950 5.6236743927 83.479171753 135.82510376 0.5492291451 50.240531921  -999.250000 0.8817175627
 1711.6248779  -999.250000 18.367191315 0.0088366959  -999.250000 2.1202554703 5.5211439133 83.308715820 135.34570313 0.5353095531 49.948020935  -999.250000 0.8671154976
 1711.7500000  -999.250000 18.351867676 0.0082895327  -999.250000 2.1252040863 5.4209060669 82.386093140 135.38253784 0.5389912128 49.516716003  -999.250000 0.8534450531
 1711.8750000  -999.250000 18.350551605 0.0089348014  -999.250000 2.1276030540 5.3300371170 80.654479980 135.91033936 0.5534694195 49.072814941  -999.250000 0.8444838524
 1712.0000000  -999.250000 18.356708527 0.0122952107  -999.250000 2.1277441978 5.2463140488 78.508026123 136.65182495 0.5644327402 48.732215881  -999.250000 0.8411887884
 1712.1250000  -999.250000 18.370029449 0.0169057325  -999.250000 2.1262826920 5.1578741074 76.292877197 137.44754028 0.5631335974 48.583358765  -999.250000 0.8443896770
 1712.2500000  -999.250000 18.389865875 0.0202020109  -999.250000 2.1242825985 5.0619401932 74.317901611 138.20111084 0.5469731092 48.635833740  -999.250000 0.8545728922
 1712.3750000  -999.250000 18.412208557 0.0208766945  -999.250000 2.1223678589 4.9680299759 72.999862671 138.80053711 0.5211764574 48.790023804  -999.250000 0.8723299503
 1712.5000000  -999.250000 18.431011200 0.0185797550  -999.250000 2.1207938194 4.9008312225 72.412261963 139.13476563 0.5003379583 48.958274841  -999.250000 0.8943998814
 1712.6251221  -999.250000 18.443103790 0.0141449831  -999.250000 2.1195535660 4.8718280792 72.446319580 139.05749512 0.4993048906 49.103042603  -999.250000 0.9174172878
