# LAS format log file from PETREL
# Project units are specified as depth units
#==================================================================
~Version information
VERS.   2.0:
WRAP.   NO:
#==================================================================
~Well
STRT .m      417.47238159 :
STOP .m      3182.7705078 :
STEP .m     0.00000000 :
NULL .        -999.250000 :
COMP.           : COMPANY
WELL.  34/7-20   : WELL
FLD.            : FIELD
LOC.            : LOCATION
SRVC.           : SERVICE COMPANY
DATE.  2018-09-11 14:48:52   : Log Export Date {yyyy-MM-dd HH:mm:ss}
PROV.           : PROVINCE
UWI.   34/7-20   : UNIQUE WELL ID
API.            : API NUMBER
#==================================================================
~Curve
DEPT .m                   : DEPTH
Lithology_geolink ._      : Lithology_geolink
CALI .in                  : CALI
DRHO .g/cm3               : DRHO
NPHI .m3/m3               : NPHI
RHOB .g/cm3               : RHOB
GR .gAPI                  : GR
DTC .us/ft                : DTC
RDEP .ohm.m               : RDEP
SP .mV                    : SP
RSHA .ohm.m               : RSHA
RMED .ohm.m               : RMED
~Parameter
#==================================================================
~Ascii
# ...
 1971.9525146  -999.250000 12.743469238  -999.250000 0.3659439981  -999.250000  -999.250000 118.22857666 1.4956333637 130.27510071 1.9806866646 1.5496478081
 1972.1048584  -999.250000 12.757287979  -999.250000 0.3599951863  -999.250000  -999.250000 119.34330750 1.4883880615 128.77162170 2.0162663460 1.5279941559
 1972.2573242  -999.250000 12.745664597  -999.250000 0.3683213890  -999.250000  -999.250000 119.97187805 1.4640989304 125.64429474 1.9958858490 1.4986433983
 1972.4096680  -999.250000 12.747055054  -999.250000 0.3825502098  -999.250000  -999.250000 120.24012756 1.4268188477 123.87764740 1.9614815712 1.4635603428
 1972.5621338  -999.250000 12.757812500  -999.250000 0.3887870908  -999.250000  -999.250000 119.95575714 1.3939578533 123.23963165 1.8496797085 1.4333510399
 1972.7144775  -999.250000 12.757812500  -999.250000 0.3826216757  -999.250000  -999.250000 119.21211243 1.3821704388 122.59614563 1.7628135681 1.4310543537
 1972.8669434  -999.250000 12.757812500  -999.250000 0.3732307553  -999.250000  -999.250000 118.74842834 1.4068627357 121.60272217 1.8151617050 1.4500143528
 1973.0192871  -999.250000 12.757812500  -999.250000 0.3779768348  -999.250000  -999.250000 118.77998352 1.4438521862 120.52724457 1.8617393970 1.4745345116
 1973.1717529  -999.250000 12.757463455  -999.250000 0.3792292774  -999.250000  -999.250000 119.41220093 1.4716289043 120.11882782 1.9123995304 1.4979960918
 1973.3240967  -999.250000 12.749719620  -999.250000 0.3865473866  -999.250000  -999.250000 120.35197449 1.4799835682 120.76969910 2.0008635521 1.5162701607
 1973.4764404  -999.250000 12.750646591  -999.250000 0.4090358615  -999.250000  -999.250000 121.20545959 1.4673440456 121.77684021 1.9787950516 1.5094976425
 1973.6289063  -999.250000 12.757812500  -999.250000 0.4356302619  -999.250000  -999.250000 122.07136536 1.4497430325 122.07128143 1.9019067287 1.4826381207
 1973.7812500  -999.250000 12.757812500  -999.250000 0.4475216568  -999.250000  -999.250000 122.17408752 1.4201216698 121.50874329 1.8768963814 1.4461348057
 1973.9337158  -999.250000 12.757812500  -999.250000 0.4182009101  -999.250000  -999.250000 121.86904907 1.3832533360 120.64819336 1.7877192497 1.4058117867
 1974.0860596  -999.250000 12.757812500  -999.250000 0.3793001473  -999.250000  -999.250000 122.31147766 1.3593721390 119.89923859 1.7244744301 1.3869481087
 1974.2385254  -999.250000 12.757463455  -999.250000 0.3597230613  -999.250000  -999.250000 122.15977478 1.3553802967 119.48732758 1.6940572262 1.3833267689
 1974.3908691  -999.250000 12.749708176  -999.250000 0.3545394838  -999.250000  -999.250000 121.76632690 1.3653151989 119.45932770 1.6976864338 1.3873057365
 1974.5433350  -999.250000 12.748350143  -999.250000 0.3623560965  -999.250000  -999.250000 122.00321960 1.3738324642 119.64981079 1.7750041485 1.3962161541
 1974.6956787  -999.250000 12.702581406  -999.250000 0.3732369244  -999.250000  -999.250000 122.00134277 1.3796014786 119.90369415 1.7706909180 1.4021437168
 1974.8481445  -999.250000 12.647703171  -999.250000 0.3947883546  -999.250000  -999.250000 122.13379669 1.3713359833 120.14606476 1.7379295826 1.4074816704
 1975.0004883  -999.250000 12.637272835  -999.250000 0.4056430161  -999.250000  -999.250000 122.73141479 1.3618206978 120.30831146 1.7102942467 1.4073092937
 1975.1529541  -999.250000 12.653059006  -999.250000 0.3962491751  -999.250000  -999.250000 123.10926819 1.3551015854 120.32542419 1.7419362068 1.3942711353
 1975.3052979  -999.250000 12.650773048  -999.250000 0.3849695623  -999.250000  -999.250000 123.32717896 1.3493258953 120.25028992 1.7720475197 1.3725361824
 1975.4576416  -999.250000 12.632665634  -999.250000 0.4026081860  -999.250000  -999.250000 123.76712036 1.3438763618 120.15969086 1.6935753822 1.3643984795
 1975.6101074  -999.250000 12.629459381  -999.250000 0.4393270016  -999.250000  -999.250000 123.94607544 1.3328590393 120.06864929 1.6595485210 1.3551151752
 1975.7624512  -999.250000 12.645944595  -999.250000 0.4490104020  -999.250000  -999.250000 123.90229797 1.3236560822 119.97663116 1.6842055321 1.3449184895
 1975.9149170  -999.250000 12.659135818  -999.250000 0.4193743169  -999.250000  -999.250000 123.94702148 1.3087468147 119.94625092 1.6926503181 1.3410634995
 1976.0672607  -999.250000 12.639703751  -999.250000 0.3855108619  -999.250000  -999.250000 123.83351135 1.2907080650 120.12553406 1.7077980042 1.3325796127
 1976.2197266  -999.250000 12.633272171  -999.250000 0.3845194876  -999.250000  -999.250000 123.58757782 1.2964732647 120.53441620 1.7132599354 1.3230187893
 1976.3720703  -999.250000 12.636223793  -999.250000 0.3917837441  -999.250000  -999.250000 123.37837219 1.3155300617 120.99997711 1.7044339180 1.3263933659
 1976.5245361  -999.250000 12.628587723  -999.250000 0.3886834681  -999.250000  -999.250000 122.96965027 1.3252639771 121.26358032 1.6802487373 1.3402421474
 1976.6768799  -999.250000 12.624999046  -999.250000 0.3870583475  -999.250000  -999.250000 122.52886200 1.3386199474 121.12608337 1.6560809612 1.3601984978
 1976.8293457  -999.250000 12.624999046  -999.250000 0.4086956680  -999.250000  -999.250000 122.18663025 1.3441407681 120.71892548 1.6440994740 1.3716046810
 1976.9816895  -999.250000 12.624999046  -999.250000 0.4273953140  -999.250000  -999.250000 122.03770447 1.3442671299 120.32382965 1.6311464310 1.3777596951
 1977.1341553  -999.250000 12.624999046  -999.250000 0.4293054938  -999.250000  -999.250000 121.72486115 1.3553164005 120.01637268 1.6418402195 1.3982841969
 1977.2864990  -999.250000 12.624999046  -999.250000 0.4081613123  -999.250000  -999.250000 121.45156860 1.3757767677 119.80181122 1.6458332539 1.4163928032
 1977.4388428  -999.250000 12.624999046  -999.250000 0.3849115670  -999.250000  -999.250000 121.46461487 1.4017226696 119.70469666 1.6619322300 1.4308817387
 1977.5913086  -999.250000 12.624999046  -999.250000 0.3697221279  -999.250000  -999.250000 121.87144470 1.4067189693 119.52417755 1.6808459759 1.4398481846
 1977.7436523  -999.250000 12.624999046  -999.250000 0.3737580180  -999.250000  -999.250000 123.11034393 1.3977401257 119.06666565 1.7131423950 1.4362680912
 1977.8961182  -999.250000 12.624999046  -999.250000 0.3915891945  -999.250000  -999.250000 123.69891357 1.3676574230 118.54526520 1.7615261078 1.4051578045
 1978.0484619  -999.250000 12.624999046  -999.250000 0.4067939818  -999.250000  -999.250000 122.62126160 1.3332872391 118.30656433 1.7196626663 1.3682801723
 1978.2009277  -999.250000 12.624999046  -999.250000 0.4066850245  -999.250000  -999.250000 120.37950134 1.3541400433 118.41547394 1.6323928833 1.3871712685
 1978.3532715  -999.250000 12.624999046  -999.250000 0.3900599778  -999.250000  -999.250000 117.62310791 1.4094512463 118.68869781 1.5898563862 1.4404995441
 1978.5057373  -999.250000 12.624999046  -999.250000 0.3780879080  -999.250000  -999.250000 115.97440338 1.4608082771 118.91500854 1.6376423836 1.4969632626
 1978.6580811  -999.250000 12.624999046  -999.250000 0.3936017752  -999.250000  -999.250000 115.69734955 1.5162026882 118.86551666 1.7883036137 1.5582749844
 1978.8105469  -999.250000 12.624999046  -999.250000 0.4159468710  -999.250000  -999.250000 116.85613251 1.5618667603 118.49446106 1.6009666920 1.5996758938
 1978.9628906  -999.250000 12.624650955  -999.250000 0.4193844497  -999.250000  -999.250000 119.51036072 1.5799012184 118.14326477 1.4212450981 1.6148591042
 1979.1153564  -999.250000 12.616901398  -999.250000 0.3903893232  -999.250000  -999.250000 121.81686401 1.5664870739 118.03193665 1.7821903229 1.5939078331
 1979.2677002  -999.250000 12.617815018  -999.250000 0.3570396304  -999.250000  -999.250000 122.56676483 1.4842286110 118.02891541 2.0009913445 1.5126392841
 1979.4200439  -999.250000 12.624988556  -999.250000 0.3548948765  -999.250000  -999.250000 121.83297729 1.3779928684 118.02824402 1.8395729065 1.4195604324
 1979.5725098  -999.250000 12.624999046  -999.250000 0.3684577048  -999.250000  -999.250000 120.93242645 1.3494610786 118.01948547 1.6906402111 1.3940589428
