# LAS format log file from PETREL
# Project units are specified as depth units
#==================================================================
~Version information
VERS.   2.0:
WRAP.   NO:
#==================================================================
~Well
STRT .m      377.87487793 :
STOP .m      3151.8757324 :
STEP .m     0.00000000 :
NULL .        -999.250000 :
COMP.           : COMPANY
WELL.  34/7-5   : WELL
FLD.            : FIELD
LOC.            : LOCATION
SRVC.           : SERVICE COMPANY
DATE.  2018-09-11 14:48:52   : Log Export Date {yyyy-MM-dd HH:mm:ss}
PROV.           : PROVINCE
UWI.   34/7-5   : UNIQUE WELL ID
API.            : API NUMBER
#==================================================================
~Curve
DEPT .m                   : DEPTH
Lithology_geolink ._      : Lithology_geolink
CALI .in                  : CALI
DRHO .g/cm3               : DRHO
NPHI .m3/m3               : NPHI
RHOB .g/cm3               : RHOB
GR .gAPI                  : GR
DTC .us/ft                : DTC
RDEP .ohm.m               : RDEP
SP .mV                    : SP
RSHA .ohm.m               : RSHA
RMED .ohm.m               : RMED
~Parameter
#==================================================================
~Ascii
# ...
 2220.2500000  -999.250000 13.409999847 0.0080000004 0.3335300088 2.3729999065 40.865001678 112.74400330 1.2649999857 26.482000351 1.4839999676 1.4839999676
 2220.3750000  -999.250000 13.451999664 0.0099999998 0.3408700228 2.3729999065 41.478000641 112.70899963 1.2569999695 26.143999100 1.4639999866 1.4639999866
 2220.5000000  -999.250000 13.498999596 0.0120000001 0.3479299843 2.3729999065 42.497001648 112.84799957 1.2460000515 25.806999207 1.4429999590 1.4429999590
 2220.6250000  -999.250000 13.543999672 0.0130000003 0.3528099954 2.3719999790 43.591999054 113.76000214 1.2350000143 25.468999863 1.4220000505 1.4220000505
 2220.7500000  -999.250000 13.583999634 0.0140000004 0.3567300141 2.3689999580 44.504001617 115.26699066 1.2239999771 25.146999359 1.3980000019 1.3980000019
 2220.8750000  -999.250000 13.623000145 0.0149999997 0.3589800000 2.3670001030 44.898998260 116.04798889 1.2139999866 24.909999847 1.3799999952 1.3799999952
 2221.0002441  -999.250000 13.647999763 0.0149999997 0.3613100052 2.3650000095 44.693000793 116.22100067 1.2039999962 24.695999146 1.3789999485 1.3789999485
 2221.1247559  -999.250000 13.637999535 0.0140000004 0.3679899871 2.3659999371 44.096000671 115.63700104 1.1940000057 24.482999802 1.3799999952 1.3799999952
 2221.2497559  -999.250000 13.595999718 0.0120000001 0.3714700043 2.3659999371 43.763000488 115.13500214 1.1900000572 24.284000397 1.3830000162 1.3830000162
 2221.3750000  -999.250000 13.541000366 0.0060000001 0.3650799990 2.3599998951 43.631999969 114.92099762 1.1900000572 24.181999207 1.3880000114 1.3880000114
 2221.5000000  -999.250000 13.484999657 -0.001000000 0.3505699933 2.3519999981 43.550998688 114.92199707 1.1900000572 24.190000534 1.3930000067 1.3930000067
 2221.6250000  -999.250000 13.430000305 -0.012000000 0.3358899951 2.3429999352 42.801998138 114.82499695 1.1900000572 24.865999222 1.3969999552 1.3969999552
 2221.7500000  -999.250000 13.388999939 -0.028999999 0.3211799860 2.3340001106 42.013000488 114.41500092 1.2039999962 25.969999313 1.4010000229 1.4010000229
 2221.8750000  -999.250000 13.383999825 -0.046999998 0.3203300238 2.3329999447 41.341999054 113.60199738 1.2220000029 26.858999252 1.4099999666 1.4099999666
 2222.0000000  -999.250000 13.416000366 -0.063000001 0.3232799768 2.3429999352 41.480998993 113.42600250 1.2389999628 27.548999786 1.4370000362 1.4370000362
 2222.1252441  -999.250000 13.466999054 -0.057999998 0.3262499869 2.3610000610 42.576999664 112.85999298 1.2489999533 28.229999542 1.4650000334 1.4650000334
 2222.2502441  -999.250000 13.518000603 -0.037999999 0.3274100125 2.3829998970 43.869998932 112.72499847 1.2549999952 28.799999237 1.4800000191 1.4800000191
 2222.3747559  -999.250000 13.553999901 -0.016000001 0.3254199922 2.4049999714 44.841999054 112.72600555 1.2610000372 28.898000717 1.4910000563 1.4910000563
 2222.5000000  -999.250000 13.543999672 0.0070000002 0.3230899870 2.4159998894 45.407001495 112.73600006 1.2660000324 28.511999130 1.4980000257 1.4980000257
 2222.6250000  -999.250000 13.491999626 0.0260000005 0.3232799768 2.4130001068 45.825000763 113.37500000 1.2660000324 27.743999481 1.4950000048 1.4950000048
 2222.7500000  -999.250000 13.444000244 0.0289999992 0.3282800019 2.4040000439 46.014999390 113.81900024 1.2610000372 26.823999405 1.4630000591 1.4630000591
 2222.8750000  -999.250000 13.427000046 0.0219999999 0.3344399929 2.3959999084 46.166000366 114.63500214 1.2549999952 25.879999161 1.4270000458 1.4270000458
 2223.0000000  -999.250000 13.430000305 0.0060000001 0.3418899775 2.3880000114 46.511001587 115.23799896 1.2460000515 24.944000244 1.4170000553 1.4170000553
 2223.1250000  -999.250000 13.444000244 -0.011000000 0.3496499956 2.3829998970 45.876998901 115.33599854 1.2350000143 24.528999329 1.4370000362 1.4370000362
 2223.2500000  -999.250000 13.463001251 -0.023000000 0.3567699790 2.3859999180 45.013999939 115.30599976 1.2230000496 24.179000854 1.4659999609 1.4659999609
 2223.3752441  -999.250000 13.482000351 -0.017000001 0.3584800065 2.3910000324 44.270999908 115.04799652 1.2109999657 24.062999725 1.4759999514 1.4759999514
 2223.4997559  -999.250000 13.501000404 -0.010000000 0.3526699841 2.3949999809 44.106998444 114.79599762 1.2139999866 24.159999847 1.4800000191 1.4800000191
 2223.6247559  -999.250000 13.520000458 -0.002000000 0.3420500159 2.3940000534 44.661998749 114.79900360 1.2180000544 24.447000504 1.4429999590 1.4429999590
 2223.7500000  -999.250000 13.538001060 0.0049999999 0.3315000236 2.3859999180 45.285999298 115.10900116 1.2220000029 24.770999908 1.4290000200 1.4290000200
 2223.8750000  -999.250000 13.548001289 0.0109999999 0.3294200003 2.3770000935 45.865001678 115.23699951 1.2350000143 24.736000061 1.4290000200 1.4290000200
 2224.0000000  -999.250000 13.515999794 0.0099999998 0.3289799988 2.3689999580 45.923999786 115.08699799 1.2480000257 24.207000732 1.4420000315 1.4420000315
 2224.1250000  -999.250000 13.473999977 0.0049999999 0.3305099905 2.3670001030 45.249000549 113.66300201 1.2599999905 23.426000595 1.4650000334 1.4650000334
 2224.2500000  -999.250000 13.458999634 0.0000000000 0.3341899812 2.3680000305 44.575000763 112.85199738 1.2690000534 22.746999741 1.4869999886 1.4869999886
 2224.3750000  -999.250000 13.447999954 -0.001000000 0.3385599852 2.3680000305 44.332000732 112.11199951 1.2779999971 22.447999954 1.4919999838 1.4919999838
 2224.5002441  -999.250000 13.449000359 -0.003000000 0.3440800011 2.3689999580 44.796001434 111.99600220 1.2660000324 22.916999817 1.4869999886 1.4869999886
 2224.6252441  -999.250000 13.456001282 -0.011000000 0.3505899906 2.3650000095 45.074001312 112.13600159 1.2539999485 23.761999130 1.4780000448 1.4780000448
 2224.7497559  -999.250000 13.459999084 -0.026000001 0.3571099937 2.3529999256 45.182998657 112.88900757 1.2419999838 24.447000504 1.4579999447 1.4579999447
 2224.8747559  -999.250000 13.459999084 -0.048999999 0.3645299971 2.3410000801 45.090000153 113.57499695 1.2289999723 25.091999054 1.4379999638 1.4379999638
 2225.0000000  -999.250000 13.459999084 -0.072999999 0.3737500012 2.3289999962 44.610000610 114.26000214 1.2170000076 25.736000061 1.4179999828 1.4179999828
 2225.1250000  -999.250000 13.458999634 -0.096000001 0.3840800226 2.3239998817 44.319000244 114.88999939 1.2039999962 26.197999954 1.4010000229 1.4010000229
 2225.2500000  -999.250000 13.458999634 -0.097999997 0.4044699967 2.3310000896 44.143001556 115.25499725 1.1920000315 26.496000290 1.3940000534 1.3940000534
 2225.3750000  -999.250000 13.458999634 -0.090000004 0.4239699841 2.3399999142 44.073001862 115.06400299 1.1849999428 26.386999130 1.3930000067 1.3930000067
 2225.5000000  -999.250000 13.449998856 -0.079000004 0.4293299913 2.3529999256 44.004001617 114.56198883 1.1809999943 25.839000702 1.4170000553 1.4170000553
 2225.6250000  -999.250000 13.430999756 -0.056000002 0.4104799926 2.3710000515 44.363998413 112.50000000 1.1770000458 25.208000183 1.4409999847 1.4409999847
 2225.7502441  -999.250000 13.411000252 -0.028999999 0.3902399838 2.3900001049 45.159999847 111.01699829 1.1729999781 24.572000504 1.4650000334 1.4650000334
 2225.8747559  -999.250000 13.392000198 -0.002000000 0.3655000031 2.4100000858 45.655998230 110.01300049 1.1690000296 23.936000824 1.4759999514 1.4759999514
 2225.9997559  -999.250000 13.373000145 0.0120000001 0.3427599967 2.4110000134 45.814998627 109.73600006 1.1649999619 23.468000412 1.4589999914 1.4589999914
 2226.1250000  -999.250000 13.373999596 0.0170000009 0.3305300176 2.3980000019 45.188999176 111.89900208 1.1599999666 23.165000916 1.4210000038 1.4210000038
 2226.2500000  -999.250000 13.392000198 0.0179999992 0.3215999901 2.3829998970 44.252998352 113.37899780 1.1549999714 22.863000870 1.3890000582 1.3890000582
 2226.3750000  -999.250000 13.399999619 0.0109999999 0.3211500049 2.3670001030 43.316001892 114.72000122 1.1499999762 22.559999466 1.3580000401 1.3580000401
 2226.5000000  -999.250000 13.404000282 0.0000000000 0.3311299980 2.3559999466 42.750000000 115.08399963 1.1440000534 22.406000137 1.3389999866 1.3389999866
