# LAS format log file from PETREL
# Project units are specified as depth units
#==================================================================
~Version information
VERS.   2.0:
WRAP.   NO:
#==================================================================
~Well
STRT .m      806.37493896 :
STOP .m      2790.0000000 :
STEP .m     0.00000000 :
NULL .        -999.250000 :
COMP.           : COMPANY
WELL.  34/7-12   : WELL
FLD.            : FIELD
LOC.            : LOCATION
SRVC.           : SERVICE COMPANY
DATE.  2018-09-11 14:48:51   : Log Export Date {yyyy-MM-dd HH:mm:ss}
PROV.           : PROVINCE
UWI.   34/7-12   : UNIQUE WELL ID
API.            : API NUMBER
#==================================================================
~Curve
DEPT .m                   : DEPTH
Lithology_geolink ._      : Lithology_geolink
CALI .in                  : CALI
DRHO .g/cm3               : DRHO
NPHI .m3/m3               : NPHI
RHOB .g/cm3               : RHOB
GR .gAPI                  : GR
DTC .us/ft                : DTC
RDEP .ohm.m               : RDEP
SP .mV                    : SP
RSHA .ohm.m               : RSHA
RMED .ohm.m               : RMED
~Parameter
#==================================================================
~Ascii
# ...
 1590.5000000  -999.250000 18.066999435 -0.059999999  -999.250000 1.9790009260 60.313777924 157.19467163 0.5379999876  -999.250000 0.4370000064 0.6940000057
 1590.6248779  -999.250000 18.041999817 -0.059999999  -999.250000 1.9800000191 60.085998535 154.81300354 0.5329999924  -999.250000 0.4309999943 0.7009999752
 1590.7498779  -999.250000 18.031999588 -0.064999998  -999.250000 1.9789999723 59.832000732 153.75300598 0.5239999890  -999.250000 0.4280000031 0.7009999752
 1590.8748779  -999.250000 18.040000916 -0.070000000  -999.250000 1.9769999981 59.805999756 154.81500244 0.5109999776  -999.250000 0.4300000072 0.6940000057
 1591.0000000  -999.250000 18.075000763 -0.076001950  -999.250000 1.9739960432 60.333000183 158.19500732 0.4930000007  -999.250000 0.4320000112 0.6830000281
 1591.1250000  -999.250000 18.120000839 -0.077007808  -999.250000 1.9719960690 61.331001282 160.59899902 0.4860000014  -999.250000 0.4320000112 0.6819999814
 1591.2500000  -999.250000 18.183000565 -0.081012696  -999.250000 1.9699941874 62.555000305 162.67900085 0.4799999893  -999.250000 0.4309999943 0.6869999766
 1591.3750000  -999.250000 18.281999588 -0.094025388  -999.250000 1.9639892578 64.070999146 164.67599487 0.4769999981  -999.250000 0.4300000072 0.6949999928
 1591.5000000  -999.250000 18.422000885 -0.120012693  -999.250000 1.9529950619 65.863998413 167.00669861 0.4769999981  -999.250000 0.4280000031 0.7020000219
 1591.6250000  -999.250000 18.497999191 -0.133006841  -999.250000 1.9479980469 66.457817078 167.72085571 0.4790000021  -999.250000 0.4259999990 0.6990000010
 1591.7498779  -999.250000 18.538999557 -0.140000001  -999.250000 1.9459999800 66.271003723 167.57301331 0.4839951098  -999.250000 0.4240019619 0.6919999719
 1591.8748779  -999.250000 18.559000015 -0.138999999  -999.250000 1.9470000267 64.964996338 166.10401917 0.4900000095  -999.250000 0.4230000079 0.6850000024
 1591.9998779  -999.250000 18.551000595 -0.130999997  -999.250000 1.9479999542 62.564998627 163.40100098 0.4970000088  -999.250000 0.4210000038 0.6800000072
 1592.1250000  -999.250000 18.500000000 -0.120980471  -999.250000 1.9479999542 61.166999817 161.94500732 0.4979999959  -999.250000 0.4180000126 0.6800000072
 1592.2500000  -999.250000 18.420999527 -0.110976584  -999.250000 1.9480038881 60.277000427 160.91299438 0.4970000088  -999.250000 0.4149999917 0.6800000072
 1592.3750000  -999.250000 18.315999985 -0.098984376  -999.250000 1.9500049353 60.033000946 160.07400513 0.4959999919  -999.250000 0.4110000134 0.6779999733
 1592.5000000  -999.250000 18.191999435 -0.082997069  -999.250000 1.9550039768 60.844001770 159.20700073 0.4970000088  -999.250000 0.4079999924 0.6740000248
 1592.6250000  -999.250000 18.142999649 -0.080001950  -999.250000 1.9590039253 61.761001587 158.91896057 0.5009999871  -999.250000 0.4070000052 0.6750000119
 1592.7500000  -999.250000 18.107999802 -0.082011722  -999.250000 1.9630019665 62.962490082 158.88237000 0.5080000162  -999.250000 0.4079999924 0.6769999862
 1592.8748779  -999.250000 18.037000656 -0.093999997  -999.250000 1.9650000334 65.511001587 159.25799561 0.5159921646  -999.250000 0.4129951000 0.6809999943
 1592.9998779  -999.250000 17.920000076 -0.112999998  -999.250000 1.9670000076 69.445999146 159.97500610 0.5249999762  -999.250000 0.4169999957 0.6840000153
 1593.1248779  -999.250000 17.857999802 -0.123000003  -999.250000 1.9670000076 71.557998657 160.29100037 0.5270000100  -999.250000 0.4189999998 0.6850000024
 1593.2498779  -999.250000 17.844999313 -0.128000006  -999.250000 1.9639999866 72.129997253 160.35099792 0.5279999971  -999.250000 0.4199999869 0.6850000024
 1593.3750000  -999.250000 17.888999939 -0.125972688  -999.250000 1.9599883556 70.610000610 160.16799927 0.5299999714  -999.250000 0.4210000038 0.6830000281
 1593.5000000  -999.250000 18.016000748 -0.111989260  -999.250000 1.9539990425 65.996002197 159.62500000 0.5339999795  -999.250000 0.4219999909 0.6790000200
 1593.6250000  -999.250000 18.097000122 -0.100990236  -999.250000 1.9530018568 63.217998505 159.25199890 0.5400000215  -999.250000 0.4230000079 0.6750000119
 1593.7500000  -999.250000 18.159000397 -0.090987302  -999.250000 1.9550068378 61.419998169 158.91099548 0.5469999909  -999.250000 0.4239999950 0.6710000038
 1593.8750000  -999.250000 18.202999115 -0.077980474  -999.250000 1.9620116949 61.051525116 158.56953430 0.5529999733  -999.250000 0.4250000119 0.6679999828
 1594.0000000  -999.250000 18.233999252 -0.057985350  -999.250000 1.9740107059 61.589565277 158.09266663 0.5580000281  -999.250000 0.4259999990 0.6690000296
 1594.1248779  -999.250000 18.232000351 -0.043000001  -999.250000 1.9850000143 62.166999817 157.74899292 0.5580000281  -999.250000 0.4269999862 0.6729999781
 1594.2498779  -999.250000 18.205999374 -0.029999999  -999.250000 1.9960000515 62.715000153 157.44500732 0.5540000200  -999.250000 0.4309999943 0.6769999862
 1594.3748779  -999.250000 18.158000946 -0.023000000  -999.250000 2.0099999905 63.501998901 157.51800537 0.5479999781  -999.250000 0.4390000105 0.6790000200
 1594.5000000  -999.250000 18.096000671 -0.032042969  -999.250000 2.0289981365 64.791999817 158.43600464 0.5370000005  -999.250000 0.4449999928 0.6779999733
 1594.6250000  -999.250000 18.107999802 -0.054048780  -999.250000 2.0279748440 65.557998657 159.76800537 0.5279999971  -999.250000 0.4480000138 0.6759999990
 1594.7500000  -999.250000 18.172000885 -0.079023443  -999.250000 2.0149834156 66.050003052 161.26800537 0.5180000067  -999.250000 0.4480000138 0.6729999781
 1594.8750000  -999.250000 18.309000015 -0.103015624  -999.250000 1.9979883432 65.834999084 162.75997925 0.5049999952  -999.250000 0.4449999928 0.6710000038
 1595.0000000  -999.250000 18.496000290 -0.118998051  -999.250000 1.9859980345 64.591003418 163.97102356 0.4880000055  -999.250000 0.4399999976 0.6660000086
 1595.1250000  -999.250000 18.573999405 -0.116993159  -999.250000 1.9839990139 63.579319000 163.99453735 0.4790000021  -999.250000 0.4359999895 0.6620000005
 1595.2498779  -999.250000 18.572999954 -0.109999999  -999.250000 1.9830000401 62.881999969 163.51400757 0.4750038981  -999.250000 0.4310048819 0.6589999795
 1595.3748779  -999.250000 18.538000107 -0.100000001  -999.250000 1.9809999466 62.535999298 162.55000305 0.4760000110  -999.250000 0.4259999990 0.6600000262
 1595.4998779  -999.250000 18.483999252 -0.090000004  -999.250000 1.9769999981 62.479000092 161.07299805 0.4799999893  -999.250000 0.4259999990 0.6660000086
 1595.6250000  -999.250000 18.452999115 -0.086000003  -999.250000 1.9709999561 62.611999512 160.28900146 0.4880000055  -999.250000 0.4350000024 0.6729999781
 1595.7500000  -999.250000 18.400999069 -0.081994146  -999.250000 1.9639883041 62.868999481 159.62600708 0.4990000129  -999.250000 0.4379999936 0.6800000072
 1595.8750000  -999.250000 18.294000626 -0.078998052  -999.250000 1.9579950571 63.506999969 159.02499390 0.5139999986  -999.250000 0.4300000072 0.6869999766
 1596.0000000  -999.250000 18.087999344 -0.076999024  -999.250000 1.9530018568 65.085998535 158.43699646 0.5389999747  -999.250000 0.4239999950 0.6899999976
 1596.1250000  -999.250000 17.945999146 -0.075998046  -999.250000 1.9550049305 66.277000427 158.34611511 0.5509999990  -999.250000 0.4180000126 0.6880000234
 1596.2500000  -999.250000 17.839000702 -0.073997073  -999.250000 1.9600049257 67.326828003 158.47335815 0.5590000153  -999.250000 0.4149999917 0.6859999895
 1596.3750000  -999.250000 17.753999710 -0.070996098  -999.250000 1.9650049210 68.181571960 158.84048462 0.5619999766  -999.250000 0.4149999917 0.6859999895
 1596.4998779  -999.250000 17.686000824 -0.067000002  -999.250000 1.9700000286 68.767997742 159.33799744 0.5630000234  -999.250000 0.4160000086 0.6930000186
 1596.6248779  -999.250000 17.681999207 -0.066000000  -999.250000 1.9709999561 68.606002808 159.42599487 0.5630000234  -999.250000 0.4180000126 0.6990000010
 1596.7498779  -999.250000 17.691999435 -0.064000003  -999.250000 1.9720000029 68.124000549 159.26699829 0.5649999976  -999.250000 0.4199999869 0.7030000091
