# LAS format log file from PETREL
# Project units are specified as depth units
#==================================================================
~Version information
VERS.   2.0:
WRAP.   NO:
#==================================================================
~Well
STRT .m      377.87487793 :
STOP .m      3151.8757324 :
STEP .m     0.00000000 :
NULL .        -999.250000 :
COMP.           : COMPANY
WELL.  34/7-5   : WELL
FLD.            : FIELD
LOC.            : LOCATION
SRVC.           : SERVICE COMPANY
DATE.  2018-09-11 14:48:52   : Log Export Date {yyyy-MM-dd HH:mm:ss}
PROV.           : PROVINCE
UWI.   34/7-5   : UNIQUE WELL ID
API.            : API NUMBER
#==================================================================
~Curve
DEPT .m                   : DEPTH
Lithology_geolink ._      : Lithology_geolink
CALI .in                  : CALI
DRHO .g/cm3               : DRHO
NPHI .m3/m3               : NPHI
RHOB .g/cm3               : RHOB
GR .gAPI                  : GR
DTC .us/ft                : DTC
RDEP .ohm.m               : RDEP
SP .mV                    : SP
RSHA .ohm.m               : RSHA
RMED .ohm.m               : RMED
~Parameter
#==================================================================
~Ascii
# ...
 2405.1250000  -999.250000 13.503000259 -0.025000000 0.3083900213 2.3900001049 39.874000549 107.27300262 1.5590000153 26.236999512 1.8120000362 1.8120000362
 2405.2500000  -999.250000 13.501000404 -0.018999999 0.3097200096 2.3910000324 40.798000336 107.79399872 1.5599999428 25.867000580 1.7869999409 1.7869999409
 2405.3750000  -999.250000 13.500000000 -0.014000000 0.3104400039 2.3840000629 42.004001617 108.51200104 1.5599999428 25.590999603 1.7619999647 1.7619999647
 2405.5002441  -999.250000 13.498000145 -0.014000000 0.3088699877 2.3740000725 42.616001129 109.19400024 1.5599999428 25.368000031 1.7480000257 1.7480000257
 2405.6252441  -999.250000 13.496000290 -0.017000001 0.3023699820 2.3650000095 42.374000549 108.72799683 1.5599999428 25.266000748 1.7450000048 1.7450000048
 2405.7497559  -999.250000 13.494999886 -0.024000000 0.2902399898 2.3570001125 41.980998993 108.12200928 1.5549999475 25.393999100 1.7519999743 1.7519999743
 2405.8750000  -999.250000 13.493000031 -0.029999999 0.2784599960 2.3510000706 41.643001556 107.66899872 1.5399999619 26.020000458 1.7580000162 1.7580000162
 2406.0000000  -999.250000 13.491000175 -0.035999998 0.2741500139 2.3469998837 41.597000122 107.28599548 1.5290000439 26.301000595 1.7960000038 1.7960000038
 2406.1250000  -999.250000 13.489999771 -0.035999998 0.2734499872 2.3459999561 41.766998291 107.09200287 1.5240000486 26.277000427 1.8009999990 1.8009999990
 2406.2500000  -999.250000 13.487999916 -0.028000001 0.2720700204 2.3469998837 42.236999512 107.19200134 1.5199999809 25.896999359 1.7920000553 1.7920000553
 2406.3750000  -999.250000 13.486999512 -0.023000000 0.2635499835 2.3489999771 42.083000183 107.54900360 1.5149999857 24.906000137 1.7799999714 1.7799999714
 2406.5000000  -999.250000 13.484999657 -0.017999999 0.2550799847 2.3510000706 41.189998627 107.90899658 1.5099999905 23.834999084 1.7640000582 1.7640000582
 2406.6250000  -999.250000 13.484000206 -0.015000000 0.2504299879 2.3529999256 40.497001648 108.25399780 1.5060000420 22.993000031 1.7549999952 1.7549999952
 2406.7502441  -999.250000 13.482000351 -0.017000001 0.2512599826 2.3540000916 39.972000122 108.59200287 1.5019999743 22.419000626 1.7510000467 1.7510000467
 2406.8747559  -999.250000 13.480999947 -0.018999999 0.2616399825 2.3529999256 39.516998291 108.92800140 1.5019999743 22.239000320 1.7480000257 1.7480000257
 2406.9997559  -999.250000 13.479000092 -0.021000000 0.2747400105 2.3519999981 39.770999908 109.23200226 1.5010000467 22.350000381 1.7439999580 1.7439999580
 2407.1250000  -999.250000 13.477999687 -0.021000000 0.2856200039 2.3519999981 40.580001831 109.35299683 1.5010000467 22.634000778 1.7410000563 1.7410000563
 2407.2500000  -999.250000 13.475999832 -0.016000001 0.2898299992 2.3550000191 41.582000732 108.97399902 1.5010000467 22.968000412 1.7400000095 1.7400000095
 2407.3750000  -999.250000 13.475000381 -0.010000000 0.2892200053 2.3640000820 42.905998230 108.50400543 1.5010000467 23.339000702 1.7400000095 1.7400000095
 2407.5000000  -999.250000 13.472999573 -0.004000000 0.2878099978 2.3719999790 43.861000061 108.30299377 1.5010000467 23.716999054 1.7460000515 1.7460000515
 2407.6250000  -999.250000 13.470999718 0.0010000000 0.2840200067 2.3740000725 44.092998505 108.16100311 1.5010000467 23.774999619 1.7779999971 1.7779999971
 2407.7500000  -999.250000 13.469999313 -0.002000000 0.2791199982 2.3729999065 44.305999756 108.03200531 1.5099999905 23.771999359 1.7999999523 1.7999999523
 2407.8752441  -999.250000 13.468000412 -0.005000000 0.2737599909 2.3740000725 44.826000214 107.94499969 1.5180000067 23.711999893 1.8009999990 1.8009999990
 2408.0002441  -999.250000 13.466999054 -0.007000000 0.2699699998 2.3750000000 44.915000916 107.86299133 1.5269999504 23.634000778 1.7979999781 1.7979999781
 2408.1247559  -999.250000 13.465000153 -0.007000000 0.2670300007 2.3789999485 44.321998596 107.88800049 1.5219999552 23.638000488 1.7940000296 1.7940000296
 2408.2500000  -999.250000 13.461000443 -0.008000000 0.2636500001 2.3829998970 44.227001190 107.94799805 1.5149999857 23.881999969 1.7899999619 1.7899999619
 2408.3750000  -999.250000 13.456001282 -0.009000000 0.2578200102 2.3859999180 44.800998688 108.00900269 1.5099999905 24.466999054 1.7840000391 1.7840000391
 2408.5000000  -999.250000 13.449998856 -0.010000000 0.2410499901 2.3800001144 45.655998230 108.04799652 1.5060000420 25.287000656 1.7719999552 1.7719999552
 2408.6250000  -999.250000 13.444999695 -0.012000000 0.2313800007 2.3740000725 46.356998444 108.05400085 1.5010000467 25.955999374 1.7530000210 1.7530000210
 2408.7500000  -999.250000 13.439000130 -0.015000000 0.2330299914 2.3670001030 46.962001801 108.34100342 1.5000000000 26.400999069 1.7289999723 1.7289999723
 2408.8750000  -999.250000 13.434000015 -0.017999999 0.2488600016 2.3619999886 46.672000885 108.84600067 1.4989999533 26.881000519 1.7029999495 1.7029999495
 2409.0000000  -999.250000 13.428000450 -0.014000000 0.2654800117 2.3640000820 45.401000977 109.34999847 1.4989999533 26.966999054 1.6920000315 1.6920000315
 2409.1252441  -999.250000 13.421999931 -0.009000000 0.2826499939 2.3719999790 44.013000488 109.58999634 1.4989999533 26.402999878 1.7130000591 1.7130000591
 2409.2497559  -999.250000 13.416999817 -0.005000000 0.2998400033 2.3900001049 42.888000488 109.28700256 1.4989999533 25.794000626 1.7400000095 1.7400000095
 2409.3747559  -999.250000 13.411000252 -0.010000000 0.3051399887 2.4110000134 41.799999237 108.21600342 1.4989999533 25.170999527 1.7649999857 1.7649999857
 2409.5000000  -999.250000 13.406000137 -0.017999999 0.2950800061 2.4119999409 40.881999969 107.05599213 1.5010000467 24.611999512 1.7849999666 1.7849999666
 2409.6250000  -999.250000 13.399999619 -0.026000001 0.2846199870 2.4010000229 40.285999298 106.14700317 1.5039999485 24.353000641 1.7929999828 1.7929999828
 2409.7500000  -999.250000 13.394999504 -0.028000001 0.2741900086 2.3859999180 39.688999176 105.58999634 1.5080000162 24.131999969 1.7990000248 1.7990000248
 2409.8750000  -999.250000 13.388999939 -0.018999999 0.2689299881 2.3710000515 39.175998688 105.26499939 1.5110000372 23.780000687 1.7999999523 1.7999999523
 2410.0000000  -999.250000 13.383999825 -0.010000000 0.2711199820 2.3699998856 39.085998535 105.26699066 1.5219999552 23.214000702 1.7949999571 1.7949999571
 2410.1250000  -999.250000 13.380000114 -0.004000000 0.2739399970 2.3759999275 39.270999908 105.26899719 1.5360000134 22.506000519 1.7890000343 1.7890000343
 2410.2502441  -999.250000 13.378999710 -0.001000000 0.2767600119 2.3849999905 39.499000549 105.28900146 1.5499999523 21.732999802 1.7920000553 1.7920000553
 2410.3752441  -999.250000 13.378999710 0.0020000001 0.2778300047 2.4019999504 39.859001160 105.37100220 1.5559999943 21.548999786 1.8250000477 1.8250000477
 2410.4997559  -999.250000 13.378999710 0.0080000004 0.2770999968 2.4070000648 39.377998352 105.45301056 1.5590000153 22.045000076 1.8760000467 1.8760000467
 2410.6250000  -999.250000 13.377999306 -0.001000000 0.2757999897 2.4070000648 38.960998535 105.53500366 1.5609999895 22.774000168 1.8969999552 1.8969999552
 2410.7500000  -999.250000 13.377999306 -0.012000000 0.2772400081 2.4019999504 39.076999664 105.61699677 1.5640000105 23.513999939 1.8899999857 1.8899999857
 2410.8750000  -999.250000 13.377999306 -0.020000000 0.2803499997 2.3889999390 39.511001587 105.84200287 1.5670000315 24.266000748 1.8750000000 1.8750000000
 2411.0000000  -999.250000 13.376999855 -0.018999999 0.2834900022 2.3849999905 40.122001648 106.38300323 1.5620000362 25.017000198 1.8480000496 1.8480000496
 2411.1250000  -999.250000 13.376999855 -0.013000000 0.2866300046 2.3870000839 40.574001312 106.93901062 1.5499999523 25.823999405 1.8099999428 1.8099999428
 2411.2500000  -999.250000 13.376999855 -0.006000000 0.2897199988 2.3929998875 40.907001495 107.48899841 1.5399999619 26.743000031 1.7970000505 1.7970000505
 2411.3750000  -999.250000 13.376000404 0.0010000000 0.2888699770 2.3959999084 40.374000549 107.95600891 1.5310000181 27.659999847 1.7929999828 1.7929999828
