# LAS format log file from PETREL
# Project units are specified as depth units
#==================================================================
~Version information
VERS.   2.0:
WRAP.   NO:
#==================================================================
~Well
STRT .m      417.47238159 :
STOP .m      3182.7705078 :
STEP .m     0.00000000 :
NULL .        -999.250000 :
COMP.           : COMPANY
WELL.  34/7-20   : WELL
FLD.            : FIELD
LOC.            : LOCATION
SRVC.           : SERVICE COMPANY
DATE.  2018-09-11 14:48:52   : Log Export Date {yyyy-MM-dd HH:mm:ss}
PROV.           : PROVINCE
UWI.   34/7-20   : UNIQUE WELL ID
API.            : API NUMBER
#==================================================================
~Curve
DEPT .m                   : DEPTH
Lithology_geolink ._      : Lithology_geolink
CALI .in                  : CALI
DRHO .g/cm3               : DRHO
NPHI .m3/m3               : NPHI
RHOB .g/cm3               : RHOB
GR .gAPI                  : GR
DTC .us/ft                : DTC
RDEP .ohm.m               : RDEP
SP .mV                    : SP
RSHA .ohm.m               : RSHA
RMED .ohm.m               : RMED
~Parameter
#==================================================================
~Ascii
# ...
 1839.8215332  -999.250000 18.299156189  -999.250000 0.4598262012  -999.250000  -999.250000 146.18832397 1.1901443005 75.971244812 0.2434695959 0.8079985380
 1839.9739990  -999.250000 18.261993408  -999.250000 0.4752175808  -999.250000  -999.250000 146.23922729 1.1543660164 75.647094727 0.1961869597 0.7838838100
 1840.1263428  -999.250000 18.312557220  -999.250000 0.4690571725  -999.250000  -999.250000 144.15008545 1.1053526402 75.328804016 0.1558061242 0.7593240738
 1840.2788086  -999.250000 19.089405060  -999.250000 0.4354731739  -999.250000  -999.250000 138.13635254 1.0788457394 74.978492737 0.1647111773 0.7461575270
 1840.4311523  -999.250000 18.660003662  -999.250000 0.4237151444  -999.250000  -999.250000 133.90457153 1.1096076965 74.902481079 0.2931709290 0.7526791096
 1840.5836182  -999.250000 18.155174255  -999.250000 0.4366037846  -999.250000  -999.250000 131.37097168 1.1606488228 75.128341675 0.2723139524 0.7694021463
 1840.7359619  -999.250000 18.372859955  -999.250000 0.4570066035  -999.250000  -999.250000 133.56524658 1.1963953972 75.379440308 0.1988495588 0.7866841555
 1840.8884277  -999.250000 18.002159119  -999.250000 0.4656957984  -999.250000  -999.250000 139.73376465 1.2088820934 75.438217163 0.8076689243 0.7980166674
 1841.0407715  -999.250000 17.823425293  -999.250000 0.4593218863  -999.250000  -999.250000 142.78103638 1.1821157932 75.310630798 0.7396731377 0.7915637493
 1841.1932373  -999.250000 18.156646729  -999.250000 0.4511623383  -999.250000  -999.250000 142.97189331 1.1270718575 75.125205994 0.1666969359 0.7674163580
 1841.3455811  -999.250000 18.117443085  -999.250000 0.4522893429  -999.250000  -999.250000 142.76049805 1.0769724846 74.947105408 0.3420304060 0.7367235422
 1841.4979248  -999.250000 18.010726929  -999.250000 0.4703038037  -999.250000  -999.250000 144.00482178 1.0506794453 74.799507141 0.4200500846 0.7125782967
 1841.6503906  -999.250000 18.169334412  -999.250000 0.4742170572  -999.250000  -999.250000 144.30596924 1.0470108986 74.685363770 0.2348324656 0.7067252398
 1841.8027344  -999.250000 18.802143097  -999.250000 0.4705532789  -999.250000  -999.250000 144.22723389 1.0573585033 74.584922791 0.1798112392 0.7140848637
 1841.9552002  -999.250000 18.501510620  -999.250000 0.4608947635  -999.250000  -999.250000 150.14375305 1.0789678097 74.526184082 0.2440427542 0.7268551588
 1842.1075439  -999.250000 17.921527863  -999.250000 0.4448329806  -999.250000  -999.250000 149.91671753 1.1077778339 74.600006104 0.3423542976 0.7434896231
 1842.2600098  -999.250000 18.446113586  -999.250000 0.4307331741  -999.250000  -999.250000 145.69586182 1.1346757412 74.813049316 0.4222300649 0.7605967522
 1842.4123535  -999.250000 18.334972382  -999.250000 0.4314292967  -999.250000  -999.250000 146.22360229 1.1545596123 75.076919556 0.2899273634 0.7719104290
 1842.5648193  -999.250000 18.954395294  -999.250000 0.4644474089  -999.250000  -999.250000 146.88116455 1.1642599106 75.241477966 0.1618892848 0.7696052790
 1842.7171631  -999.250000 19.448417664  -999.250000 0.4945420921  -999.250000  -999.250000 148.22161865 1.1586024761 75.131652832 0.3690880537 0.7567007542
 1842.8696289  -999.250000 18.848110199  -999.250000 0.5108380318  -999.250000  -999.250000 150.55462646 1.1398661137 74.805404663 0.3476626873 0.7413852215
 1843.0219727  -999.250000 18.796672821  -999.250000 0.4988835156  -999.250000  -999.250000 154.79467773 1.1173446178 74.431098938 0.1860002577 0.7257974148
 1843.1744385  -999.250000 19.211582184  -999.250000 0.4620751143  -999.250000  -999.250000 154.54208374 1.0948128700 74.055549622 0.1853601933 0.7103587389
 1843.3267822  -999.250000 18.919780731  -999.250000 0.4491883218  -999.250000  -999.250000 151.01730347 1.0721309185 73.685615540 0.1464669406 0.6974308491
 1843.4791260  -999.250000 18.501449585  -999.250000 0.4593583643  -999.250000  -999.250000 150.03967285 1.0496809483 73.355445862 0.1400079727 0.6888586283
 1843.6315918  -999.250000 18.250152588  -999.250000 0.5249611735  -999.250000  -999.250000 151.05105591 1.0300626755 73.028411865 0.1732536554 0.6826163530
 1843.7839355  -999.250000 18.240497589  -999.250000 0.5515046716  -999.250000  -999.250000 152.37725830 1.0171632767 72.636520386 0.1776736975 0.6765198708
 1843.9364014  -999.250000 18.431594849  -999.250000 0.5188423395  -999.250000  -999.250000 151.48883057 1.0102138519 72.334655762 0.1586270928 0.6706079245
 1844.0887451  -999.250000 17.998462677  -999.250000 0.4637823403  -999.250000  -999.250000 149.76712036 1.0211679935 72.237197876 0.1822812855 0.6710665226
 1844.2412109  -999.250000 17.750453949  -999.250000 0.4260807037  -999.250000  -999.250000 144.31414795 1.0675444603 72.224586487 0.2969823480 0.6862877607
 1844.3935547  -999.250000 17.683349609  -999.250000 0.4501088858  -999.250000  -999.250000 129.78329468 1.1329882145 72.162826538 0.3192147613 0.7119995356
 1844.5460205  -999.250000 17.541122437  -999.250000 0.4542048573  -999.250000  -999.250000 113.46771240 1.1995494366 71.946861267 0.1977702379 0.7415442467
 1844.6983643  -999.250000 17.815662384  -999.250000 0.4565197825  -999.250000  -999.250000 101.68795013 1.2670426369 71.584991455 0.1367979944 0.7734467983
 1844.8508301  -999.250000 18.365798950  -999.250000 0.4558121562  -999.250000  -999.250000 108.02456665 1.3267488480 71.176918030 0.1329122484 0.8052459955
 1845.0031738  -999.250000 18.993057251  -999.250000 0.4750282168  -999.250000  -999.250000 133.77160645 1.3507955074 70.769676208 0.1574949920 0.8231952190
 1845.1556396  -999.250000 19.422527313  -999.250000 0.5047799945  -999.250000  -999.250000 149.97860718 1.3017878532 70.423492432 0.3025562763 0.8103352785
 1845.3079834  -999.250000 20.157901764  -999.250000 0.4963746667  -999.250000  -999.250000 151.79327393 1.1980876923 70.345092773 0.2710573673 0.7683140039
 1845.4603271  -999.250000 21.345348358  -999.250000 0.4667687118  -999.250000  -999.250000 151.67622375 1.1359965801 70.677368164 0.1323462725 0.7281019688
 1845.6127930  -999.250000 20.116081238  -999.250000 0.4589939117  -999.250000  -999.250000 152.40969849 1.1655490398 71.133255005 0.1296085119 0.7359238863
 1845.7651367  -999.250000 17.571651459  -999.250000 0.4865291715  -999.250000  -999.250000 153.03622437 1.2255129814 71.078353882 0.1292095184 0.7695024014
 1845.9176025  -999.250000 16.852432251  -999.250000 0.5024051070  -999.250000  -999.250000 152.91188049 1.2503435612 70.144226074 0.1309131682 0.7841812372
 1846.0699463  -999.250000 16.918701172  -999.250000 0.4986525774  -999.250000  -999.250000 154.50970459 1.2355999947 68.679275513 0.1370577514 0.7828745842
 1846.2224121  -999.250000 16.496147156  -999.250000 0.4857074022  -999.250000  -999.250000 160.45001221 1.2060101032 67.330863953 0.1579812467 0.7729815245
 1846.3747559  -999.250000 15.830116272  -999.250000 0.5017550588  -999.250000  -999.250000 165.83505249 1.1758301258 66.822303772 0.1659480035 0.7570959330
 1846.5272217  -999.250000 15.242246628  -999.250000 0.5241764188  -999.250000  -999.250000 165.49151611 1.1480450630 67.742225647 0.1554604173 0.7403320074
 1846.6795654  -999.250000 14.966844559  -999.250000 0.5241699219  -999.250000  -999.250000 163.03912354 1.1289534569 69.308113098 0.1794611514 0.7289794683
 1846.8320313  -999.250000 14.914685249  -999.250000 0.4996029735  -999.250000  -999.250000 159.92041016 1.1226146221 69.829399109 0.1893184483 0.7276550531
 1846.9843750  -999.250000 14.681438446  -999.250000 0.4698091745  -999.250000  -999.250000 150.08599854 1.1256327629 69.233268738 0.1728692949 0.7319234610
 1847.1368408  -999.250000 14.156366348  -999.250000 0.4764169455  -999.250000  -999.250000 152.80639648 1.1335704327 68.450241089 0.1908200681 0.7339698076
 1847.2891846  -999.250000 13.765005112  -999.250000 0.4923947155  -999.250000  -999.250000 159.30419922 1.1431188583 67.832283020 0.1878040731 0.7352693081
 1847.4416504  -999.250000 13.628793716  -999.250000 0.4907882810  -999.250000  -999.250000 154.01052856 1.1438944340 67.479606628 0.1918436885 0.7359062433
