# LAS format log file from PETREL
# Project units are specified as depth units
#==================================================================
~Version information
VERS.   2.0:
WRAP.   NO:
#==================================================================
~Well
STRT .m      377.87487793 :
STOP .m      3151.8757324 :
STEP .m     0.00000000 :
NULL .        -999.250000 :
COMP.           : COMPANY
WELL.  34/7-5   : WELL
FLD.            : FIELD
LOC.            : LOCATION
SRVC.           : SERVICE COMPANY
DATE.  2018-09-11 14:48:52   : Log Export Date {yyyy-MM-dd HH:mm:ss}
PROV.           : PROVINCE
UWI.   34/7-5   : UNIQUE WELL ID
API.            : API NUMBER
#==================================================================
~Curve
DEPT .m                   : DEPTH
Lithology_geolink ._      : Lithology_geolink
CALI .in                  : CALI
DRHO .g/cm3               : DRHO
NPHI .m3/m3               : NPHI
RHOB .g/cm3               : RHOB
GR .gAPI                  : GR
DTC .us/ft                : DTC
RDEP .ohm.m               : RDEP
SP .mV                    : SP
RSHA .ohm.m               : RSHA
RMED .ohm.m               : RMED
~Parameter
#==================================================================
~Ascii
# ...
 2035.3748779  -999.250000 13.842000008 -0.002000000 0.3432700038 2.3110001087 39.814998627 119.54100037 1.2949999571 0.1439999938 1.4750000238 1.4750000238
 2035.4997559  -999.250000 13.869999886 -0.003000000 0.3475600183 2.3129999638 40.008998871 119.15399933 1.2920000553 -0.238000005 1.4709999561 1.4709999561
 2035.6251221  -999.250000 13.897000313 -0.002000000 0.3452900052 2.3150000572 40.325000763 118.75199890 1.2879999876 -0.118000001 1.4670000076 1.4670000076
 2035.7500000  -999.250000 13.906001091 0.0010000000 0.3418899775 2.3210000992 41.014999390 118.34899902 1.2840000391 0.7459999919 1.4639999866 1.4639999866
 2035.8750000  -999.250000 13.876000404 0.0049999999 0.3402500153 2.3359999657 41.486000061 117.94599915 1.2810000181 1.6380000114 1.4639999866 1.4639999866
 2036.0000000  -999.250000 13.812999725 0.0130000003 0.3402899802 2.3480000496 41.629001617 117.54299927 1.2769999504 2.6089999676 1.4639999866 1.4639999866
 2036.1251221  -999.250000 13.739001274 0.0199999996 0.3393899798 2.3559999466 41.453998566 117.08699799 1.2749999762 3.8129999638 1.4689999819 1.4689999819
 2036.2500000  -999.250000 13.670000076 0.0260000005 0.3347299993 2.3629999161 41.166999817 116.51599884 1.2779999971 5.0700001717 1.4869999886 1.4869999886
 2036.3752441  -999.250000 13.605999947 0.0309999995 0.3290199935 2.3689999580 40.834999084 115.93900299 1.2819999456 6.3870000839 1.5049999952 1.5049999952
 2036.5001221  -999.250000 13.562999725 0.0350000001 0.3263399899 2.3719999790 40.387001038 115.51599884 1.2849999666 7.7049999237 1.5180000067 1.5180000067
 2036.6248779  -999.250000 13.550999641 0.0350000001 0.3283399940 2.3729999065 40.280998230 115.12699127 1.2879999876 9.0220003128 1.5180000067 1.5180000067
 2036.7497559  -999.250000 13.565999985 0.0340000018 0.3329700232 2.3699998856 40.277999878 114.87899780 1.2910000086 10.340000153 1.5169999599 1.5169999599
 2036.8751221  -999.250000 13.590000153 0.0270000007 0.3379899859 2.3580000401 40.384998322 115.03800201 1.2940000296 11.468999863 1.5049999952 1.5049999952
 2037.0000000  -999.250000 13.613000870 0.0179999992 0.3449900150 2.3459999561 40.442001343 115.67900085 1.2970000505 12.347000122 1.4800000191 1.4800000191
 2037.1250000  -999.250000 13.631999969 0.0089999996 0.3565399945 2.3399999142 40.326999664 116.49800110 1.2979999781 12.628999710 1.4659999609 1.4659999609
 2037.2501221  -999.250000 13.642000198 0.0070000002 0.3680899739 2.3429999352 40.366001129 117.50099945 1.2999999523 12.319000244 1.4720000029 1.4720000029
 2037.3748779  -999.250000 13.637999535 0.0109999999 0.3821699917 2.3489999771 40.894001007 118.89399719 1.3009999990 11.659000397 1.4789999723 1.4789999723
 2037.5000000  -999.250000 13.625000000 0.0149999997 0.3880499899 2.3570001125 41.344001770 119.37999725 1.3029999733 10.871999741 1.4850000143 1.4850000143
 2037.6252441  -999.250000 13.650999069 0.0160000008 0.3786199987 2.3570001125 41.748001099 119.32299042 1.3040000200 10.170999527 1.4950000048 1.4950000048
 2037.7501221  -999.250000 13.734999657 0.0109999999 0.3535400033 2.3489999771 41.764999390 118.61599731 1.3059999943 9.4969997406 1.5080000162 1.5080000162
 2037.8747559  -999.250000 13.821999550 0.0020000001 0.3306300044 2.3350000381 41.606998444 117.53500366 1.3070000410 8.7930002213 1.5160000324 1.5160000324
 2038.0001221  -999.250000 13.861000061 -0.006000000 0.3140999973 2.3169999123 41.271999359 116.66000366 1.3029999733 8.0340003967 1.5149999857 1.5149999857
 2038.1250000  -999.250000 13.837999344 -0.008000000 0.3036600053 2.3039999008 40.903999329 116.20999908 1.2990000248 7.2960000038 1.5140000582 1.5140000582
 2038.2500000  -999.250000 13.788999557 -0.004000000 0.3021900058 2.3020000458 41.084999084 116.41300201 1.2929999828 6.8759999275 1.5080000162 1.5080000162
 2038.3751221  -999.250000 13.737000465 -0.002000000 0.3076899946 2.3090000153 41.388000488 117.08599854 1.2849999666 6.4869999886 1.5000000000 1.5000000000
 2038.4998779  -999.250000 13.684000015 0.0010000000 0.3153599799 2.3229999542 41.646999359 118.08799744 1.2769999504 6.2989997864 1.4889999628 1.4889999628
 2038.6250000  -999.250000 13.630999565 0.0030000000 0.3230300248 2.3320000172 41.741001129 119.09100342 1.2680000067 6.4169998169 1.4780000448 1.4780000448
 2038.7497559  -999.250000 13.578999519 0.0060000001 0.3307099938 2.3380000591 41.816001892 119.58699799 1.2599999905 6.6399998665 1.4670000076 1.4670000076
 2038.8751221  -999.250000 13.531000137 0.0080000004 0.3364300132 2.3410000801 41.715000153 119.61199951 1.2560000420 6.9029998779 1.4559999704 1.4559999704
 2038.9998779  -999.250000 13.501000404 0.0080000004 0.3327099979 2.3429999352 41.671001434 119.79699707 1.2519999743 7.1890001297 1.4450000525 1.4450000525
 2039.1247559  -999.250000 13.484999657 0.0070000002 0.3265800178 2.3450000286 41.768001556 119.81799316 1.2480000257 7.7470002174 1.4340000153 1.4340000153
 2039.2501221  -999.250000 13.468999863 0.0060000001 0.3218799829 2.3459999561 41.741001129 119.25399780 1.2589999437 8.4329996109 1.4359999895 1.4359999895
 2039.3750000  -999.250000 13.453001022 0.0030000000 0.3263000250 2.3489999771 41.470001221 118.45300293 1.2730000019 9.1199998856 1.4420000315 1.4420000315
 2039.5000000  -999.250000 13.439000130 -0.002000000 0.3342599869 2.3529999256 41.102001190 117.70999908 1.2849999666 9.8059997559 1.4600000381 1.4600000381
 2039.6251221  -999.250000 13.429000854 -0.009000000 0.3422099948 2.3589999676 40.800998688 116.00000000 1.2940000296 10.491999626 1.4969999790 1.4969999790
 2039.7498779  -999.250000 13.423000336 -0.016000001 0.3459400237 2.3640000820 40.673000336 114.22299957 1.3020000458 11.156000137 1.5379999876 1.5379999876
 2039.8747559  -999.250000 13.435000420 -0.022000000 0.3382500112 2.3770000935 40.652999878 111.86799622 1.3109999895 11.796999931 1.5809999704 1.5809999704
 2040.0002441  -999.250000 13.461999893 -0.014000000 0.3281600177 2.3870000839 40.756999969 108.96299744 1.3200000525 12.437999725 1.5909999609 1.5909999609
 2040.1251221  -999.250000 13.484000206 -0.005000000 0.3177700043 2.3900001049 40.821998596 108.29700470 1.3279999495 13.043000221 1.5700000525 1.5700000525
 2040.2498779  -999.250000 13.498000145 0.0040000002 0.3072299957 2.3870000839 40.856998444 108.46099854 1.3279999495 13.206000328 1.5340000391 1.5340000391
 2040.3751221  -999.250000 13.501000404 0.0130000003 0.2999600172 2.3840000629 40.893001556 110.45900726 1.3279999495 13.362000465 1.5080000162 1.5080000162
 2040.5000000  -999.250000 13.501999855 0.0219999999 0.3030599952 2.3829998970 40.928001404 112.64199829 1.3279999495 13.255000114 1.4839999676 1.4839999676
 2040.6250000  -999.250000 13.503000259 0.0309999995 0.3170000017 2.3840000629 40.964000702 114.50299835 1.3150000572 12.925000191 1.4659999609 1.4659999609
 2040.7501221  -999.250000 13.503999710 0.0329999998 0.3310500085 2.3829998970 41.006000519 116.06999969 1.3009999990 12.298999786 1.4550000429 1.4550000429
 2040.8748779  -999.250000 13.505000114 0.0340000018 0.3450799882 2.3780000210 41.057998657 117.05699921 1.2860000134 11.625000000 1.4450000525 1.4450000525
 2041.0000000  -999.250000 13.520000458 0.0270000007 0.3571200073 2.3710000515 41.111000061 117.44599915 1.2740000486 10.951000214 1.4470000267 1.4470000267
 2041.1247559  -999.250000 13.578000069 0.0199999996 0.3540199995 2.3640000820 41.146999359 117.74099731 1.2660000324 10.277000427 1.4529999495 1.4529999495
 2041.2501221  -999.250000 13.666999817 0.0140000004 0.3460400105 2.3570001125 40.964000702 118.23100281 1.2569999695 9.7629995346 1.4529999495 1.4529999495
 2041.3748779  -999.250000 13.755000114 0.0089999996 0.3404499888 2.3510000706 40.384998322 118.74300385 1.2549999952 9.5839996338 1.4500000477 1.4500000477
 2041.4997559  -999.250000 13.827999115 0.0089999996 0.3358100057 2.3489999771 39.784999847 118.88099670 1.2539999485 9.4230003357 1.4459999800 1.4459999800
 2041.6251221  -999.250000 13.840999603 0.0089999996 0.3332799971 2.3480000496 39.389999390 117.88700104 1.2530000210 9.2620000839 1.4429999590 1.4429999590
