# LAS format log file from PETREL
# Project units are specified as depth units
#==================================================================
~Version information
VERS.   2.0:
WRAP.   NO:
#==================================================================
~Well
STRT .m      417.47238159 :
STOP .m      3182.7705078 :
STEP .m     0.00000000 :
NULL .        -999.250000 :
COMP.           : COMPANY
WELL.  34/7-20   : WELL
FLD.            : FIELD
LOC.            : LOCATION
SRVC.           : SERVICE COMPANY
DATE.  2018-09-11 14:48:52   : Log Export Date {yyyy-MM-dd HH:mm:ss}
PROV.           : PROVINCE
UWI.   34/7-20   : UNIQUE WELL ID
API.            : API NUMBER
#==================================================================
~Curve
DEPT .m                   : DEPTH
Lithology_geolink ._      : Lithology_geolink
CALI .in                  : CALI
DRHO .g/cm3               : DRHO
NPHI .m3/m3               : NPHI
RHOB .g/cm3               : RHOB
GR .gAPI                  : GR
DTC .us/ft                : DTC
RDEP .ohm.m               : RDEP
SP .mV                    : SP
RSHA .ohm.m               : RSHA
RMED .ohm.m               : RMED
~Parameter
#==================================================================
~Ascii
# ...
 1295.7536621  -999.250000 18.005577087  -999.250000  -999.250000  -999.250000  -999.250000 149.91244507 0.8775074482 15.766827583 0.9504550695 0.7774807215
 1295.9061279  -999.250000 18.001876831  -999.250000  -999.250000  -999.250000  -999.250000 150.87283325 0.8684756756 17.224498749 0.8350516558 0.7614569664
 1296.0584717  -999.250000 18.022480011  -999.250000  -999.250000  -999.250000  -999.250000 150.87690735 0.8594355583 17.974943161 0.8564387560 0.7528568506
 1296.2109375  -999.250000 18.008125305  -999.250000  -999.250000  -999.250000  -999.250000 150.30017090 0.8514354229 17.846500397 0.8402502537 0.7522437572
 1296.3632813  -999.250000 17.950572968  -999.250000  -999.250000  -999.250000  -999.250000 150.40447998 0.8473877907 17.434164047 0.8572267294 0.7544299364
 1296.5156250  -999.250000 17.923126221  -999.250000  -999.250000  -999.250000  -999.250000 150.96704102 0.8486962318 16.291151047 0.9206899405 0.7546068430
 1296.6680908  -999.250000 18.018177032  -999.250000  -999.250000  -999.250000  -999.250000 151.60791016 0.8470478058 16.061569214 0.9038640261 0.7518777847
 1296.8204346  -999.250000 17.988742828  -999.250000  -999.250000  -999.250000  -999.250000 151.95541382 0.8505896330 16.146306992 0.8970192671 0.7497540712
 1296.9729004  -999.250000 17.938774109  -999.250000  -999.250000  -999.250000  -999.250000 152.04811096 0.8602292538 16.214551926 0.9376668930 0.7540879250
 1297.1252441  -999.250000 18.001251221  -999.250000  -999.250000  -999.250000  -999.250000 152.05221558 0.8632934093 15.834544182 0.8617153168 0.7664256096
 1297.2777100  -999.250000 18.104492188  -999.250000  -999.250000  -999.250000  -999.250000 152.25607300 0.8683559895 15.107090950 0.8998655081 0.7817960978
 1297.4300537  -999.250000 18.106822968  -999.250000  -999.250000  -999.250000  -999.250000 152.50338745 0.8733019829 15.111665726 0.9824817181 0.7913378477
 1297.5825195  -999.250000 17.981868744  -999.250000  -999.250000  -999.250000  -999.250000 152.34146118 0.8745573759 14.750569344 0.9945008755 0.7896496058
 1297.7348633  -999.250000 17.978794098  -999.250000  -999.250000  -999.250000  -999.250000 152.51577759 0.8815841675 14.456381798 1.0369639397 0.7795387506
 1297.8873291  -999.250000 18.104377747  -999.250000  -999.250000  -999.250000  -999.250000 153.21130371 0.8940507174 14.109810829 0.9717493057 0.7701516151
 1298.0396729  -999.250000 18.253189087  -999.250000  -999.250000  -999.250000  -999.250000 153.49990845 0.9021663666 14.091847420 0.7942472696 0.7701436281
 1298.1921387  -999.250000 18.116859436  -999.250000  -999.250000  -999.250000  -999.250000 153.44805908 0.9045574665 13.674867630 0.8660451174 0.7803007364
 1298.3444824  -999.250000 17.946269989  -999.250000  -999.250000  -999.250000  -999.250000 153.34786987 0.8986819983 12.679657936 0.9774295092 0.7939544916
 1298.4968262  -999.250000 18.001251221  -999.250000  -999.250000  -999.250000  -999.250000 153.14434814 0.8893039227 12.907828331 0.8365933895 0.8038390875
 1298.6492920  -999.250000 18.031250000  -999.250000  -999.250000  -999.250000  -999.250000 152.94757080 0.8930863142 13.717549324 0.8507523537 0.8081412315
 1298.8016357  -999.250000 18.047500610  -999.250000  -999.250000  -999.250000  -999.250000 152.74414063 0.9029545784 14.466979027 0.9982895851 0.8085701466
 1298.9541016  -999.250000 18.062500000  -999.250000  -999.250000  -999.250000  -999.250000 152.54763794 0.9009176493 14.891487122 0.8069987297 0.8050531149
 1299.1064453  -999.250000 18.046249390  -999.250000  -999.250000  -999.250000  -999.250000 152.24047852 0.8906782866 14.568058014 0.8244302273 0.7958949804
 1299.2589111  -999.250000 17.974281311  -999.250000  -999.250000  -999.250000  -999.250000 151.94757080 0.8864916563 15.434592247 0.9920978546 0.7824151516
 1299.4112549  -999.250000 18.100769043  -999.250000  -999.250000  -999.250000  -999.250000 151.69232178 0.8823937178 16.043228149 0.9359706640 0.7700670958
 1299.5637207  -999.250000 18.200618744  -999.250000  -999.250000  -999.250000  -999.250000 151.50054932 0.8799599409 15.806156158 0.8836338520 0.7651443481
 1299.7160645  -999.250000 18.067440033  -999.250000  -999.250000  -999.250000  -999.250000 151.86264038 0.8851199150 16.322378159 0.8611645699 0.7699661255
 1299.8685303  -999.250000 18.016250610  -999.250000  -999.250000  -999.250000  -999.250000 151.99369812 0.8843808174 16.479866028 0.9055278301 0.7812656164
 1300.0208740  -999.250000 18.047512054  -999.250000  -999.250000  -999.250000  -999.250000 152.31890869 0.8795938492 16.260776520 0.8563760519 0.7926708460
 1300.1733398  -999.250000 18.160003662  -999.250000  -999.250000  -999.250000  -999.250000 152.64511108 0.8796824217 15.640417099 0.9038499594 0.7993882895
 1300.3256836  -999.250000 18.136157990  -999.250000  -999.250000  -999.250000  -999.250000 152.91510010 0.8801026344 16.450513840 0.7599443197 0.8012686968
 1300.4780273  -999.250000 18.088127136  -999.250000  -999.250000  -999.250000  -999.250000 153.35256958 0.8814311028 16.375514984 0.6954958439 0.8007626534
 1300.6304932  -999.250000 18.034915924  -999.250000  -999.250000  -999.250000  -999.250000 153.71166992 0.8881286383 14.753025055 0.6530034542 0.8000410795
 1300.7828369  -999.250000 18.010627747  -999.250000  -999.250000  -999.250000  -999.250000 154.05010986 0.8961230516 15.057456970 0.7119548321 0.8003132343
 1300.9353027  -999.250000 18.126914978  -999.250000  -999.250000  -999.250000  -999.250000 152.95858765 0.8968703747 15.927498817 0.9188170433 0.8017969131
 1301.0876465  -999.250000 18.188125610  -999.250000  -999.250000  -999.250000  -999.250000 152.41815186 0.8892281055 15.203358650 0.8595044613 0.8037494421
 1301.2401123  -999.250000 18.129882813  -999.250000  -999.250000  -999.250000  -999.250000 152.63818359 0.8911297321 14.877074242 0.9676752090 0.8054498434
 1301.3924561  -999.250000 18.054367065  -999.250000  -999.250000  -999.250000  -999.250000 151.56964111 0.8984766006 14.223896980 1.0121042728 0.8066585064
 1301.5449219  -999.250000 18.095626831  -999.250000  -999.250000  -999.250000  -999.250000 151.00836182 0.9004136324 13.335109711 0.9688380957 0.8066205978
 1301.6972656  -999.250000 18.156887054  -999.250000  -999.250000  -999.250000  -999.250000 151.82440186 0.8932604790 13.467508316 0.9206100702 0.8048839569
 1301.8497314  -999.250000 18.155624390  -999.250000  -999.250000  -999.250000  -999.250000 153.17691040 0.8854985237 13.455120087 0.7992546558 0.8029503822
 1302.0020752  -999.250000 18.189414978  -999.250000  -999.250000  -999.250000  -999.250000 153.38015747 0.8893054724 14.052080154 0.6462967396 0.8019908667
 1302.1545410  -999.250000 18.128742218  -999.250000  -999.250000  -999.250000  -999.250000 152.48510742 0.8902719021 14.432715416 0.6370700598 0.8007408381
 1302.3068848  -999.250000 18.039379120  -999.250000  -999.250000  -999.250000  -999.250000 151.99533081 0.8813648224 15.075800896 0.7688603401 0.7970105410
 1302.4593506  -999.250000 18.055000305  -999.250000  -999.250000  -999.250000  -999.250000 151.33062744 0.8770064116 16.232967377 0.8266245127 0.7896138430
 1302.6116943  -999.250000 18.103157043  -999.250000  -999.250000  -999.250000  -999.250000 151.16339111 0.8781515360 16.705585480 0.8468937874 0.7808361053
 1302.7640381  -999.250000 18.083744049  -999.250000  -999.250000  -999.250000  -999.250000 151.50039673 0.8738696575 16.733778000 0.8921358585 0.7735562325
 1302.9165039  -999.250000 17.998722076  -999.250000  -999.250000  -999.250000  -999.250000 151.75946045 0.8675860167 17.465373993 0.8705377579 0.7682236433
 1303.0688477  -999.250000 17.928119659  -999.250000  -999.250000  -999.250000  -999.250000 151.89389038 0.8677607775 17.974681854 0.8328049183 0.7645945549
 1303.2213135  -999.250000 17.947589874  -999.250000  -999.250000  -999.250000  -999.250000 150.81152344 0.8673239946 17.261184692 0.7703504562 0.7636988163
 1303.3736572  -999.250000 18.097576141  -999.250000  -999.250000  -999.250000  -999.250000 149.37965393 0.8637336493 16.345470428 0.7896341085 0.7674638033
