# LAS format log file from PETREL
# Project units are specified as depth units
#==================================================================
~Version information
VERS.   2.0:
WRAP.   NO:
#==================================================================
~Well
STRT .m      212.75000000 :
STOP .m      3019.0000000 :
STEP .m     0.00000000 :
NULL .        -999.250000 :
COMP.           : COMPANY
WELL.  34/7-21   : WELL
FLD.            : FIELD
LOC.            : LOCATION
SRVC.           : SERVICE COMPANY
DATE.  2018-09-11 14:48:52   : Log Export Date {yyyy-MM-dd HH:mm:ss}
PROV.           : PROVINCE
UWI.   34/7-21   : UNIQUE WELL ID
API.            : API NUMBER
#==================================================================
~Curve
DEPT .m                   : DEPTH
Lithology_geolink ._      : Lithology_geolink
CALI .in                  : CALI
DRHO .g/cm3               : DRHO
NPHI .m3/m3               : NPHI
RHOB .g/cm3               : RHOB
PEF .b/e                  : PEF
GR .gAPI                  : GR
DTC .us/ft                : DTC
RDEP .ohm.m               : RDEP
SP .mV                    : SP
RSHA .ohm.m               : RSHA
RMED .ohm.m               : RMED
~Parameter
#==================================================================
~Ascii
# ...
 2870.7500000 2.0000000000 11.693317413 -0.015236942 0.2718802094 2.3186316490 9.1568298340 88.127410889 87.047958374 0.7935912609  -999.250000 0.3353561163 0.9246380329
 2870.8750000 2.0000000000 11.673647881 -0.011840364 0.2628559470 2.3123488426 9.0367145538 89.048294067 87.293273926 0.7929351330  -999.250000 0.3203581572 0.9281777143
 2871.0000000 2.0000000000 11.657219887 -0.012199925 0.2564395666 2.3069267273 8.9458465576 90.611755371 88.223846436 0.8000388145  -999.250000 0.3081773520 0.9302080870
 2871.1250000 2.0000000000 11.648317337 -0.016986825 0.2543888688 2.3021202087 8.8644218445 92.941574097 90.025329590 0.8098095655  -999.250000 0.2989566326 0.9301344156
 2871.2500000 2.0000000000 11.646997452 -0.023023911 0.2558127046 2.2954730988 8.7842082977 95.512466431 91.839538574 0.8156050444  -999.250000 0.2918274999 0.9289846420
 2871.3750000 2.0000000000 11.650217056 -0.028724149 0.2596557736 2.2845211029 8.7148265839 96.980834961 92.684570313 0.8078514338  -999.250000 0.2852725387 0.9242639542
 2871.5000000 2.0000000000 11.653367043 -0.032189190 0.2644686699 2.2694363594 8.6778736115 96.557037354 93.116828918 0.7862840891  -999.250000 0.2781024575 0.9115616083
 2871.6250000 2.0000000000 11.654574394 -0.031284295 0.2687366009 2.2534685135 8.6670360565 94.265304565 93.497528076 0.7559881210  -999.250000 0.2703177929 0.8881163597
 2871.7500000 2.0000000000 11.653591156 -0.026361465 0.2716668248 2.2406306267 8.6586818695 90.853713989 93.370178223 0.7255142927  -999.250000 0.2632104754 0.8569499254
 2871.8750000 2.0000000000 11.651485443 -0.019732237 0.2732109427 2.2335181236 8.6360206604 87.461624146 92.895820618 0.7033178806  -999.250000 0.2581192255 0.8293600082
 2872.0000000 2.0000000000 11.650064468 -0.013889546 0.2739307880 2.2331676483 8.6119899750 85.069931030 92.269584656 0.6893004179  -999.250000 0.2555452585 0.8163121939
 2872.1252441 2.0000000000 11.650300026 -0.010458173 0.2752665281 2.2374033928 8.6131954193 84.222061157 91.362594604 0.6816248894  -999.250000 0.2555726767 0.8227816820
 2872.2502441 2.0000000000 11.652223587 -0.010004107 0.2785118222 2.2418813705 8.6389007568 84.987335205 90.801475525 0.6797783375  -999.250000 0.2578886151 0.8473271132
 2872.3747559 2.0000000000 11.654798508 -0.012781966 0.2834559083 2.2447333336 8.6659355164 86.894851685 90.696411133 0.6872559786  -999.250000 0.2619609833 0.8824069500
 2872.5000000 2.0000000000 11.656715393 -0.017555680 0.2882110476 2.2461638451 8.6852340698 88.739471436 90.848800659 0.7044330835  -999.250000 0.2674380541 0.9137938023
 2872.6250000 2.0000000000 11.657652855 -0.021786980 0.2910622358 2.2470335960 8.7216510773 89.807601929 91.322746277 0.7285560369  -999.250000 0.2738756537 0.9326566458
 2872.7500000 2.0000000000 11.657957077 -0.023566756 0.2929870486 2.2475643158 8.7839107513 89.876815796 92.112976074 0.7523890734  -999.250000 0.2798733115 0.9360991716
 2872.8750000 2.0000000000 11.658340454 -0.023268491 0.2964398861 2.2474122047 8.8458805084 89.076629639 92.208068848 0.7654976845  -999.250000 0.2835446596 0.9258587360
 2873.0000000 2.0000000000 11.659151077 -0.023176141 0.3020883799 2.2463417053 8.8957386017 87.979232788 91.787399292 0.7652509212  -999.250000 0.2840468884 0.9105688334
 2873.1250000 2.0000000000 11.660147667 -0.024923272 0.3081524968 2.2446146011 8.9499244690 86.964920044 90.905548096 0.7522859573  -999.250000 0.2819576263 0.8948481083
 2873.2500000 2.0000000000 11.660933495 -0.027150530 0.3131409287 2.2428793907 9.0126914978 86.268463135 90.396163940 0.7292490005  -999.250000 0.2787462473 0.8803466558
 2873.3750000 2.0000000000 11.661634445 -0.027339470 0.3174724579 2.2417511940 9.0788936615 85.946044922 90.547271729 0.7007499933  -999.250000 0.2757277489 0.8660160303
 2873.5000000 2.0000000000 11.663003922 -0.024140008 0.3228803277 2.2415862083 9.1390266418 85.714767456 90.757507324 0.6752210855  -999.250000 0.2734088898 0.8507977724
 2873.6250000 2.0000000000 11.665253639 -0.019299723 0.3310932815 2.2421870232 9.1950492859 85.382110596 91.025238037 0.6601171494  -999.250000 0.2720689774 0.8364057541
 2873.7500000 2.0000000000 11.667600632 -0.015981078 0.3415524364 2.2432661057 9.2573223114 84.952392578 91.463508606 0.6608804464  -999.250000 0.2721503377 0.8271934986
 2873.8750000 2.0000000000 11.668233871 -0.015305871 0.3511682749 2.2450428009 9.3245658875 84.777862549 91.695869446 0.6798870564  -999.250000 0.2735696435 0.8301184177
 2874.0000000 2.0000000000 11.666206360 -0.017136395 0.3566831946 2.2472128868 9.3794384003 85.244140625 91.767684937 0.7074619532  -999.250000 0.2752464414 0.8446896076
 2874.1250000 2.0000000000 11.661624908 -0.020623937 0.3589459360 2.2481188774 9.4304561615 86.406982422 92.122291565 0.7342573404  -999.250000 0.2757239342 0.8663132191
 2874.2500000 2.0000000000 11.655931473 -0.024369929 0.3619305491 2.2458281517 9.4876537323 87.924743652 92.663482666 0.7523730993  -999.250000 0.2741888762 0.8862555027
 2874.3750000 2.0000000000 11.651446342 -0.026722349 0.3671726882 2.2400116920 9.5452327728 89.163970947 93.316085815 0.7580437660  -999.250000 0.2714485526 0.8940525055
 2874.5002441 2.0000000000 11.648927689 -0.026892111 0.3751609325 2.2327680588 9.5835990906 89.690689087 93.821517944 0.7592765093  -999.250000 0.2693763971 0.8911675215
 2874.6247559 2.0000000000 11.647876740 -0.025911219 0.3849262595 2.2274961472 9.6086006165 89.471923828 93.906906128 0.7646883726  -999.250000 0.2703171372 0.8853567839
 2874.7497559 2.0000000000 11.647535324 -0.024822950 0.3918464780 2.2269587517 9.6415271759 88.788146973 93.685531616 0.7801086903  -999.250000 0.2769808173 0.8864687681
 2874.8750000 2.0000000000 11.647125244 -0.023033790 0.3938955069 2.2321286201 9.6996536255 88.057495117 93.279083252 0.8071500063  -999.250000 0.2897304296 0.9033190012
 2875.0000000 2.0000000000 11.645912170 -0.019970190 0.3932079971 2.2409706116 9.7738380432 87.640289307 92.595169067 0.8378443718  -999.250000 0.3047379255 0.9317994118
 2875.1250000 2.0000000000 11.643650055 -0.016684532 0.3928941488 2.2481539249 9.8359470367 87.660934448 92.307701111 0.8622194529  -999.250000 0.3158437610 0.9619917870
 2875.2500000 2.0000000000 11.640610695 -0.015200912 0.3952968121 2.2491645813 9.8776245117 87.946304321 92.794433594 0.8690292835  -999.250000 0.3179638982 0.9787230492
 2875.3750000 2.0000000000 11.637180328 -0.016001139 0.4009078145 2.2445960045 9.9110774994 88.058807373 92.980895996 0.8478761911  -999.250000 0.3118489385 0.9640648365
 2875.5000000 2.0000000000 11.634191513 -0.018352412 0.4067987800 2.2394351959 9.9578113556 87.953582764 93.273025513 0.8095035553  -999.250000 0.3026796579 0.9249534607
 2875.6250000 2.0000000000 11.633039474 -0.021373022 0.4076088071 2.2383947372 10.019403458 88.046112061 94.007141113 0.7697921991  -999.250000 0.2950607538 0.8786910772
 2875.7500000 2.0000000000 11.635805130 -0.023576770 0.3994810581 2.2439389229 10.085969925 88.781906128 94.817230225 0.7478921413  -999.250000 0.2932960987 0.8485985994
 2875.8750000 2.0000000000 11.647905350 -0.023100004 0.3810850382 2.2605524063 10.145214081 90.236755371 95.097442627 0.7731186152  -999.250000 0.3037219644 0.8687371016
 2876.0000000 2.0000000000 11.671854019 -0.018459789 0.3543835580 2.2958140373 10.187698364 91.510009766 93.507644653 0.8668030500  -999.250000 0.3375937939 0.9622157812
 2876.1250000 2.0000000000 11.706045151 -0.009929145 0.3228824735 2.3533473015 10.211874008 91.654129028 89.121246338 1.0684046745  -999.250000 0.4165768027 1.1696364880
 2876.2500000 2.0000000000 11.743215561 0.0000192027 0.2893935442 2.4233794212 10.227615356 90.278884888 83.303466797 1.4357321262  -999.250000 0.5786169767 1.5538527966
 2876.3750000 16.000000000 11.774505615 0.0084513165 0.2569095492 2.4884443283 10.254283905 87.798614502 77.470489502 2.0328469276  -999.250000 0.8550107479 2.2075309753
 2876.5000000 16.000000000 11.802482605 0.0127618741 0.2303096652 2.5321435928 10.295005798 85.366500854 72.998184204 2.6536102295  -999.250000 1.2104117870 2.9425668716
 2876.6250000 2.0000000000 11.837661743 0.0129444096 0.2136244178 2.5517635345 10.317956924 83.640823364 71.458877563 2.9523625374  -999.250000 1.4919013977 3.3586621284
