# LAS format log file from PETREL
# Project units are specified as depth units
#==================================================================
~Version information
VERS.   2.0:
WRAP.   NO:
#==================================================================
~Well
STRT .m      806.37493896 :
STOP .m      2790.0000000 :
STEP .m     0.00000000 :
NULL .        -999.250000 :
COMP.           : COMPANY
WELL.  34/7-12   : WELL
FLD.            : FIELD
LOC.            : LOCATION
SRVC.           : SERVICE COMPANY
DATE.  2018-09-11 14:48:51   : Log Export Date {yyyy-MM-dd HH:mm:ss}
PROV.           : PROVINCE
UWI.   34/7-12   : UNIQUE WELL ID
API.            : API NUMBER
#==================================================================
~Curve
DEPT .m                   : DEPTH
Lithology_geolink ._      : Lithology_geolink
CALI .in                  : CALI
DRHO .g/cm3               : DRHO
NPHI .m3/m3               : NPHI
RHOB .g/cm3               : RHOB
GR .gAPI                  : GR
DTC .us/ft                : DTC
RDEP .ohm.m               : RDEP
SP .mV                    : SP
RSHA .ohm.m               : RSHA
RMED .ohm.m               : RMED
~Parameter
#==================================================================
~Ascii
# ...
 2126.0000000 13.000000000 13.657999992 -0.027000001 0.3375000060 2.2720000744 64.783996582 120.25399780 1.1009999514 9.4119997025 1.3020000458 1.3380000591
 2126.1250000 13.000000000 13.656000137 -0.027990235 0.3404200077 2.2730097771 66.497001648 121.39399719 1.0820000172 9.4130001068 1.2910000086 1.3140000105
 2126.2500000 13.000000000 13.652999878 -0.022984374 0.3412099779 2.2780117989 68.233001709 122.18900299 1.0640000105 9.4189996719 1.2810000181 1.3009999990
 2126.3750000 13.000000000 13.652000427 -0.014988281 0.3403500021 2.2840135098 69.460998535 122.66400146 1.0470000505 9.4320240021 1.2730000019 1.2940000296
 2126.5000000 13.000000000 13.653999329 -0.008994141 0.3394900262 2.2910134792 69.671997070 122.94699860 1.0310000181 9.4440116882 1.2680000067 1.2920000553
 2126.6250000 13.000000000 13.657999992 -0.005994141 0.3397000134 2.2980079651 69.015998840 123.10900116 1.0180000067 9.4499998093 1.2619999647 1.2940000296
 2126.7500000 13.000000000 13.661999702 -0.002988281 0.3411799967 2.3020038605 67.957000732 123.12000275 1.0089999437 9.4499979019 1.2569999695 1.2990000248
 2126.8750000 13.000000000 13.666999817 0.0030136718 0.3429399729 2.3039979935 67.384002686 122.94200134 1.0030000210 9.4489984512 1.2510000467 1.3029999733
 2127.0000000 13.000000000 13.668000221 0.0100097656 0.3441410065 2.3029961586 67.793998718 122.57399750 0.9980000257 9.4480018616 1.2460000515 1.3029999733
 2127.1250000 13.000000000 13.664999962 0.0149999997 0.3446514010 2.3009941578 69.098999023 122.12200165 0.9950000048 9.4490213394 1.2410000563 1.2999999523
 2127.2500000 13.000000000 13.659000397 0.0149999997 0.3453699946 2.2980000973 70.460998535 121.73300171 0.9900000095 9.4600000381 1.2359999418 1.2949999571
 2127.3750000 13.000000000 13.652000427 0.0089843748 0.3473500013 2.2949941158 70.970001221 121.56800079 0.9840000272 9.4899997711 1.2350000143 1.2899999619
 2127.5000000 13.000000000 13.647001266 0.0009843750 0.3506299853 2.2919962406 70.171997070 121.66999817 0.9779999852 9.5330781937 1.2369999886 1.2840000391
 2127.6250000 13.000000000 13.645000458 -0.007011719 0.3543299735 2.2900018692 68.527999878 122.07899475 0.9729999900 9.5730352402 1.2410000563 1.2769999504
 2127.7500000 13.000000000 13.645999908 -0.013007813 0.3571400046 2.2910037041 66.992996216 122.70200348 0.9689999819 9.5909824371 1.2469999790 1.2680000067
 2127.8750000 13.000000000 13.649999619 -0.017005861 0.3583900034 2.2930059433 66.386001587 123.44699860 0.9670000076 9.5819473267 1.2549999952 1.2580000162
 2128.0000000 13.000000000 13.653999329 -0.020003906 0.3581399918 2.2960038185 66.810997009 124.16799927 0.9670000076 9.5549478531 1.2640000582 1.2489999533
 2128.1250000 13.000000000 13.656000137 -0.022003906 0.3572084606 2.2980020046 67.653999329 124.73200226 0.9710000157 9.5279493332 1.2690000534 1.2410000563
 2128.2500000 13.000000000 13.656999588 -0.024000000 0.3564198315 2.2990000248 68.342002869 124.98899841 0.9800000191 9.5019311905 1.2719999552 1.2359999418
 2128.3750000 13.000000000 13.656999588 -0.024000000 0.3563399911 2.2990000248 68.719001770 124.88899994 0.9959999919 9.4670000076 1.2819999456 1.2350000143
 2128.5000000 13.000000000 13.656000137 -0.021988282 0.3564800024 2.3000116348 68.988998413 124.52700043 1.0160000324 9.4200000763 1.2949999571 1.2359999418
 2128.6250000 13.000000000 13.654999733 -0.015988283 0.3550899923 2.3060252666 69.582000732 123.92099762 1.0410000086 9.3540000916 1.3389999866 1.2410000563
 2128.7500000 13.000000000 13.656000137 -0.009994141 0.3498600125 2.3190371990 70.625999451 123.10800171 1.0700000525 9.2778415680 1.3949999809 1.2480000257
 2128.8750000 13.000000000 13.659999847 -0.007000000 0.3400799930 2.3380448818 71.837997437 121.92299652 1.0989999771 9.1968431473 1.4149999619 1.2649999857
 2129.0000000 13.000000000 13.664999962 -0.007001953 0.3271600008 2.3610312939 72.408996582 120.04900360 1.1269999743 9.1168651581 1.4190000296 1.3049999475
 2129.1250000 13.000000000 13.668000221 -0.008001953 0.3161500096 2.3770060539 71.930999756 117.71299744 1.1510000229 9.0479145050 1.4240000248 1.3669999838
 2129.2500000 13.000000000 13.664999962 -0.009000000 0.3114199936 2.3799748421 70.052001953 115.28500366 1.1740000248 9.0039997101 1.4299999475 1.4459999800
 2129.3750000 13.000000000 13.652999878 -0.008998047 0.3144551218 2.3669571877 67.654998779 113.58599854 1.1940000057 9.0040874481 1.4329999685 1.5049999952
 2129.5000000 13.000000000 13.633000374 -0.008000000 0.3221886754 2.3449590206 65.611999512 112.99199677 1.2130000591 9.0492105484 1.4349999428 1.5249999762
 2129.6250000 13.000000000 13.605999947 -0.008001953 0.3317500055 2.3239724636 64.990997314 113.87799835 1.2239999771 9.1569995880 1.4329999685 1.4989999533
 2129.7500000 13.000000000 13.578999519 -0.009003906 0.3395399749 2.3099882603 65.402999878 115.44400024 1.2280000448 9.3109998703 1.4279999733 1.4620000124
 2129.8750000 13.000000000 13.553000450 -0.011007813 0.3445500135 2.3039979935 66.496002197 117.14299774 1.2230000496 9.5104417801 1.4270000458 1.4329999685
 2130.0000000 13.000000000 13.528000832 -0.015011718 0.3464400172 2.3029999733 67.513999939 118.45099640 1.2109999657 9.7364282608 1.4270000458 1.4160000086
 2130.1250000 13.000000000 13.505999565 -0.021013672 0.3466099799 2.3030018806 68.142997742 119.32800293 1.1979999542 9.9553356171 1.4270000458 1.4040000439
 2130.2500000 13.000000000 13.487999916 -0.028007813 0.3452900052 2.3039999008 68.263999939 119.83599854 1.1859999895 10.127179146 1.4270000458 1.3880000114
 2130.3750000 13.000000000 13.475999832 -0.032001954 0.3434299827 2.3040018082 68.202003479 120.15100098 1.1779999733 10.218972206 1.4279999733 1.3730000257
 2130.5000000 13.000000000 13.469999313 -0.032996092 0.3419297338 2.3050000668 68.064002991 120.30599976 1.1720000505 10.204709053 1.4299999475 1.3630000353
 2130.6250000 13.000000000 13.468000412 -0.030994151 0.3417922854 2.3050000668 67.841003418 120.27999878 1.1679999828 10.055450439 1.4370000362 1.3650000095
 2130.7500000 13.000000000 13.465000153 -0.028000001 0.3429499865 2.3050000668 67.573997498 120.13899994 1.1649999619 9.7740001678 1.4459999800 1.3769999743
 2130.8750000 13.000000000 13.461000443 -0.026000001 0.3450900018 2.3039960861 67.170997620 120.02100372 1.1629999876 9.3760004044 1.4559999704 1.3940000534
 2131.0000000 13.000000000 13.458000183 -0.026001954 0.3471799791 2.3019940853 66.607002258 120.06300354 1.1640000343 8.9352283478 1.4650000334 1.4029999971
 2131.1250000 13.000000000 13.456999779 -0.027003907 0.3483000100 2.2989921570 66.250999451 120.35099792 1.1679999828 8.5404472351 1.4720000029 1.3980000019
 2131.2500000 13.000000000 13.456999779 -0.029007811 0.3477600217 2.2949922085 66.583000183 120.87000275 1.1749999523 8.2576684952 1.4780000448 1.3819999695
 2131.3750000 13.000000000 13.449998856 -0.033017579 0.3457300067 2.2909939289 67.624000549 121.51399231 1.1840000153 8.0878696442 1.4830000401 1.3650000095
 2131.5000000 13.000000000 13.429000854 -0.042017579 0.3427599967 2.2880020142 68.952003479 122.13999939 1.1950000525 8.0210189819 1.4859999418 1.3559999466
 2131.6250000 13.000000000 13.394000053 -0.051015623 0.3390899897 2.2890214920 69.972999573 122.56600189 1.2089999914 8.0312166214 1.4800000191 1.3550000191
 2131.7500000 13.000000000 13.354001045 -0.059013646 0.3344685733 2.3000428677 70.279998779 122.51799774 1.2239999771 8.1424112320 1.4709999561 1.3559999466
 2131.8750000 13.000000000 13.319999695 -0.066000000 0.3286100030 2.3220000267 69.764999390 121.79000092 1.2389999628 8.3529996872 1.4659999609 1.3600000143
 2132.0000000 13.000000000 13.300000191 -0.066982426 0.3221400082 2.3530566692 68.648002625 120.49900055 1.2519999743 8.6180000305 1.4639999866 1.3719999790
 2132.1250000 13.000000000 13.289999962 -0.057966795 0.3165099919 2.3820252419 67.301002502 118.85900116 1.2630000114 8.8669996262 1.4680000544 1.3980000019
 2132.2500000 13.000000000 13.285999298 -0.040972658 0.3132700026 2.3949842453 66.180000305 117.45899963 1.2730000019 9.0472030640 1.4739999771 1.4320000410
