# LAS format log file from PETREL
# Project units are specified as depth units
#==================================================================
~Version information
VERS.   2.0:
WRAP.   NO:
#==================================================================
~Well
STRT .m      1820.5001221 :
STOP .m      3000.6250000 :
STEP .m     0.00000000 :
NULL .        -999.250000 :
COMP.           : COMPANY
WELL.  34/7-13   : WELL
FLD.            : FIELD
LOC.            : LOCATION
SRVC.           : SERVICE COMPANY
DATE.  2018-09-11 14:48:51   : Log Export Date {yyyy-MM-dd HH:mm:ss}
PROV.           : PROVINCE
UWI.   34/7-13   : UNIQUE WELL ID
API.            : API NUMBER
#==================================================================
~Curve
DEPT .m                   : DEPTH
Lithology_geolink ._      : Lithology_geolink
CALI .in                  : CALI
BS .in                    : BS
DRHO .g/cm3               : DRHO
NPHI .m3/m3               : NPHI
RHOB .g/cm3               : RHOB
GR .gAPI                  : GR
DTC .us/ft                : DTC
RDEP .ohm.m               : RDEP
SP .mV                    : SP
RSHA .ohm.m               : RSHA
RMED .ohm.m               : RMED
~Parameter
#==================================================================
~Ascii
 1820.5001221  -999.250000 12.779999733  -999.250000  -999.250000 0.3734999895 2.2000000477 65.683998108 141.15193176 0.6669999957 38.229000092 0.7230457067 0.7229921818
 1820.6250000  -999.250000 12.779999733  -999.250000  -999.250000 0.3734999895 2.2000000477 65.597084045 139.06700134 0.6580087543 38.717998505 0.7188069820 0.7189999819
 1820.7500000  -999.250000 12.779999733  -999.250000  -999.250000 0.3734999895 2.2000000477 65.552047729 136.52000427 0.6570009589 38.977001190 0.7131130099 0.7129999995
 1820.8750000  -999.250000 12.779999733  -999.250000  -999.250000 0.3734999895 2.2000000477 65.682998657 134.32000732 0.6660000086 39.124000549 0.7084879875 0.7080000043
 1821.0000000  -999.250000 12.779999733  -999.250000  -999.250000 0.3734999895 2.2000000477 65.986999512 132.68400574 0.6809999943 39.410999298 0.7077230215 0.7080000043
 1821.1250000  -999.250000 12.779999733  -999.250000  -999.250000 0.3734999895 2.2000000477 66.306999207 131.72000122 0.6999999881 40.033000946 0.7106609941 0.7110000253
 1821.2500000  -999.250000 12.779999733  -999.250000  -999.250000 0.3734999895 2.2000000477 66.370002747 131.34100342 0.7210000157 41.050998688 0.7149879932 0.7149999738
 1821.3750000  -999.250000 12.779999733  -999.250000  -999.250000 0.3734999895 2.2000000477 65.933998108 131.38099670 0.7400000095 42.362998962 0.7179039717 0.7179999948
 1821.5000000  -999.250000 12.779999733  -999.250000  -999.250000 0.3734999895 2.2000000477 64.988998413 131.69737244 0.7540000081 43.777999878 0.7165274024 0.7169951200
 1821.6251221  -999.250000 12.779999733  -999.250000  -999.250000 0.3734999895 2.2000000477 63.875999451 132.06758118 0.7630000114 45.158000946 0.7118202448 0.7119882703
 1821.7498779  -999.250000 12.779999733  -999.250000  -999.250000 0.3734999895 2.2000000477 63.167388916 132.36599731 0.7649960518 46.395999908 0.7063310146 0.7059999704
 1821.8750000  -999.250000 12.779999733  -999.250000  -999.250000 0.3734999895 2.2000000477 63.312854767 132.48599243 0.7640009522 47.325000763 0.7035310268 0.7039999962
 1822.0000000  -999.250000 12.779999733  -999.250000  -999.250000 0.3734999895 2.2000000477 64.312026978 132.36900330 0.7610028982 47.768001556 0.7052159905 0.7049999833
 1822.1250000  -999.250000 12.779999733  -999.250000  -999.250000 0.3734999895 2.2000000477 65.624000549 131.99899292 0.7609999776 47.874000549 0.7112830281 0.7110000253
 1822.2500000  -999.250000 12.779999733  -999.250000  -999.250000 0.3734999895 2.2000000477 66.440002441 131.50399780 0.7639999986 47.944000244 0.7185320258 0.7179999948
 1822.3750000  -999.250000 12.779999733  -999.250000  -999.250000 0.3734999895 2.2000000477 66.167999268 130.82000732 0.7720000148 48.326999664 0.7214699984 0.7210000157
 1822.5000000  -999.250000 12.779999733  -999.250000  -999.250000 0.3734999895 2.2000000477 64.763000488 129.26300049 0.7820000052 49.284999847 0.7179179788 0.7179999948
 1822.6250000  -999.250000 12.779999733  -999.250000  -999.250000 0.3734999895 2.2000000477 62.727001190 126.23023987 0.7870000005 50.655998230 0.7102213502 0.7099941373
 1822.7501221  -999.250000 12.779999733  -999.250000  -999.250000 0.3734999895 2.2000000477 60.768001556 121.34684753 0.7879999876 52.146999359 0.7044082880 0.7040019631
 1822.8748779  -999.250000 12.779999733  -999.250000  -999.250000 0.3734999895 2.2000000477 59.383708954 115.64900208 0.7860039473 53.393001556 0.7045519948 0.7049999833
 1823.0000000  -999.250000 12.779999733  -999.250000  -999.250000 0.3734999895 2.2000000477 58.613750458 110.26599884 0.7790068388 53.970001221 0.7094879746 0.7089999914
 1823.1250000  -999.250000 12.779999733  -999.250000  -999.250000 0.3736997843 2.2000000477 58.207397461 106.30699158 0.7670117617 53.780998230 0.7156249881 0.7160000205
 1823.2500000  -999.250000 12.779999733  -999.250000  -999.250000 0.3742794394 2.2000000477 57.945999146 103.94899750 0.7519999743 52.944000244 0.7187830210 0.7189999819
 1823.3750000  -999.250000 12.779999733  -999.250000  -999.250000 0.3746896386 2.2000000477 57.859001160 102.85299683 0.7369999886 51.833000183 0.7167230248 0.7170000076
 1823.5000000  -999.250000 12.779999733  -999.250000  -999.250000 0.3747799098 2.2000000477 58.131999969 102.27799988 0.7250000238 50.944999695 0.7124069929 0.7120000124
 1823.6250000  -999.250000 12.779999733  -999.250000  -999.250000 0.3744203746 2.2000000477 58.819000244 102.03399658 0.7189999819 50.473999023 0.7073739767 0.7070000172
 1823.7500000  -999.250000 12.779999733  -999.250000  -999.250000 0.3735616505 2.2000000477 59.685001373 102.02799988 0.7210000157 50.408000946 0.7035160065 0.7039999962
 1823.8750000  -999.250000 12.779999733  -999.250000  -999.250000 0.3726018667 2.2000000477 60.369998932 102.07401276 0.7289999723 50.655998230 0.6987123489 0.6989941597
 1824.0001221  -999.250000 12.779999733  -999.250000  -999.250000 0.3721200228 2.2000000477 60.674999237 102.09114075 0.7429999709 51.138999939 0.6928875446 0.6929922104
 1824.1248779  -999.250000 12.779999733  -999.250000  -999.250000 0.3726889193 2.2000000477 60.666019440 102.16300201 0.7609648108 51.775001526 0.6890659928 0.6890000105
 1824.2500000  -999.250000 12.779999733  -999.250000  -999.250000 0.3744083643 2.2000000477 60.490173340 102.31900024 0.7809804678 52.506999969 0.6905750036 0.6909999847
 1824.3750000  -999.250000 12.779999733  -999.250000  -999.250000 0.3772272468 2.2000000477 60.160999298 102.21899414 0.8040000200 53.250000000 0.6991509795 0.6990000010
 1824.5000000  -999.250000 12.779999733  -999.250000  -999.250000 0.3802470565 2.2000000477 59.543998718 101.38400269 0.8330000043 53.888000488 0.7132629752 0.7129999995
 1824.6250000  -999.250000 12.779999733  -999.250000  -999.250000 0.3821081817 2.2000000477 58.539001465 99.544006348 0.8769999743 54.365001678 0.7300350070 0.7300000191
 1824.7500000  -999.250000 12.779999733  -999.250000  -999.250000 0.3813407421 2.2000000477 57.215000153 97.202003479 0.9430000186 54.636001587 0.7464870214 0.7469999790
 1824.8750000  -999.250000 12.779999733  -999.250000  -999.250000 0.3772839606 2.2000000477 55.742000580 95.063003540 1.0310000181 54.681999207 0.7648850083 0.7649999857
 1825.0000000  -999.250000 12.779999733  -999.250000  -999.250000 0.3703535199 2.2000000477 54.243999481 93.879547119 1.1360000372 54.602001190 0.7944498658 0.7950400710
 1825.1251221  -999.250000 12.779999733  -999.250000  -999.250000 0.3627199829 2.2000000477 52.790000916 93.425399780 1.2400000095 54.662998199 0.8363572359 0.8361054659
 1825.2498779  -999.250000 12.779999733  -999.250000  -999.250000 0.3571009934 2.2000000477 51.567390442 93.623001099 1.3258320093 55.070999146 0.8901600242 0.8899999857
 1825.3750000  -999.250000 12.779999733  -999.250000  -999.250000 0.3564705849 2.2000000477 50.918632507 94.496002197 1.3869403601 55.823001862 0.9415429831 0.9419999719
 1825.5000000  -999.250000 12.779999733  -999.250000  -999.250000 0.3601164222 2.2000000477 51.182739258 96.497001648 1.4219658375 56.525001526 0.9716680050 0.9710000157
 1825.6250000  -999.250000 12.779999733  -999.250000  -999.250000 0.3665637374 2.2000000477 52.411998749 100.32500458 1.4249999523 56.630001068 0.9638180137 0.9639999866
 1825.7500000  -999.250000 12.779999733  -999.250000  -999.250000 0.3725641370 2.2000000477 54.287998199 105.77200317 1.3930000067 55.859001160 0.9244620204 0.9240000248
 1825.8750000  -999.250000 12.779999733  -999.250000  -999.250000 0.3766859770 2.2000000477 56.303001404 112.12899780 1.3250000477 54.328998566 0.8715350032 0.8719999790
 1826.0000000  -999.250000 12.779999733  -999.250000  -999.250000 0.3789677620 2.2000000477 58.018001556 118.38899994 1.2239999771 52.555000305 0.8234609962 0.8240000010
 1826.1250000  -999.250000 12.779999733  -999.250000  -999.250000 0.3804970086 2.2009999752 59.222000122 123.72661591 1.1109999418 51.090999603 0.7875446081 0.7879794836
 1826.2500000  -999.250000 12.779999733  -999.250000  -999.250000 0.3820369840 2.2019999027 59.952999115 127.42640686 1.0089999437 50.157001495 0.7666882277 0.7669902444
 1826.3748779  -999.250000 12.779999733  -999.250000  -999.250000 0.3835570216 2.2019999027 60.419086456 129.88299561 0.9231677651 49.743999481 0.7566679716 0.7570000291
