# LAS format log file from PETREL
# Project units are specified as depth units
#==================================================================
~Version information
VERS.   2.0:
WRAP.   NO:
#==================================================================
~Well
STRT .m      806.37493896 :
STOP .m      2790.0000000 :
STEP .m     0.00000000 :
NULL .        -999.250000 :
COMP.           : COMPANY
WELL.  34/7-12   : WELL
FLD.            : FIELD
LOC.            : LOCATION
SRVC.           : SERVICE COMPANY
DATE.  2018-09-11 14:48:51   : Log Export Date {yyyy-MM-dd HH:mm:ss}
PROV.           : PROVINCE
UWI.   34/7-12   : UNIQUE WELL ID
API.            : API NUMBER
#==================================================================
~Curve
DEPT .m                   : DEPTH
Lithology_geolink ._      : Lithology_geolink
CALI .in                  : CALI
DRHO .g/cm3               : DRHO
NPHI .m3/m3               : NPHI
RHOB .g/cm3               : RHOB
GR .gAPI                  : GR
DTC .us/ft                : DTC
RDEP .ohm.m               : RDEP
SP .mV                    : SP
RSHA .ohm.m               : RSHA
RMED .ohm.m               : RMED
~Parameter
#==================================================================
~Ascii
# ...
 1329.1250000  -999.250000 17.461999893 -0.065002926  -999.250000 2.0730068684 66.933738708 143.97138977 0.8429999948  -999.250000 0.4009999931 0.8999999762
 1329.2498779  -999.250000 17.445999146 -0.068000004  -999.250000 2.0799999237 66.670997620 145.38800049 0.8399999738  -999.250000 0.4009999931 0.8980000019
 1329.3748779  -999.250000 17.492000580 -0.064999998  -999.250000 2.0869998932 66.671997070 147.55000305 0.8429999948  -999.250000 0.4020000100 0.8870000243
 1329.4998779  -999.250000 17.586000443 -0.059000000  -999.250000 2.0929999352 66.987998962 150.41499329 0.8470000029  -999.250000 0.4020000100 0.8669999838
 1329.6250000  -999.250000 17.634000778 -0.052000001  -999.250000 2.0940001011 67.328002930 151.70399475 0.8420000076  -999.250000 0.4029999971 0.8579999804
 1329.7500000  -999.250000 17.642999649 -0.044000000  -999.250000 2.0950000286 67.554000854 152.39399719 0.8280000091  -999.250000 0.4029999971 0.8550000191
 1329.8750000  -999.250000 17.607000351 -0.036995117  -999.250000 2.1010117531 67.646003723 152.58799744 0.8050000072  -999.250000 0.4020000100 0.8560000062
 1330.0000000  -999.250000 17.517999649 -0.032000978  -999.250000 2.1130058765 67.584999084 151.99626160 0.7710000277  -999.250000 0.4009999931 0.8619999886
 1330.1250000  -999.250000 17.481000900 -0.033001952  -999.250000 2.1190028191 67.449836731 151.25132751 0.7580000162  -999.250000 0.4000000060 0.8600000143
 1330.2500000  -999.250000 17.486000061 -0.035000976  -999.250000 2.1219961643 67.283767700 150.56172180 0.7519999743  -999.250000 0.3980000019 0.8560000062
 1330.3748779  -999.250000 17.554000854 -0.035999998  -999.250000 2.1180000305 67.051002502 150.28399658 0.7549970746  -999.250000 0.3970009983 0.8479999900
 1330.4998779  -999.250000 17.673000336 -0.037000000  -999.250000 2.1050000191 66.773002625 150.81100464 0.7659999728  -999.250000 0.3959999979 0.8379999995
 1330.6248779  -999.250000 17.749000549 -0.037999999  -999.250000 2.0950000286 66.716003418 151.59800720 0.7749999762  -999.250000 0.3939999938 0.8349999785
 1330.7498779  -999.250000 17.780000687 -0.045000002  -999.250000 2.0850000381 66.914001465 152.33299255 0.7820000052  -999.250000 0.3930000067 0.8379999995
 1330.8750000  -999.250000 17.745000839 -0.064000003  -999.250000 2.0729999542 67.484001160 152.29200745 0.7879999876  -999.250000 0.3919999897 0.8450000286
 1331.0000000  -999.250000 17.608999252 -0.097016603  -999.250000 2.0599999428 68.516998291 150.68099976 0.7919999957  -999.250000 0.3910000026 0.8550000191
 1331.1250000  -999.250000 17.488000870 -0.114009768  -999.250000 2.0600047112 68.902999878 148.21600342 0.7969999909  -999.250000 0.3919999897 0.8539999723
 1331.2500000  -999.250000 17.378999710 -0.123999998  -999.250000 2.0650079250 68.958999634 145.17947388 0.8059999943  -999.250000 0.3930000067 0.8460000157
 1331.3750000  -999.250000 17.292999268 -0.123989254  -999.250000 2.0730097294 68.522125244 141.57504272 0.8220000267  -999.250000 0.3950000107 0.8309999704
 1331.4998779  -999.250000 17.232999802 -0.112999998  -999.250000 2.0829999447 67.625999451 137.53500366 0.8459765911  -999.250000 0.3969980478 0.8109999895
 1331.6248779  -999.250000 17.224000931 -0.107000001  -999.250000 2.0869998932 67.035003662 136.60099792 0.8600000143  -999.250000 0.3980000019 0.8080000281
 1331.7498779  -999.250000 17.242000580 -0.105999999  -999.250000 2.0889999866 66.601997375 137.31799316 0.8669999838  -999.250000 0.4000000060 0.8149999976
 1331.8748779  -999.250000 17.278999329 -0.104000002  -999.250000 2.0899999142 66.083000183 139.97999573 0.8629999757  -999.250000 0.4000000060 0.8299999833
 1332.0000000  -999.250000 17.343000412 -0.097999997  -999.250000 2.0910000801 65.237998962 144.39599609 0.8460000157  -999.250000 0.4009999931 0.8470000029
 1332.1250000  -999.250000 17.375000000 -0.093999997  -999.250000 2.0899999142 64.443000793 146.13099670 0.8280000091  -999.250000 0.4009999931 0.8439999819
 1332.2500000  -999.250000 17.385000229 -0.094005853  -999.250000 2.0879981518 63.562999725 146.53799438 0.8109999895  -999.250000 0.4020000100 0.8309999704
 1332.3750000  -999.250000 17.346000671 -0.100011721  -999.250000 2.0860009193 62.516998291 145.01623535 0.7950000167  -999.250000 0.4009999931 0.8069999814
 1332.5000000  -999.250000 17.225999832 -0.112001956  -999.250000 2.0870046616 61.215522766 140.13781738 0.7820000052  -999.250000 0.4000000060 0.7670000196
 1332.6250000  -999.250000 17.135000229 -0.113998048  -999.250000 2.0920059681 60.727939606 136.87759399 0.7770000100  -999.250000 0.3980000019 0.7480000257
 1332.7498779  -999.250000 17.080999374 -0.112000003  -999.250000 2.0980000496 60.666000366 134.41900635 0.7749999762  -999.250000 0.3950000107 0.7350000143
 1332.8748779  -999.250000 17.090999603 -0.109999999  -999.250000 2.1029999256 60.958999634 133.85000610 0.7749999762  -999.250000 0.3899999857 0.7319999933
 1332.9998779  -999.250000 17.173000336 -0.112000003  -999.250000 2.1029999256 61.485000610 135.67999268 0.7770000100  -999.250000 0.3840000033 0.7379999757
 1333.1250000  -999.250000 17.245000839 -0.116999999  -999.250000 2.0940001011 61.904998779 138.43400574 0.7810000181  -999.250000 0.3810000122 0.7490000129
 1333.2500000  -999.250000 17.299999237 -0.120999999  -999.250000 2.0799999237 62.410999298 141.33599854 0.7860000134  -999.250000 0.3779999912 0.7599999905
 1333.3750000  -999.250000 17.337999344 -0.120989256  -999.250000 2.0629832745 62.958999634 143.66799927 0.7910000086  -999.250000 0.3790000081 0.7680000067
 1333.5000000  -999.250000 17.371999741 -0.109988280  -999.250000 2.0459990501 63.338001251 144.42146301 0.7969999909  -999.250000 0.3799999952 0.7699999809
 1333.6250000  -999.250000 17.399999619 -0.097989254  -999.250000 2.0450038910 63.090526581 142.83979797 0.7990000248  -999.250000 0.3819999993 0.7680000067
 1333.7500000  -999.250000 17.424999237 -0.086998045  -999.250000 2.0490047932 62.605648041 140.59661865 0.8019999862  -999.250000 0.3829999864 0.7670000196
 1333.8748779  -999.250000 17.423000336 -0.085000001  -999.250000 2.0539999008 62.245998383 138.15899658 0.8069950938  -999.250000 0.3810019791 0.7699999809
 1333.9998779  -999.250000 17.386999130 -0.100000001  -999.250000 2.0590000153 62.353000641 136.44099426 0.8149999976  -999.250000 0.3770000041 0.7760000229
 1334.1248779  -999.250000 17.368000031 -0.112000003  -999.250000 2.0590000153 62.839000702 137.13000488 0.8190000057  -999.250000 0.3759999871 0.7770000100
 1334.2498779  -999.250000 17.402000427 -0.115000002  -999.250000 2.0550000668 63.285999298 139.20300293 0.8169999719  -999.250000 0.3750000000 0.7770000100
 1334.3750000  -999.250000 17.524999619 -0.105999999  -999.250000 2.0469999313 63.636001587 142.64799500 0.8069999814  -999.250000 0.3770000041 0.7779999971
 1334.5000000  -999.250000 17.777999878 -0.085995123  -999.250000 2.0299901962 64.153999329 148.00500488 0.7829999924  -999.250000 0.3799999952 0.7839999795
 1334.6250000  -999.250000 17.909000397 -0.081001952  -999.250000 2.0199930668 65.002998352 150.38499451 0.7670000196  -999.250000 0.3829999864 0.7900000215
 1334.7500000  -999.250000 17.962999344 -0.083007813  -999.250000 2.0129981041 66.147003174 152.09391785 0.7530000210  -999.250000 0.3860000074 0.7940000296
 1334.8750000  -999.250000 17.920000076 -0.091008790  -999.250000 2.0110068321 67.381690979 153.02844238 0.7459999919  -999.250000 0.3889999986 0.7910000086
 1334.9998779  -999.250000 17.826000214 -0.100000001  -999.250000 2.0179998875 68.094001770 153.48100281 0.7450009584  -999.250000 0.3909980357 0.7739999890
 1335.1248779  -999.250000 17.804000854 -0.100000001  -999.250000 2.0269999504 67.632003784 153.86000061 0.7490000129  -999.250000 0.3919999897 0.7639999986
 1335.2498779  -999.250000 17.850999832 -0.097999997  -999.250000 2.0360000134 66.522003174 154.62800598 0.7530000210  -999.250000 0.3919999897 0.7620000243
 1335.3748779  -999.250000 17.916000366 -0.101999998  -999.250000 2.0399999619 65.263000488 155.75199890 0.7570000291  -999.250000 0.3919999897 0.7720000148
