# LAS format log file from PETREL
# Project units are specified as depth units
#==================================================================
~Version information
VERS.   2.0:
WRAP.   NO:
#==================================================================
~Well
STRT .m      1820.5001221 :
STOP .m      3000.6250000 :
STEP .m     0.00000000 :
NULL .        -999.250000 :
COMP.           : COMPANY
WELL.  34/7-13   : WELL
FLD.            : FIELD
LOC.            : LOCATION
SRVC.           : SERVICE COMPANY
DATE.  2018-09-11 14:48:51   : Log Export Date {yyyy-MM-dd HH:mm:ss}
PROV.           : PROVINCE
UWI.   34/7-13   : UNIQUE WELL ID
API.            : API NUMBER
#==================================================================
~Curve
DEPT .m                   : DEPTH
Lithology_geolink ._      : Lithology_geolink
CALI .in                  : CALI
BS .in                    : BS
DRHO .g/cm3               : DRHO
NPHI .m3/m3               : NPHI
RHOB .g/cm3               : RHOB
GR .gAPI                  : GR
DTC .us/ft                : DTC
RDEP .ohm.m               : RDEP
SP .mV                    : SP
RSHA .ohm.m               : RSHA
RMED .ohm.m               : RMED
~Parameter
#==================================================================
~Ascii
# ...
 2132.5000000  -999.250000 13.208999634 12.250000954 0.0179999992 0.2966200113 2.3770000935 96.335998535 119.67400360 1.0180000067 17.010000229 2.3459999561 2.3459999561
 2132.6250000  -999.250000 13.201999664 12.250000954 0.0199961010 0.2985163033 2.3670196533 96.958000183 118.91899872 1.0240000486 16.729999542 2.3750000000 2.3750000000
 2132.7500000  -999.250000 13.196999550 12.250000954 0.0230000000 0.2997575700 2.3589999676 96.917999268 118.66200256 1.0319999456 16.305999756 2.3750000000 2.3750000000
 2132.8750000  -999.250000 13.192999840 12.250000954 0.0240000002 0.2995703518 2.3550000191 96.267997742 118.90799713 1.0399999619 15.777999878 2.3540000916 2.3540000916
 2133.0000000  -999.250000 13.192999840 12.250000954 0.0240000002 0.2976238132 2.3519999981 95.290000916 119.52999878 1.0490000248 15.262999535 2.3239998817 2.3239998817
 2133.1250000  -999.250000 13.193999290 12.250000954 0.0219999999 0.2945659757 2.3499999046 94.315002441 120.04499817 1.0570000410 14.975000381 2.3099999428 2.3099999428
 2133.2500000  -999.250000 13.194999695 12.250000954 0.0199999996 0.2912165523 2.3480000496 93.595001221 120.11299896 1.0640000105 15.052000046 2.3280000687 2.3280000687
 2133.3750000  -999.250000 13.193999290 12.250000954 0.0199999996 0.2883755565 2.3459999561 93.295997620 119.52899933 1.0709999800 15.612999916 2.3789999485 2.3789999485
 2133.5000000  -999.250000 13.192999840 12.250000954 0.0189999994 0.2862441838 2.3450000286 93.495002747 118.47899628 1.0779999495 16.504999161 2.4419999123 2.4419999123
 2133.6250000  -999.250000 13.192999840 12.250000954 0.0179999992 0.2851199806 2.3469998837 94.068000793 117.30999756 1.0880000591 17.525999069 2.4879999161 2.4879999161
 2133.7500000  -999.250000 13.192999840 12.250000954 0.0170000009 0.2847599983 2.3499999046 94.575996399 116.49400330 1.1000000238 18.367000580 2.5050001144 2.5050001144
 2133.8750000  -999.250000 13.194999695 12.250000954 0.0160019509 0.2850793600 2.3539922237 94.442001343 116.15799713 1.1109999418 18.857000351 2.5109999180 2.5109999180
 2134.0000000  -999.250000 13.196000099 12.250000954 0.0149999997 0.2854792178 2.3580000401 93.422996521 116.26100159 1.1189999580 18.836000443 2.5460000038 2.5460000038
 2134.1250000  -999.250000 13.196000099 12.250000954 0.0130000003 0.2853103280 2.3640000820 91.942001343 116.41500092 1.1219999790 18.639999390 2.6240000725 2.6240000725
 2134.2500000  -999.250000 13.193999290 12.250000954 0.0120000001 0.2845215499 2.3699998856 90.850997925 116.40499878 1.1200000048 18.554000854 2.7030000687 2.7019999027
 2134.3750000  -999.250000 13.190999985 12.250000954 0.0140000004 0.2840608954 2.3729999065 90.764999390 116.25099945 1.1160000563 18.775999069 2.6989998817 2.6989998817
 2134.5000000  -999.250000 13.185999870 12.250000954 0.0179999992 0.2846089303 2.3729999065 91.578002930 116.18299866 1.1119999886 19.221000671 2.6129999161 2.6129999161
 2134.6250000  -999.250000 13.180999756 12.250000954 0.0209999997 0.2864863276 2.3650000095 92.630996704 116.43699646 1.1089999676 19.672000885 2.4849998951 2.4849998951
 2134.7500000  -999.250000 13.178000450 12.250000954 0.0209999997 0.2885299921 2.3550000191 93.319999695 116.98999786 1.1050000191 19.857000351 2.3849999905 2.3849999905
 2134.8750000  -999.250000 13.175000191 12.250000954 0.0179999992 0.2897199988 2.3469998837 93.543998718 117.65799713 1.1000000238 19.667999268 2.3320000172 2.3320000172
 2135.0000000  -999.250000 13.173000336 12.250000954 0.0150058474 0.2896002233 2.3420097828 93.625000000 118.30999756 1.0920000076 19.212999344 2.3239998817 2.3239998817
 2135.1250000  -999.250000 13.171999931 12.250000954 0.0140000004 0.2884123325 2.3399999142 93.891998291 118.82800293 1.0809999704 18.809999466 2.3329999447 2.3329999447
 2135.2500000  -999.250000 13.173998833 12.250000954 0.0160000008 0.2869029641 2.3399999142 94.351997375 119.12500000 1.0720000267 18.677000046 2.3450000286 2.3450000286
 2135.3750000  -999.250000 13.177000999 12.250000954 0.0189999994 0.2860715985 2.3389999866 94.698997498 119.28500366 1.0659999847 18.740999222 2.3610000610 2.3610000610
 2135.5000000  -999.250000 13.178000450 12.250000954 0.0189999994 0.2864492536 2.3380000591 94.575996399 119.32199860 1.0650000572 18.808000565 2.3770000935 2.3770000935
 2135.6250000  -999.250000 13.175000191 12.250000954 0.0170000009 0.2882564664 2.3380000591 93.847000122 119.27799988 1.0670000315 18.593999863 2.3819999695 2.3819999695
 2135.7500000  -999.250000 13.168000221 12.250000954 0.0160000008 0.2906752825 2.3380000591 92.694999695 119.32299042 1.0700000525 18.141000748 2.3699998856 2.3699998856
 2135.8750000  -999.250000 13.161000252 12.250000954 0.0160000008 0.2928757071 2.3420000076 91.502998352 119.59300232 1.0720000267 17.674999237 2.3489999771 2.3489999771
 2136.0000000  -999.250000 13.156998634 12.250000954 0.0179999992 0.2943699956 2.3489999771 90.632003784 120.09100342 1.0720000267 17.513999939 2.3410000801 2.3410000801
 2136.1250000  -999.250000 13.157999992 12.250000954 0.0209941510 0.2949987650 2.3579823971 90.233001709 120.68599701 1.0709999800 17.704000473 2.3559999466 2.3559999466
 2136.2500000  -999.250000 13.161999702 12.250000954 0.0219999999 0.2951297462 2.3669824600 90.259002686 121.25800323 1.0679999590 18.186000824 2.3800001144 2.3800001144
 2136.3750000  -999.250000 13.168000221 12.250000954 0.0199999996 0.2953595519 2.3719999790 90.635002136 121.71700287 1.0640000105 18.666000366 2.3840000629 2.3840000629
 2136.5000000  -999.250000 13.173998833 12.250000954 0.0189999994 0.2963381112 2.3670001030 91.398002625 121.98500061 1.0599999428 18.920999527 2.3429999352 2.3429999352
 2136.6250000  -999.250000 13.182999611 12.250000954 0.0189999994 0.2979168892 2.3559999466 92.611000061 122.01300049 1.0549999475 18.847000122 2.2799999714 2.2799999714
 2136.7500000  -999.250000 13.197999954 12.250000954 0.0219999999 0.2993372381 2.3450000286 94.132003784 121.78299713 1.0479999781 18.590999603 2.2260000706 2.2260000706
 2136.8750000  -999.250000 13.218000412 12.250000954 0.0230000000 0.2994797230 2.3359999657 95.521003723 121.27700043 1.0420000553 18.368000031 2.2039999962 2.2039999962
 2137.0000000  -999.250000 13.237000465 12.250000954 0.0240000002 0.2982524335 2.3329999447 96.277999878 120.70300293 1.0360000134 18.318000793 2.2049999237 2.2049999237
 2137.1250000  -999.250000 13.253000259 12.250000954 0.0230000000 0.2961199880 2.3350000381 96.239997864 120.34300232 1.0319999456 18.445999146 2.2079999447 2.2079999447
 2137.2500000  -999.250000 13.262999535 12.250000954 0.0209999997 0.2944799960 2.3369998932 95.736999512 120.42199707 1.0310000181 18.704000473 2.1930000782 2.1930000782
 2137.3750000  -999.250000 13.269001007 12.250000954 0.0190038979 0.2941007316 2.3389961720 95.316001892 120.84899902 1.0319999456 18.995000839 2.1630001068 2.1630001068
 2137.5000000  -999.250000 13.272999763 12.250000954 0.0179999992 0.2951679230 2.3399999142 95.291000366 121.49199677 1.0340000391 19.228000641 2.1359999180 2.1359999180
 2137.6250000  -999.250000 13.277999878 12.250000954 0.0160000008 0.2969365418 2.3420000076 95.565002441 122.01100159 1.0379999876 19.349000931 2.1400001049 2.1400001049
 2137.7500000  -999.250000 13.281000137 12.250000954 0.0149999997 0.2985967696 2.3429999352 95.848999023 122.13300323 1.0410000086 19.350000381 2.1719999313 2.1719999313
 2137.8750000  -999.250000 13.279001236 12.250000954 0.0149999997 0.2993585169 2.3440001011 95.991996765 121.82199860 1.0429999828 19.253999710 2.2239999771 2.2239999771
 2138.0000000  -999.250000 13.274000168 12.250000954 0.0170000009 0.2992102802 2.3459999561 96.071998596 121.30200195 1.0440000296 19.083000183 2.2709999084 2.2709999084
 2138.1250000  -999.250000 13.269001007 12.250000954 0.0170000009 0.2981221080 2.3469998837 96.198997498 120.79799652 1.0429999828 18.853000641 2.2990000248 2.2990000248
 2138.2500000  -999.250000 13.267000198 12.250000954 0.0160000008 0.2970999777 2.3469998837 96.314002991 120.47000122 1.0420000553 18.628999710 2.3050000668 2.3039999008
 2138.3750000  -999.250000 13.270000458 12.250000954 0.0149999997 0.2970199883 2.3450000286 96.219001770 120.35800171 1.0399999619 18.468999863 2.3020000458 2.3020000458
