# LAS format log file from PETREL
# Project units are specified as depth units
#==================================================================
~Version information
VERS.   2.0:
WRAP.   NO:
#==================================================================
~Well
STRT .m      1820.5001221 :
STOP .m      3000.6250000 :
STEP .m     0.00000000 :
NULL .        -999.250000 :
COMP.           : COMPANY
WELL.  34/7-13   : WELL
FLD.            : FIELD
LOC.            : LOCATION
SRVC.           : SERVICE COMPANY
DATE.  2018-09-11 14:48:51   : Log Export Date {yyyy-MM-dd HH:mm:ss}
PROV.           : PROVINCE
UWI.   34/7-13   : UNIQUE WELL ID
API.            : API NUMBER
#==================================================================
~Curve
DEPT .m                   : DEPTH
Lithology_geolink ._      : Lithology_geolink
CALI .in                  : CALI
BS .in                    : BS
DRHO .g/cm3               : DRHO
NPHI .m3/m3               : NPHI
RHOB .g/cm3               : RHOB
GR .gAPI                  : GR
DTC .us/ft                : DTC
RDEP .ohm.m               : RDEP
SP .mV                    : SP
RSHA .ohm.m               : RSHA
RMED .ohm.m               : RMED
~Parameter
#==================================================================
~Ascii
# ...
 2606.5000000 7.0000000000 12.682000160 12.250000954 0.0080000004 0.3131068647 2.4460000992 114.84700012 105.78800964 1.8910000324 -9.157999992 5.9450001717 5.9450001717
 2606.6250000 7.0000000000 12.680000305 12.250000954 0.0209999997 0.3097365797 2.4479999542 114.36900330 105.87899780 1.8860000372 -9.498999596 5.9939999580 5.9939999580
 2606.7500000 7.0000000000 12.678999901 12.250000954 0.0350000001 0.3065899909 2.4500000477 114.17700195 105.95700073 1.8860000372 -9.751000404 5.9939999580 5.9930000305
 2606.8750000 7.0000000000 12.678999901 12.250000954 0.0419999994 0.3032599986 2.4509999752 113.92199707 106.03700256 1.8919999599 -9.833000183 5.9470000267 5.9470000267
 2607.0000000 7.0000000000 12.680000305 12.250000954 0.0340000018 0.2996999919 2.4489998817 113.53199768 106.11499786 1.9049999714 -9.784000397 5.9019999504 5.9029998779
 2607.1250000 7.0000000000 12.683000565 12.250000954 0.0130000003 0.2965800166 2.4460000992 113.11599731 106.18199921 1.9229999781 -9.576999664 5.9029998779 5.9029998779
 2607.2502441 7.0000000000 12.684000015 12.250000954 -0.012000000 0.2941399813 2.4440000057 112.72699738 106.22399902 1.9470000267 -9.145000458 5.9780001640 5.9780001640
 2607.3752441 7.0000000000 12.685000420 12.250000954 -0.030999999 0.2921299934 2.4440000057 112.29900360 106.23167419 1.9730000496 -8.506999969 6.1096878052 6.1096878052
 2607.4997559 7.0000000000 12.685000420 12.250000954 -0.037972655 0.2896497250 2.4449961185 111.82685089 106.14800262 2.0008904934 -7.666999817 6.2849998474 6.2849998474
 2607.6247559 7.0000000000 12.684000015 12.250000954 -0.034015626 0.2860241830 2.4449999332 111.46099854 105.97798920 2.0269999504 -6.788000107 6.4730000496 6.4730000496
 2607.7500000 7.0000000000 12.683000565 12.250000954 -0.024019532 0.2820577621 2.4440019131 111.43599701 105.70999908 2.0510001183 -6.013000011 6.6529998779 6.6519999504
 2607.8750000 7.0000000000 12.680000305 12.250000954 -0.010027343 0.2793353200 2.4440000057 111.87000275 105.31199646 2.0739998817 -5.467999935 6.8130002022 6.8130002022
 2608.0000000 7.0000000000 12.678000450 12.250000954 0.0049707028 0.2789707184 2.4440000057 112.75000000 104.77200317 2.0950000286 -5.144999981 6.9720001221 6.9730000496
 2608.1250000 7.0000000000 12.678000450 12.250000954 0.0179746095 0.2803572714 2.4459962845 113.99299622 104.08499908 2.1129999161 -5.018000126 7.1770000458 7.1770000458
 2608.2500000 7.0000000000 12.682000160 12.250000954 0.0279804692 0.2814578414 2.4469981194 115.46800232 103.30300140 2.1270000935 -5.047999859 7.4660000801 7.4670000076
 2608.3750000 7.0000000000 12.690999985 12.250000954 0.0349863283 0.2806515992 2.4460020065 116.91899872 102.55500031 2.1370000839 -5.184999943 7.8520002365 7.8520002365
 2608.5000000 7.0000000000 12.703001022 12.250000954 0.0379941389 0.2787038088 2.4430060387 117.94599915 102.05400085 2.1449999809 -5.458000183 8.1250000000 8.1230001450
 2608.6250000 7.0000000000 12.713998795 12.250000954 0.0360039063 0.2781111598 2.4380097389 118.18399811 101.92299652 2.1510000229 -5.797999859 8.2469997406 8.2469997406
 2608.7500000 7.0000000000 12.722000122 12.250000954 0.0280000009 0.2804054916 2.4340000153 117.60500336 102.23799896 2.1549999714 -6.123000145 8.2530002594 8.2530002594
 2608.8750000 7.0000000000 12.727001190 12.250000954 0.0149999997 0.2846117616 2.4319999218 116.63999939 102.86499786 2.1579999924 -6.290999889 8.2250003815 8.2250003815
 2609.0000000 7.0000000000 12.729000092 12.250000954 0.0030000000 0.2885523140 2.4330000877 115.93699646 103.57499695 2.1589999199 -6.198999882 8.2080001831 8.2080001831
 2609.1250000 7.0000000000 12.730999947 12.250000954 -0.006000000 0.2915399969 2.4379999638 115.90399933 104.13999939 2.1570000648 -5.815000057 8.1780004501 8.1780004501
 2609.2500000 7.0000000000 12.733999252 12.250000954 -0.012000000 0.2944200039 2.4409999847 116.43900299 104.45400238 2.1530001163 -5.269999981 8.0900001526 8.0900001526
 2609.3750000 7.0000000000 12.739999771 12.250000954 -0.014000000 0.2975600064 2.4430000782 117.10399628 104.59799957 2.1459999084 -4.848000050 7.9489998817 7.9489998817
 2609.5000000 7.0000000000 12.748000145 12.250000954 -0.017000001 0.3000900149 2.4430000782 117.52899933 104.75800323 2.1359999180 -4.686999798 7.7789998055 7.7789998055
 2609.6252441 7.0000000000 12.756999969 12.250000954 -0.017000001 0.3009400070 2.4409999847 117.63700104 105.00000000 2.1250000000 -4.675000191 7.5999999046 7.5999999046
 2609.7502441 7.0000000000 12.765999794 12.250000954 -0.011000000 0.3005100191 2.4379999638 117.49099731 105.31615448 2.1140000820 -4.769999981 7.4001054764 7.4001054764
 2609.8747559 7.0000000000 12.774000168 12.250000954 -0.000042969 0.2994939983 2.4340157509 117.06467438 105.61000061 2.1029999256 -4.922999859 7.1719999313 7.1719999313
 2610.0000000 7.0000000000 12.776000023 12.250000954 0.0109785153 0.2984719872 2.4310059547 116.27899933 105.80699921 2.0950000286 -5.135000229 6.9140000343 6.9149999619
 2610.1250000 7.0000000000 12.777000427 12.250000954 0.0189843737 0.2980108857 2.4290037155 115.26300049 105.86700439 2.0910000801 -5.434999943 6.7230000496 6.7230000496
 2610.2500000 7.0000000000 12.779000282 12.250000954 0.0160058606 0.2987884879 2.4280018806 114.42400360 105.82899475 2.0880000591 -5.763999939 6.5739998817 6.5739998817
 2610.3750000 7.0000000000 12.788000107 12.250000954 0.0060195313 0.3001473546 2.4279999733 114.19599915 105.75399780 2.0869998932 -5.967000008 6.4559998512 6.4559998512
 2610.5000000 7.0000000000 12.807999611 12.250000954 -0.006974610 0.3008885682 2.4279999733 114.70800018 105.69200897 2.0859999657 -5.842000008 6.3639998436 6.3639998436
 2610.6250000 7.0000000000 12.838000298 12.250000954 -0.016980469 0.3003211021 2.4279999733 115.70800018 105.65999603 2.0869998932 -5.282000065 6.2950000763 6.2950000763
 2610.7500000 7.0000000000 12.871999741 12.250000954 -0.021990234 0.2988229096 2.4289979935 116.80799866 105.63400269 2.0880000591 -4.250000000 6.2439999580 6.2439999580
 2610.8750000 7.0000000000 12.904999733 12.250000954 -0.022998046 0.2970634103 2.4289999008 117.73899841 105.55800629 2.0880000591 -2.992000103 6.1869997978 6.1869997978
 2611.0000000 7.0000000000 12.932000160 12.250000954 -0.021003906 0.2958124280 2.4309961796 118.37899780 105.33399963 2.0859999657 -1.728999972 6.0999999046 6.0999999046
 2611.1250000 7.0000000000 12.951000214 12.250000954 -0.017000001 0.2954207659 2.4330000877 118.66300201 104.88600159 2.0789999962 -0.633000016 5.9829998016 5.9829998016
 2611.2500000 7.0000000000 12.963000298 12.250000954 -0.010000000 0.2959090471 2.4379999638 118.57299805 104.27400208 2.0669999123 0.2790000141 5.8590002060 5.8590002060
 2611.3750000 7.0000000000 12.969000816 12.250000954 0.0000000000 0.2972074747 2.4449999332 118.24299622 103.65000153 2.0499999523 1.0959999561 5.7569999695 5.7569999695
 2611.5000000 7.0000000000 12.972998619 12.250000954 0.0109999999 0.2991699874 2.4509999752 117.98200226 103.09500122 2.0280001163 1.9060000181 5.6880002022 5.6880002022
 2611.6250000 7.0000000000 12.984000206 12.250000954 0.0170000009 0.3012700081 2.4519999027 118.10199738 102.68900299 1.9980000257 2.6280000210 5.6350002289 5.6350002289
 2611.7500000 7.0000000000 13.008000374 12.250000954 0.0179999992 0.3028399944 2.4509999752 118.70999908 102.52700043 1.9650000334 2.9719998837 5.5310001373 5.5310001373
 2611.8750000 7.0000000000 13.050000191 12.250000954 0.0149999997 0.3031499982 2.4470000267 119.64299774 102.60399628 1.9320000410 3.0480000973 5.3540000916 5.3540000916
 2612.0002441 7.0000000000 13.105999947 12.250000954 0.0109999999 0.3022300005 2.4440000057 120.60199738 102.99500275 1.8980000019 2.8680000305 5.1040000916 5.1040000916
 2612.1247559 7.0000000000 13.168999672 12.250000954 0.0070156250 0.3000585139 2.4440000057 121.33113861 103.61900330 1.8671211004 2.6050000191 4.8429999352 4.8429999352
 2612.2497559 7.0000000000 13.229999542 12.250000954 0.0040117190 0.2973505855 2.4449961185 121.72000122 104.34700012 1.8389999866 2.4100000858 4.6160001755 4.6160001755
 2612.3750000 7.0000000000 13.281000137 12.250000954 0.0020039063 0.2948348820 2.4459981918 121.76300049 104.96299744 1.8179999590 2.3910000324 4.4470000267 4.4470000267
