# LAS format log file from PETREL
# Project units are specified as depth units
#==================================================================
~Version information
VERS.   2.0:
WRAP.   NO:
#==================================================================
~Well
STRT .m      806.37493896 :
STOP .m      2790.0000000 :
STEP .m     0.00000000 :
NULL .        -999.250000 :
COMP.           : COMPANY
WELL.  34/7-12   : WELL
FLD.            : FIELD
LOC.            : LOCATION
SRVC.           : SERVICE COMPANY
DATE.  2018-09-11 14:48:51   : Log Export Date {yyyy-MM-dd HH:mm:ss}
PROV.           : PROVINCE
UWI.   34/7-12   : UNIQUE WELL ID
API.            : API NUMBER
#==================================================================
~Curve
DEPT .m                   : DEPTH
Lithology_geolink ._      : Lithology_geolink
CALI .in                  : CALI
DRHO .g/cm3               : DRHO
NPHI .m3/m3               : NPHI
RHOB .g/cm3               : RHOB
GR .gAPI                  : GR
DTC .us/ft                : DTC
RDEP .ohm.m               : RDEP
SP .mV                    : SP
RSHA .ohm.m               : RSHA
RMED .ohm.m               : RMED
~Parameter
#==================================================================
~Ascii
# ...
 1067.7500000  -999.250000 17.252000809 -0.158000007  -999.250000 1.6729999781 67.247001648 157.97468567 0.9649999738  -999.250000 0.4970000088 0.8719999790
 1067.8750000  -999.250000 17.250999451 -0.161009759  -999.250000 1.6820088625 66.973754883 157.66052246 0.9710000157  -999.250000 0.4970000088 0.8679999709
 1068.0000000  -999.250000 17.249000549 -0.171004891  -999.250000 1.6910018921 65.700988770 157.18675232 0.9840000272  -999.250000 0.4970000088 0.8590000272
 1068.1248779  -999.250000 17.247999191 -0.175999999  -999.250000 1.6929999590 64.666000366 156.94200134 0.9940000176  -999.250000 0.4970000088 0.8560000062
 1068.2498779  -999.250000 17.249000549 -0.179000005  -999.250000 1.6920000315 63.840000153 156.77699280 1.0039999485  -999.250000 0.4970000088 0.8539999723
 1068.3750000  -999.250000 17.250000000 -0.181002930  -999.250000 1.6909990311 63.182506561 156.67895508 1.0180000067  -999.250000 0.4970000088 0.8569999933
 1068.5000000  -999.250000 17.250999451 -0.183999017  -999.250000 1.6900039911 62.680156708 156.63905334 1.0379999876  -999.250000 0.4970000088 0.8640000224
 1068.6250000  -999.250000 17.250000000 -0.182999015  -999.250000 1.6940068007 62.839382172 156.68505859 1.0509999990  -999.250000 0.4970000088 0.8709999919
 1068.7498779  -999.250000 17.247999191 -0.181999996  -999.250000 1.7009999752 63.229999542 156.74400330 1.0640000105  -999.250000 0.4970000088 0.8790000081
 1068.8750000  -999.250000 17.246000290 -0.187999994  -999.250000 1.7089999914 63.759998322 156.77792358 1.0789999962  -999.250000 0.4970000088 0.8920000196
 1069.0000000  -999.250000 17.245000839 -0.208015636  -999.250000 1.7190018892 64.218109131 156.70388794 1.0959999561  -999.250000 0.4970000088 0.9120000005
 1069.1250000  -999.250000 17.245000839 -0.224015638  -999.250000 1.7209999561 64.328010559 156.59188843 1.1030000448  -999.250000 0.4959999919 0.9219999909
 1069.2498779  -999.250000 17.246999741 -0.239999995  -999.250000 1.7209999561 64.336997986 156.48800659 1.1059969664  -999.250000 0.4950009882 0.9300000072
 1069.3748779  -999.250000 17.249000549 -0.252999991  -999.250000 1.7200000286 64.257003784 156.51400757 1.1030000448  -999.250000 0.4939999878 0.9330000281
 1069.5000000  -999.250000 17.250999451 -0.264999986  -999.250000 1.7159999609 64.167999268 156.75729370 1.0930000544  -999.250000 0.4930000007 0.9330000281
 1069.6250000  -999.250000 17.250000000 -0.266997069  -999.250000 1.7099902630 64.288253784 157.06834412 1.0800000429  -999.250000 0.4920000136 0.9300000072
 1069.7500000  -999.250000 17.247999191 -0.263994128  -999.250000 1.6999863386 64.546333313 157.43240356 1.0650000572  -999.250000 0.4920000136 0.9250000119
 1069.8748779  -999.250000 17.245000839 -0.257999986  -999.250000 1.6859999895 64.889999390 157.83700562 1.0450195074  -999.250000 0.4929990172 0.9160000086
 1069.9998779  -999.250000 17.242000580 -0.246999994  -999.250000 1.6629999876 65.213996887 158.33299255 1.0160000324  -999.250000 0.4939999878 0.8999999762
 1070.1250000  -999.250000 17.243999481 -0.241999999  -999.250000 1.6519999504 65.047996521 158.49307251 1.0019999743  -999.250000 0.4959999919 0.8920000196
 1070.2500000  -999.250000 17.249000549 -0.238996089  -999.250000 1.6429951191 64.625450134 158.56494141 0.9929999709  -999.250000 0.4979999959 0.8849999905
 1070.3750000  -999.250000 17.254999161 -0.234992191  -999.250000 1.6380000114 64.062416077 158.49676514 0.9919999838  -999.250000 0.4959999919 0.8780000210
 1070.4998779  -999.250000 17.260000229 -0.226999998  -999.250000 1.6380000114 63.459999084 158.26400757 0.9980000257  -999.250000 0.4939999878 0.8709999919
 1070.6250000  -999.250000 17.259000778 -0.222000003  -999.250000 1.6419999599 62.973999023 158.03370667 1.0069999695  -999.250000 0.4939999878 0.8679999709
 1070.7500000  -999.250000 17.256000519 -0.218997061  -999.250000 1.6460068226 62.212947845 157.74456787 1.0180000067  -999.250000 0.4950000048 0.8669999838
 1070.8750000  -999.250000 17.250999451 -0.215995118  -999.250000 1.6530097723 61.135829926 157.30628967 1.0299999714  -999.250000 0.4950000048 0.8700000048
 1070.9998779  -999.250000 17.243999481 -0.210999995  -999.250000 1.6629999876 59.936000824 156.56498718 1.0469834805  -999.250000 0.4959990084 0.8830000162
 1071.1248779  -999.250000 17.243000031 -0.207000002  -999.250000 1.6720000505 60.189998627 156.01300049 1.0570000410  -999.250000 0.4959999919 0.8939999938
 1071.2500000  -999.250000 17.243000031 -0.202999994  -999.250000 1.6820000410 61.212001801 155.34201050 1.0690000057  -999.250000 0.4970000088 0.9060000181
 1071.3750000  -999.250000 17.243999481 -0.197991207  -999.250000 1.6980223656 63.331768036 154.32838440 1.0889999866  -999.250000 0.4970000088 0.9150000215
 1071.5000000  -999.250000 17.243999481 -0.188992187  -999.250000 1.7210136652 66.164268494 152.66909790 1.1200000048  -999.250000 0.4979999959 0.9190000296
 1071.6248779  -999.250000 17.243000031 -0.180999994  -999.250000 1.7350000143 67.460998535 151.74099731 1.1439765692  -999.250000 0.4979999959 0.9139999747
 1071.7498779  -999.250000 17.242000580 -0.172000006  -999.250000 1.7460000515 67.844001770 151.15701294 1.1629999876  -999.250000 0.4990000129 0.9079999924
 1071.8750000  -999.250000 17.243999481 -0.163000003  -999.250000 1.7560000420 67.632003784 151.04649353 1.1799999475  -999.250000 0.4990000129 0.9049999714
 1072.0000000  -999.250000 17.246999741 -0.159008786  -999.250000 1.7649990320 66.816375732 151.55474854 1.1920000315  -999.250000 0.4979999959 0.9100000262
 1072.1250000  -999.250000 17.250000000 -0.168016598  -999.250000 1.7639932632 66.178459167 152.32087708 1.1890000105  -999.250000 0.5000000000 0.9200000167
 1072.2498779  -999.250000 17.252000809 -0.185000002  -999.250000 1.7569999695 65.624000549 153.21099854 1.1820000410  -999.250000 0.5019999743 0.9330000281
 1072.3750000  -999.250000 17.253999710 -0.210999995  -999.250000 1.7410000563 65.415000916 154.23620605 1.1720000505  -999.250000 0.5040000081 0.9470000267
 1072.5000000  -999.250000 17.256000519 -0.249015629  -999.250000 1.7189960480 65.978637695 155.46546936 1.1590000391  -999.250000 0.5070000291 0.9580000043
 1072.6250000  -999.250000 17.254999161 -0.265005857  -999.250000 1.7150000334 66.636390686 155.94725037 1.1519999504  -999.250000 0.5070000291 0.9589999914
 1072.7498779  -999.250000 17.250999451 -0.270999998  -999.250000 1.7150000334 67.033996582 156.20500183 1.1450067759  -999.250000 0.5070000291 0.9549999833
 1072.8748779  -999.250000 17.246999741 -0.266999990  -999.250000 1.7120000124 66.541999817 156.38499451 1.1330000162  -999.250000 0.5040000081 0.9459999800
 1073.0000000  -999.250000 17.243000031 -0.259000003  -999.250000 1.7039999962 65.064002991 156.60115051 1.1119999886  -999.250000 0.5009999871 0.9319999814
 1073.1250000  -999.250000 17.245000839 -0.254997075  -999.250000 1.6979960203 64.138519287 156.76019287 1.0950000286  -999.250000 0.5000000000 0.9250000119
 1073.2500000  -999.250000 17.249000549 -0.251996100  -999.250000 1.6939960718 63.645992279 156.95825195 1.0759999752  -999.250000 0.5000000000 0.9179999828
 1073.3748779  -999.250000 17.253999710 -0.247999996  -999.250000 1.6900000572 63.639999390 157.21600342 1.0530223846  -999.250000 0.5019980073 0.9110000134
 1073.4998779  -999.250000 17.256999969 -0.238999993  -999.250000 1.6840000153 64.182998657 157.58500671 1.0219999552  -999.250000 0.5040000081 0.9010000229
 1073.6250000  -999.250000 17.257999420 -0.231000006  -999.250000 1.6759999990 64.415000916 157.71905518 1.0060000420  -999.250000 0.5080000162 0.8960000277
 1073.7500000  -999.250000 17.256000519 -0.221993163  -999.250000 1.6669874191 64.409538269 157.76893616 0.9940000176  -999.250000 0.5130000114 0.8920000196
 1073.8750000  -999.250000 17.252000809 -0.214997068  -999.250000 1.6539853811 63.935131073 157.69882202 0.9869999886  -999.250000 0.5120000243 0.8870000243
 1073.9998779  -999.250000 17.246999741 -0.211999997  -999.250000 1.6390000582 63.046001434 157.51699829 0.9829999804  -999.250000 0.5109999776 0.8799999952
