# LAS format log file from PETREL
# Project units are specified as depth units
#==================================================================
~Version information
VERS.   2.0:
WRAP.   NO:
#==================================================================
~Well
STRT .m      417.47238159 :
STOP .m      3182.7705078 :
STEP .m     0.00000000 :
NULL .        -999.250000 :
COMP.           : COMPANY
WELL.  34/7-20   : WELL
FLD.            : FIELD
LOC.            : LOCATION
SRVC.           : SERVICE COMPANY
DATE.  2018-09-11 14:48:52   : Log Export Date {yyyy-MM-dd HH:mm:ss}
PROV.           : PROVINCE
UWI.   34/7-20   : UNIQUE WELL ID
API.            : API NUMBER
#==================================================================
~Curve
DEPT .m                   : DEPTH
Lithology_geolink ._      : Lithology_geolink
CALI .in                  : CALI
DRHO .g/cm3               : DRHO
NPHI .m3/m3               : NPHI
RHOB .g/cm3               : RHOB
GR .gAPI                  : GR
DTC .us/ft                : DTC
RDEP .ohm.m               : RDEP
SP .mV                    : SP
RSHA .ohm.m               : RSHA
RMED .ohm.m               : RMED
~Parameter
#==================================================================
~Ascii
# ...
 2376.1171875  -999.250000 12.359375000  -999.250000 0.3581967950  -999.250000  -999.250000 98.797409058 1.7971835136 151.02650452 3.5260848999 1.8387701511
 2376.2695313  -999.250000 12.359375000  -999.250000 0.3596283793  -999.250000  -999.250000 99.783645630 1.6861791611 151.52558899 1.8686530590 1.7133183479
 2376.4221191  -999.250000 12.359375000  -999.250000 0.3439302742  -999.250000  -999.250000 102.56829071 1.6184027195 152.64486694 1.5671901703 1.6432750225
 2376.5744629  -999.250000 12.359375000  -999.250000 0.3372087181  -999.250000  -999.250000 106.67150116 1.5809030533 153.22274780 1.5633053780 1.6011314392
 2376.7268066  -999.250000 12.359375000  -999.250000 0.3381241560  -999.250000  -999.250000 109.23604584 1.5739357471 152.62477112 1.5335459709 1.5890567303
 2376.8791504  -999.250000 12.359375000  -999.250000 0.3403956592  -999.250000  -999.250000 109.67039490 1.5659718513 151.34443665 1.5880892277 1.5837540627
 2377.0314941  -999.250000 12.360676765  -999.250000 0.3396298289  -999.250000  -999.250000 109.27891541 1.5462393761 149.59861755 1.6082394123 1.5667798519
 2377.1840820  -999.250000 12.390811920  -999.250000 0.3466949463  -999.250000  -999.250000 109.06845093 1.5220372677 147.19943237 1.7385387421 1.5397286415
 2377.3364258  -999.250000 12.457004547  -999.250000 0.3602609336  -999.250000  -999.250000 109.43167114 1.4914109707 145.21183777 1.8692047596 1.5135540962
 2377.4887695  -999.250000 12.507265091  -999.250000 0.3580048382  -999.250000  -999.250000 109.86885071 1.4617450237 144.50878906 1.8393762112 1.4975285530
 2377.6411133  -999.250000 12.576553345  -999.250000 0.3405987620  -999.250000  -999.250000 110.23136902 1.4516079426 144.76124573 1.8479568958 1.4862365723
 2377.7937012  -999.250000 12.689895630  -999.250000 0.3298810720  -999.250000  -999.250000 110.87542725 1.4540994167 145.53875732 1.8529102802 1.4865314960
 2377.9460449  -999.250000 12.820169449  -999.250000 0.3294765353  -999.250000  -999.250000 111.30859375 1.4523124695 146.43225098 1.8075811863 1.4896638393
 2378.0983887  -999.250000 12.942922592  -999.250000 0.3374248445  -999.250000  -999.250000 111.60827637 1.4544813633 147.28111267 1.7873077393 1.4952816963
 2378.2507324  -999.250000 13.009681702  -999.250000 0.3437087238  -999.250000  -999.250000 111.61895752 1.4624698162 148.29367065 1.8070976734 1.5109651089
 2378.4033203  -999.250000 13.037420273  -999.250000 0.3490101695  -999.250000  -999.250000 111.27551270 1.4764299393 149.57916260 1.8600580692 1.5333325863
 2378.5556641  -999.250000 13.078050613  -999.250000 0.3488756418  -999.250000  -999.250000 111.86552429 1.4891433716 150.87075806 1.8931884766 1.5544331074
 2378.7080078  -999.250000 13.134998322  -999.250000 0.3515808880  -999.250000  -999.250000 110.51954651 1.5071401596 151.57199097 1.8978946209 1.5750102997
 2378.8603516  -999.250000 13.163611412  -999.250000 0.3497908711  -999.250000  -999.250000 109.86894226 1.5354394913 150.97976685 1.8451743126 1.6115183830
 2379.0126953  -999.250000 13.164062500  -999.250000 0.3367609382  -999.250000  -999.250000 111.24015808 1.5446646214 149.14601135 1.8669183254 1.6244881153
 2379.1652832  -999.250000 13.164608002  -999.250000 0.3177242279  -999.250000  -999.250000 111.32258606 1.5357730389 147.12158203 1.9423444271 1.6115639210
 2379.3176270  -999.250000 13.179187775  -999.250000 0.3108260334  -999.250000  -999.250000 110.88914490 1.5282974243 145.82708740 1.9408552647 1.6151940823
 2379.4699707  -999.250000 13.242618561  -999.250000 0.3201032877  -999.250000  -999.250000 110.74224854 1.5294296741 145.59909058 1.8455386162 1.6215062141
 2379.6223145  -999.250000 13.289062500  -999.250000 0.3238452077  -999.250000  -999.250000 110.39347839 1.5322117805 146.29496765 1.7236561775 1.6224811077
 2379.7749023  -999.250000 13.289434433  -999.250000 0.3156497478  -999.250000  -999.250000 109.56123352 1.5248761177 147.31365967 1.7190520763 1.6198213100
 2379.9272461  -999.250000 13.297915459  -999.250000 0.3158667684  -999.250000  -999.250000 109.05525208 1.5065007210 147.92507935 1.6636774540 1.6022105217
 2380.0795898  -999.250000 13.314846039  -999.250000 0.3171495795  -999.250000  -999.250000 109.27313232 1.5150203705 147.51429749 1.5983221531 1.6113386154
 2380.2319336  -999.250000 13.362407684  -999.250000 0.3167345524  -999.250000  -999.250000 109.60414124 1.5273964405 145.66604614 1.7171146870 1.6234781742
 2380.3845215  -999.250000 13.410350800  -999.250000 0.3156444132  -999.250000  -999.250000 109.80329895 1.5442836285 143.12716675 1.7608704567 1.6503157616
 2380.5368652  -999.250000 13.421703339  -999.250000 0.3137405813  -999.250000  -999.250000 109.78555298 1.5376658440 141.34164429 1.5981149673 1.6450195313
 2380.6892090  -999.250000 13.419076920  -999.250000 0.3111746907  -999.250000  -999.250000 109.71630859 1.4859690666 140.50103760 1.5606920719 1.5696938038
 2380.8415527  -999.250000 13.355850220  -999.250000 0.3020946085  -999.250000  -999.250000 110.01234436 1.4538421631 140.29370117 1.5932729244 1.5263988972
 2380.9938965  -999.250000 13.251678467  -999.250000 0.2950147986  -999.250000  -999.250000 110.12660980 1.4597132206 140.47276306 1.5347533226 1.5489425659
 2381.1464844  -999.250000 13.247594833  -999.250000 0.2929542065  -999.250000  -999.250000 109.65835571 1.4650087357 140.74978638 1.3064119816 1.5690476894
 2381.2988281  -999.250000 13.241508484  -999.250000 0.2944542170  -999.250000  -999.250000 109.07910156 1.4591288567 141.13829041 1.3609850407 1.5587546825
 2381.4511719  -999.250000 13.182267189  -999.250000 0.3017372489  -999.250000  -999.250000 108.81013489 1.4787480831 141.64064026 1.5099487305 1.5739417076
 2381.6035156  -999.250000 13.162559509  -999.250000 0.3122632504  -999.250000  -999.250000 109.08303833 1.5247247219 142.20800781 1.3786017895 1.6414752007
 2381.7561035  -999.250000 13.120977402  -999.250000 0.3176923692  -999.250000  -999.250000 109.61682892 1.5418901443 142.85293579 1.4003946781 1.6540253162
 2381.9084473  -999.250000 13.052603722  -999.250000 0.3224614859  -999.250000  -999.250000 110.01235962 1.5216736794 143.53015137 1.4115080833 1.6093907356
 2382.0607910  -999.250000 13.023437500  -999.250000 0.3233050406  -999.250000  -999.250000 110.22480774 1.5411288738 144.00466919 1.3498811722 1.6252915859
 2382.2131348  -999.250000 13.023063660  -999.250000 0.3182130456  -999.250000  -999.250000 109.69406128 1.5865533352 144.14041138 1.4009692669 1.6721155643
 2382.3657227  -999.250000 13.014978409  -999.250000 0.3149693310  -999.250000  -999.250000 108.73233032 1.6119861603 144.15371704 1.3503477573 1.6983201504
 2382.5180664  -999.250000 13.006702423  -999.250000 0.3052385747  -999.250000  -999.250000 108.35989380 1.6533896923 144.47674561 1.3562412262 1.7432608604
 2382.6704102  -999.250000 12.980363846  -999.250000 0.3072482944  -999.250000  -999.250000 108.39459229 1.6469314098 145.28636169 1.3783457279 1.7438006401
 2382.8227539  -999.250000 12.905267715  -999.250000 0.3126709759  -999.250000  -999.250000 108.28684998 1.6034376621 146.38806152 1.3110654354 1.6951980591
 2382.9750977  -999.250000 12.815397263  -999.250000 0.3215801120  -999.250000  -999.250000 108.03749847 1.5909976959 147.67922974 1.3499107361 1.6795384884
 2383.1276855  -999.250000 12.707912445  -999.250000 0.3313467503  -999.250000  -999.250000 107.79592896 1.5902876854 148.81604004 1.2478027344 1.6733293533
 2383.2800293  -999.250000 12.574372292  -999.250000 0.3340142965  -999.250000  -999.250000 107.69458008 1.5659887791 149.19029236 1.1028332710 1.6369068623
 2383.4323730  -999.250000 12.447023392  -999.250000 0.3264261484  -999.250000  -999.250000 107.55430603 1.5219590664 148.22280884 1.0575597286 1.5886979103
 2383.5847168  -999.250000 12.373130798  -999.250000 0.3121289015  -999.250000  -999.250000 107.72782898 1.5382473469 145.76928711 1.0926685333 1.6103680134
 2383.7373047  -999.250000 12.343902588  -999.250000 0.3219724298  -999.250000  -999.250000 108.02957153 1.5816121101 143.08740234 1.1539368629 1.6664466858
