# LAS format log file from PETREL
# Project units are specified as depth units
#==================================================================
~Version information
VERS.   2.0:
WRAP.   NO:
#==================================================================
~Well
STRT .m      417.47238159 :
STOP .m      3182.7705078 :
STEP .m     0.00000000 :
NULL .        -999.250000 :
COMP.           : COMPANY
WELL.  34/7-20   : WELL
FLD.            : FIELD
LOC.            : LOCATION
SRVC.           : SERVICE COMPANY
DATE.  2018-09-11 14:48:52   : Log Export Date {yyyy-MM-dd HH:mm:ss}
PROV.           : PROVINCE
UWI.   34/7-20   : UNIQUE WELL ID
API.            : API NUMBER
#==================================================================
~Curve
DEPT .m                   : DEPTH
Lithology_geolink ._      : Lithology_geolink
CALI .in                  : CALI
DRHO .g/cm3               : DRHO
NPHI .m3/m3               : NPHI
RHOB .g/cm3               : RHOB
GR .gAPI                  : GR
DTC .us/ft                : DTC
RDEP .ohm.m               : RDEP
SP .mV                    : SP
RSHA .ohm.m               : RSHA
RMED .ohm.m               : RMED
~Parameter
#==================================================================
~Ascii
# ...
 1163.6228027  -999.250000 18.890625000  -999.250000  -999.250000  -999.250000  -999.250000 57.274459839 0.9369724989 3.9048976898 0.2002895474 1950.0000000
 1163.7752686  -999.250000 18.890625000  -999.250000  -999.250000  -999.250000  -999.250000 57.277259827 0.9379467964 3.7289421558 0.1916652620 1950.0000000
 1163.9276123  -999.250000 18.890625000  -999.250000  -999.250000  -999.250000  -999.250000 57.280067444 0.9379999638 3.4817144871 0.1709332168 1950.0000000
 1164.0800781  -999.250000 18.890625000  -999.250000  -999.250000  -999.250000  -999.250000 57.282875061 0.9379999638 4.1000790596 0.2545634508 1950.0000000
 1164.2324219  -999.250000 18.890625000  -999.250000  -999.250000  -999.250000  -999.250000 57.285675049 0.9379999638 3.1280829906 0.5380269289 1950.0000000
 1164.3848877  -999.250000 18.882492065  -999.250000  -999.250000  -999.250000  -999.250000 57.288482666 0.9379999638 1.4642527103 0.7585201263 1950.0000000
 1164.5372314  -999.250000 18.883110046  -999.250000  -999.250000  -999.250000  -999.250000 57.291290283 0.9221700430 0.6957674623 0.9603389502 1950.0000000
 1164.6896973  -999.250000 18.890613556  -999.250000  -999.250000  -999.250000  -999.250000 57.294097900 0.9206234217 -0.280292928 1.1694133282 1950.0000000
 1164.8420410  -999.250000 18.890625000  -999.250000  -999.250000  -999.250000  -999.250000 57.296897888 0.9194351435 -1.435109496 0.8569747210 1950.0000000
 1164.9943848  -999.250000 18.898754120  -999.250000  -999.250000  -999.250000  -999.250000 57.299705505 0.9181996584 -2.363920212 0.3673006296 1950.0000000
 1165.1468506  -999.250000 18.898124695  -999.250000  -999.250000  -999.250000  -999.250000 57.302513123 0.9169670343 -2.242841244 0.2025840282 1950.0000000
 1165.2991943  -999.250000 18.890625000  -999.250000  -999.250000  -999.250000  -999.250000 57.305313110 0.9157315493 -4.169097424 0.2214396596 1950.0000000
 1165.4516602  -999.250000 18.890625000  -999.250000  -999.250000  -999.250000  -999.250000 57.308120728 0.9144977331 -6.362978935 0.2656467557 1950.0000000
 1165.6040039  -999.250000 18.890625000  -999.250000  -999.250000  -999.250000  -999.250000 57.310928345 0.9132981300 -6.531689644 0.2762978077 1950.0000000
 1165.7564697  -999.250000 18.890625000  -999.250000  -999.250000  -999.250000  -999.250000 57.313735962 0.9140000343 -6.367683411 0.2850344181 1950.0000000
 1165.9088135  -999.250000 18.915000916  -999.250000  -999.250000  -999.250000  -999.250000 57.316535950 0.9162194729 -6.025308609 0.2646839619 1950.0000000
 1166.0612793  -999.250000 18.929367065  -999.250000  -999.250000  -999.250000  -999.250000 57.319343567 0.9178454876 -5.581981182 0.2228851914 1950.0000000
 1166.2136230  -999.250000 18.905624390  -999.250000  -999.250000  -999.250000  -999.250000 57.322151184 0.9197280407 -4.666184425 0.1862895787 1950.0000000
 1166.3660889  -999.250000 18.890625000  -999.250000  -999.250000  -999.250000  -999.250000 57.324958801 0.9217355251 -4.662688732 0.1643956602 1950.0000000
 1166.5184326  -999.250000 18.898735046  -999.250000  -999.250000  -999.250000  -999.250000 57.327758789 0.9232592583 -5.153450489 0.1606667936 1950.0000000
 1166.6708984  -999.250000 18.906238556  -999.250000  -999.250000  -999.250000  -999.250000 57.330566406 0.9254256487 -5.028041363 0.1685016453 1950.0000000
 1166.8232422  -999.250000 18.906250000  -999.250000  -999.250000  -999.250000  -999.250000 57.333374023 0.9272203445 -4.400506496 0.1725470722 1950.0000000
 1166.9755859  -999.250000 18.898109436  -999.250000  -999.250000  -999.250000  -999.250000 57.336174011 0.9298092127 -3.325128317 0.1921971440 1950.0000000
 1167.1280518  -999.250000 18.890625000  -999.250000  -999.250000  -999.250000  -999.250000 57.338981628 0.9333934784 -3.007624149 0.1877804697 1950.0000000
 1167.2803955  -999.250000 18.906875610  -999.250000  -999.250000  -999.250000  -999.250000 57.341789246 0.9382517338 -3.299421072 0.1766138971 1950.0000000
 1167.4328613  -999.250000 18.946269989  -999.250000  -999.250000  -999.250000  -999.250000 57.344593048 0.9431900978 -2.772184610 0.2629923224 1950.0000000
 1167.5852051  -999.250000 18.928119659  -999.250000  -999.250000  -999.250000  -999.250000 57.347400665 0.9481269121 -1.267104864 1.1695661545 1950.0000000
 1167.7376709  -999.250000 18.898754120  -999.250000  -999.250000  -999.250000  -999.250000 57.350208282 0.9530618191 -0.941645741 1.6380808353 1950.0000000
 1167.8900146  -999.250000 18.898136139  -999.250000  -999.250000  -999.250000  -999.250000 57.353004456 0.9579521418 -1.274429321 0.9013465643 1950.0000000
 1168.0424805  -999.250000 18.906898499  -999.250000  -999.250000  -999.250000  -999.250000 57.355812073 0.9632151127 -0.622364938 0.6483949423 1950.0000000
 1168.1948242  -999.250000 18.930000305  -999.250000  -999.250000  -999.250000  -999.250000 57.358619690 0.9719024897 0.0877205580 1.4639115334 1950.0000000
 1168.3472900  -999.250000 18.913105011  -999.250000  -999.250000  -999.250000  -999.250000 57.361427307 0.9852762222 0.8807970285 41.969863892 1950.0000000
 1168.4996338  -999.250000 18.890625000  -999.250000  -999.250000  -999.250000  -999.250000 57.364227295 0.9978876114 2.0868000984 1073.4038086 1950.0000000
 1168.6520996  -999.250000 18.890625000  -999.250000  -999.250000  -999.250000  -999.250000 57.367034912 1.0106322765 3.4161424637 1999.9965820 1950.0000000
 1168.8044434  -999.250000 18.890625000  -999.250000  -999.250000  -999.250000  -999.250000 57.369842529 1.0203349590 4.5513005257 1995.4411621 1950.0000000
 1168.9567871  -999.250000 18.890625000  -999.250000  -999.250000  -999.250000  -999.250000 57.372650146 1.0139803886 6.3944091797 959.65441895 1950.0000000
 1169.1092529  -999.250000 18.890625000  -999.250000  -999.250000  -999.250000  -999.250000 57.375450134 0.9939520359 8.0930385590 1.0437405109 1950.0000000
 1169.2615967  -999.250000 18.890625000  -999.250000  -999.250000  -999.250000  -999.250000 57.378257751 0.9793710709 9.2766723633 0.5092443228 1950.0000000
 1169.4140625  -999.250000 18.890625000  -999.250000  -999.250000  -999.250000  -999.250000 57.381065369 0.9731733799 9.9197034836 0.3005709648 1950.0000000
 1169.5664063  -999.250000 18.890625000  -999.250000  -999.250000  -999.250000  -999.250000 57.383865356 0.9674776793 10.830655098 0.2359376848 1950.0000000
 1169.7188721  -999.250000 18.890625000  -999.250000  -999.250000  -999.250000  -999.250000 57.386672974 0.9616959095 11.050651550 0.2373324335 1950.0000000
 1169.8712158  -999.250000 18.890625000  -999.250000  -999.250000  -999.250000  -999.250000 57.389480591 0.9634079933 10.165265083 0.3013231754 1950.0000000
 1170.0236816  -999.250000 18.890625000  -999.250000  -999.250000  -999.250000  -999.250000 57.392280579 0.9808593988 10.065869331 0.3079715967 1950.0000000
 1170.1760254  -999.250000 18.890625000  -999.250000  -999.250000  -999.250000  -999.250000 57.395088196 0.9967148304 10.059916496 3.0657258034 1950.0000000
 1170.3284912  -999.250000 18.890625000  -999.250000  -999.250000  -999.250000  -999.250000 57.397895813 1.0049917698 10.358979225 1038.7629395 1950.0000000
 1170.4808350  -999.250000 18.874374390  -999.250000  -999.250000  -999.250000  -999.250000 57.400695801 1.0123896599 11.059594154 2000.0000000 1950.0000000
 1170.6333008  -999.250000 18.875637054  -999.250000  -999.250000  -999.250000  -999.250000 57.403503418 1.0198678970 11.813118935 2000.0000000 1950.0000000
 1170.7856445  -999.250000 18.890625000  -999.250000  -999.250000  -999.250000  -999.250000 57.406311035 1.0277352333 12.622663498 2000.0000000 1950.0000000
 1170.9381104  -999.250000 18.890625000  -999.250000  -999.250000  -999.250000  -999.250000 57.409118652 1.0356149673 12.692722321 2000.0000000 1950.0000000
 1171.0904541  -999.250000 18.874359131  -999.250000  -999.250000  -999.250000  -999.250000 57.411914825 1.0426321030 12.941264153 2000.0000000 1950.0000000
 1171.2427979  -999.250000 18.859375000  -999.250000  -999.250000  -999.250000  -999.250000 57.414722443 1.0497367382 13.322994232 2000.0000000 1950.0000000
