# LAS format log file from PETREL
# Project units are specified as depth units
#==================================================================
~Version information
VERS.   2.0:
WRAP.   NO:
#==================================================================
~Well
STRT .m      1820.5001221 :
STOP .m      3000.6250000 :
STEP .m     0.00000000 :
NULL .        -999.250000 :
COMP.           : COMPANY
WELL.  34/7-13   : WELL
FLD.            : FIELD
LOC.            : LOCATION
SRVC.           : SERVICE COMPANY
DATE.  2018-09-11 14:48:51   : Log Export Date {yyyy-MM-dd HH:mm:ss}
PROV.           : PROVINCE
UWI.   34/7-13   : UNIQUE WELL ID
API.            : API NUMBER
#==================================================================
~Curve
DEPT .m                   : DEPTH
Lithology_geolink ._      : Lithology_geolink
CALI .in                  : CALI
BS .in                    : BS
DRHO .g/cm3               : DRHO
NPHI .m3/m3               : NPHI
RHOB .g/cm3               : RHOB
GR .gAPI                  : GR
DTC .us/ft                : DTC
RDEP .ohm.m               : RDEP
SP .mV                    : SP
RSHA .ohm.m               : RSHA
RMED .ohm.m               : RMED
~Parameter
#==================================================================
~Ascii
# ...
 1976.5000000  -999.250000 12.785000801 12.250000954 0.0189990234 0.3117724657 2.2790029049 93.506690979 121.42500305 1.2679960728 18.444999695 1.9609999657 1.9609999657
 1976.6250000  -999.250000 12.792000771 12.250000954 0.0179999992 0.3084632158 2.2760000229 93.214279175 120.99099731 1.2739942074 18.975999832 1.9780000448 1.9780000448
 1976.7500000  -999.250000 12.800000191 12.250000954 0.0130000003 0.3069115281 2.2720000744 93.290000916 121.18199921 1.2810000181 19.392999649 1.9900000095 1.9900000095
 1976.8750000  -999.250000 12.812999725 12.250000954 0.0089999996 0.3078690767 2.2709999084 93.464996338 121.78500366 1.2860000134 19.677999496 2.0060000420 2.0060000420
 1977.0000000  -999.250000 12.838999748 12.250000954 0.0049999999 0.3108870685 2.2709999084 93.513000488 122.22100067 1.2899999619 19.899999619 2.0620000362 2.0620000362
 1977.1250000  -999.250000 12.876000404 12.250000954 0.0030000000 0.3146163523 2.2730000019 93.444000244 121.94800568 1.2920000553 20.152000427 2.1679999828 2.1679999828
 1977.2500000  -999.250000 12.914999962 12.250000954 0.0020000001 0.3168855608 2.2750000954 93.443000793 120.92600250 1.2929999828 20.441999435 2.3090000153 2.3090000153
 1977.3750000  -999.250000 12.942999840 12.250000954 0.0030000000 0.3160216808 2.2750000954 93.641998291 119.71237946 1.2940000296 20.642999649 2.4300382137 2.4300382137
 1977.5001221  -999.250000 12.953000069 12.250000954 0.0049999999 0.3128930628 2.2750000954 93.968002319 119.07951355 1.2949999571 20.566999435 2.4689240456 2.4689240456
 1977.6248779  -999.250000 12.947999954 12.250000954 0.0049999999 0.3091972470 2.2750000954 94.211524963 119.34200287 1.2969961166 20.172000885 2.4300000668 2.4300000668
 1977.7500000  -999.250000 12.940999985 12.250000954 0.0049999999 0.3065525889 2.2789962292 94.253959656 120.54000092 1.2989981174 19.371000290 2.3329999447 2.3329999447
 1977.8750000  -999.250000 12.949000359 12.250000954 0.0060000001 0.3055509925 2.2829999924 94.186996460 122.08300018 1.2999999523 18.535999298 2.2279999256 2.2279999256
 1978.0000000  -999.250000 12.979001045 12.250000954 0.0070000002 0.3059096336 2.2860000134 94.233001709 123.38300323 1.2990000248 17.798000336 2.1519999504 2.1519999504
 1978.1250000  -999.250000 13.032999992 12.250000954 0.0109999999 0.3065593839 2.2869999409 94.502998352 124.04199982 1.2940000296 17.277999878 2.1189999580 2.1189999580
 1978.2500000  -999.250000 13.093999863 12.250000954 0.0140000004 0.3062503040 2.2850000858 94.835998535 124.03600311 1.2879999876 17.066999435 2.1240000725 2.1240000725
 1978.3750000  -999.250000 13.140000343 12.250000954 0.0149999997 0.3036425710 2.2829999924 94.904998779 123.49600220 1.2790000439 17.166000366 2.1500000954 2.1500000954
 1978.5000000  -999.250000 13.150000572 12.250000954 0.0140000004 0.2992984951 2.2829999924 94.496002197 122.74940491 1.2699999809 17.436000824 2.1699922085 2.1699922085
 1978.6251221  -999.250000 13.121000290 12.250000954 0.0140000004 0.2958033979 2.2860000134 93.720001221 122.14395905 1.2599999905 17.684999466 2.1618964672 2.1618964672
 1978.7498779  -999.250000 13.074000359 12.250000954 0.0120039061 0.2948019505 2.2899920940 92.972465515 122.12300110 1.2510175705 17.732999802 2.1089999676 2.1089999676
 1978.8750000  -999.250000 13.032999992 12.250000954 0.0120000001 0.2934812903 2.2969930172 92.645317078 123.04199982 1.2420088053 17.555000305 2.0269999504 2.0269999504
 1979.0000000  -999.250000 13.012000084 12.250000954 0.0109999999 0.2919614911 2.3050000668 92.845001221 124.71199799 1.2300000191 17.118000031 1.9390000105 1.9400000572
 1979.1250000  -999.250000 13.005000114 12.250000954 0.0080000004 0.2938980758 2.3139998913 93.316001892 126.51000214 1.2150000334 16.458999634 1.8830000162 1.8830000162
 1979.2500000  -999.250000 13.003999710 12.250000954 0.0060000001 0.3017223477 2.3199999332 93.649002075 127.80100250 1.2000000477 15.598999977 1.8810000420 1.8810000420
 1979.3750000  -999.250000 13.008000374 12.250000954 0.0060000001 0.3128091693 2.3190000057 93.587997437 128.02000427 1.1849999428 14.654000282 1.9320000410 1.9320000410
 1979.5000000  -999.250000 13.020999908 12.250000954 0.0080000004 0.3188341260 2.3120000362 93.170997620 127.35000610 1.1749999523 13.793000221 1.9989999533 1.9989999533
 1979.6250000  -999.250000 13.045999527 12.250000954 0.0109999999 0.3194687963 2.2990000248 92.627998352 126.23799896 1.1720000505 13.059000015 2.0239999294 2.0239999294
 1979.7500000  -999.250000 13.074998856 12.250000954 0.0109999999 0.3168850541 2.2860000134 92.157997131 125.22029114 1.1790000200 12.500000000 1.9899482727 1.9899482727
 1979.8751221  -999.250000 13.105999947 12.250000954 0.0099999998 0.3110956550 2.2790000439 91.795997620 124.49209595 1.1940000057 11.963000298 1.9369434118 1.9369454384
 1980.0000000  -999.250000 13.145000458 12.250000954 0.0070029297 0.3032476604 2.2790000439 91.461326599 124.03299713 1.2159785032 11.269000053 1.9079999924 1.9090000391
 1980.1250000  -999.250000 13.201999664 12.250000954 0.0010000000 0.2967263758 2.2849941254 91.085365295 123.55500031 1.2399765253 10.515999794 1.9210000038 1.9210000038
 1980.2500000  -999.250000 13.267999649 12.250000954 -0.004000000 0.2931634784 2.2899999619 90.682998657 122.87500000 1.2630000114 9.9069995880 1.9670000076 1.9670000076
 1980.3750000  -999.250000 13.305999756 12.250000954 -0.008000000 0.2910420597 2.2929999828 90.333999634 121.97899628 1.2840000391 9.6499996185 2.0250000954 2.0250000954
 1980.5000000  -999.250000 13.270999908 12.250000954 -0.008000000 0.2885923684 2.2909998894 90.121002197 120.94799805 1.3020000458 9.7399997711 2.0810000896 2.0820000172
 1980.6250000  -999.250000 13.154999733 12.250000954 -0.004000000 0.2872912884 2.2880001068 90.114997864 119.82299805 1.3190000057 10.119999886 2.1449999809 2.1449999809
 1980.7500000  -999.250000 13.006999969 12.250000954 -0.002000000 0.2882680893 2.2860000134 90.352996826 118.68800354 1.3320000172 10.645000458 2.2369999886 2.2369999886
 1980.8750000  -999.250000 12.880000114 12.250000954 -0.005000000 0.2915735543 2.2890000343 90.794998169 117.74562073 1.3409999609 11.204000473 2.3581035137 2.3581025600
 1981.0001221  -999.250000 12.805998802 12.250000954 -0.014000000 0.2956260443 2.2939999104 91.280998230 117.35968781 1.3409999609 11.689999580 2.4640665054 2.4630684853
 1981.1248779  -999.250000 12.779000282 12.250000954 -0.020986328 0.2992029786 2.2979922295 91.600372314 117.70999908 1.3340137005 12.057000160 2.4979999065 2.4979999065
 1981.2500000  -999.250000 12.775000572 12.250000954 -0.018002929 0.3020172417 2.2960019112 91.684913635 119.06500244 1.3180155754 12.274000168 2.4309999943 2.4309999943
 1981.3750000  -999.250000 12.772000313 12.250000954 -0.007000000 0.3052468300 2.2890000343 91.740997314 121.25399780 1.2999999523 12.383999825 2.3139998913 2.3139998913
 1981.5000000  -999.250000 12.765000343 12.250000954 0.0070000002 0.3093959391 2.2809998989 92.141998291 124.00299835 1.2810000181 12.392999649 2.2039999962 2.2039999962
 1981.6250000  -999.250000 12.756999969 12.250000954 0.0149999997 0.3133661151 2.2760000229 93.143997192 125.87599945 1.2640000582 12.272999763 2.1289999485 2.1289999485
 1981.7500000  -999.250000 12.748000145 12.250000954 0.0149999997 0.3161772490 2.2720000744 94.680000305 126.66000366 1.2530000210 12.027000427 2.0850000381 2.0850000381
 1981.8750000  -999.250000 12.741999626 12.250000954 0.0099999998 0.3171990216 2.2690000534 96.420997620 126.28600311 1.2460000515 11.664999962 2.0620000362 2.0620000362
 1982.0000000  -999.250000 12.744999886 12.250000954 0.0030000000 0.3166510761 2.2660000324 97.991996765 124.95237732 1.2419999838 11.463999748 2.0600252151 2.0600252151
 1982.1251221  -999.250000 12.762000084 12.250000954 -0.003000000 0.3144921064 2.2609999180 99.127998352 123.28829956 1.2419999838 11.362000465 2.0861113071 2.0861113071
 1982.2498779  -999.250000 12.793000221 12.250000954 -0.003998047 0.3112595081 2.2590038776 99.665946960 121.90699768 1.2429981232 11.279000282 2.1429998875 2.1429998875
 1982.3750000  -999.250000 12.831999779 12.250000954 -0.002001953 0.3074637055 2.2590000629 99.493164063 121.11799622 1.2439990044 11.126999855 2.2170000076 2.2170000076
