# LAS format log file from PETREL
# Project units are specified as depth units
#==================================================================
~Version information
VERS.   2.0:
WRAP.   NO:
#==================================================================
~Well
STRT .m      806.37493896 :
STOP .m      2790.0000000 :
STEP .m     0.00000000 :
NULL .        -999.250000 :
COMP.           : COMPANY
WELL.  34/7-12   : WELL
FLD.            : FIELD
LOC.            : LOCATION
SRVC.           : SERVICE COMPANY
DATE.  2018-09-11 14:48:51   : Log Export Date {yyyy-MM-dd HH:mm:ss}
PROV.           : PROVINCE
UWI.   34/7-12   : UNIQUE WELL ID
API.            : API NUMBER
#==================================================================
~Curve
DEPT .m                   : DEPTH
Lithology_geolink ._      : Lithology_geolink
CALI .in                  : CALI
DRHO .g/cm3               : DRHO
NPHI .m3/m3               : NPHI
RHOB .g/cm3               : RHOB
GR .gAPI                  : GR
DTC .us/ft                : DTC
RDEP .ohm.m               : RDEP
SP .mV                    : SP
RSHA .ohm.m               : RSHA
RMED .ohm.m               : RMED
~Parameter
#==================================================================
~Ascii
# ...
 1724.3748779  -999.250000 17.913000107 0.0080000004  -999.250000 2.0720000267 69.514999390 145.35000610 0.5799999833  -999.250000 0.3980000019 0.8510000110
 1724.4998779  -999.250000 17.915000916 0.0060009765  -999.250000 2.0759990215 68.900001526 145.86000061 0.5770000219  -999.250000 0.3970000148 0.8550000191
 1724.6250000  -999.250000 17.920999527 0.0070058540  -999.250000 2.0749962330 68.293998718 146.02999878 0.5770000219  -999.250000 0.3970000148 0.8619999886
 1724.7500000  -999.250000 17.930000305 0.0100039057  -999.250000 2.0729970932 67.658996582 146.20899963 0.5759999752  -999.250000 0.3970000148 0.8650000095
 1724.8750000  -999.250000 17.948999405 0.0140019534  -999.250000 2.0699961185 67.043998718 146.58799744 0.5759999752  -999.250000 0.3950000107 0.8619999886
 1725.0000000  -999.250000 17.985000610 0.0159970708  -999.250000 2.0659999847 66.526000977 147.46499634 0.5749999881  -999.250000 0.3939999938 0.8429999948
 1725.1250000  -999.250000 18.010000229 0.0129941413  -999.250000 2.0660009384 66.372001648 147.88995361 0.5740000010  -999.250000 0.3930000067 0.8259999752
 1725.2500000  -999.250000 18.027000427 0.0069804690  -999.250000 2.0670087337 66.378150940 147.84187317 0.5720000267  -999.250000 0.3910000026 0.8109999895
 1725.3748779  -999.250000 18.028999329 -0.013000000  -999.250000 2.0759999752 66.531997681 146.67900085 0.5700019598  -999.250000 0.3880029321 0.8029999733
 1725.4998779  -999.250000 18.010000229 -0.048000000  -999.250000 2.0959999561 66.831001282 144.24800110 0.5680000186  -999.250000 0.3840000033 0.8019999862
 1725.6248779  -999.250000 17.982000351 -0.062000975  -999.250000 2.1120088100 67.063003540 142.75599670 0.5680000186  -999.250000 0.3779999912 0.8080000281
 1725.7500000  -999.250000 17.951000214 -0.062982425  -999.250000 2.1209883690 67.304000854 141.83799744 0.5699999928  -999.250000 0.3799999952 0.8130000234
 1725.8750000  -999.250000 17.920000076 -0.053964879  -999.250000 2.1149356365 67.486000061 141.83099365 0.5730000138  -999.250000 0.3869999945 0.8149999976
 1726.0000000  -999.250000 17.888999939 -0.035995115  -999.250000 2.0819785595 67.347999573 143.42599487 0.5799999833  -999.250000 0.3930000067 0.8140000105
 1726.1250000  -999.250000 17.877000809 -0.031000976  -999.250000 2.0599842072 66.838996887 144.71600342 0.5839999914  -999.250000 0.3970000148 0.8149999976
 1726.2500000  -999.250000 17.872999191 -0.032002930  -999.250000 2.0439939499 66.038002014 145.79956055 0.5870000124  -999.250000 0.3970000148 0.8180000186
 1726.3750000  -999.250000 17.872999191 -0.035001952  -999.250000 2.0380001068 64.934913635 146.37603760 0.5879999995  -999.250000 0.3939999938 0.8249999881
 1726.5000000  -999.250000 17.874000549 -0.037000977  -999.250000 2.0380010605 63.824867249 146.40771484 0.5870000124  -999.250000 0.3819999993 0.8349999785
 1726.6248779  -999.250000 17.877000809 -0.037999999  -999.250000 2.0390000343 63.687999725 146.10800171 0.5839999914  -999.250000 0.3670000136 0.8420000076
 1726.7498779  -999.250000 17.879999161 -0.041999999  -999.250000 2.0390000343 63.981998444 145.89100647 0.5799999833  -999.250000 0.3709999919 0.8450000286
 1726.8750000  -999.250000 17.881999969 -0.048009764  -999.250000 2.0369939804 64.696998596 145.94999695 0.5749999881  -999.250000 0.3810000122 0.8460000157
 1727.0000000  -999.250000 17.879999161 -0.052994147  -999.250000 2.0339980125 66.096000671 146.59199524 0.5659999847  -999.250000 0.3880000114 0.8439999819
 1727.1250000  -999.250000 17.875999451 -0.049996093  -999.250000 2.0329999924 67.063003540 147.39599609 0.5600000024  -999.250000 0.3930000067 0.8399999738
 1727.2500000  -999.250000 17.871999741 -0.045994140  -999.250000 2.0329952240 68.037002563 148.37100220 0.5550000072  -999.250000 0.3959999979 0.8349999785
 1727.3750000  -999.250000 17.870000839 -0.039991211  -999.250000 2.0279874802 69.529998779 149.60299683 0.5460000038  -999.250000 0.3989999890 0.8270000219
 1727.5000000  -999.250000 17.871999741 -0.030994140  -999.250000 2.0149874687 71.704002380 151.07659912 0.5350000262  -999.250000 0.4009999931 0.8149999976
 1727.6250000  -999.250000 17.875000000 -0.024996094  -999.250000 2.0019884109 73.036720276 151.68130493 0.5289999843  -999.250000 0.4020000100 0.8109999895
 1727.7498779  -999.250000 17.875999451 -0.021000000  -999.250000 1.9900000095 73.766998291 152.00100708 0.5239999890  -999.250000 0.4029999971 0.8109999895
 1727.8748779  -999.250000 17.872999191 -0.021000000  -999.250000 1.9839999676 73.721000671 152.18099976 0.5220000148  -999.250000 0.4040000141 0.8140000105
 1727.9998779  -999.250000 17.861999512 -0.032013673  -999.250000 1.9860106707 72.502998352 152.15600586 0.5220000148  -999.250000 0.4050000012 0.8159999847
 1728.1250000  -999.250000 17.854999542 -0.046027318  -999.250000 1.9970214367 71.152999878 151.78399658 0.5260000229  -999.250000 0.4050000012 0.8159999847
 1728.2500000  -999.250000 17.850999832 -0.060009763  -999.250000 2.0080115795 69.752998352 151.19900513 0.5299999714  -999.250000 0.4040000141 0.8190000057
 1728.3750000  -999.250000 17.847999573 -0.069996096  -999.250000 2.0200145245 68.438003540 150.26100159 0.5370000005  -999.250000 0.4029999971 0.8280000091
 1728.5000000  -999.250000 17.843000412 -0.065987304  -999.250000 2.0350079536 67.446998596 148.75199890 0.5479999781  -999.250000 0.4000000060 0.8470000029
 1728.6250000  -999.250000 17.836000443 -0.052984376  -999.250000 2.0430088043 67.325996399 147.94746399 0.5559999943  -999.250000 0.3980000019 0.8569999933
 1728.7500000  -999.250000 17.827999115 -0.036986329  -999.250000 2.0520088673 67.555305481 147.39659119 0.5630000234  -999.250000 0.4029999971 0.8619999886
 1728.8748779  -999.250000 17.822999954 -0.023000000  -999.250000 2.0610001087 67.870002747 146.96899414 0.5709921718  -999.250000 0.4069961011 0.8679999709
 1728.9998779  -999.250000 17.823999405 -0.014000000  -999.250000 2.0699999332 68.189002991 146.57099915 0.5809999704  -999.250000 0.4140000045 0.8780000210
 1729.1248779  -999.250000 17.829999924 -0.017002931  -999.250000 2.0730009079 68.138000488 146.45799255 0.5860000253  -999.250000 0.4210000038 0.8899999857
 1729.2500000  -999.250000 17.834999084 -0.020001953  -999.250000 2.0740036964 67.883003235 146.38699341 0.5910000205  -999.250000 0.4259999990 0.9039999843
 1729.3750000  -999.250000 17.836000443 -0.020992195  -999.250000 2.0760059357 67.387001038 146.37399292 0.5960000157  -999.250000 0.4300000072 0.9200000167
 1729.5000000  -999.250000 17.829000473 -0.016998047  -999.250000 2.0790019035 66.982002258 146.51899719 0.6019999981  -999.250000 0.4329999983 0.9359999895
 1729.6250000  -999.250000 17.822000504 -0.015000977  -999.250000 2.0810019970 67.453002930 146.69700623 0.6050000191  -999.250000 0.4350000024 0.9399999976
 1729.7500000  -999.250000 17.815999985 -0.016001955  -999.250000 2.0830018520 68.650001526 146.90600586 0.6039999723  -999.250000 0.4350000024 0.9409999847
 1729.8750000  -999.250000 17.815999985 -0.018001953  -999.250000 2.0850028992 70.540000916 147.21545410 0.6000000238  -999.250000 0.4350000024 0.9369999766
 1730.0000000  -999.250000 17.822000504 -0.019997070  -999.250000 2.0880000591 72.583106995 147.68429565 0.5910000205  -999.250000 0.4320000112 0.9309999943
 1730.1248779  -999.250000 17.830999374 -0.017000001  -999.250000 2.0880000591 72.692001343 147.98599243 0.5830000043  -999.250000 0.4309999943 0.9300000072
 1730.2498779  -999.250000 17.839000702 -0.011000000  -999.250000 2.0869998932 72.110000610 148.21899414 0.5740000010  -999.250000 0.4320000112 0.9319999814
 1730.3748779  -999.250000 17.844999313 -0.003991211  -999.250000 2.0839962959 71.143997192 148.36000061 0.5640000105  -999.250000 0.4350000024 0.9350000024
 1730.5000000  -999.250000 17.844999313 0.0050039021  -999.250000 2.0799999237 70.230003357 148.41999817 0.5500000119  -999.250000 0.4390000105 0.9330000281
 1730.6250000  -999.250000 17.840999603 0.0069990237  -999.250000 2.0800008774 70.587997437 148.52799988 0.5429999828  -999.250000 0.4420000017 0.9219999909
