# LAS format log file from PETREL
# Project units are specified as depth units
#==================================================================
~Version information
VERS.   2.0:
WRAP.   NO:
#==================================================================
~Well
STRT .m      1820.5001221 :
STOP .m      3000.6250000 :
STEP .m     0.00000000 :
NULL .        -999.250000 :
COMP.           : COMPANY
WELL.  34/7-13   : WELL
FLD.            : FIELD
LOC.            : LOCATION
SRVC.           : SERVICE COMPANY
DATE.  2018-09-11 14:48:51   : Log Export Date {yyyy-MM-dd HH:mm:ss}
PROV.           : PROVINCE
UWI.   34/7-13   : UNIQUE WELL ID
API.            : API NUMBER
#==================================================================
~Curve
DEPT .m                   : DEPTH
Lithology_geolink ._      : Lithology_geolink
CALI .in                  : CALI
BS .in                    : BS
DRHO .g/cm3               : DRHO
NPHI .m3/m3               : NPHI
RHOB .g/cm3               : RHOB
GR .gAPI                  : GR
DTC .us/ft                : DTC
RDEP .ohm.m               : RDEP
SP .mV                    : SP
RSHA .ohm.m               : RSHA
RMED .ohm.m               : RMED
~Parameter
#==================================================================
~Ascii
# ...
 2840.5000000 16.000000000 9.7709999084 8.5000000000 0.0119921872 0.2201495618 2.5559589863 79.903999329 85.418998718 3.7119998932 -23.96800041 4.5700001717 4.5710000992
 2840.6250000 16.000000000 9.7829999924 8.5000000000 0.0120000001 0.2143612951 2.5769588947 77.897003174 83.445999146 3.7530000210 -23.86199951 4.8220000267 4.8220000267
 2840.7500000 16.000000000 9.7740001678 8.5000000000 0.0110019529 0.2145995051 2.5909726620 76.055000305 81.394996643 3.7609999180 -23.70899963 5.1579999924 5.1570000648
 2840.8750000 6.0000000000 9.7510004044 8.5000000000 0.0080058593 0.2222250998 2.5939941406 74.931999207 79.930999756 3.7400000095 -23.59499931 5.4549999237 5.4549999237
 2841.0000000 6.0000000000 9.7200002670 8.5000000000 0.0050058593 0.2344261557 2.5860157013 74.907997131 79.628997803 3.7039999962 -23.64299965 5.5029997826 5.5009999275
 2841.1250000 6.0000000000 9.6859998703 8.5000000000 0.0040000002 0.2480833381 2.5699999332 76.018997192 80.552009583 3.6600000858 -23.87500000 5.2500000000 5.2500000000
 2841.2500000 6.0000000000 9.6560001373 8.5000000000 0.0049999999 0.2597345114 2.5539999008 77.943000793 82.521003723 3.5999999046 -24.22100067 4.8229999542 4.8239998817
 2841.3750000 7.0000000000 9.6319999695 8.5000000000 0.0080000004 0.2673799992 2.5420000553 80.129997253 84.787002563 3.5190000534 -24.49699974 4.4470000267 4.4470000267
 2841.5000000 7.0000000000 9.6180000305 8.5000000000 0.0109999999 0.2712900043 2.5329999924 82.055000305 86.779998779 3.4140000343 -24.52400017 4.2199997902 4.2210001945
 2841.6252441 7.0000000000 9.6110000610 8.5000000000 0.0140000004 0.2726300061 2.5260000229 83.440002441 88.232994080 3.3029999733 -24.28599930 4.1069998741 4.1069998741
 2841.7502441 7.0000000000 9.6149997711 8.5000000000 0.0160000008 0.2721100152 2.5230000019 84.323997498 89.161003113 3.2079999447 -23.93199921 4.0430002213 4.0430002213
 2841.8747559 7.0000000000 9.6330003738 8.5000000000 0.0160000008 0.2701975107 2.5200116634 84.926002502 89.671997070 3.1510000229 -23.68199921 3.9949998856 3.9949998856
 2841.9997559 7.0000000000 9.6639995575 8.5000000000 0.0140078133 0.2674607038 2.5209960938 85.411003113 89.945999146 3.1380000114 -23.63899994 3.9560000896 3.9560000896
 2842.1250000 7.0000000000 9.7049999237 8.5000000000 0.0110058589 0.2638270855 2.5239939690 85.750000000 90.003997803 3.1659998894 -23.79199982 3.9349999428 3.9349999428
 2842.2500000 7.0000000000 9.7489995956 8.5000000000 0.0090039056 0.2590393424 2.5289902687 85.708999634 89.819999695 3.2260000706 -24.01000023 3.9349999428 3.9349999428
 2842.3750000 7.0000000000 9.7880001068 8.5000000000 0.0089999996 0.2523031831 2.5379824638 84.988998413 89.408996582 3.3010001183 -24.17399979 3.9560000896 3.9560000896
 2842.5000000 7.0000000000 9.8170003891 8.5000000000 0.0099980468 0.2441459447 2.5489785671 83.404998779 88.652000427 3.3759999275 -24.22200012 4.0399999619 4.0409998894
 2842.6250000 7.0000000000 9.8330001831 8.5000000000 0.0109980470 0.2361356467 2.5609767437 81.047996521 87.536003113 3.4379999638 -24.19700050 4.2239999771 4.2239999771
 2842.7500000 7.0000000000 9.8380002975 8.5000000000 0.0109999999 0.2303113788 2.5719785690 78.336997986 86.060997009 3.4769999981 -24.12999916 4.5560002327 4.5570001602
 2842.8750000 7.0000000000 9.8360004425 8.5000000000 0.0109999999 0.2275653481 2.5809824467 75.938003540 84.487998962 3.4900000095 -24.04500008 5.0320000648 5.0320000648
 2843.0000000 16.000000000 9.8280000687 8.5000000000 0.0100019528 0.2276797593 2.5849921703 74.515998840 83.239997864 3.4830000401 -23.96199989 5.5040001869 5.5019998550
 2843.1250000 16.000000000 9.8140001297 8.5000000000 0.0099999998 0.2320015430 2.5810079575 74.446998596 82.750000000 3.4600000381 -23.89900017 5.6609997749 5.6609997749
 2843.2500000 16.000000000 9.7950000763 8.5000000000 0.0090019526 0.2389663905 2.5730156898 75.644996643 83.166999817 3.4260001183 -23.86199951 5.3039999008 5.3029999733
 2843.3750000 16.000000000 9.7729997635 8.5000000000 0.0080019534 0.2463954985 2.5610234737 77.617996216 84.249992371 3.3859999180 -23.85700035 4.6690001488 4.6690001488
 2843.5000000 6.0000000000 9.7519998550 8.5000000000 0.0080000004 0.2523084581 2.5490000248 79.694999695 85.710998535 3.3350000381 -23.87100029 4.0900001526 4.0920000076
 2843.6250000 6.0000000000 9.7340002060 8.5000000000 0.0080000004 0.2563599944 2.5380001068 81.288002014 87.127998352 3.2720000744 -23.85300064 3.7160000801 3.7160000801
 2843.7500000 6.0000000000 9.7220001221 8.5000000000 0.0089999996 0.2593799829 2.5290000439 82.071998596 88.249000549 3.2019999027 -23.71999931 3.5720000267 3.5729999542
 2843.8750000 6.0000000000 9.7209997177 8.5000000000 0.0099999998 0.2635799944 2.5239999294 82.051002502 88.991996765 3.1319999695 -23.44899940 3.5789999962 3.5789999962
 2844.0002441 6.0000000000 9.7349996567 8.5000000000 0.0099999998 0.2686800063 2.5190000534 81.518997192 89.318000793 3.0729999542 -23.09099960 3.6640000343 3.6640000343
 2844.1252441 6.0000000000 9.7690000534 8.5000000000 0.0089999996 0.2718400061 2.5150001049 80.887001038 89.229537964 3.0309998989 -22.77599907 3.7774336338 3.7774336338
 2844.2497559 6.0000000000 9.8229999542 8.5000000000 0.0060117189 0.2711626589 2.5130078793 80.438003540 88.856002808 3.0079998970 -22.59000015 3.8880000114 3.8880000114
 2844.3750000 6.0000000000 9.8920001984 8.5000000000 0.0060000001 0.2690840662 2.5120019913 80.192001343 88.324996948 3.0000000000 -22.53800011 3.9849998951 3.9849998951
 2844.5000000 6.0000000000 9.9659996033 8.5000000000 0.0079960944 0.2676528096 2.5129981041 79.975997925 87.785003662 3.0030000210 -22.56299973 4.0450000763 4.0450000763
 2844.6250000 6.0000000000 10.041998863 8.5000000000 0.0109941410 0.2666319907 2.5149962902 79.611000061 87.345001221 3.0109999180 -22.59300041 4.0619997978 4.0619997978
 2844.7500000 6.0000000000 10.116998672 8.5000000000 0.0119980471 0.2654822469 2.5169961452 79.069999695 87.098999023 3.0169999599 -22.55599976 4.0359997749 4.0359997749
 2844.8750000 6.0000000000 10.190999985 8.5000000000 0.0110019529 0.2647214830 2.5179979801 78.473999023 87.022003174 3.0199999809 -22.43799973 3.9930000305 3.9930000305
 2845.0000000 6.0000000000 10.253999710 8.5000000000 0.0090039056 0.2649595141 2.5179998875 77.966003418 87.099998474 3.0209999084 -22.26000023 3.9489998817 3.9489998817
 2845.1250000 6.0000000000 10.295000076 8.5000000000 0.0089999996 0.2662275136 2.5170018673 77.612998962 87.291999817 3.0220000744 -22.12100029 3.9059998989 3.9059998989
 2845.2500000 6.0000000000 10.305999756 8.5000000000 0.0099980468 0.2680663764 2.5169999599 77.410003662 87.555999756 3.0299999714 -22.10000038 3.8629999161 3.8629999161
 2845.3750000 6.0000000000 10.289999962 8.5000000000 0.0129941413 0.2700261772 2.5160019398 77.355003357 87.871002197 3.0469999313 -22.24799919 3.8190000057 3.8190000057
 2845.5000000 6.0000000000 10.255000114 8.5000000000 0.0139980474 0.2714372575 2.5150020123 77.481002808 88.184997559 3.0739998817 -22.49799919 3.7799999714 3.7799999714
 2845.6250000 6.0000000000 10.208998680 8.5000000000 0.0140000004 0.2712104619 2.5159981251 77.843002319 88.410003662 3.1050000191 -22.75099945 3.7550001144 3.7550001144
 2845.7500000 6.0000000000 10.154999733 8.5000000000 0.0120039061 0.2692138851 2.5199921131 78.450996399 88.417999268 3.1359999180 -22.91200066 3.7650001049 3.7650001049
 2845.8750000 6.0000000000 10.092000008 8.5000000000 0.0120000001 0.2656539083 2.5269999504 79.225997925 88.180999756 3.1610000134 -22.98900032 3.8180000782 3.8180000782
 2846.0000000 6.0000000000 10.029999733 8.5000000000 0.0130000003 0.2615700066 2.5339999199 79.997001648 87.683998108 3.1800000668 -22.98600006 3.9289999008 3.9300000668
 2846.1250000 6.0000000000 9.9840002060 8.5000000000 0.0149999997 0.2577700019 2.5399999619 80.573997498 87.088996887 3.1909999847 -22.93700027 4.0689997673 4.0689997673
 2846.2500000 6.0000000000 9.9689998627 8.5000000000 0.0149999997 0.2550399899 2.5429999828 80.888000488 86.557998657 3.1970000267 -22.86400032 4.1719999313 4.1710000038
 2846.3752441 6.0000000000 9.9840002060 8.5000000000 0.0160000008 0.2538799942 2.5429999828 81.069999695 86.291999817 3.1970000267 -22.77899933 4.1469998360 4.1469998360
