# LAS format log file from PETREL
# Project units are specified as depth units
#==================================================================
~Version information
VERS.   2.0:
WRAP.   NO:
#==================================================================
~Well
STRT .m      806.37493896 :
STOP .m      2790.0000000 :
STEP .m     0.00000000 :
NULL .        -999.250000 :
COMP.           : COMPANY
WELL.  34/7-12   : WELL
FLD.            : FIELD
LOC.            : LOCATION
SRVC.           : SERVICE COMPANY
DATE.  2018-09-11 14:48:51   : Log Export Date {yyyy-MM-dd HH:mm:ss}
PROV.           : PROVINCE
UWI.   34/7-12   : UNIQUE WELL ID
API.            : API NUMBER
#==================================================================
~Curve
DEPT .m                   : DEPTH
Lithology_geolink ._      : Lithology_geolink
CALI .in                  : CALI
DRHO .g/cm3               : DRHO
NPHI .m3/m3               : NPHI
RHOB .g/cm3               : RHOB
GR .gAPI                  : GR
DTC .us/ft                : DTC
RDEP .ohm.m               : RDEP
SP .mV                    : SP
RSHA .ohm.m               : RSHA
RMED .ohm.m               : RMED
~Parameter
#==================================================================
~Ascii
# ...
 940.25000000  -999.250000 17.452999115 -0.057981454  -999.250000 2.2040028572 66.700523376 130.72656250 2.1419999599  -999.250000 0.5630000234 1.2860000134
 940.37493896  -999.250000 17.437000275 -0.039000001  -999.250000 2.2070000172 66.213996887 130.28100586 2.1250000000  -999.250000 0.5780000091 1.2979999781
 940.49993896  -999.250000 17.420999527 -0.015000000  -999.250000 2.2119998932 65.939002991 130.02507019 2.1019999981  -999.250000 0.5929999948 1.3200000525
 940.62493896  -999.250000 17.419000626 -0.002000000  -999.250000 2.2149999142 66.350433350 130.19223022 2.0880000591  -999.250000 0.6079999804 1.3339999914
 940.74993896  -999.250000 17.423999786 0.0060014650  -999.250000 2.2139956951 67.239631653 130.65942383 2.0729999542  -999.250000 0.6219999790 1.3420000076
 940.87487793  -999.250000 17.441999435 0.0089999996  -999.250000 2.2049999237 68.535003662 131.54800415 2.0530195236  -999.250000 0.6309912205 1.3430000544
 940.99993896  -999.250000 17.486999512 0.0080000004  -999.250000 2.1830000877 70.350997925 133.14540100 2.0239999294  -999.250000 0.6370000243 1.3329999447
 941.12493896  -999.250000 17.525999069 0.0030000000  -999.250000 2.1679999828 71.198997498 133.95628357 2.0079998970  -999.250000 0.6340000033 1.3250000477
 941.24993896  -999.250000 17.563999176 -0.004000000  -999.250000 2.1559998989 71.830390930 134.54908752 1.9980000257  -999.250000 0.6309999824 1.3200000525
 941.37500000  -999.250000 17.597999573 -0.008996096  -999.250000 2.1479980946 72.623229980 134.72164917 1.9980000257  -999.250000 0.6250000000 1.3200000525
 941.49993896  -999.250000 17.628000259 -0.005000000  -999.250000 2.1459999084 73.882003784 134.35899353 2.0099940300  -999.250000 0.6170039177 1.3250000477
 941.62493896  -999.250000 17.649000168 0.0040000002  -999.250000 2.1489999294 74.750999451 133.92178345 2.0220000744  -999.250000 0.6060000062 1.3289999962
 941.74993896  -999.250000 17.698999405 0.0140000004  -999.250000 2.1559998989 75.228996277 133.49978638 2.0339999199  -999.250000 0.6000000238 1.3309999704
 941.87493896  -999.250000 17.819999695 0.0230000000  -999.250000 2.1649999619 75.217697144 133.06970215 2.0409998894  -999.250000 0.6019999981 1.3339999914
 942.00000000  -999.250000 18.035999298 0.0299999993  -999.250000 2.1790068150 74.593307495 132.45735168 2.0390000343  -999.250000 0.6050000191 1.3370000124
 942.12493896  -999.250000 18.122999191 0.0299999993  -999.250000 2.1860001087 73.882003784 131.80200195 2.0269999504  -999.250000 0.6090000272 1.3380000591
 942.24993896  -999.250000 18.120000839 0.0280000009  -999.250000 2.1949999332 73.077003479 130.85229492 2.0130000114  -999.250000 0.6129999757 1.3370000124
 942.37493896  -999.250000 17.971000671 0.0199999996  -999.250000 2.2109999657 72.089462280 129.39991760 2.0009999275  -999.250000 0.6179999709 1.3339999914
 942.49993896  -999.250000 17.683000565 -0.001007324  -999.250000 2.2420089245 70.999839783 127.18553925 1.9950000048  -999.250000 0.6230000257 1.3289999962
 942.62487793  -999.250000 17.506000519 -0.016000001  -999.250000 2.2599999905 70.679000854 126.25199890 2.0039911270  -999.250000 0.6269960403 1.3270000219
 942.74993896  -999.250000 17.416999817 -0.029999999  -999.250000 2.2679998875 70.832000732 126.03199768 2.0209999084  -999.250000 0.6330000162 1.3289999962
 942.87493896  -999.250000 17.374000549 -0.037999999  -999.250000 2.2579998970 71.362998962 126.86892700 2.0460000038  -999.250000 0.6420000196 1.3339999914
 942.99993896  -999.250000 17.357999802 -0.037999999  -999.250000 2.2249999046 72.230224609 128.77658081 2.0769999027  -999.250000 0.6480000019 1.3450000286
 943.12500000  -999.250000 17.353000641 -0.026988288  -999.250000 2.1999785900 72.688323975 129.96080017 2.0859999657  -999.250000 0.6439999938 1.3530000448
 943.24993896  -999.250000 17.347000122 -0.015000000  -999.250000 2.1779999733 73.013000488 130.77699280 2.0899980068  -999.250000 0.6370034218 1.3630000353
 943.37493896  -999.250000 17.340999603 0.0000000000  -999.250000 2.1619999409 73.005996704 131.14692688 2.0950000286  -999.250000 0.6230000257 1.3760000467
 943.49993896  -999.250000 17.336000443 0.0199999996  -999.250000 2.1549999714 72.246002197 131.00500488 2.1119999886  -999.250000 0.6110000014 1.3990000486
 943.62493896  -999.250000 17.337999344 0.0289999992  -999.250000 2.1579999924 71.569747925 130.99913025 2.1319999695  -999.250000 0.6029999852 1.4119999409
 943.75000000  -999.250000 17.343000412 0.0370048806  -999.250000 2.1630117893 71.059127808 131.29292297 2.1549999714  -999.250000 0.5960000157 1.4229999781
 943.87493896  -999.250000 17.343999863 0.0419999994  -999.250000 2.1749999523 71.189002991 132.23500061 2.1739907265  -999.250000 0.5960000157 1.4349999428
 943.99993896  -999.250000 17.336999893 0.0450000018  -999.250000 2.1949999332 72.125999451 133.82339478 2.1789999008  -999.250000 0.5960000157 1.4500000477
 944.12493896  -999.250000 17.322000504 0.0390000008  -999.250000 2.2079999447 73.211540222 134.63015747 2.1579999924  -999.250000 0.5970000029 1.4579999447
 944.24993896  -999.250000 17.304000854 0.0259873047  -999.250000 2.2160005569 74.316429138 134.93478394 2.1210000515  -999.250000 0.5979999900 1.4630000591
 944.37500000  -999.250000 17.284000397 -0.000045876  -999.250000 2.2169921398 75.184951782 134.48701477 2.0699999332  -999.250000 0.5989999771 1.4630000591
 944.49993896  -999.250000 17.260999680 -0.046999998  -999.250000 2.2090001106 75.138999939 132.46299744 1.9989999533  -999.250000 0.6010000110 1.4509999752
 944.62493896  -999.250000 17.253000259 -0.075999998  -999.250000 2.2030000687 74.069000244 130.57000732 1.9700000286  -999.250000 0.6019999981 1.4320000410
 944.74993896  -999.250000 17.250999451 -0.101999998  -999.250000 2.1970000267 72.560058594 128.52586365 1.9600000381  -999.250000 0.6029999852 1.4060000181
 944.87493896  -999.250000 17.250000000 -0.125009269  -999.250000 2.1950023174 70.634963989 126.20770264 1.9739999771  -999.250000 0.6019999981 1.3569999933
 944.99993896  -999.250000 17.250999451 -0.143999994  -999.250000 2.2000000477 68.516998291 123.54900360 2.0059843063  -999.250000 0.6010004878 1.2790000439
 945.12493896  -999.250000 17.250999451 -0.143999994  -999.250000 2.2039999962 67.651000977 122.47379303 2.0260000229  -999.250000 0.5979999900 1.2350000143
 945.24993896  -999.250000 17.250999451 -0.135000005  -999.250000 2.2079999447 67.447998047 122.05612946 2.0399999619  -999.250000 0.5950000286 1.2079999447
 945.37493896  -999.250000 17.250999451 -0.118000001  -999.250000 2.2119998932 67.963813782 122.33168793 2.0490000248  -999.250000 0.5929999948 1.2029999495
 945.50000000  -999.250000 17.249000549 -0.092985362  -999.250000 2.2159953117 69.635391235 123.73360443 2.0520000458  -999.250000 0.5899999738 1.2300000191
 945.62493896  -999.250000 17.249000549 -0.078000002  -999.250000 2.2109999657 71.054000854 125.37300110 2.0460028648  -999.250000 0.5890004635 1.2660000324
 945.74993896  -999.250000 17.247999191 -0.064000003  -999.250000 2.2030000687 72.192001343 127.40138245 2.0329999924  -999.250000 0.5879999995 1.3059999943
 945.87493896  -999.250000 17.247999191 -0.050999999  -999.250000 2.1900000572 72.459594727 130.22612000 1.9910000563  -999.250000 0.5860000253 1.3539999723
 945.99993896  -999.250000 17.249000549 -0.036998536  -999.250000 2.1739957333 71.624542236 134.57214355 1.8999999762  -999.250000 0.5849999785 1.4160000086
 946.12500000  -999.250000 17.249000549 -0.034000002  -999.250000 2.1649951935 70.682357788 136.92446899 1.8190000057  -999.250000 0.5849999785 1.4440000057
 946.24993896  -999.250000 17.250999451 -0.034000002  -999.250000 2.1600000858 70.025001526 138.42399597 1.7380000353  -999.250000 0.5849999785 1.4509999752
 946.37493896  -999.250000 17.256000519 -0.039999999  -999.250000 2.1579999924 69.778999329 138.91261292 1.6490000486  -999.250000 0.5860000253 1.4140000343
 946.49993896  -999.250000 17.261999130 -0.057000000  -999.250000 2.1600000858 69.750740051 138.14425659 1.5440000296  -999.250000 0.5870000124 1.3120000362
