# LAS format log file from PETREL
# Project units are specified as depth units
#==================================================================
~Version information
VERS.   2.0:
WRAP.   NO:
#==================================================================
~Well
STRT .m      806.37493896 :
STOP .m      2790.0000000 :
STEP .m     0.00000000 :
NULL .        -999.250000 :
COMP.           : COMPANY
WELL.  34/7-12   : WELL
FLD.            : FIELD
LOC.            : LOCATION
SRVC.           : SERVICE COMPANY
DATE.  2018-09-11 14:48:51   : Log Export Date {yyyy-MM-dd HH:mm:ss}
PROV.           : PROVINCE
UWI.   34/7-12   : UNIQUE WELL ID
API.            : API NUMBER
#==================================================================
~Curve
DEPT .m                   : DEPTH
Lithology_geolink ._      : Lithology_geolink
CALI .in                  : CALI
DRHO .g/cm3               : DRHO
NPHI .m3/m3               : NPHI
RHOB .g/cm3               : RHOB
GR .gAPI                  : GR
DTC .us/ft                : DTC
RDEP .ohm.m               : RDEP
SP .mV                    : SP
RSHA .ohm.m               : RSHA
RMED .ohm.m               : RMED
~Parameter
#==================================================================
~Ascii
# ...
 1201.6250000  -999.250000 17.354999542 -0.035980467  -999.250000 2.2009980679 76.320465088 129.13137817 1.3209999800  -999.250000 0.5000000000 1.0460000038
 1201.7498779  -999.250000 17.353000641 -0.016000001  -999.250000 2.1989998817 75.777999878 129.52200317 1.3170000315  -999.250000 0.5000000000 1.0140000582
 1201.8750000  -999.250000 17.347000122 0.0060175783  -999.250000 2.1919901371 74.121002197 130.32688904 1.3179999590  -999.250000 0.5000000000 0.9919999838
 1202.0000000  -999.250000 17.336000443 0.0239960942  -999.250000 2.1819970608 71.315002441 131.23997498 1.3240000010  -999.250000 0.5009999871 0.9819999933
 1202.1250000  -999.250000 17.326999664 0.0199921876  -999.250000 2.1790008545 70.258567810 131.20471191 1.3309999704  -999.250000 0.5009999871 0.9909999967
 1202.2500000  -999.250000 17.318000793 0.0119892582  -999.250000 2.1800048351 69.816299438 130.91360474 1.3400000334  -999.250000 0.5009999871 1.0019999743
 1202.3748779  -999.250000 17.312000275 0.0010000000  -999.250000 2.1849999428 70.117996216 130.50999451 1.3539999723  -999.250000 0.5009999871 1.0140000582
 1202.5000000  -999.250000 17.311000824 -0.007999023  -999.250000 2.1960039139 71.482002258 130.14805603 1.3750000000  -999.250000 0.5000000000 1.0310000181
 1202.6250000  -999.250000 17.315999985 -0.006992188  -999.250000 2.2000000477 72.869560242 130.20423889 1.3849999905  -999.250000 0.5000000000 1.0460000038
 1202.7500000  -999.250000 17.326000214 0.0010156251  -999.250000 2.1999931335 74.474822998 130.45954895 1.3890000582  -999.250000 0.4970000088 1.0640000105
 1202.8748779  -999.250000 17.343000412 0.0170000009  -999.250000 2.1930000782 76.336997986 131.01600647 1.3780107498  -999.250000 0.4940029085 1.0930000544
 1202.9998779  -999.250000 17.367000580 0.0379999988  -999.250000 2.1800000668 78.134002686 131.97099304 1.3480000496  -999.250000 0.4909999967 1.1349999905
 1203.1250000  -999.250000 17.375000000 0.0429951176  -999.250000 2.1739952564 77.972000122 132.67973328 1.3179999590  -999.250000 0.4869999886 1.1529999971
 1203.2500000  -999.250000 17.374000549 0.0379882790  -999.250000 2.1689951420 76.884651184 133.43684387 1.2829999924  -999.250000 0.4839999974 1.1569999456
 1203.3750000  -999.250000 17.363000870 0.0259736329  -999.250000 2.1639902592 74.473831177 134.29505920 1.2389999628  -999.250000 0.4810000062 1.1339999437
 1203.4998779  -999.250000 17.336000443 -0.001000000  -999.250000 2.1540000439 69.192001343 135.36500549 1.1699999571  -999.250000 0.4769999981 1.0620000362
 1203.6250000  -999.250000 17.320999146 -0.017000001  -999.250000 2.1489999294 65.269996643 135.71099854 1.1280000210  -999.250000 0.4740000069 1.0130000114
 1203.7500000  -999.250000 17.312999725 -0.030013671  -999.250000 2.1459980011 61.603000641 135.88812256 1.0900000334  -999.250000 0.4709999859 0.9720000029
 1203.8750000  -999.250000 17.309999466 -0.044018555  -999.250000 2.1439990997 58.225135803 136.01625061 1.0440000296  -999.250000 0.4690000117 0.9390000105
 1204.0000000  -999.250000 17.309000015 -0.063013673  -999.250000 2.1429989338 55.294277191 136.26524353 0.9860000014  -999.250000 0.4659999907 0.9060000181
 1204.1248779  -999.250000 17.308000565 -0.077000000  -999.250000 2.1419999599 54.557998657 136.51899719 0.9530000091  -999.250000 0.4639999866 0.8909999728
 1204.2500000  -999.250000 17.306999207 -0.094016597  -999.250000 2.1440088749 54.325000763 136.79821777 0.9309999943  -999.250000 0.4609999955 0.8780000210
 1204.3750000  -999.250000 17.305999756 -0.111014649  -999.250000 2.1530196667 54.124778748 137.01405334 0.9179999828  -999.250000 0.4569999874 0.8629999757
 1204.5000000  -999.250000 17.305000305 -0.125999019  -999.250000 2.1730060577 53.897071838 137.06082153 0.9200000167  -999.250000 0.4539999962 0.8429999948
 1204.6248779  -999.250000 17.306999207 -0.125000000  -999.250000 2.1789999008 53.971000671 136.87199402 0.9379824400  -999.250000 0.4530009925 0.8309999704
 1204.7498779  -999.250000 17.311000824 -0.120999999  -999.250000 2.1800000668 54.300998688 136.60499573 0.9629999995  -999.250000 0.4519999921 0.8220000267
 1204.8750000  -999.250000 17.318000793 -0.113989256  -999.250000 2.1719794273 55.513000488 136.26669312 1.0010000467  -999.250000 0.4560000002 0.8209999800
 1205.0000000  -999.250000 17.325000763 -0.102993160  -999.250000 2.1509864330 58.010242462 135.96203613 1.0499999523  -999.250000 0.4600000083 0.8410000205
 1205.1250000  -999.250000 17.327999115 -0.095990233  -999.250000 2.1369884014 60.306453705 135.99923706 1.0809999704  -999.250000 0.4639999866 0.8679999709
 1205.2498779  -999.250000 17.326999664 -0.086000003  -999.250000 2.1250000000 62.813999176 136.25199890 1.1109706163  -999.250000 0.4679960907 0.9029999971
 1205.3748779  -999.250000 17.322999954 -0.068999998  -999.250000 2.1150000095 65.734001160 136.74600220 1.1549999714  -999.250000 0.4720000029 0.9430000186
 1205.5000000  -999.250000 17.322999954 -0.044988282  -999.250000 2.1069982052 69.136001587 137.57954407 1.2250000238  -999.250000 0.4760000110 0.9860000014
 1205.6250000  -999.250000 17.343999863 -0.032990236  -999.250000 2.1049981117 70.347946167 138.13958740 1.2680000067  -999.250000 0.4799999893 0.9959999919
 1205.7500000  -999.250000 17.381999969 -0.022995118  -999.250000 2.1029970646 71.315040588 138.73570251 1.3049999475  -999.250000 0.4850000143 1.0039999485
 1205.8748779  -999.250000 17.438999176 -0.017999999  -999.250000 2.0999999046 72.377998352 139.44599915 1.3350000381  -999.250000 0.4889999926 1.0160000324
 1206.0000000  -999.250000 17.495000839 -0.019001953  -999.250000 2.0970008373 73.799003601 140.36033630 1.3519999981  -999.250000 0.4930000007 1.0410000086
 1206.1250000  -999.250000 17.499000549 -0.021000976  -999.250000 2.0980019569 74.601516724 140.71110535 1.3470000029  -999.250000 0.4970000088 1.0590000153
 1206.2500000  -999.250000 17.466999054 -0.021996094  -999.250000 2.1000008583 75.136589050 140.82495117 1.3289999962  -999.250000 0.4990000129 1.0750000477
 1206.3748779  -999.250000 17.423999786 -0.017999999  -999.250000 2.1010000706 75.735000610 140.77600098 1.3020263910  -999.250000 0.4980009794 1.0930000544
 1206.4998779  -999.250000 17.385000229 -0.008000000  -999.250000 2.1019999981 76.627998352 140.70700073 1.2680000067  -999.250000 0.4939999878 1.1169999838
 1206.6250000  -999.250000 17.395999908 -0.001998047  -999.250000 2.0999989510 77.347000122 140.85827637 1.2539999485  -999.250000 0.4819999933 1.1289999485
 1206.7500000  -999.250000 17.417999268 -0.000002930  -999.250000 2.0989999771 78.056701660 141.13330078 1.2430000305  -999.250000 0.4690000117 1.1390000582
 1206.8750000  -999.250000 17.447000504 -0.003008789  -999.250000 2.0990018845 78.775802612 141.44216919 1.2300000191  -999.250000 0.4550000131 1.1469999552
 1206.9998779  -999.250000 17.479000092 -0.012000000  -999.250000 2.1010000706 79.596000671 141.61000061 1.2010283470  -999.250000 0.4440107346 1.1519999504
 1207.1248779  -999.250000 17.488000870 -0.017999999  -999.250000 2.0999999046 79.793998718 141.38999939 1.1749999523  -999.250000 0.4410000145 1.1490000486
 1207.2500000  -999.250000 17.476999283 -0.026013672  -999.250000 2.0979981422 79.474998474 140.99044800 1.1460000277  -999.250000 0.4390000105 1.1440000534
 1207.3750000  -999.250000 17.440999985 -0.040022459  -999.250000 2.0959990025 77.578216553 140.42837524 1.1069999933  -999.250000 0.4359999895 1.1310000420
 1207.5000000  -999.250000 17.375000000 -0.063015625  -999.250000 2.0950009823 73.704643250 139.78981018 1.0599999428  -999.250000 0.4339999855 1.1030000448
 1207.6248779  -999.250000 17.327999115 -0.079000004  -999.250000 2.0959999561 70.268997192 139.60099792 1.0390000343  -999.250000 0.4329999983 1.0729999542
 1207.7500000  -999.250000 17.291000366 -0.096024416  -999.250000 2.0929901600 66.661003113 139.54296875 1.0219999552  -999.250000 0.4329999983 1.0379999876
 1207.8750000  -999.250000 17.266000748 -0.121041991  -999.250000 2.0829784870 62.480998993 139.51493835 1.0049999952  -999.250000 0.4350000024 0.9959999919
