# LAS format log file from PETREL
# Project units are specified as depth units
#==================================================================
~Version information
VERS.   2.0:
WRAP.   NO:
#==================================================================
~Well
STRT .m      212.75000000 :
STOP .m      3019.0000000 :
STEP .m     0.00000000 :
NULL .        -999.250000 :
COMP.           : COMPANY
WELL.  34/7-21   : WELL
FLD.            : FIELD
LOC.            : LOCATION
SRVC.           : SERVICE COMPANY
DATE.  2018-09-11 14:48:52   : Log Export Date {yyyy-MM-dd HH:mm:ss}
PROV.           : PROVINCE
UWI.   34/7-21   : UNIQUE WELL ID
API.            : API NUMBER
#==================================================================
~Curve
DEPT .m                   : DEPTH
Lithology_geolink ._      : Lithology_geolink
CALI .in                  : CALI
DRHO .g/cm3               : DRHO
NPHI .m3/m3               : NPHI
RHOB .g/cm3               : RHOB
PEF .b/e                  : PEF
GR .gAPI                  : GR
DTC .us/ft                : DTC
RDEP .ohm.m               : RDEP
SP .mV                    : SP
RSHA .ohm.m               : RSHA
RMED .ohm.m               : RMED
~Parameter
#==================================================================
~Ascii
# ...
 1316.7500000  -999.250000 18.091590881 0.0052958578  -999.250000 2.0484113693 7.5063476563 85.617080688 152.20648193 0.7970280647 53.508377075  -999.250000 0.8795324564
 1316.8750000  -999.250000 18.108394623 0.0141059961  -999.250000 2.0334577560 7.4839916229 86.236419678 152.98544312 0.8007774353 53.246772766  -999.250000 0.8817720413
 1317.0000000  -999.250000 18.131366730 0.0216650777  -999.250000 2.0223507881 7.4648380280 86.359939575 153.79035950 0.7887190580 53.164718628  -999.250000 0.8788946867
 1317.1250000  -999.250000 18.161979675 0.0269924626  -999.250000 2.0185174942 7.4899158478 86.220825195 154.24957275 0.7654625177 53.187927246  -999.250000 0.8703608513
 1317.2500000  -999.250000 18.203823090 0.0259120464  -999.250000 2.0208959579 7.5814762115 86.245254517 154.08300781 0.7419792414 53.150840759  -999.250000 0.8586926460
 1317.3750000  -999.250000 18.253211975 0.0141333062  -999.250000 2.0263218880 7.6895532608 86.857589722 153.28863525 0.7298511267 52.948806763  -999.250000 0.8505235910
 1317.5000000  -999.250000 18.296104431 -0.005180699  -999.250000 2.0306448936 7.4529895782 87.910476685 152.45512390 0.7253139019 52.589591980  -999.250000 0.8518131971
 1317.6250000  -999.250000 18.325160980 -0.021071162  -999.250000 2.0309290886 7.1480331421 88.943969727 152.09553528 0.7163397074 52.180297852  -999.250000 0.8652607203
 1317.7501221  -999.250000 18.341957092 -0.024728347  -999.250000 2.0269432068 7.0519466400 89.470550537 152.46054077 0.6913115978 51.881530762  -999.250000 0.8881118298
 1317.8748779  -999.250000 18.352783203 -0.015881751  -999.250000 2.0196900368 7.1506271362 89.213577271 153.47683716 0.6524760723 51.746398926  -999.250000 0.9097435474
 1318.0000000  -999.250000 18.361194611 -0.001884432  -999.250000 2.0106658936 7.2643918991 88.558532715 154.66299438 0.6227800846 51.714469910  -999.250000 0.9192216396
 1318.1250000  -999.250000 18.361061096 0.0092120413  -999.250000 2.0015263557 7.2899332047 87.926467896 155.73757935 0.6172243357 51.659423828  -999.250000 0.9138884544
 1318.2500000  -999.250000 18.342285156 0.0144063085  -999.250000 1.9940896034 7.2767086029 87.757659912 156.57839966 0.6342424154 51.468940735  -999.250000 0.8985414505
 1318.3750000  -999.250000 18.295841217 0.0155387931  -999.250000 1.9903178215 7.2702083588 88.306579590 157.11311340 0.6591848135 51.129943848  -999.250000 0.8808140755
 1318.5000000  -999.250000 18.234111786 0.0158314817  -999.250000 1.9924230576 7.2786426544 89.064926147 157.29672241 0.6761165857 50.680175781  -999.250000 0.8658473492
 1318.6250000  -999.250000 18.170413971 0.0153009091  -999.250000 2.0010943413 7.2998571396 89.619613647 156.92581177 0.6787433624 50.208312988  -999.250000 0.8548030853
 1318.7500000  -999.250000 18.114868164 0.0111753885  -999.250000 2.0142412186 7.3310585022 89.891098022 155.80572510 0.6684086323 49.828956604  -999.250000 0.8477040529
 1318.8751221  -999.250000 18.076774597 0.0017067173  -999.250000 2.0293893814 7.3531560898 89.974182129 153.85601807 0.6528192759 49.628402710  -999.250000 0.8454434872
 1318.9998779  -999.250000 18.055072784 -0.011792906  -999.250000 2.0442643166 7.3378334045 89.921386719 151.57907104 0.6397012472 49.681640625  -999.250000 0.8474079370
 1319.1250000  -999.250000 18.045982361 -0.025080405  -999.250000 2.0578579903 7.2888050079 89.574905396 149.50033569 0.6306103468 50.031097412  -999.250000 0.8526376486
 1319.2500000  -999.250000 18.043659210 -0.033476502  -999.250000 2.0702519417 7.2220373154 88.783340454 148.06362915 0.6242157221 50.576438904  -999.250000 0.8592022657
 1319.3750000  -999.250000 18.043956757 -0.034704730  -999.250000 2.0808997154 7.2287025452 87.608215332 147.59063721 0.6156373024 51.094787598  -999.250000 0.8644298315
 1319.5000000  -999.250000 18.047191620 -0.030525722  -999.250000 2.0877642632 7.4757633209 86.544723511 147.81542969 0.6001423597 51.426147461  -999.250000 0.8668407202
 1319.6250000  -999.250000 18.058830261 -0.025048640  -999.250000 2.0889964104 7.8733806610 86.067474365 148.53128052 0.5775101185 51.500633240  -999.250000 0.8665885925
 1319.7500000  -999.250000 18.086402893 -0.020453982  -999.250000 2.0851740837 8.2919807434 86.349182129 149.56208801 0.5525226593 51.390464783  -999.250000 0.8655217886
 1319.8750000  -999.250000 18.134876251 -0.016086027  -999.250000 2.0778489113 8.5614070892 87.105422974 150.77243042 0.5340672731 51.253341675  -999.250000 0.8659218550
 1320.0000000  -999.250000 18.188899994 -0.010773888  -999.250000 2.0683913231 8.4928245544 87.689163208 151.99877930 0.5281893015 51.174850464  -999.250000 0.8669365644
 1320.1248779  -999.250000 18.229133606 -0.005042015  -999.250000 2.0571756363 8.0735931396 87.768997192 153.13374329 0.5375852585 51.171104431  -999.250000 0.8656551838
 1320.2500000  -999.250000 18.241065979 -0.000893325  -999.250000 2.0440721512 7.4043989182 87.262207031 154.13595581 0.5582450628 51.209945679  -999.250000 0.8592057228
 1320.3750000  -999.250000 18.222606659 0.0007044988  -999.250000 2.0292429924 6.7251243591 86.217102051 155.03378296 0.5794881582 51.276611328  -999.250000 0.8461908102
 1320.5000000  -999.250000 18.197521210 0.0006706944  -999.250000 2.0139765739 6.3248443604 85.063018799 155.91815186 0.5933386087 51.380805969  -999.250000 0.8305569887
 1320.6250000  -999.250000 18.184608459 0.0016304394  -999.250000 2.0004525185 6.2577772141 84.162780762 156.80795288 0.5990147591 51.517501831  -999.250000 0.8165749311
 1320.7500000  -999.250000 18.193279266 0.0054607606  -999.250000 1.9906020164 6.3989276886 83.710739136 157.65682983 0.5989655256 51.687705994  -999.250000 0.8074256182
 1320.8750000  -999.250000 18.222274780 0.0117160510  -999.250000 1.9853589535 6.5170879364 83.853500366 158.31054688 0.5943466425 51.974967957  -999.250000 0.8042154312
 1321.0000000  -999.250000 18.252510071 0.0172493123  -999.250000 1.9844813347 6.5327186584 84.311004639 158.63912964 0.5852563381 52.602607727  -999.250000 0.8032698631
 1321.1250000  -999.250000 18.266010284 0.0170317069  -999.250000 1.9866456985 6.5050172806 84.543136597 158.51480103 0.5726499557 53.949249268  -999.250000 0.8009338379
 1321.2501221  -999.250000 18.249984741 0.0084574409  -999.250000 1.9905228615 6.4897241592 83.973464966 157.85995483 0.5613821745 56.219894409  -999.250000 0.7941374779
 1321.3748779  -999.250000 18.201076508 -0.006924393  -999.250000 1.9962711334 6.4855508804 82.407592773 156.58334351 0.5577913523 59.094261169  -999.250000 0.7806998491
 1321.5000000  -999.250000 18.141319275 -0.024354044  -999.250000 2.0045156479 6.4773960114 80.528732300 154.83518982 0.5586054325 62.050765991  -999.250000 0.7624691725
 1321.6250000  -999.250000 18.091182709 -0.038603462  -999.250000 2.0147747993 6.4416294098 78.908462524 152.72296143 0.5573968887 64.462509155  -999.250000 0.7413015366
 1321.7500000  -999.250000 18.063709259 -0.046746798  -999.250000 2.0250496864 6.3782453537 77.880264282 150.40667725 0.5518970490 65.934219360  -999.250000 0.7194080353
 1321.8750000  -999.250000 18.059322357 -0.049246572  -999.250000 2.0335688591 6.3081245422 77.490264893 148.16326904 0.5497184992 66.593872070  -999.250000 0.7003743649
 1322.0000000  -999.250000 18.061088562 -0.048458531  -999.250000 2.0395832062 6.2508211136 77.370040894 146.25048828 0.5600266457 66.717651367  -999.250000 0.6868695021
 1322.1250000  -999.250000 18.060554504 -0.046582457  -999.250000 2.0438189507 6.2061986923 77.392059326 144.83187866 0.5851876736 66.638122559  -999.250000 0.6806249619
 1322.2500000  -999.250000 18.056137085 -0.044436634  -999.250000 2.0474972725 6.1736059189 77.546005249 143.93408203 0.6179971695 66.647247314  -999.250000 0.6818650961
 1322.3751221  -999.250000 18.050567627 -0.042459831  -999.250000 2.0506129265 6.1513080597 77.580642700 143.49496460 0.6424074173 66.890335083  -999.250000 0.6899348497
 1322.4998779  -999.250000 18.048652649 -0.041668564  -999.250000 2.0521974564 6.1366748810 77.164077759 143.25198364 0.6518014669 67.366333008  -999.250000 0.7009813786
 1322.6250000  -999.250000 18.053421021 -0.042168744  -999.250000 2.0516653061 6.1233606339 76.286834717 143.07641602 0.6494723558 67.955230713  -999.250000 0.7121480703
