# LAS format log file from PETREL
# Project units are specified as depth units
#==================================================================
~Version information
VERS.   2.0:
WRAP.   NO:
#==================================================================
~Well
STRT .m      1820.5001221 :
STOP .m      3000.6250000 :
STEP .m     0.00000000 :
NULL .        -999.250000 :
COMP.           : COMPANY
WELL.  34/7-13   : WELL
FLD.            : FIELD
LOC.            : LOCATION
SRVC.           : SERVICE COMPANY
DATE.  2018-09-11 14:48:51   : Log Export Date {yyyy-MM-dd HH:mm:ss}
PROV.           : PROVINCE
UWI.   34/7-13   : UNIQUE WELL ID
API.            : API NUMBER
#==================================================================
~Curve
DEPT .m                   : DEPTH
Lithology_geolink ._      : Lithology_geolink
CALI .in                  : CALI
BS .in                    : BS
DRHO .g/cm3               : DRHO
NPHI .m3/m3               : NPHI
RHOB .g/cm3               : RHOB
GR .gAPI                  : GR
DTC .us/ft                : DTC
RDEP .ohm.m               : RDEP
SP .mV                    : SP
RSHA .ohm.m               : RSHA
RMED .ohm.m               : RMED
~Parameter
#==================================================================
~Ascii
# ...
 2054.5000000  -999.250000 12.991000175 12.250000954 0.0070000002 0.2894805372 2.3499999046 85.107002258 119.61299896 1.0640000105 5.2579998970 2.3139998913 2.3139998913
 2054.6250000  -999.250000 12.994999886 12.250000954 0.0049999999 0.2910469174 2.3589999676 86.119003296 120.19099426 1.0609999895 5.7829999924 2.2560000420 2.2560000420
 2054.7500000  -999.250000 12.998000145 12.250000954 0.0030000000 0.2927466929 2.3610000610 87.533996582 120.82499695 1.0579999685 5.8990001678 2.2039999962 2.2039999962
 2054.8750000  -999.250000 12.999999046 12.250000954 0.0010000000 0.2931991220 2.3540000916 88.644996643 121.37500000 1.0559999943 5.4060001373 2.1719999313 2.1719999313
 2055.0000000  -999.250000 13.001999855 12.250000954 0.0020000001 0.2934800088 2.3440001011 89.033996582 121.72799683 1.0549999475 4.3119997978 2.1619999409 2.1619999409
 2055.1250000  -999.250000 13.003999710 12.250000954 0.0030000000 0.2954800129 2.3329999447 88.797996521 121.85900116 1.0549999475 2.9769999981 2.1640000343 2.1640000343
 2055.2500000  -999.250000 13.003999710 12.250000954 0.0030000000 0.2999799848 2.3250000477 88.393997192 121.75800323 1.0570000410 1.8170000315 2.1779999733 2.1779999733
 2055.3750000  -999.250000 13.001999855 12.250000954 0.0040000002 0.3050999939 2.3220000267 88.250999451 121.51799774 1.0599999428 1.1050000191 2.2019999027 2.2019999027
 2055.5000000  -999.250000 12.998999596 12.250000954 0.0040000002 0.3079045415 2.3199999332 88.443000793 121.20199585 1.0640000105 0.9150000215 2.2360000610 2.2360000610
 2055.6250000  -999.250000 12.994999886 12.250000954 0.0060000001 0.3075606823 2.3180000782 88.684997559 120.89099884 1.0690000057 1.0859999657 2.2769999504 2.2769999504
 2055.7500000  -999.250000 12.989998817 12.250000954 0.0070000002 0.3054141998 2.3150000572 88.655998230 120.64199829 1.0729999542 1.4249999523 2.3180000782 2.3180000782
 2055.8750000  -999.250000 12.986001015 12.250000954 0.0070000002 0.3033540249 2.3139998913 88.367996216 120.50900269 1.0750000477 1.8750000000 2.3519999981 2.3519999981
 2056.0000000  -999.250000 12.984000206 12.250000954 0.0070000002 0.3021423519 2.3129999638 88.246002197 120.51000214 1.0750000477 2.3380000591 2.3750000000 2.3750000000
 2056.1250000  -999.250000 12.984999657 12.250000954 0.0080000004 0.3017607629 2.3159999847 88.762001038 120.64900208 1.0729999542 2.6979999542 2.3829998970 2.3829998970
 2056.2500000  -999.250000 12.987999916 12.250000954 0.0089999996 0.3018400073 2.3220000267 89.977996826 120.88899994 1.0679999590 2.8259999752 2.3659999371 2.3659999371
 2056.3750000  -999.250000 12.991000175 12.250000954 0.0089999996 0.3029499948 2.3289999962 91.418998718 121.16899872 1.0620000362 2.7530000210 2.3329999447 2.3329999447
 2056.5000000  -999.250000 12.994000435 12.250000954 0.0060000001 0.3060240149 2.3350000381 92.416999817 121.33699799 1.0529999733 2.5429999828 2.2899999619 2.2899999619
 2056.6250000  -999.250000 12.996999741 12.250000954 0.0040000002 0.3107108474 2.3389999866 92.593002319 121.41699982 1.0440000296 2.3420000076 2.2520000935 2.2520000935
 2056.7500000  -999.250000 13.001999855 12.250000954 0.0030000000 0.3155505359 2.3429999352 92.049003601 121.49900055 1.0349999666 2.2349998951 2.2190001011 2.2190001011
 2056.8750000  -999.250000 13.008999825 12.250000954 0.0040000002 0.3185940683 2.3489999771 91.167999268 121.69999695 1.0290000439 2.2720000744 2.1870000362 2.1870000362
 2057.0000000  -999.250000 13.013999939 12.250000954 0.0060000001 0.3198275864 2.3580000401 90.299003601 122.03199768 1.0269999504 2.4279999733 2.1559998989 2.1559998989
 2057.1250000  -999.250000 13.015999794 12.250000954 0.0080000004 0.3204587996 2.3640000820 89.593002319 122.39398956 1.0279999971 2.6830000877 2.1340000629 2.1340000629
 2057.2500000  -999.250000 13.019999504 12.250000954 0.0089999996 0.3222265244 2.3640000820 89.038002014 122.55599976 1.0340000391 2.9719998837 2.1340000629 2.1340000629
 2057.3750000  -999.250000 13.029000282 12.250000954 0.0089999996 0.3252600133 2.3529999256 88.544998169 122.41000366 1.0420000553 3.2109999657 2.1579999924 2.1579999924
 2057.5000000  -999.250000 13.045000076 12.250000954 0.0089999996 0.3278799951 2.3340001106 87.997001648 121.89700317 1.0520000458 3.4449999332 2.2000000477 2.2000000477
 2057.6250000  -999.250000 13.064998627 12.250000954 0.0089999996 0.3286285400 2.3159999847 87.271003723 121.22899628 1.0629999638 3.6440000534 2.2420001030 2.2420001030
 2057.7500000  -999.250000 13.081000328 12.250000954 0.0080000004 0.3267536461 2.3029999733 86.287002563 120.56399536 1.0740000010 3.7890000343 2.2769999504 2.2769999504
 2057.8750000  -999.250000 13.090000153 12.250000954 0.0080000004 0.3229573965 2.2990000248 85.094001770 120.01599884 1.0829999447 3.8759999275 2.3080000877 2.3080000877
 2058.0000000  -999.250000 13.090999603 12.250000954 0.0120000001 0.3182990849 2.2990000248 83.914001465 119.60501099 1.0889999866 3.9119999409 2.3440001011 2.3440001011
 2058.1250000  -999.250000 13.090999603 12.250000954 0.0170000009 0.3137987852 2.3059999943 83.110000610 119.34200287 1.0900000334 3.9189999104 2.3900001049 2.3900001049
 2058.2500000  -999.250000 13.093999863 12.250000954 0.0209999997 0.3104964495 2.3159999847 83.049003601 119.26599884 1.0859999657 3.8980000019 2.4349999428 2.4340000153
 2058.3750000  -999.250000 13.097999573 12.250000954 0.0209999997 0.3092723787 2.3310000896 83.950996399 119.46299744 1.0789999962 3.8410000801 2.4519999027 2.4519999027
 2058.5000000  -999.250000 13.100000381 12.250000954 0.0170000009 0.3093599975 2.3469998837 85.781997681 120.01200104 1.0690000057 3.7699999809 2.4140000343 2.4130001068
 2058.6250000  -999.250000 13.098999977 12.250000954 0.0109999999 0.3086499870 2.3589999676 88.260002136 120.83798981 1.0579999685 3.7420001030 2.3359999657 2.3359999657
 2058.7500000  -999.250000 13.093999863 12.250000954 0.0040000002 0.3052499890 2.3629999161 90.942001343 121.81999207 1.0460000038 3.8269999027 2.2409999371 2.2409999371
 2058.8750000  -999.250000 13.088001251 12.250000954 0.0000000000 0.3030143976 2.3580000401 93.350997925 122.73500061 1.0340000391 3.9909999371 2.1610000134 2.1610000134
 2059.0000000  -999.250000 13.083000183 12.250000954 -0.001000000 0.3053853512 2.3459999561 95.133003235 123.37100220 1.0230000019 4.0980000496 2.1150000095 2.1150000095
 2059.1250000  -999.250000 13.081000328 12.250000954 -0.001000000 0.3100009561 2.3329999447 96.192001343 123.66700745 1.0140000582 3.9849998951 2.1070001125 2.1070001125
 2059.2500000  -999.250000 13.081000328 12.250000954 0.0010000000 0.3131937683 2.3220000267 96.722000122 123.69000244 1.0069999695 3.6779999733 2.1280000210 2.1280000210
 2059.3750000  -999.250000 13.083000183 12.250000954 0.0010000000 0.3140383661 2.3169999123 97.036003113 123.56499481 1.0019999743 3.3480000496 2.1630001068 2.1630001068
 2059.5000000  -999.250000 13.086000443 12.250000954 0.0030000000 0.3139900863 2.3139998913 97.317001343 123.42299652 0.9980000257 3.1940000057 2.1970000267 2.1970000267
 2059.6250000  -999.250000 13.090000153 12.250000954 0.0040000002 0.3141796291 2.3139998913 97.489997864 123.31400299 0.9959999919 3.3039999008 2.2160000801 2.2160000801
 2059.7500000  -999.250000 13.093999863 12.250000954 0.0060000001 0.3147699833 2.3139998913 97.323997498 123.28800201 0.9940000176 3.7130000591 2.2139999866 2.2139999866
 2059.8750000  -999.250000 13.098999977 12.250000954 0.0080000004 0.3150900006 2.3129999638 96.653999329 123.33599854 0.9929999709 4.3029999733 2.1970000267 2.1970000267
 2060.0000000  -999.250000 13.104000092 12.250000954 0.0089999996 0.3144013584 2.3129999638 95.565002441 123.45200348 0.9919999838 4.9710001945 2.1710000038 2.1710000038
 2060.1250000  -999.250000 13.108999252 12.250000954 0.0099999998 0.3128131032 2.3129999638 94.426002502 123.60300446 0.9909999967 5.5780000687 2.1440000534 2.1440000534
 2060.2500000  -999.250000 13.114000320 12.250000954 0.0109999999 0.3107939363 2.3120000362 93.736000061 123.73600006 0.9900000095 6.0250000954 2.1250000000 2.1250000000
 2060.3750000  -999.250000 13.118999481 12.250000954 0.0099999998 0.3091033101 2.3129999638 93.867996216 123.80300140 0.9869999886 6.2360000610 2.1140000820 2.1140000820
