# LAS format log file from PETREL
# Project units are specified as depth units
#==================================================================
~Version information
VERS.   2.0:
WRAP.   NO:
#==================================================================
~Well
STRT .m      1820.5001221 :
STOP .m      3000.6250000 :
STEP .m     0.00000000 :
NULL .        -999.250000 :
COMP.           : COMPANY
WELL.  34/7-13   : WELL
FLD.            : FIELD
LOC.            : LOCATION
SRVC.           : SERVICE COMPANY
DATE.  2018-09-11 14:48:51   : Log Export Date {yyyy-MM-dd HH:mm:ss}
PROV.           : PROVINCE
UWI.   34/7-13   : UNIQUE WELL ID
API.            : API NUMBER
#==================================================================
~Curve
DEPT .m                   : DEPTH
Lithology_geolink ._      : Lithology_geolink
CALI .in                  : CALI
BS .in                    : BS
DRHO .g/cm3               : DRHO
NPHI .m3/m3               : NPHI
RHOB .g/cm3               : RHOB
GR .gAPI                  : GR
DTC .us/ft                : DTC
RDEP .ohm.m               : RDEP
SP .mV                    : SP
RSHA .ohm.m               : RSHA
RMED .ohm.m               : RMED
~Parameter
#==================================================================
~Ascii
# ...
 2210.5000000  -999.250000 12.963000298 12.250000954 0.0189999994 0.2944495380 2.3199999332 87.293998718 114.74501038 1.1569999456 18.462999344 2.3229999542 2.3229999542
 2210.6250000  -999.250000 12.960000038 12.250000954 0.0209999997 0.2961666286 2.3190000057 88.206001282 114.53299713 1.1590000391 17.902999878 2.3640000820 2.3640000820
 2210.7500000  -999.250000 12.954999924 12.250000954 0.0240000002 0.2983756661 2.3199999332 89.339996338 114.37200928 1.1579999924 17.229000092 2.4030001163 2.4030001163
 2210.8750000  -999.250000 12.949000359 12.250000954 0.0250000004 0.2998371422 2.3220000267 90.402000427 114.30599976 1.1519999504 16.768999100 2.4279999733 2.4279999733
 2211.0000000  -999.250000 12.944000244 12.250000954 0.0260000005 0.3006300032 2.3250000477 91.163002014 114.36799622 1.1419999599 16.646999359 2.4360001087 2.4360001087
 2211.1250000  -999.250000 12.937999725 12.250000954 0.0260000005 0.3022468388 2.3279941082 91.614997864 114.58199310 1.1280000210 16.822000504 2.4240000248 2.4240000248
 2211.2500000  -999.250000 12.932999611 12.250000954 0.0260000005 0.3049547076 2.3289980888 91.934997559 114.91200256 1.1100000143 17.059000015 2.3929998875 2.3929998875
 2211.3750000  -999.250000 12.927999496 12.250000954 0.0270000007 0.3075050116 2.3309962749 92.292999268 115.30500031 1.0900000334 17.191999435 2.3519999981 2.3519999981
 2211.5000000  -999.250000 12.923000336 12.250000954 0.0280000009 0.3072405457 2.3340001106 92.689002991 115.76100159 1.0679999590 17.099000931 2.3050000668 2.3050000668
 2211.6250000  -999.250000 12.917999268 12.250000954 0.0280000009 0.3038466573 2.3380000591 92.958999634 116.25599670 1.0460000038 16.875000000 2.2579998970 2.2579998970
 2211.7500000  -999.250000 12.916000366 12.250000954 0.0270000007 0.2990393937 2.3420000076 92.917999268 116.73600006 1.0219999552 16.559999466 2.2139999866 2.2139999866
 2211.8750000  -999.250000 12.917999268 12.250000954 0.0260000005 0.2949579656 2.3450000286 92.508003235 117.23899841 1.0030000210 16.184000015 2.1710000038 2.1710000038
 2212.0000000  -999.250000 12.923000336 12.250000954 0.0240000002 0.2921155393 2.3469998837 91.803001404 117.73699951 0.9860000014 15.682001114 2.1319999695 2.1319999695
 2212.1250000  -999.250000 12.928999901 12.250000954 0.0219999999 0.2909899950 2.3480000496 90.936996460 118.18099976 0.9710000157 15.003999710 2.0989999771 2.0989999771
 2212.2500000  -999.250000 12.932999611 12.250000954 0.0199999996 0.2909100056 2.3480000496 90.026000977 118.51799774 0.9599999785 14.371999741 2.0699999332 2.0699999332
 2212.3750000  -999.250000 12.932999611 12.250000954 0.0190019496 0.2909599245 2.3480000496 89.157997131 118.73000336 0.9499999881 13.814000130 2.0520000458 2.0520000458
 2212.5000000  -999.250000 12.928999901 12.250000954 0.0189999994 0.2901016772 2.3480000496 88.456001282 118.81300354 0.9440000057 13.503000259 2.0480000973 2.0480000973
 2212.6250000  -999.250000 12.921999931 12.250000954 0.0189999994 0.2885530293 2.3480000496 88.095001221 118.82900238 0.9390000105 13.475000381 2.0539999008 2.0539999008
 2212.7500000  -999.250000 12.913999557 12.250000954 0.0189999994 0.2875220180 2.3469998837 88.237998962 118.83200073 0.9369999766 13.861000061 2.0690000057 2.0690000057
 2212.8750000  -999.250000 12.907999039 12.250000954 0.0179999992 0.2874501646 2.3450000286 88.879997253 118.86199951 0.9369999766 14.635999680 2.0869998932 2.0869998932
 2213.0000000  -999.250000 12.906000137 12.250000954 0.0189999994 0.2876396477 2.3440001011 89.742996216 118.91799927 0.9380000234 15.666000366 2.0989999771 2.0989999771
 2213.1250000  -999.250000 12.909000397 12.250000954 0.0199999996 0.2872108519 2.3450000286 90.322998047 118.95999908 0.9409999847 16.628000259 2.0999999046 2.0999999046
 2213.2500000  -999.250000 12.913000107 12.250000954 0.0230000000 0.2861720324 2.3469998837 90.130996704 118.94499969 0.9440000057 17.156000137 2.0929999352 2.0929999352
 2213.3750000  -999.250000 12.916999817 12.250000954 0.0240000002 0.2849799991 2.3499999046 89.015998840 118.84799957 0.9490000010 17.066999435 2.0829999447 2.0829999447
 2213.5000000  -999.250000 12.920000076 12.250000954 0.0259961020 0.2840418220 2.3519961834 87.275001526 118.68499756 0.9549999833 16.516000748 2.0769999027 2.0769999027
 2213.6250000  -999.250000 12.917999268 12.250000954 0.0250019543 0.2833513319 2.3519999981 85.511001587 118.47798920 0.9629999995 15.836000443 2.0759999752 2.0759999752
 2213.7500000  -999.250000 12.911999702 12.250000954 0.0240000002 0.2829408050 2.3510000706 84.361000061 118.23999786 0.9720000029 15.326999664 2.0799999237 2.0799999237
 2213.8750000  -999.250000 12.902000427 12.250000954 0.0219999999 0.2830697298 2.3489999771 84.289001465 117.98300171 0.9829999804 15.078000069 2.0869998932 2.0869998932
 2214.0000000  -999.250000 12.892999649 12.250000954 0.0219999999 0.2840181589 2.3450000286 85.449996948 117.66699982 0.9950000048 15.114000320 2.0980000496 2.0980000496
 2214.1250000  -999.250000 12.887999535 12.250000954 0.0209999997 0.2853773534 2.3420000076 87.625999451 117.28199768 1.0099999905 15.335000038 2.1129999161 2.1129999161
 2214.2500000  -999.250000 12.885999680 12.250000954 0.0209999997 0.2863979936 2.3389999866 90.252998352 116.86000061 1.0260000229 15.661999702 2.1349999905 2.1349999905
 2214.3750000  -999.250000 12.887001038 12.250000954 0.0199999996 0.2861804068 2.3359999657 92.600997925 116.37300110 1.0420000553 16.002000809 2.1630001068 2.1630001068
 2214.5000000  -999.250000 12.885999680 12.250000954 0.0199999996 0.2845599949 2.3340001106 94.089996338 115.85800934 1.0590000153 16.319999695 2.1949999332 2.1949999332
 2214.6250000  -999.250000 12.884000778 12.250000954 0.0199999996 0.2810899913 2.3329999447 94.533996582 115.36499786 1.0770000219 16.631000519 2.2309999466 2.2309999466
 2214.7500000  -999.250000 12.880000114 12.250000954 0.0199999996 0.2767085433 2.3320019245 94.152999878 114.95099640 1.0939999819 16.957000732 2.2739999294 2.2739999294
 2214.8750000  -999.250000 12.878000259 12.250000954 0.0199999996 0.2723085880 2.3329980373 93.343002319 114.62200165 1.1089999676 17.291999817 2.3120000362 2.3120000362
 2215.0000000  -999.250000 12.876000404 12.250000954 0.0189999994 0.2691561580 2.3340001106 92.413002014 114.38100433 1.1230000257 17.593999863 2.3410000801 2.3410000801
 2215.1250000  -999.250000 12.877000809 12.250000954 0.0170000009 0.2678525448 2.3340001106 91.507003784 114.18900299 1.1360000372 17.833999634 2.3619999886 2.3619999886
 2215.2500000  -999.250000 12.880000114 12.250000954 0.0160000008 0.2688679993 2.3320000172 90.699996948 114.03500366 1.1469999552 17.996999741 2.3750000000 2.3750000000
 2215.3750000  -999.250000 12.884000778 12.250000954 0.0149999997 0.2719140351 2.3310000896 90.113998413 113.91400146 1.1560000181 18.128999710 2.3789999485 2.3789999485
 2215.5000000  -999.250000 12.887001038 12.250000954 0.0149999997 0.2760818601 2.3289999962 89.901000977 113.82701111 1.1640000343 18.280000687 2.3780000210 2.3780000210
 2215.6250000  -999.250000 12.887999535 12.250000954 0.0140000004 0.2799724042 2.3289999962 90.110000610 113.77199554 1.1710000038 18.438999176 2.3750000000 2.3750000000
 2215.7500000  -999.250000 12.888999939 12.250000954 0.0140000004 0.2826199830 2.3280000687 90.597999573 113.74199677 1.1770000458 18.587999344 2.3750000000 2.3750000000
 2215.8750000  -999.250000 12.890000343 12.250000954 0.0130019495 0.2836080492 2.3270018101 91.116996765 113.72599792 1.1820000410 18.690000534 2.3810000420 2.3810000420
 2216.0000000  -999.250000 12.890000343 12.250000954 0.0130000003 0.2837796807 2.3260018826 91.496002197 113.72299957 1.1870000362 18.662000656 2.3919999599 2.3919999599
 2216.1250000  -999.250000 12.887001038 12.250000954 0.0140000004 0.2839796245 2.3259999752 91.751998901 113.72699738 1.1909999847 18.509000778 2.4049999714 2.4049999714
 2216.2500000  -999.250000 12.878999710 12.250000954 0.0149999997 0.2846885920 2.3269999027 92.046997070 113.72200012 1.1950000525 18.267000198 2.4159998894 2.4159998894
 2216.3750000  -999.250000 12.869000435 12.250000954 0.0170000009 0.2857179642 2.3299999237 92.525001526 113.69300079 1.1979999542 18.061000824 2.4230000973 2.4230000973
