# LAS format log file from PETREL
# Project units are specified as depth units
#==================================================================
~Version information
VERS.   2.0:
WRAP.   NO:
#==================================================================
~Well
STRT .m      1820.5001221 :
STOP .m      3000.6250000 :
STEP .m     0.00000000 :
NULL .        -999.250000 :
COMP.           : COMPANY
WELL.  34/7-13   : WELL
FLD.            : FIELD
LOC.            : LOCATION
SRVC.           : SERVICE COMPANY
DATE.  2018-09-11 14:48:51   : Log Export Date {yyyy-MM-dd HH:mm:ss}
PROV.           : PROVINCE
UWI.   34/7-13   : UNIQUE WELL ID
API.            : API NUMBER
#==================================================================
~Curve
DEPT .m                   : DEPTH
Lithology_geolink ._      : Lithology_geolink
CALI .in                  : CALI
BS .in                    : BS
DRHO .g/cm3               : DRHO
NPHI .m3/m3               : NPHI
RHOB .g/cm3               : RHOB
GR .gAPI                  : GR
DTC .us/ft                : DTC
RDEP .ohm.m               : RDEP
SP .mV                    : SP
RSHA .ohm.m               : RSHA
RMED .ohm.m               : RMED
~Parameter
#==================================================================
~Ascii
# ...
 2918.5000000 5.0000000000 9.0769996643 8.5000000000 0.0279921889 0.2785134912 2.4760158062 72.045997620 94.047996521 1.6109999418 -18.04800034 1.7419999838 1.7430000305
 2918.6250000 5.0000000000 9.0520000458 8.5000000000 0.0320000015 0.2846260965 2.4660000801 72.212997437 94.246002197 1.6269999743 -17.90299988 1.7879999876 1.7879999876
 2918.7500000 5.0000000000 9.0200004578 8.5000000000 0.0390000008 0.2919700146 2.4530000687 72.933998108 95.200996399 1.6349999905 -17.74099922 1.8380000591 1.8380000591
 2918.8750000 5.0000000000 8.9860000610 8.5000000000 0.0450000018 0.2987399995 2.4389998913 73.797996521 96.628997803 1.6349999905 -17.57999992 1.8750000000 1.8750000000
 2919.0002441 5.0000000000 8.9569997787 8.5000000000 0.0469999984 0.3033500016 2.4260001183 74.364997864 98.147003174 1.6219999790 -17.41799927 1.8739999533 1.8739999533
 2919.1252441 5.0000000000 8.9359998703 8.5000000000 0.0430000015 0.3056899905 2.4149999619 74.413002014 99.346221924 1.6019999981 -17.24799919 1.8307265043 1.8307265043
 2919.2497559 5.0000000000 8.9230003357 8.5000000000 0.0370234363 0.3065267205 2.4040429592 74.084999084 100.16899872 1.5729999542 -17.07299995 1.7610000372 1.7610000372
 2919.3750000 5.0000000000 8.9139995575 8.5000000000 0.0320097655 0.3070789278 2.3940196037 73.788002014 100.82499695 1.5399999619 -16.92499924 1.6870000362 1.6870000362
 2919.5000000 5.0000000000 8.9110002518 8.5000000000 0.0290058590 0.3079283237 2.3850176334 73.893997192 101.53699493 1.5039999485 -16.82600021 1.6280000210 1.6280000210
 2919.6250000 5.0000000000 8.9180002213 8.5000000000 0.0240097661 0.3088980913 2.3790116310 74.458999634 102.35199738 1.4689999819 -16.78700066 1.5880000591 1.5880000591
 2919.7500000 5.0000000000 8.9399995804 8.5000000000 0.0180117171 0.3094888330 2.3750078678 75.180999756 103.19699860 1.4359999895 -16.79400063 1.5620000362 1.5620000362
 2919.8750000 5.0000000000 8.9750003815 8.5000000000 0.0100156246 0.3092604578 2.3690116405 75.629997253 103.95400238 1.4079999924 -16.82299995 1.5440000296 1.5440000296
 2920.0000000 5.0000000000 9.0159997940 8.5000000000 0.0060078125 0.3085514009 2.3600175381 75.525001526 104.48100281 1.3860000372 -16.88400078 1.5290000439 1.5290000439
 2920.1250000 5.0000000000 9.0520000458 8.5000000000 0.0069980472 0.3081208467 2.3480234146 74.870002747 104.76200104 1.3689999580 -16.99399948 1.5169999599 1.5169999599
 2920.2500000 5.0000000000 9.0780000687 8.5000000000 0.0109921871 0.3083395660 2.3340275288 73.871002197 104.77899933 1.3559999466 -17.15200043 1.5130000114 1.5130000114
 2920.3750000 5.0000000000 9.0959997177 8.5000000000 0.0159902349 0.3082601428 2.3240194321 72.792999268 104.58999634 1.3480000496 -17.29199982 1.5140000582 1.5140000582
 2920.5000000 5.0000000000 9.1079998016 8.5000000000 0.0189941395 0.3068826795 2.3180117607 71.859001160 104.26999664 1.3400000334 -17.36400032 1.5160000324 1.5160000324
 2920.6250000 5.0000000000 9.1129999161 8.5000000000 0.0199980456 0.3043948412 2.3170018196 71.244003296 103.91200256 1.3339999914 -17.36000061 1.5110000372 1.5110000372
 2920.7500000 5.0000000000 9.1079998016 8.5000000000 0.0209980458 0.3027631938 2.3179981709 71.055000305 103.65899658 1.3289999962 -17.34600067 1.5000000000 1.5000000000
 2920.8750000 5.0000000000 9.0889997482 8.5000000000 0.0229922030 0.3017539382 2.3209884167 71.276000977 103.55699921 1.3240000010 -17.38899994 1.4880000353 1.4880000353
 2921.0000000 5.0000000000 9.0620002747 8.5000000000 0.0270000007 0.3016702831 2.3229999542 71.745002747 103.56400299 1.3220000267 -17.51000023 1.4830000401 1.4830000401
 2921.1250000 5.0000000000 9.0349998474 8.5000000000 0.0320000015 0.3029499948 2.3259999752 72.236000061 103.57199860 1.3229999542 -17.64900017 1.4850000143 1.4850000143
 2921.2500000 5.0000000000 9.0179996490 8.5000000000 0.0370000005 0.3048800230 2.3320000172 72.652999878 103.58699799 1.3270000219 -17.74500084 1.4930000305 1.4930000305
 2921.3752441 5.0000000000 9.0170001984 8.5000000000 0.0399999991 0.3057999909 2.3429999352 73.132003784 103.75399780 1.3320000172 -17.79100037 1.4980000257 1.4980000257
 2921.4997559 5.0000000000 9.0249996185 8.5000000000 0.0380078107 0.3045648634 2.3579413891 73.895011902 104.25399780 1.3399688005 -17.82099915 1.4969999790 1.4969999790
 2921.6247559 5.0000000000 9.0360002518 8.5000000000 0.0320234373 0.3009740710 2.3739376068 74.971000671 105.09600067 1.3459999561 -17.85700035 1.4960000515 1.4960000515
 2921.7500000 5.0000000000 9.0399999619 8.5000000000 0.0270097665 0.2957701683 2.3889706135 76.023002625 105.96800232 1.3509999514 -17.87500000 1.5000000000 1.5000000000
 2921.8750000 5.0000000000 9.0380001068 8.5000000000 0.0230078120 0.2896719277 2.3989803791 76.579002380 106.38099670 1.3539999723 -17.83300018 1.5119999647 1.5119999647
 2922.0000000 5.0000000000 9.0349998474 8.5000000000 0.0200058594 0.2840808928 2.4039902687 76.404998779 106.15599823 1.3569999933 -17.73399925 1.5310000181 1.5310000181
 2922.1250000 5.0000000000 9.0319995880 8.5000000000 0.0180039052 0.2808063626 2.4049980640 75.720001221 105.54499817 1.3589999676 -17.61899948 1.5499999523 1.5499999523
 2922.2500000 5.0000000000 9.0340003967 8.5000000000 0.0179999992 0.2800914049 2.4030039310 75.035003662 104.93299866 1.3619999886 -17.53300095 1.5609999895 1.5609999895
 2922.3750000 5.0000000000 9.0389995575 8.5000000000 0.0189980455 0.2811678946 2.3980097771 74.741996765 104.56198883 1.3660000563 -17.46100044 1.5599999428 1.5599999428
 2922.5000000 5.0000000000 9.0480003357 8.5000000000 0.0209960938 0.2827668786 2.3930096626 74.796997070 104.39499664 1.3700000048 -17.34300041 1.5509999990 1.5509999990
 2922.6250000 5.0000000000 9.0570001602 8.5000000000 0.0229960941 0.2842071950 2.3870117664 74.762001038 104.15599823 1.3730000257 -17.13100052 1.5390000343 1.5390000343
 2922.7500000 5.0000000000 9.0609998703 8.5000000000 0.0249960944 0.2856671214 2.3810117245 74.153999329 103.70099640 1.3710000515 -16.84099960 1.5310000181 1.5310000181
 2922.8750000 5.0000000000 9.0579996109 8.5000000000 0.0259980466 0.2876261771 2.3760097027 72.842002869 103.13500214 1.3650000095 -16.54199982 1.5299999714 1.5299999714
 2923.0000000 5.0000000000 9.0459995270 8.5000000000 0.0250019543 0.2899953723 2.3700115681 71.183998108 102.74400330 1.3539999723 -16.31900024 1.5360000134 1.5360000134
 2923.1250000 5.0000000000 9.0260000229 8.5000000000 0.0240019541 0.2919561863 2.3650097847 69.808998108 102.65100098 1.3400000334 -16.21400070 1.5449999571 1.5449999571
 2923.2500000 5.0000000000 9.0030002594 8.5000000000 0.0220077969 0.2928564847 2.3600194454 69.234001160 102.77100372 1.3250000477 -16.21500015 1.5509999990 1.5509999990
 2923.3750000 5.0000000000 8.9820003510 8.5000000000 0.0209999997 0.2925200164 2.3550000191 69.611999512 102.94799805 1.3099999428 -16.23900032 1.5460000038 1.5460000038
 2923.5000000 5.0000000000 8.9680004120 8.5000000000 0.0230000000 0.2914200127 2.3510000706 70.762001038 103.15499878 1.2990000248 -16.21999931 1.5219999552 1.5219999552
 2923.6252441 5.0000000000 8.9589996338 8.5000000000 0.0250000004 0.2897999883 2.3499999046 72.382003784 103.46800232 1.2949999571 -16.14999962 1.4839999676 1.4839999676
 2923.7502441 5.0000000000 8.9560003281 8.5000000000 0.0280000009 0.2874500155 2.3510000706 74.231002808 103.87099457 1.2979999781 -16.07999992 1.4400000572 1.4400000572
 2923.8747559 5.0000000000 8.9519996643 8.5000000000 0.0289960932 0.2841728628 2.3579726219 76.110000610 104.09500122 1.3099999428 -16.12599945 1.4060000181 1.4060000181
 2923.9997559 5.0000000000 8.9469995499 8.5000000000 0.0270078126 0.2799465060 2.3699529171 77.766998291 103.80998993 1.3279999495 -16.36400032 1.3969999552 1.3969999552
 2924.1250000 5.0000000000 8.9440002441 8.5000000000 0.0250039063 0.2749098241 2.3869669437 78.889999390 102.78699493 1.3539999723 -16.79999924 1.4170000553 1.4170000553
 2924.2500000 5.0000000000 8.9429998398 8.5000000000 0.0240019541 0.2693608403 2.4089570045 79.245002747 101.27300262 1.3899999857 -17.26899910 1.4650000334 1.4650000334
 2924.3750000 5.0000000000 8.9469995499 8.5000000000 0.0249980465 0.2635214031 2.4309570789 78.829002380 99.666999817 1.4400000572 -17.60199928 1.5310000181 1.5310000181
