# LAS format log file from PETREL
# Project units are specified as depth units
#==================================================================
~Version information
VERS.   2.0:
WRAP.   NO:
#==================================================================
~Well
STRT .m      417.47238159 :
STOP .m      3182.7705078 :
STEP .m     0.00000000 :
NULL .        -999.250000 :
COMP.           : COMPANY
WELL.  34/7-20   : WELL
FLD.            : FIELD
LOC.            : LOCATION
SRVC.           : SERVICE COMPANY
DATE.  2018-09-11 14:48:52   : Log Export Date {yyyy-MM-dd HH:mm:ss}
PROV.           : PROVINCE
UWI.   34/7-20   : UNIQUE WELL ID
API.            : API NUMBER
#==================================================================
~Curve
DEPT .m                   : DEPTH
Lithology_geolink ._      : Lithology_geolink
CALI .in                  : CALI
DRHO .g/cm3               : DRHO
NPHI .m3/m3               : NPHI
RHOB .g/cm3               : RHOB
GR .gAPI                  : GR
DTC .us/ft                : DTC
RDEP .ohm.m               : RDEP
SP .mV                    : SP
RSHA .ohm.m               : RSHA
RMED .ohm.m               : RMED
~Parameter
#==================================================================
~Ascii
# ...
 3044.5437012 7.0000000000 13.167577744 -0.013747953 0.3641011119 2.5638332367 132.61367798 87.942657471 4.2469654083 191.93731689 3.6775622368 2.3799700737
 3044.6960449 7.0000000000 13.096858978 -0.013163016 0.3666631281 2.5543043613 132.45997620 87.737625122 5.3142194748 193.75363159 3.4546895027 2.7033295631
 3044.8486328 7.0000000000 13.032181740 -0.009650420 0.3547235727 2.5503063202 133.12132263 87.634475708 4.7812395096 194.15353394 3.3654298782 2.5747699738
 3045.0009766 7.0000000000 13.064977646 -0.003792575 0.3113637269 2.5489525795 132.76687622 88.149459839 2.9051303864 196.43716431 3.5954122543 1.9038348198
 3045.1533203 6.0000000000 13.006597519 -0.002251029 0.2691331208 2.5265209675 125.59771729 89.449279785 1.6575248241 199.39248657 7.7664289474 1.2779026031
 3045.3056641 6.0000000000 12.745529175 -0.004091389 0.2447101623 2.4791498184 116.86187744 91.356979370 1.2013239861 201.53753662 5.9055156708 0.9754576683
 3045.4582520 6.0000000000 12.421747208 -0.008367435 0.2593029141 2.4196655750 109.81661224 92.970260620 1.1385896206 203.52993774 0.8807382584 0.9119905233
 3045.6105957 6.0000000000 12.271473885 -0.016221430 0.2753401995 2.3590247631 105.64273834 93.725204468 1.3401091099 206.17477417 0.4392938614 1.0158479214
 3045.7629395 4.0000000000 12.232284546 -0.028266022 0.2612706721 2.3155031204 101.26216888 93.678756714 1.7342422009 208.25830078 0.3828633428 1.2222049236
 3045.9152832 4.0000000000 12.128685951 -0.031691290 0.2394591570 2.3112196922 94.414306641 93.338012695 1.9785411358 209.41003418 0.3650325537 1.3503093719
 3046.0678711 4.0000000000 12.045373917 -0.032517780 0.2264559567 2.3248047829 87.625320435 93.780258179 1.7592697144 211.03515625 0.3841772676 1.2440121174
 3046.2202148 2.0000000000 12.045694351 -0.036117408 0.2260484695 2.3375422955 83.535980225 95.254440308 1.3345015049 211.88916016 0.4199778438 1.0104608536
 3046.3725586 2.0000000000 12.061410904 -0.040099613 0.2406966835 2.3387539387 83.958824158 97.125030518 1.0423250198 212.66525269 0.5165803432 0.8249547482
 3046.5249023 2.0000000000 12.044326782 -0.040083334 0.2586333752 2.3311512470 86.450019836 98.995399475 0.9024349451 214.40988159 0.4810534716 0.7249768972
 3046.6772461 2.0000000000 12.045618057 -0.041644212 0.2696996629 2.3151469231 86.878128052 100.70301056 0.8499383926 215.00228882 0.3359853625 0.6827455759
 3046.8298340 2.0000000000 12.061382294 -0.040111717 0.2673793137 2.2961504459 85.322021484 101.89257813 0.8451669216 214.39956665 0.3011171818 0.6734430790
 3046.9821777 2.0000000000 12.043991089 -0.033063293 0.2524466217 2.2797536850 82.513191223 102.15019226 0.8779097795 213.51577759 0.2945032120 0.6881614923
 3047.1345215 2.0000000000 12.027964592 -0.025440948 0.2440943867 2.2714691162 80.453308105 101.77217865 0.9513076544 214.56671143 0.2894766331 0.7266591787
 3047.2868652 2.0000000000 12.045412064 -0.022164972 0.2332601994 2.2716472149 79.821296692 101.59584045 1.0484156609 215.99954224 0.2794727087 0.7781653404
 3047.4394531 2.0000000000 12.061719894 -0.022546683 0.2364616841 2.2741520405 81.219558716 101.85464478 1.1143710613 215.38998413 0.2672445774 0.8116436005
 3047.5917969 2.0000000000 12.061981201 -0.024499642 0.2533050179 2.2780768871 83.407630920 102.13195801 1.1071686745 215.67144775 0.2691314220 0.8044012785
 3047.7441406 2.0000000000 12.061981201 -0.024776151 0.2636094689 2.2833147049 84.774490356 102.14134216 1.0503306389 216.00695801 0.2723494172 0.7691432238
 3047.8964844 2.0000000000 12.061981201 -0.026381563 0.2739223838 2.2793519497 84.768409729 101.87053680 1.0070674419 215.78274536 0.2821021676 0.7391682863
 3048.0490723 2.0000000000 12.062604904 -0.030449316 0.2838303745 2.2663829327 85.272994995 101.55059814 1.0277600288 215.77032471 0.2895799279 0.7416219711
 3048.2014160 2.0000000000 12.097648621 -0.034151860 0.2903062105 2.2550837994 86.010551453 101.52409363 1.1292579174 216.41680908 0.2713363767 0.7858026028
 3048.3537598 2.0000000000 12.112281799 -0.037331235 0.2791341841 2.2497801781 85.299797058 101.46083069 1.2649464607 218.79760742 0.2577823997 0.8489820957
 3048.5061035 2.0000000000 12.078866959 -0.040732618 0.2596357763 2.2527015209 82.698310852 100.56164551 1.2901673317 217.69903564 0.2634583116 0.8655874729
 3048.6584473 2.0000000000 12.062242508 -0.043910470 0.2535980642 2.2576453686 81.504333496 98.968719482 1.1264729500 218.25698853 0.2782712579 0.7921800613
 3048.8110352 2.0000000000 12.063682556 -0.047570139 0.2568967342 2.2591638565 83.476707458 97.584426880 0.9016747475 219.32730103 0.2759012580 0.6758047342
 3048.9633789 2.0000000000 12.170898438 -0.050555460 0.2522522807 2.2616665363 86.260139465 96.706542969 0.7542592287 218.05694580 0.2715250254 0.5885246992
 3049.1157227 2.0000000000 12.339128494 -0.051626265 0.2470580637 2.2710065842 87.486488342 95.895309448 0.7070635557 218.64987183 0.2725444436 0.5568914413
 3049.2680664 2.0000000000 12.369987488 -0.054107156 0.2580177784 2.2881779671 87.075469971 95.544052124 0.7341426611 220.17587280 0.2564275265 0.5730298758
 3049.4206543 2.0000000000 12.288440704 -0.061344735 0.2745016515 2.2900445461 89.053985596 97.198410034 0.8007338047 220.23120117 0.2582723498 0.6161993742
 3049.5729980 2.0000000000 12.412565231 -0.069826484 0.2891542912 2.2743375301 92.543502808 100.79295349 0.8736869097 218.14355469 0.2738481760 0.6654564142
 3049.7253418 2.0000000000 12.398031235 -0.075553812 0.2915906906 2.2509701252 94.461372375 103.98089600 0.9229804277 221.11764526 0.2452405691 0.7033976316
 3049.8776855 2.0000000000 12.237230301 -0.076462902 0.2955106497 2.2312409878 92.891418457 105.29347229 0.9211581945 221.53002930 0.2233069539 0.7129637003
 3050.0302734 2.0000000000 12.216934204 -0.072328247 0.2957649529 2.2273914814 92.492172241 105.30907440 0.8724218607 217.80545044 0.2429424226 0.6922159195
 3050.1826172 5.0000000000 12.200622559 -0.065378755 0.2945965230 2.2327089310 95.138061523 104.83251953 0.8229969740 216.77511597 0.2541726232 0.6663833857
 3050.3349609 5.0000000000 12.200618744 -0.057753135 0.2957548797 2.2404277325 98.780906677 104.33668518 0.8133885860 217.42553711 0.2430787981 0.6634753942
 3050.4873047 5.0000000000 12.217990875 -0.052626476 0.3012372851 2.2466294765 99.841598511 104.04083252 0.8475631475 216.72805786 0.2419202626 0.6895108223
 3050.6396484 4.0000000000 12.217238426 -0.055515371 0.3047919571 2.2423045635 94.038101196 103.73121643 0.9054936171 214.78875732 0.2547946572 0.7317925692
 3050.7922363 4.0000000000 12.239645004 -0.055572823 0.2929146588 2.2498178482 87.346771240 103.04629517 0.9679803848 214.27709961 0.2688195109 0.7764111757
 3050.9445801 4.0000000000 12.447908401 -0.045126632 0.2745406628 2.2787642479 85.981292725 101.46179199 1.0305950642 213.64157104 0.2659184933 0.8187085390
 3051.0969238 4.0000000000 12.557952881 -0.031011993 0.2639472485 2.3125841618 90.931243896 98.981246948 1.0922100544 212.77432251 0.2751285434 0.8573411703
 3051.2492676 4.0000000000 12.458673477 -0.022124510 0.2676927149 2.3352541924 98.926696777 96.687988281 1.1596825123 212.91696167 0.4658495784 0.8950763941
 3051.4018555 4.0000000000 12.423927307 -0.017474616 0.2711698413 2.3507378101 100.27978516 95.187988281 1.2757179737 213.52099609 0.5729496479 0.9537798166
 3051.5541992 5.0000000000 12.298330307 -0.017487509 0.2632859051 2.3731572628 96.893669128 93.997428894 1.5245022774 213.90353394 0.5067623854 1.0725333691
 3051.7065430 2.0000000000 12.185723305 -0.024175121 0.2427505851 2.3911075592 92.131950378 92.685989380 1.9558515549 213.63635254 0.4632046819 1.2599921227
 3051.8588867 2.0000000000 12.182136536 -0.034293212 0.2243656516 2.3936672211 88.578224182 91.208969116 2.3802380562 212.77432251 0.5230517387 1.4260034561
 3052.0114746 2.0000000000 12.166633606 -0.040466234 0.2111088932 2.3815371990 87.313903809 89.896652222 2.4965929985 213.42871094 0.6777410507 1.4622850418
 3052.1638184 2.0000000000 12.202350616 -0.037390936 0.2160120755 2.3638186455 86.353393555 89.181533813 2.4118866920 215.28042603 0.6812930107 1.4170668125
