# LAS format log file from PETREL
# Project units are specified as depth units
#==================================================================
~Version information
VERS.   2.0:
WRAP.   NO:
#==================================================================
~Well
STRT .m      377.87487793 :
STOP .m      3151.8757324 :
STEP .m     0.00000000 :
NULL .        -999.250000 :
COMP.           : COMPANY
WELL.  34/7-5   : WELL
FLD.            : FIELD
LOC.            : LOCATION
SRVC.           : SERVICE COMPANY
DATE.  2018-09-11 14:48:52   : Log Export Date {yyyy-MM-dd HH:mm:ss}
PROV.           : PROVINCE
UWI.   34/7-5   : UNIQUE WELL ID
API.            : API NUMBER
#==================================================================
~Curve
DEPT .m                   : DEPTH
Lithology_geolink ._      : Lithology_geolink
CALI .in                  : CALI
DRHO .g/cm3               : DRHO
NPHI .m3/m3               : NPHI
RHOB .g/cm3               : RHOB
GR .gAPI                  : GR
DTC .us/ft                : DTC
RDEP .ohm.m               : RDEP
SP .mV                    : SP
RSHA .ohm.m               : RSHA
RMED .ohm.m               : RMED
~Parameter
#==================================================================
~Ascii
# ...
 1302.2502441  -999.250000 17.065999985 0.0000000000  -999.250000 2.1170001030 19.107000351 142.02999878 0.8920000196 60.937000275 0.8209999800 0.8209999800
 1302.3750000  -999.250000 17.065000534 -0.001000000  -999.250000 2.1170001030 19.010999680 142.17999268 0.8920000196 60.618000031 0.8130000234 0.8130000234
 1302.5001221  -999.250000 17.062999725 0.0020000001  -999.250000 2.1170001030 19.059999466 141.88000488 0.8930000067 60.103000641 0.8149999976 0.8149999976
 1302.6248779  -999.250000 17.062000275 0.0070000002  -999.250000 2.1199998856 19.093000412 141.51400757 0.8939999938 59.506999969 0.8180000186 0.8180000186
 1302.7500000  -999.250000 17.061000824 0.0149999997  -999.250000 2.1250000000 19.253000259 141.32899475 0.8939999938 59.242000580 0.8190000057 0.8190000057
 1302.8748779  -999.250000 17.059999466 0.0219999999  -999.250000 2.1300001144 19.249000549 141.42199707 0.8949999809 59.326000214 0.8190000057 0.8190000057
 1303.0002441  -999.250000 17.059000015 0.0219999999  -999.250000 2.1340000629 19.308000565 141.64300537 0.8960000277 59.813999176 0.8190000057 0.8190000057
 1303.1251221  -999.250000 17.056999207 0.0209999997  -999.250000 2.1340000629 19.693000793 141.87100220 0.8970000148 60.471000671 0.8230000138 0.8230000138
 1303.2498779  -999.250000 17.055999756 0.0140000004  -999.250000 2.1340000629 20.052000046 142.10099792 0.8970000148 61.168998718 0.8259999752 0.8259999752
 1303.3751221  -999.250000 17.055000305 0.0070000002  -999.250000 2.1310000420 20.013000488 142.30599976 0.8989999890 61.777999878 0.8299999833 0.8299999833
 1303.5000000  -999.250000 17.054000854 0.0000000000  -999.250000 2.1219999790 19.746000290 142.44200134 0.8999999762 62.007999420 0.8330000043 0.8330000043
 1303.6251221  -999.250000 17.052000046 -0.008000000  -999.250000 2.1119999886 19.365999222 142.57600403 0.9010000229 61.770000458 0.8330000043 0.8330000043
 1303.7498779  -999.250000 17.051000595 -0.012000000  -999.250000 2.1050000191 18.986000061 142.56399536 0.9029999971 61.402999878 0.8330000043 0.8330000043
 1303.8750000  -999.250000 17.049999237 -0.016000001  -999.250000 2.1019999981 18.606000900 142.02799988 0.9039999843 60.868000031 0.8330000043 0.8330000043
 1303.9997559  -999.250000 17.048999786 -0.018999999  -999.250000 2.0999999046 18.334999084 141.24899292 0.9070000052 60.332000732 0.8330000043 0.8330000043
 1304.1248779  -999.250000 17.048000336 -0.021000000  -999.250000 2.0989999771 18.309000015 140.47099304 0.9120000005 59.750000000 0.8330000043 0.8330000043
 1304.2501221  -999.250000 17.045999527 -0.022000000  -999.250000 2.0989999771 18.305000305 140.05900574 0.9169999957 59.838001251 0.8330000043 0.8330000043
 1304.3748779  -999.250000 17.045000076 -0.021000000  -999.250000 2.1010000706 18.318000793 139.60099792 0.9210000038 60.209999084 0.8410000205 0.8410000205
 1304.4997559  -999.250000 17.044000626 -0.015000000  -999.250000 2.1040000916 18.353000641 139.11399841 0.9210000038 60.826999664 0.8500000238 0.8500000238
 1304.6252441  -999.250000 17.042999268 -0.007000000  -999.250000 2.1070001125 18.193000793 138.62800598 0.9210000038 61.500000000 0.8600000143 0.8600000143
 1304.7500000  -999.250000 17.041999817 -0.001000000  -999.250000 2.1080000401 18.132999420 138.29499817 0.9210000038 61.605998993 0.8659999967 0.8659999967
 1304.8751221  -999.250000 17.040000916 -0.003000000  -999.250000 2.1099998951 17.961999893 138.18600464 0.9210000038 61.159000397 0.8709999919 0.8709999919
 1305.0000000  -999.250000 17.038999557 -0.005000000  -999.250000 2.1110000610 18.204000473 138.37800598 0.9210000038 60.537998199 0.8740000129 0.8740000129
 1305.1250000  -999.250000 17.038999557 -0.008000000  -999.250000 2.1110000610 18.413000107 138.59199524 0.9210000038 59.841999054 0.8780000210 0.8780000210
 1305.2498779  -999.250000 17.041999817 -0.009000000  -999.250000 2.1110000610 18.815000534 138.83299255 0.9210000038 59.345001221 0.8809999824 0.8809999824
 1305.3752441  -999.250000 17.051000595 -0.009000000  -999.250000 2.1110000610 19.170000076 139.20500183 0.9210000038 59.103000641 0.8840000033 0.8840000033
 1305.5001221  -999.250000 17.061000824 -0.004000000  -999.250000 2.1119999886 18.968999863 139.44500732 0.9200000167 59.662998199 0.8859999776 0.8859999776
 1305.6248779  -999.250000 17.069999695 0.0000000000  -999.250000 2.1129999161 18.516000748 139.57200623 0.9200000167 60.674999237 0.8840000033 0.8840000033
 1305.7502441  -999.250000 17.079999924 -0.004000000  -999.250000 2.1129999161 18.204000473 139.58700562 0.9200000167 61.702999115 0.8809999824 0.8809999824
 1305.8750000  -999.250000 17.090000153 -0.014000000  -999.250000 2.1110000610 18.573999405 139.59100342 0.9219999909 62.041000366 0.8780000210 0.8780000210
 1306.0001221  -999.250000 17.099000931 -0.020000000  -999.250000 2.1080000401 19.018999100 139.59500122 0.9290000200 61.909999847 0.8750000000 0.8750000000
 1306.1248779  -999.250000 17.107999802 -0.023000000  -999.250000 2.1059999466 19.132999420 139.34500122 0.9350000024 61.396999359 0.8730000257 0.8730000257
 1306.2500000  -999.250000 17.114000320 -0.025000000  -999.250000 2.1050000191 19.326999664 139.05799866 0.9419999719 60.721000671 0.8700000048 0.8700000048
 1306.3748779  -999.250000 17.114999771 -0.027000001  -999.250000 2.1080000401 19.159000397 138.80499268 0.9470000267 59.997001648 0.8690000176 0.8690000176
 1306.4998779  -999.250000 17.115999222 -0.028999999  -999.250000 2.1080000401 19.138000488 138.56399536 0.9499999881 59.741001129 0.8669999838 0.8669999838
 1306.6251221  -999.250000 17.115999222 -0.029999999  -999.250000 2.1050000191 19.367000580 138.37500000 0.9530000091 59.821998596 0.8659999967 0.8659999967
 1306.7498779  -999.250000 17.117000580 -0.032000002  -999.250000 2.1010000706 19.778999329 138.27000427 0.9520000219 60.090999603 0.8640000224 0.8640000224
 1306.8747559  -999.250000 17.117000580 -0.033000000  -999.250000 2.1010000706 20.226999283 138.29200745 0.9480000138 60.464000702 0.8629999757 0.8629999757
 1307.0002441  -999.250000 17.118000031 -0.030999999  -999.250000 2.1010000706 20.322999954 138.42799377 0.9449999928 60.835998535 0.8619999886 0.8619999886
 1307.1251221  -999.250000 17.118000031 -0.024000000  -999.250000 2.1029999256 20.104000092 139.03700256 0.9449999928 61.050998688 0.8619999886 0.8619999886
 1307.2498779  -999.250000 17.118999481 -0.016000001  -999.250000 2.1089999676 20.014999390 139.58099365 0.9449999928 60.859001160 0.8610000014 0.8610000014
 1307.3750000  -999.250000 17.120000839 -0.008000000  -999.250000 2.1140000820 20.114000320 140.02600098 0.9509999752 60.379001617 0.8610000014 0.8610000014
 1307.5000000  -999.250000 17.120000839 -0.006000000  -999.250000 2.1159999371 20.596000671 140.04200745 0.9610000253 59.936000824 0.8610000014 0.8610000014
 1307.6248779  -999.250000 17.121000290 -0.006000000  -999.250000 2.1159999371 20.750999451 139.99600220 0.9700000286 59.570999146 0.8610000014 0.8610000014
 1307.7502441  -999.250000 17.121000290 -0.009000000  -999.250000 2.1159999371 20.822999954 139.92500305 0.9750000238 59.340000153 0.8610000014 0.8610000014
 1307.8751221  -999.250000 17.121999741 -0.012000000  -999.250000 2.1150000095 19.909000397 139.76800537 0.9789999723 59.452999115 0.8610000014 0.8610000014
 1307.9998779  -999.250000 17.122999191 -0.015000000  -999.250000 2.1150000095 18.971000671 139.22900391 0.9819999933 59.817001343 0.8619999886 0.8619999886
 1308.1252441  -999.250000 17.122999191 -0.017999999  -999.250000 2.1180000305 18.589000702 138.60899353 0.9860000014 60.233001709 0.8740000129 0.8740000129
 1308.2500000  -999.250000 17.124000549 -0.020000000  -999.250000 2.1250000000 18.285999298 138.25300598 0.9890000224 60.127998352 0.8880000114 0.8880000114
 1308.3751221  -999.250000 17.124000549 -0.022000000  -999.250000 2.1280000210 18.285999298 138.07200623 0.9919999838 59.959999084 0.9010000229 0.9010000229
 1308.4998779  -999.250000 17.125000000 -0.023000000  -999.250000 2.1319999695 18.604999542 138.07600403 0.9950000048 59.791999817 0.9060000181 0.9060000181
