# LAS format log file from PETREL
# Project units are specified as depth units
#==================================================================
~Version information
VERS.   2.0:
WRAP.   NO:
#==================================================================
~Well
STRT .m      1820.5001221 :
STOP .m      3000.6250000 :
STEP .m     0.00000000 :
NULL .        -999.250000 :
COMP.           : COMPANY
WELL.  34/7-13   : WELL
FLD.            : FIELD
LOC.            : LOCATION
SRVC.           : SERVICE COMPANY
DATE.  2018-09-11 14:48:51   : Log Export Date {yyyy-MM-dd HH:mm:ss}
PROV.           : PROVINCE
UWI.   34/7-13   : UNIQUE WELL ID
API.            : API NUMBER
#==================================================================
~Curve
DEPT .m                   : DEPTH
Lithology_geolink ._      : Lithology_geolink
CALI .in                  : CALI
BS .in                    : BS
DRHO .g/cm3               : DRHO
NPHI .m3/m3               : NPHI
RHOB .g/cm3               : RHOB
GR .gAPI                  : GR
DTC .us/ft                : DTC
RDEP .ohm.m               : RDEP
SP .mV                    : SP
RSHA .ohm.m               : RSHA
RMED .ohm.m               : RMED
~Parameter
#==================================================================
~Ascii
# ...
 2762.5000000 4.0000000000 9.4060001373 8.5000000000 0.0159980468 0.2792171836 2.5209882259 69.838996887 88.884002686 2.9509999752 -17.59099960 3.2079999447 3.2079999447
 2762.6250000 4.0000000000 9.4029998779 8.5000000000 0.0169980470 0.2811761796 2.5219981670 69.418998718 87.442001343 2.9340000153 -17.32999992 3.2999999523 3.2999999523
 2762.7500000 4.0000000000 9.3999996185 8.5000000000 0.0170000009 0.2765590250 2.5160117149 68.486999512 86.269996643 2.9100000858 -17.11700058 3.4230000973 3.4230000973
 2762.8750000 4.0000000000 9.3970003128 8.5000000000 0.0160019547 0.2671982944 2.5050215721 67.377998352 85.766998291 2.8829998970 -17.06699944 3.5099999905 3.5099999905
 2763.0000000 4.0000000000 9.3950004578 8.5000000000 0.0150019526 0.2571895421 2.4930233955 66.646003723 86.182998657 2.8540000916 -17.21400070 3.5220000744 3.5220000744
 2763.1250000 4.0000000000 9.3940000534 8.5000000000 0.0130039062 0.2532776296 2.4810233116 66.685997009 87.516006470 2.8229999542 -17.47100067 3.4649999142 3.4649999142
 2763.2500000 4.0000000000 9.3959999084 8.5000000000 0.0120019531 0.2581404746 2.4700214863 67.486999512 89.323997498 2.7860000134 -17.66200066 3.3859999180 3.3859999180
 2763.3750000 4.0000000000 9.3990001678 8.5000000000 0.0110019529 0.2687392831 2.4620156288 68.733001709 91.088996887 2.7430000305 -17.65200043 3.3120000362 3.3120000362
 2763.5000000 4.0000000000 9.3999996185 8.5000000000 0.0119980471 0.2744189203 2.4560117722 70.075996399 92.384994507 2.6960000992 -17.42799950 3.2500000000 3.2500000000
 2763.6250000 5.0000000000 9.3979997635 8.5000000000 0.0129980473 0.2749689519 2.4530060291 71.341003418 93.157997131 2.6500000954 -17.12700081 3.2030000687 3.2030000687
 2763.7500000 5.0000000000 9.3929996490 8.5000000000 0.0149999997 0.2750698030 2.4530000687 72.499000549 93.462997437 2.6129999161 -16.93899918 3.1809999943 3.1809999943
 2763.8750000 5.0000000000 9.3879995346 8.5000000000 0.0160000008 0.2770400047 2.4539999962 73.516998291 93.589996338 2.5859999657 -16.89100075 3.1789999008 3.1789999008
 2764.0000000 5.0000000000 9.3839998245 8.5000000000 0.0160000008 0.2803100049 2.4560000896 74.240997314 93.663002014 2.5710000992 -16.94599915 3.1860001087 3.1860001087
 2764.1250000 5.0000000000 9.3830003738 8.5000000000 0.0149999997 0.2830599844 2.4570000172 74.452003479 93.762001038 2.5659999847 -17.00000000 3.1860001087 3.1860001087
 2764.2502441 5.0000000000 9.3839998245 8.5000000000 0.0140000004 0.2837899923 2.4570000172 74.030998230 93.892997742 2.5710000992 -17.01199913 3.1760001183 3.1760001183
 2764.3752441 5.0000000000 9.3839998245 8.5000000000 0.0109999999 0.2827199996 2.4570000172 73.108001709 94.000000000 2.5810000896 -17.00900078 3.1640000343 3.1640000343
 2764.4997559 5.0000000000 9.3809995651 8.5000000000 0.0100039057 0.2813354135 2.4560039043 72.037193298 94.022003174 2.5919570923 -17.06500053 3.1649999619 3.1649999619
 2764.6247559 5.0000000000 9.3739995956 8.5000000000 0.0099999998 0.2802442610 2.4550037384 71.161003113 93.948997498 2.6019999981 -17.21500015 3.1809999943 3.1809999943
 2764.7500000 5.0000000000 9.3669996262 8.5000000000 0.0090019526 0.2793318033 2.4540019035 70.661003113 93.805000305 2.6119999886 -17.43499947 3.2060000896 3.2060000896
 2764.8750000 5.0000000000 9.3620004654 8.5000000000 0.0089999996 0.2783619165 2.4539999962 70.495002747 93.652000427 2.6210000515 -17.64299965 3.2300000191 3.2300000191
 2765.0000000 5.0000000000 9.3610000610 8.5000000000 0.0080019534 0.2771324217 2.4539999962 70.596000671 93.541999817 2.6319999695 -17.78300095 3.2479999065 3.2479999065
 2765.1250000 5.0000000000 9.3629999161 8.5000000000 0.0060039065 0.2757327557 2.4549980164 71.011001587 93.476997375 2.6419999599 -17.87000084 3.2609999180 3.2609999180
 2765.2500000 5.0000000000 9.3629999161 8.5000000000 0.0050019529 0.2746720612 2.4549999237 71.845001221 93.434997559 2.6540000439 -17.93899918 3.2720000744 3.2720000744
 2765.3750000 5.0000000000 9.3610000610 8.5000000000 0.0059980471 0.2744604051 2.4549999237 73.029998779 93.385002136 2.6670000553 -18.03700066 3.2839999199 3.2839999199
 2765.5000000 5.0000000000 9.3570003510 8.5000000000 0.0079960944 0.2750787735 2.4549999237 74.208000183 93.316001892 2.6819999218 -18.18400002 3.2960000038 3.2960000038
 2765.6250000 5.0000000000 9.3520002365 8.5000000000 0.0109941410 0.2760680616 2.4549999237 74.899002075 93.240997314 2.6970000267 -18.38400078 3.3039999008 3.3039999008
 2765.7500000 5.0000000000 9.3489999771 8.5000000000 0.0139941415 0.2767586708 2.4549999237 74.832000732 93.188003540 2.7149999142 -18.58799934 3.3050000668 3.3050000668
 2765.8750000 5.0000000000 9.3500003815 8.5000000000 0.0149980467 0.2766602039 2.4559981823 74.161003113 93.164001465 2.7309999466 -18.73800087 3.3010001183 3.3010001183
 2766.0000000 5.0000000000 9.3529996872 8.5000000000 0.0170000009 0.2756120563 2.4560000896 73.389999390 93.141998291 2.7430000305 -18.77700043 3.2929999828 3.2929999828
 2766.1250000 5.0000000000 9.3570003510 8.5000000000 0.0189999994 0.2735839486 2.4570000172 73.040000916 93.089996338 2.7500000000 -18.74600029 3.2869999409 3.2869999409
 2766.2500000 5.0000000000 9.3570003510 8.5000000000 0.0189999994 0.2711499929 2.4570000172 73.338996887 93.003997803 2.7449998856 -18.71999931 3.2820000648 3.2820000648
 2766.3750000 5.0000000000 9.3540000916 8.5000000000 0.0179999992 0.2696200013 2.4560000896 74.125000000 92.905998230 2.7239999771 -18.76000023 3.2769999504 3.2769999504
 2766.5000000 5.0000000000 9.3500003815 8.5000000000 0.0170000009 0.2700800002 2.4549999237 74.986999512 92.802001953 2.6879999638 -18.85000038 3.2709999084 3.2709999084
 2766.6252441 5.0000000000 9.3459997177 8.5000000000 0.0170000009 0.2727199793 2.4549999237 75.551002502 92.687995911 2.6410000324 -18.92000008 3.2609999180 3.2609999180
 2766.7502441 5.0000000000 9.3430004120 8.5000000000 0.0160000008 0.2764199972 2.4560000896 75.708000183 92.577789307 2.5910000801 -18.90900040 3.2438709736 3.2428750992
 2766.8747559 5.0000000000 9.3369998932 8.5000000000 0.0150039056 0.2813905180 2.4579920769 75.671997070 92.523002625 2.5429999828 -18.80900002 3.2109999657 3.2109999657
 2766.9997559 5.0000000000 9.3280000687 8.5000000000 0.0140039064 0.2882033587 2.4649724960 75.855003357 92.603996277 2.4949998856 -18.64200020 3.1489999294 3.1489999294
 2767.1250000 6.0000000000 9.3149995804 8.5000000000 0.0100078126 0.2977912724 2.4789726734 76.665000916 92.822998047 2.4440000057 -18.45599937 3.0629999638 3.0629999638
 2767.2500000 6.0000000000 9.3020000458 8.5000000000 0.0040117190 0.3095969260 2.5049493313 78.335998535 93.136001587 2.3849999905 -18.26000023 2.9670000076 2.9670000076
 2767.3750000 6.0000000000 9.2939996719 8.5000000000 -0.003984375 0.3219458759 2.5399315357 80.864997864 93.374000549 2.3220000267 -18.05900002 2.8910000324 2.8910000324
 2767.5000000 6.0000000000 9.2930002213 8.5000000000 -0.010986328 0.3327089846 2.5769276619 84.051002502 93.372001648 2.2530000210 -17.85799980 2.8550000191 2.8550000191
 2767.6250000 7.0000000000 9.2959995270 8.5000000000 -0.014992187 0.3398460746 2.6049454212 87.587997437 93.110000610 2.1770000458 -17.69099998 2.8480000496 2.8480000496
 2767.7500000 7.0000000000 9.3009996414 8.5000000000 -0.013003906 0.3429639339 2.6159784794 91.181999207 92.831001282 2.0940001011 -17.56500053 2.8340001106 2.8340001106
 2767.8750000 7.0000000000 9.3020000458 8.5000000000 -0.010005859 0.3434091210 2.6060194969 94.606002808 92.986000061 2.0079998970 -17.45499992 2.7780001163 2.7780001163
 2768.0000000 7.0000000000 9.2989997864 8.5000000000 -0.007005860 0.3441784978 2.5820469856 97.677001953 93.903007507 1.9240000248 -17.27499962 2.6659998894 2.6659998894
 2768.1250000 7.0000000000 9.2889995575 8.5000000000 -0.006001953 0.3451480865 2.5500624180 100.12599945 95.500999451 1.8550000191 -16.93899918 2.5150001049 2.5150001049
 2768.2500000 7.0000000000 9.2779998779 8.5000000000 -0.008994141 0.3420161307 2.5190606117 101.41000366 97.461997986 1.8129999638 -16.41099930 2.3489999771 2.3489999771
 2768.3750000 7.0000000000 9.2700004578 8.5000000000 -0.009000000 0.3314406574 2.4909999371 100.75399780 99.277999878 1.7999999523 -15.86999893 2.1960000992 2.1960000992
