# LAS format log file from PETREL
# Project units are specified as depth units
#==================================================================
~Version information
VERS.   2.0:
WRAP.   NO:
#==================================================================
~Well
STRT .m      417.47238159 :
STOP .m      3182.7705078 :
STEP .m     0.00000000 :
NULL .        -999.250000 :
COMP.           : COMPANY
WELL.  34/7-20   : WELL
FLD.            : FIELD
LOC.            : LOCATION
SRVC.           : SERVICE COMPANY
DATE.  2018-09-11 14:48:52   : Log Export Date {yyyy-MM-dd HH:mm:ss}
PROV.           : PROVINCE
UWI.   34/7-20   : UNIQUE WELL ID
API.            : API NUMBER
#==================================================================
~Curve
DEPT .m                   : DEPTH
Lithology_geolink ._      : Lithology_geolink
CALI .in                  : CALI
DRHO .g/cm3               : DRHO
NPHI .m3/m3               : NPHI
RHOB .g/cm3               : RHOB
GR .gAPI                  : GR
DTC .us/ft                : DTC
RDEP .ohm.m               : RDEP
SP .mV                    : SP
RSHA .ohm.m               : RSHA
RMED .ohm.m               : RMED
~Parameter
#==================================================================
~Ascii
# ...
 3176.6745605  -999.250000 12.864847183 -0.071999997 0.2509999871 2.3439989090 80.260459900 239.69900513 1.4019498825 171.71502686 1.9240453243 1.2317676544
 3176.8269043  -999.250000 12.865264893 -0.071999997 0.2509999871 2.3439998627 80.254684448 239.69900513 1.4439582825 171.69671631 1.9249219894 1.2924494743
 3176.9792480  -999.250000 12.865762711 -0.071999997 0.2509999871 2.3439998627 80.248779297 239.69900513 1.5282673836 171.26684570 1.9259748459 1.3934001923
 3177.1318359  -999.250000 12.865995407 -0.071999997 0.2509999871 2.3439998627 80.242988586 239.69900513 1.7235612869 171.02041626 1.9268724918 1.5964062214
 3177.2841797  -999.250000 12.866180420 -0.071999997 0.2509999871 2.3439998627 80.237289429 239.69900513 2.1289548874 171.19033813 1.9276614189 2.0074057579
 3177.4365234  -999.250000 12.866603851 -0.071999997 0.2509999871 2.3439998627 80.231437683 239.69900513 2.6953158379 171.55108643 1.9286973476 2.6559333801
 3177.5888672  -999.250000 12.866952896 -0.071999997 0.2509999871 2.3439998627 80.225631714 239.69900513 2.9079847336 171.96157837 1.9296562672 3.0543532372
 3177.7412109  -999.250000 12.867324829 -0.071999997 0.2509999871 2.3439998627 80.219970703 239.69900513 2.5224971771 172.41567993 1.9303841591 2.7680201530
 3177.8937988  -999.250000 12.867790222 -0.071999997 0.2509999871 2.3439998627 80.214126587 239.69900513 2.0483794212 172.83352661 1.9313583374 2.2639307976
 3178.0461426  -999.250000 12.868204117 -0.071999997 0.2509999871 2.3439998627 80.208290100 239.69900513 1.8469138145 173.08081055 1.9323661327 2.0809507370
 3178.1984863  -999.250000 12.868652344 -0.071999997 0.2509999871 2.3439998627 80.202560425 239.69900513 1.8086428642 173.14221191 1.9331431389 2.0794224739
 3178.3508301  -999.250000 12.868942261 -0.071999997 0.2509999871 2.3439998627 80.196777344 239.69900513 1.8166346550 173.10156250 1.9340689182 2.0768532753
 3178.5034180  -999.250000 12.869114876 -0.071999997 0.2509999871 2.3439998627 80.190864563 239.69900513 1.8386130333 173.04385376 1.9351146221 2.0879073143
 3178.6557617  -999.250000 12.869482040 -0.071999997 0.2509999871 2.3439998627 80.185142517 239.69900513 1.8433873653 173.06503296 1.9359683990 2.0964736938
 3178.8081055  -999.250000 12.869863510 -0.071999997 0.2509999871 2.3440048695 80.179382324 239.69900513 1.8369843960 173.16314697 1.9363520145 2.0993776321
 3178.9604492  -999.250000 12.869997025 -0.071999997 0.2509999871 2.3440716267 80.173507690 239.69900513 1.8294162750 173.27835083 1.9361894131 2.0972671509
 3179.1130371  -999.250000 12.869998932 -0.071999997 0.2509999871 2.3443272114 80.167694092 239.69900513 1.8227901459 173.39401245 1.9356386662 2.0933804512
 3179.2653809  -999.250000 12.869998932 -0.071999997 0.2509999871 2.3447623253 80.162025452 239.69900513 1.8218727112 173.50967407 1.9348094463 2.0894031525
 3179.4177246  -999.250000 12.869998932 -0.071999997 0.2509999871 2.3449580669 80.156166077 239.69900513 1.8284447193 173.62539673 1.9339823723 2.0904178619
 3179.5700684  -999.250000 12.869998932 -0.071989790 0.2509999871 2.3449990749 80.150367737 239.69900513 1.8378682137 173.74105835 1.9333705902 2.1024932861
 3179.7224121  -999.250000 12.869998932 -0.071943589 0.2509999871 2.3449997902 80.144691467 239.69900513 1.8473415375 173.85659790 1.9328064919 2.1212768555
 3179.8750000  -999.250000 12.869998932 -0.071856752 0.2509999871 2.3449997902 80.138885498 239.69900513 1.8562061787 173.97210693 1.9321441650 2.1307382584
 3180.0273438  -999.250000 12.869998932 -0.059123941 0.2509999871 2.3449997902 80.132827759 239.69900513 1.8575396538 174.08776855 1.9315433502 2.1222176552
 3180.1796875  -999.250000 12.869998932 -0.013572726 0.2509999871 2.3449997902 80.126968384 239.69900513 1.8455650806 174.20367432 1.9309272766 2.1051988602
 3180.3320313  -999.250000 12.869998932 0.0683405101 0.2509999871 2.3449997902 80.121246338 239.69900513 1.8252887726 174.31951904 1.9303019047 2.0878739357
 3180.4846191  -999.250000 12.869998932 0.1755672842 0.2509999871 2.3449997902 80.115447998 239.69906616 1.8044776917 174.43466187 1.9297449589 2.0736174583
 3180.6369629  -999.250000 12.869998932 0.2904880345 0.2509999871 2.3449997902 80.109558105 239.69940186 1.7935025692 174.55017090 1.9290993214 2.0665292740
 3180.7893066  -999.250000 12.869998932 0.4061473310 0.2509999871 2.3449997902 80.103866577 239.70907593 1.7989618778 174.66607666 1.9284942150 2.0650410652
 3180.9416504  -999.250000 12.869998932 0.5220195055 0.2509999871 2.3449821472 80.101890564 239.75421143 1.8128702641 174.78207397 1.9278776646 2.0650000572
 3181.0942383  -999.250000 12.871204376 0.6379196048 0.2509999871 2.3456616402 80.117607117 239.84521484 1.8271586895 174.89767456 1.9270191193 2.0650000572
 3181.2465820  -999.250000 12.874404907 0.7533854842 0.2509999871 2.3503694534 80.170982361 239.95989990 1.8397569656 175.01300049 1.9261686802 2.0653028488
 3181.3989258  -999.250000 12.878396988 0.8685791492 0.2509999871 2.3885695934 80.274566650 240.07861328 1.8449375629 175.12835693 1.9255573750 2.0671367645
 3181.5512695  -999.250000 12.882467270 0.9612485170 0.2509999871 2.4679250717 80.389076233 240.19747925 1.8404276371 175.24426270 1.9249398708 2.0711908340
 3181.7036133  -999.250000  -999.250000  -999.250000  -999.250000 2.5504148006 80.505844116 240.31573486 1.8347191811 175.36016846 1.9243226051 2.0762190819
 3181.8562012  -999.250000  -999.250000  -999.250000  -999.250000  -999.250000 80.622619629 240.43371582 1.8330478668 175.47583008 1.9237651825 2.0806322098
 3182.0085449  -999.250000  -999.250000  -999.250000  -999.250000  -999.250000 80.738861084 240.55194092 1.8330001831 175.59140015 1.9231135845 2.0832457542
 3182.1608887  -999.250000  -999.250000  -999.250000  -999.250000  -999.250000 80.855308533 240.67044067 1.8329999447 175.70697021 1.9225080013 2.0839791298
 3182.3132324  -999.250000  -999.250000  -999.250000  -999.250000  -999.250000 80.972007751 240.78884888 1.8329999447 175.82266235 1.9218912125 2.0840001106
 3182.4658203  -999.250000  -999.250000  -999.250000  -999.250000  -999.250000 81.088806152 240.90704346 1.8329999447 175.93814087 1.9212510586 2.0881385803
 3182.6181641  -999.250000  -999.250000  -999.250000  -999.250000  -999.250000 81.205162048 241.02575684 1.8329999447 120.14997864 1.9206006527 2.0919547081
 3182.7705078  -999.250000  -999.250000  -999.250000  -999.250000  -999.250000  -999.250000  -999.250000 1.8329999447 68.169250488 1.9197778702  -999.250000
