# LAS format log file from PETREL
# Project units are specified as depth units
#==================================================================
~Version information
VERS.   2.0:
WRAP.   NO:
#==================================================================
~Well
STRT .m      417.47238159 :
STOP .m      3182.7705078 :
STEP .m     0.00000000 :
NULL .        -999.250000 :
COMP.           : COMPANY
WELL.  34/7-20   : WELL
FLD.            : FIELD
LOC.            : LOCATION
SRVC.           : SERVICE COMPANY
DATE.  2018-09-11 14:48:52   : Log Export Date {yyyy-MM-dd HH:mm:ss}
PROV.           : PROVINCE
UWI.   34/7-20   : UNIQUE WELL ID
API.            : API NUMBER
#==================================================================
~Curve
DEPT .m                   : DEPTH
Lithology_geolink ._      : Lithology_geolink
CALI .in                  : CALI
DRHO .g/cm3               : DRHO
NPHI .m3/m3               : NPHI
RHOB .g/cm3               : RHOB
GR .gAPI                  : GR
DTC .us/ft                : DTC
RDEP .ohm.m               : RDEP
SP .mV                    : SP
RSHA .ohm.m               : RSHA
RMED .ohm.m               : RMED
~Parameter
#==================================================================
~Ascii
# ...
 2243.9863281  -999.250000 12.359375000  -999.250000 0.3770731986  -999.250000  -999.250000 116.54428101 1.1975729465 165.67539978 1.2975246906 1.2380437851
 2244.1389160  -999.250000 12.359375000  -999.250000 0.3771977127  -999.250000  -999.250000 116.49276733 1.2011702061 166.98837280 1.4925613403 1.2416493893
 2244.2912598  -999.250000 12.359375000  -999.250000 0.3731908500  -999.250000  -999.250000 116.25726318 1.2090687752 167.90591431 1.5097317696 1.2562317848
 2244.4436035  -999.250000 12.359375000  -999.250000 0.3793063462  -999.250000  -999.250000 116.74761963 1.2197890282 167.90661621 1.4410917759 1.2619917393
 2244.5959473  -999.250000 12.359375000  -999.250000 0.3866123259  -999.250000  -999.250000 117.36340332 1.2203731537 167.23591614 1.4460377693 1.2564771175
 2244.7485352  -999.250000 12.359375000  -999.250000 0.3819802999  -999.250000  -999.250000 116.85519409 1.2083358765 166.69680786 1.4292364120 1.2450501919
 2244.9008789  -999.250000 12.359375000  -999.250000 0.3833138943  -999.250000  -999.250000 116.17671204 1.2090766430 167.08181763 1.3191804886 1.2391467094
 2245.0532227  -999.250000 12.359375000  -999.250000 0.3901161253  -999.250000  -999.250000 115.89999390 1.2267160416 168.45979309 1.2827258110 1.2484891415
 2245.2055664  -999.250000 12.359375000  -999.250000 0.3951492310  -999.250000  -999.250000 115.90452576 1.2356739044 169.54522705 1.3966906071 1.2602317333
 2245.3581543  -999.250000 12.359375000  -999.250000 0.3931654394  -999.250000  -999.250000 116.00161743 1.2429575920 169.14196777 1.4558312893 1.2746531963
 2245.5104980  -999.250000 12.359375000  -999.250000 0.3773133755  -999.250000  -999.250000 115.99688721 1.2531049252 167.90896606 1.4434380531 1.2827408314
 2245.6628418  -999.250000 12.360836029  -999.250000 0.3592126369  -999.250000  -999.250000 116.02299500 1.2508149147 166.67665100 1.3698329926 1.2795870304
 2245.8151855  -999.250000 12.394542694  -999.250000 0.3563281894  -999.250000  -999.250000 116.42295074 1.2500257492 165.57896423 1.3495559692 1.2794797421
 2245.9675293  -999.250000 12.451848984  -999.250000 0.3686516583  -999.250000  -999.250000 116.80093384 1.2654771805 165.31904602 1.4023230076 1.2921757698
 2246.1201172  -999.250000 12.485012054  -999.250000 0.3736534119  -999.250000  -999.250000 116.83232117 1.2782990932 166.65319824 1.4947547913 1.3066465855
 2246.2724609  -999.250000 12.492187500  -999.250000 0.3617658913  -999.250000  -999.250000 116.45449829 1.2795670033 168.63929749 1.5190429688 1.3122079372
 2246.4248047  -999.250000 12.492187500  -999.250000 0.3576623499  -999.250000  -999.250000 115.71101379 1.2877638340 169.43728638 1.5099627972 1.3155324459
 2246.5771484  -999.250000 12.491826057  -999.250000 0.3667775691  -999.250000  -999.250000 115.10269165 1.2973408699 168.86477661 1.5657470226 1.3223648071
 2246.7297363  -999.250000 12.484214783  -999.250000 0.3833691478  -999.250000  -999.250000 115.10855103 1.2941627502 168.07055664 1.5912501812 1.3265831470
 2246.8820801  -999.250000 12.483377457  -999.250000 0.3988626003  -999.250000  -999.250000 115.15419006 1.2796018124 167.41265869 1.5867245197 1.3103578091
 2247.0344238  -999.250000 12.455608368  -999.250000 0.3994034529  -999.250000  -999.250000 115.36848450 1.2698328495 166.16603088 1.5529477596 1.2915878296
 2247.1867676  -999.250000 12.460016251  -999.250000 0.3853365183  -999.250000  -999.250000 115.54057312 1.2637681961 164.41036987 1.5734636784 1.2867941856
 2247.3393555  -999.250000 12.492187500  -999.250000 0.3781165183  -999.250000  -999.250000 115.50999451 1.2557466030 164.04516602 1.6096482277 1.2810528278
 2247.4916992  -999.250000 12.492187500  -999.250000 0.3967185915  -999.250000  -999.250000 115.60473633 1.2578911781 166.17309570 1.6170594692 1.2780237198
 2247.6440430  -999.250000 12.491822243  -999.250000 0.4138343930  -999.250000  -999.250000 115.70303345 1.2564001083 169.15553284 1.6101117134 1.2801578045
 2247.7963867  -999.250000 12.483488083  -999.250000 0.4063050747  -999.250000  -999.250000 115.67024231 1.2419321537 171.26408386 1.6262440681 1.2773382664
 2247.9487305  -999.250000 12.469072342  -999.250000 0.3794741929  -999.250000  -999.250000 115.08395386 1.2323384285 171.72549438 1.6706120968 1.2682952881
 2248.1013184  -999.250000 12.477334976  -999.250000 0.3576197028  -999.250000  -999.250000 114.91888428 1.2297446728 171.08255005 1.6764714718 1.2638974190
 2248.2536621  -999.250000 12.483853340  -999.250000 0.3465410471  -999.250000  -999.250000 115.03086853 1.2399625778 170.62777710 1.6811654568 1.2737712860
 2248.4060059  -999.250000 12.485036850  -999.250000 0.3429377675  -999.250000  -999.250000 114.83986664 1.2617247105 170.54600525 1.6642470360 1.2897565365
 2248.5583496  -999.250000 12.492187500  -999.250000 0.3471813202  -999.250000  -999.250000 114.62989807 1.2850444317 170.48754883 1.6632108688 1.3153846264
 2248.7109375  -999.250000 12.493297577  -999.250000 0.3579067886  -999.250000  -999.250000 114.27970123 1.3080408573 170.35525513 1.6401801109 1.3428890705
 2248.8632813  -999.250000 12.518661499  -999.250000 0.3673874736  -999.250000  -999.250000 113.99201965 1.3274536133 170.26651001 1.5424752235 1.3570811749
 2249.0156250  -999.250000 12.564682961  -999.250000 0.3676362634  -999.250000  -999.250000 113.88549805 1.3395202160 170.51394653 1.5646448135 1.3771719933
 2249.1679688  -999.250000 12.590826035  -999.250000 0.3563525379  -999.250000  -999.250000 113.57379150 1.3539936543 171.37121582 1.5950460434 1.3972866535
 2249.3205566  -999.250000 12.610351563  -999.250000 0.3448273540  -999.250000  -999.250000 113.13114929 1.3737139702 172.46792603 1.6075398922 1.4099469185
 2249.4729004  -999.250000 12.624769211  -999.250000 0.3433194757  -999.250000  -999.250000 112.66967773 1.3904142380 172.68759155 1.6212308407 1.4299130440
 2249.6252441  -999.250000 12.624999046  -999.250000 0.3434698582  -999.250000  -999.250000 112.05165100 1.4148786068 171.42152405 1.6586360931 1.4562878609
 2249.7775879  -999.250000 12.627351761  -999.250000 0.3406294882  -999.250000  -999.250000 111.05270386 1.4365007877 169.66952515 1.7544183731 1.4709889889
 2249.9299316  -999.250000 12.688103676  -999.250000 0.3383064270  -999.250000  -999.250000 110.22528076 1.4260823727 169.08247375 1.8111395836 1.4669191837
 2250.0825195  -999.250000 12.905714035  -999.250000 0.3392386734  -999.250000  -999.250000 109.56277466 1.3903431892 170.02465820 1.7952075005 1.4407126904
 2250.2348633  -999.250000 12.822078705  -999.250000 0.3505397737  -999.250000  -999.250000 109.16349792 1.3399562836 171.27923584 1.7709901333 1.3843898773
 2250.3872070  -999.250000 12.567241669  -999.250000 0.3640700579  -999.250000  -999.250000 109.48600769 1.3001868725 172.42129517 1.6028454304 1.3405265808
 2250.5395508  -999.250000 12.531225204  -999.250000 0.3657999337  -999.250000  -999.250000 111.32731628 1.2832112312 174.04783630 1.1313333511 1.3227829933
 2250.6921387  -999.250000 12.705893517  -999.250000 0.3582348526  -999.250000  -999.250000 113.51222229 1.3000388145 175.73999023 0.9899970293 1.3437178135
 2250.8444824  -999.250000 13.083953857  -999.250000 0.3547573090  -999.250000  -999.250000 114.04173279 1.3260443211 176.80487061 1.4103782177 1.3728094101
 2250.9968262  -999.250000 12.871749878  -999.250000 0.3736679852  -999.250000  -999.250000 114.16389465 1.3428747654 177.49078369 1.7026617527 1.3789172173
 2251.1491699  -999.250000 12.492187500  -999.250000 0.4019341171  -999.250000  -999.250000 114.27916718 1.3593902588 177.90963745 1.6268091202 1.3908898830
 2251.3017578  -999.250000 12.492187500  -999.250000 0.4089223444  -999.250000  -999.250000 113.88821411 1.3637511730 177.45556641 1.5398807526 1.4063818455
 2251.4541016  -999.250000 12.492187500  -999.250000 0.3919380307  -999.250000  -999.250000 112.65478516 1.3734922409 175.92968750 1.5840964317 1.4121088982
 2251.6064453  -999.250000 12.492187500  -999.250000 0.3637770712  -999.250000  -999.250000 111.31402588 1.3805193901 174.04598999 1.6330220699 1.4110865593
