# LAS format log file from PETREL
# Project units are specified as depth units
#==================================================================
~Version information
VERS.   2.0:
WRAP.   NO:
#==================================================================
~Well
STRT .m      806.37493896 :
STOP .m      2790.0000000 :
STEP .m     0.00000000 :
NULL .        -999.250000 :
COMP.           : COMPANY
WELL.  34/7-12   : WELL
FLD.            : FIELD
LOC.            : LOCATION
SRVC.           : SERVICE COMPANY
DATE.  2018-09-11 14:48:51   : Log Export Date {yyyy-MM-dd HH:mm:ss}
PROV.           : PROVINCE
UWI.   34/7-12   : UNIQUE WELL ID
API.            : API NUMBER
#==================================================================
~Curve
DEPT .m                   : DEPTH
Lithology_geolink ._      : Lithology_geolink
CALI .in                  : CALI
DRHO .g/cm3               : DRHO
NPHI .m3/m3               : NPHI
RHOB .g/cm3               : RHOB
GR .gAPI                  : GR
DTC .us/ft                : DTC
RDEP .ohm.m               : RDEP
SP .mV                    : SP
RSHA .ohm.m               : RSHA
RMED .ohm.m               : RMED
~Parameter
#==================================================================
~Ascii
 806.37493896  -999.250000 18.839000702 -1.911999941  -999.250000 1.2109999657 107.52211761  -999.250000 2.7149999142  -999.250000 1.7230000496 0.2060000002
 806.49993896  -999.250000 18.839000702 -1.911999941  -999.250000 1.2109999657 107.76211548  -999.250000 2.7149999142  -999.250000 1.7170000076 0.2060000002
 806.62500000  -999.250000 18.839000702 -1.911999941  -999.250000 1.2109999657 108.00323486 56.259998322 2.7160000801  -999.250000 1.7150000334 0.2060000002
 806.74993896  -999.250000 18.837999344 -1.917000055  -999.250000 1.2100000381 108.24400330 56.259998322 2.7170000076  -999.250000 1.7130000591 0.2060000002
 806.87493896  -999.250000 18.836000443 -1.940999985  -999.250000 1.2020000219 108.48699951 56.259998322 2.7179999352  -999.250000 1.7170000076 0.2060000002
 806.99993896  -999.250000 18.834999084 -1.963000059  -999.250000 1.1990000010 108.73027039 56.259998322 2.7179999352  -999.250000 1.7200000286 0.2060000002
 807.12493896  -999.250000 18.834999084 -1.955999970  -999.250000 1.2029999495 109.28337860 56.259998322 2.7190001011  -999.250000 1.7230000496 0.2060000002
 807.24987793  -999.250000 18.836000443 -1.934000015  -999.250000 1.2109999657 110.06500244 56.259998322 2.7199990749  -999.250000 1.7249981165 0.2060000002
 807.37493896  -999.250000 18.836999893 -1.906999946  -999.250000 1.2200000286 111.01999664 56.259998322 2.7209999561  -999.250000 1.7239999771 0.2060000002
 807.49993896  -999.250000 18.839000702 -1.884999990  -999.250000 1.2330000401 112.12899780 56.259998322 2.7219998837  -999.250000 1.7230000496 0.2060000002
 807.62493896  -999.250000 18.839000702 -1.891000032  -999.250000 1.2380000353 113.27857971 56.259998322 2.7230000496  -999.250000 1.7209999561 0.2060000002
 807.74993896  -999.250000 18.836999893 -1.901999950  -999.250000 1.2410000563 114.46945953 56.259998322 2.7239999771  -999.250000 1.7189999819 0.2060000002
 807.87493896  -999.250000 18.834999084 -1.912999988  -999.250000 1.2450000048 115.40699768 56.259998322 2.7249994278  -999.250000 1.7170009613 0.2060000002
 807.99993896  -999.250000 18.833000183 -1.912999988  -999.250000 1.2510000467 116.02999878 56.259998322 2.7260000706  -999.250000 1.7150000334 0.2060000002
 808.12493896  -999.250000 18.833999634 -1.902999997  -999.250000 1.2519999743 117.06983948 56.259998322 2.7269999981  -999.250000 1.7130000591 0.2060000002
 808.24993896  -999.250000 18.836999893 -1.891999960  -999.250000 1.2480000257 118.79448700 56.259998322 2.7279999256  -999.250000 1.7109999657 0.2060000002
 808.37500000  -999.250000 18.839000702 -1.894000053  -999.250000 1.2330000401 119.79556274 56.259998322 2.7290000916  -999.250000 1.7089999914 0.2060000002
 808.49993896  -999.250000 18.839000702 -1.917999983  -999.250000 1.2050000429 119.34700012 56.259998322 2.7290000916  -999.250000 1.7080004215 0.2060000002
 808.62493896  -999.250000 18.836000443 -1.942000031  -999.250000 1.1940000057 118.06300354 56.259998322 2.7290000916  -999.250000 1.7059999704 0.2060000002
 808.74993896  -999.250000 18.833999634 -1.963000059  -999.250000 1.1920000315 115.10075378 56.259998322 2.7279999256  -999.250000 1.7039999962 0.2060000002
 808.87493896  -999.250000 18.833999634 -1.973000050  -999.250000 1.2039999962 112.55442047 56.259998322 2.7269999981  -999.250000 1.7029999495 0.2060000002
 808.99987793  -999.250000 18.839000702 -1.955999970  -999.250000 1.2359999418 111.36299896 56.259998322 2.7269999981  -999.250000 1.7010018826 0.2060000002
 809.12493896  -999.250000 18.843000412 -1.934000015  -999.250000 1.2530000210 110.66100311 56.259998322 2.7200000286  -999.250000 1.6990000010 0.2060000002
 809.24993896  -999.250000 18.847999573 -1.912999988  -999.250000 1.2640000582 111.83599854 56.259998322 2.6989998817  -999.250000 1.6970000267 0.2060000002
 809.37493896  -999.250000 18.850999832 -1.902999997  -999.250000 1.2669999599 112.87628937 56.259998322 2.6830000877  -999.250000 1.6959999800 0.2060000002
 809.49993896  -999.250000 18.853000641 -1.901000023  -999.250000 1.2690000534 113.47616577 56.259998322 2.6770000458  -999.250000 1.6940000057 0.2060000002
 809.62487793  -999.250000 18.853000641 -1.902999997  -999.250000 1.2740000486 113.82599640 56.259998322 2.6700069904  -999.250000 1.6920019388 0.2060000002
 809.74993896  -999.250000 18.851999283 -1.896999955  -999.250000 1.2799999714 113.37999725 56.259998322 2.6589999199  -999.250000 1.6909999847 0.2060000002
 809.87493896  -999.250000 18.851999283 -1.876000047  -999.250000 1.2890000343 112.83575439 56.259998322 2.6510000229  -999.250000 1.6890000105 0.2060000002
 809.99993896  -999.250000 18.854000092 -1.837000012  -999.250000 1.2970000505 112.33771515 56.259998322 2.6549999714  -999.250000 1.6890000105 0.2060000002
 810.12500000  -999.250000 18.854000092 -1.830000043  -999.250000 1.2940000296 111.76602936 56.259998322 2.6600000858  -999.250000 1.6890000105 0.2060000002
 810.24993896  -999.250000 18.853000641 -1.843999982  -999.250000 1.2860000134 110.77600098 56.259998322 2.6649975777  -999.250000 1.6899995804 0.2060000002
 810.37493896  -999.250000 18.850999832 -1.886999965  -999.250000 1.2649999857 109.75399780 56.259998322 2.6689999104  -999.250000 1.6909999847 0.2060000002
 810.49993896  -999.250000 18.849000931 -1.953999996  -999.250000 1.2300000191 109.01966858 56.259998322 2.6740000248  -999.250000 1.6929999590 0.2060000002
 810.62493896  -999.250000 18.847999573 -1.981999993  -999.250000 1.2079999447 108.35336304 56.259998322 2.6789999008  -999.250000 1.6940000057 0.2060000002
 810.75000000  -999.250000 18.847999573 -1.992997050  -999.250000 1.1899902821 109.09786987 56.259998322 2.6830000877  -999.250000 1.6950000525 0.2060000002
 810.87493896  -999.250000 18.847999573 -1.990000010  -999.250000 1.1799999475 109.98500061 56.259998322 2.6879999638  -999.250000 1.6959999800 0.2060000002
 810.99993896  -999.250000 18.844999313 -1.972000003  -999.250000 1.1870000362 110.64299774 56.259998322 2.6919999123  -999.250000 1.6970000267 0.2060000002
 811.12493896  -999.250000 18.843000412 -1.957000017  -999.250000 1.2089999914 111.18097687 56.259998322 2.6970000267  -999.250000 1.6990000010 0.2060000002
 811.24993896  -999.250000 18.841999054 -1.939000010  -999.250000 1.2369999886 111.12686157 56.259998322 2.7009999752  -999.250000 1.7020000219 0.2060000002
 811.37487793  -999.250000 18.843999863 -1.914999962  -999.250000 1.2740000486 110.84300232 56.259998322 2.7059953213  -999.250000 1.7049970627 0.2060000002
 811.49993896  -999.250000 18.844999313 -1.871999979  -999.250000 1.3279999495 109.97799683 56.259998322 2.7100000381  -999.250000 1.7089999914 0.2060000002
 811.62493896  -999.250000 18.843000412 -1.840999961  -999.250000 1.3609999418 108.92299652 56.259998322 2.7139999866  -999.250000 1.7130000591 0.2060000002
 811.74993896  -999.250000 18.837999344 -1.812000036  -999.250000 1.3849999905 108.46389771 56.259998322 2.7149999142  -999.250000 1.7170000076 0.2060000002
 811.87500000  -999.250000 18.832000732 -1.787999988  -999.250000 1.4029999971 108.26191711 56.259998322 2.7160000801  -999.250000 1.7209999561 0.2060000002
 811.99993896  -999.250000 18.829000473 -1.776000023  -999.250000 1.4240000248 108.17299652 56.259998322 2.7169995308  -999.250000 1.7249981165 0.2060000002
 812.12493896  -999.250000 18.836000443 -1.786999941  -999.250000 1.4290000200 108.15299988 56.259998322 2.7179999352  -999.250000 1.7269999981 0.2060000002
 812.24993896  -999.250000 18.847999573 -1.802000046  -999.250000 1.4240000248 109.06674194 56.259998322 2.7190001011  -999.250000 1.7280000448 0.2060000002
 812.37493896  -999.250000 18.864999771 -1.825000048  -999.250000 1.3990000486 110.58107758 56.259998322 2.7200000286  -999.250000 1.7269999981 0.2060000002
 812.50000000  -999.250000 18.886999130 -1.868000031  -999.250000 1.3409999609 110.74211884 56.259998322 2.7209999561  -999.250000 1.7269999981 0.2060000002
 812.62493896  -999.250000 18.900999069 -1.925999999  -999.250000 1.2840000391 109.84600067 56.259998322 2.7219998837  -999.250000 1.7269999981 0.2060000002
