# LAS format log file from PETREL
# Project units are specified as depth units
#==================================================================
~Version information
VERS.   2.0:
WRAP.   NO:
#==================================================================
~Well
STRT .m      377.87487793 :
STOP .m      3151.8757324 :
STEP .m     0.00000000 :
NULL .        -999.250000 :
COMP.           : COMPANY
WELL.  34/7-5   : WELL
FLD.            : FIELD
LOC.            : LOCATION
SRVC.           : SERVICE COMPANY
DATE.  2018-09-11 14:48:52   : Log Export Date {yyyy-MM-dd HH:mm:ss}
PROV.           : PROVINCE
UWI.   34/7-5   : UNIQUE WELL ID
API.            : API NUMBER
#==================================================================
~Curve
DEPT .m                   : DEPTH
Lithology_geolink ._      : Lithology_geolink
CALI .in                  : CALI
DRHO .g/cm3               : DRHO
NPHI .m3/m3               : NPHI
RHOB .g/cm3               : RHOB
GR .gAPI                  : GR
DTC .us/ft                : DTC
RDEP .ohm.m               : RDEP
SP .mV                    : SP
RSHA .ohm.m               : RSHA
RMED .ohm.m               : RMED
~Parameter
#==================================================================
~Ascii
# ...
 3144.6245117  -999.250000 10.300998688 0.0480000004 0.3752299845 2.4979999065 59.902999878 76.185997009 2.9419999123 111.22799683 2.4400000572 2.4400000572
 3144.7495117  -999.250000 10.281999588 0.0460000001 0.3754999936 2.4960000515 59.902999878 76.167999268 2.9460000992 111.28299713 2.3840000629 2.3840000629
 3144.8747559  -999.250000 10.265000343 0.0450000018 0.3756000102 2.4909999371 59.903999329 76.149002075 2.9500000477 111.73200226 2.3410000801 2.3410000801
 3144.9992676  -999.250000 10.248000145 0.0390000008 0.3756000102 2.4779999256 59.903999329 76.130996704 2.9530000687 112.02999878 2.2969999313 2.2969999313
 3145.1242676  -999.250000 10.227000237 0.0170000009 0.3756000102 2.4639999866 59.903999329 76.111999512 2.9570000172 111.13700104 2.2550001144 2.2550001144
 3145.2495117  -999.250000 10.204000473 -0.009000000 0.3756000102 2.4500000477 59.904998779 76.094009399 2.9609999657 109.94799805 2.2130000591 2.2130000591
 3145.3745117  -999.250000 10.187999725 -0.027000001 0.3757900000 2.4370000362 59.904998779 76.074996948 2.9649999142 109.01999664 2.1840000153 2.1840000153
 3145.4995117  -999.250000 10.147001266 -0.033000000 0.3765100241 2.4319999218 59.905998230 76.064002991 2.9649999142 108.22299957 2.1710000038 2.1710000038
 3145.6245117  -999.250000 9.9840002060 -0.037999999 0.3773400187 2.4300000668 59.905998230 76.088996887 2.9609999657 108.27700043 2.1570000648 2.1570000648
 3145.7492676  -999.250000 9.8079996109 -0.037000000 0.3782400191 2.4289999008 59.905998230 76.122001648 2.9579999447 108.70400238 2.1449999809 2.1449999809
 3145.8742676  -999.250000 9.7170000076 -0.030999999 0.3798699975 2.4289999008 59.907001495 76.153999329 2.9549999237 109.73699951 2.1340000629 2.1340000629
 3145.9992676  -999.250000 9.6269998550 -0.027000001 0.3819200099 2.4270000458 59.907001495 76.186996460 2.9509999752 111.00099945 2.1240000725 2.1240000725
 3146.1242676  -999.250000 9.5329999924 -0.028000001 0.3836700022 2.4170000553 59.908000946 76.219001770 2.9479999542 112.26499939 2.1129999161 2.1129999161
 3146.2492676  -999.250000 9.4350004196 -0.039999999 0.3854100108 2.3919999599 59.905998230 76.251998901 2.9449999332 112.85800171 2.1150000095 2.1150000095
 3146.3742676  -999.250000 9.3620004654 -0.057000000 0.3871499896 2.3629999161 59.881999969 76.269996643 2.9409999847 110.86799622 2.1229999065 2.1229999065
 3146.4992676  -999.250000 9.3249998093 -0.074000001 0.3888800144 2.3340001106 59.856998444 76.272003174 2.9379999638 107.10500336 2.1310000420 2.1310000420
 3146.6240234  -999.250000 9.2969999313 -0.079000004 0.3902899921 2.3220000267 59.833000183 76.274002075 2.9400000572 106.00700378 2.1389999390 2.1389999390
 3146.7490234  -999.250000 9.2690000534 -0.077000000 0.3911000192 2.3210000992 59.807998657 76.276000977 2.9440000057 107.22399902 2.1459999084 2.1459999084
 3146.8740234  -999.250000 9.2410001755 -0.079999998 0.3910399973 2.3169999123 59.783000946 76.277999878 2.9479999542 109.06999969 2.1370000839 2.1370000839
 3146.9990234  -999.250000 9.2170000076 -0.097999997 0.3908599913 2.2920000553 59.758998871 76.279998779 2.9519999027 110.90299988 2.1240000725 2.1240000725
 3147.1240234  -999.250000 8.9250001907 -0.112000003 0.3912099898 2.2760000229 59.734001160 76.281997681 2.9570000172 109.97799683 2.1119999886 2.1119999886
 3147.2490234  -999.250000 7.3110003471 0.0549999997 0.3915599883 2.5840001106 59.564998627 76.233001709 2.9130001068 107.45700073 2.0859999657 2.0859999657
 3147.3740234  -999.250000 4.5609998703 0.3160000145 0.3875299692 2.9309999943 43.374000549 59.652000427 1.9939999580 116.94899750 1.7680000067 1.7680000067
 3147.4990234  -999.250000 1.9190000296 0.4749999940 0.0274099987 2.5339999199 6.1680002213 40.187000275 0.8709999919 125.10399628 0.6869999766 0.6869999766
 3147.6237793  -999.250000 0.3359999955 -0.456000000 0.0493800007 2.1410000324 -0.202000007 40.236999512 0.2000000030 131.07800293 0.2000000030 0.2000000030
 3147.7487793  -999.250000 0.0199999996 -1.498000026 0.4471600056 1.9479999542 -0.180000007 40.286998749 0.2000000030 131.08900452 0.2000000030 0.2000000030
 3147.8737793  -999.250000 0.0179999992 -1.501999974 0.4489699900 1.9479999542 -0.158000007 40.335994720 0.2000000030 131.09899902 0.2000000030 0.2000000030
 3147.9987793  -999.250000 0.0160000008 -1.501999974 0.4490800202 1.9479999542 -0.136999995 40.359001160 0.2000000030 131.11000061 0.2000000030 0.2000000030
 3148.1237793  -999.250000 0.0130000003 -1.501999974 0.4491899908 1.9479999542 -0.115000002 40.337001801 0.2010000050 131.11999512 0.2000000030 0.2000000030
 3148.2487793  -999.250000 0.0109999999 -1.501999974 0.4492999911 1.9479999542 -0.093000002 40.314998627 0.2010000050 131.13099670 0.2000000030 0.2000000030
 3148.3737793  -999.250000 0.0089999996 -1.501999974 0.4493999779 1.9479999542 -0.071000002 40.292999268 0.2010000050 131.14199829 0.2000000030 0.2000000030
 3148.4985352  -999.250000 0.0060000001 -1.501999974 0.4494599998 1.9479999542 -0.050000001 40.270999908 0.2010000050 131.15199280 0.2000000030 0.2000000030
 3148.6235352  -999.250000 0.0040000002 -1.501999974 0.4495100081 1.9479999542 -0.028000001 40.249996185 0.2010000050 131.16299438 0.2000000030 0.2000000030
 3148.7485352  -999.250000 0.0020000001 -1.501999974 0.4495600164 1.9479999542 -0.006000000 40.228004456 0.2010000050 131.17300415 0.2000000030 0.2000000030
 3148.8767090  -999.250000 0.0010000000 -1.501999974 0.4496099949 1.9490000010 0.0149999997 40.206001282 0.2010000050 131.18400574 0.2000000030 0.2000000030
 3149.0014648  -999.250000 0.0020000001 -1.501999974 0.4496600032 1.9490000010 0.0370000005 40.187000275 0.2010000050 131.19500732 0.2010000050 0.2010000050
 3149.1264648  -999.250000 0.0030000000 -1.501999974 0.4497100115 1.9490000010 0.0590000004 40.187000275 0.2010000050 131.20500183 0.2010000050 0.2010000050
 3149.2485352  -999.250000 0.0030000000 -1.501999974 0.4497600198 1.9490000010 0.0810000002 40.188999176 0.2010000050 131.21600342 0.2010000050 0.2010000050
 3149.3735352  -999.250000 0.0040000002 -1.501999974 0.4498199821 1.9490000010 0.1019999981 40.191001892 0.2010000050 131.22599792 0.2010000050 0.2010000050
 3149.4980469  -999.250000 0.0049999999  -999.250000  -999.250000 1.9490000010 0.1239999980 40.193004608 0.2020000070 131.23699951 0.2010000050 0.2010000050
 3149.6264648  -999.250000 0.0049999999  -999.250000  -999.250000 1.9490000010 0.1459999979 40.194999695 0.2020000070 131.24699402 0.2010000050 0.2010000050
 3149.7514648  -999.250000 0.0060000001  -999.250000  -999.250000  -999.250000 0.1679999977 40.196998596 0.2020000070  -999.250000 0.2020000070 0.2020000070
 3149.8764648  -999.250000 0.0060000001  -999.250000  -999.250000  -999.250000  -999.250000 40.199001312  -999.250000  -999.250000 0.2020000070 0.2020000070
 3150.0012207  -999.250000 0.0070000002  -999.250000  -999.250000  -999.250000  -999.250000  -999.250000  -999.250000  -999.250000  -999.250000  -999.250000
 3150.1262207  -999.250000 0.0080000004  -999.250000  -999.250000  -999.250000  -999.250000  -999.250000  -999.250000  -999.250000  -999.250000  -999.250000
 3150.2512207  -999.250000 0.0080000004  -999.250000  -999.250000  -999.250000  -999.250000  -999.250000  -999.250000  -999.250000  -999.250000  -999.250000
 3150.3762207  -999.250000 0.0089999996  -999.250000  -999.250000  -999.250000  -999.250000  -999.250000  -999.250000  -999.250000  -999.250000  -999.250000
 3150.5012207  -999.250000 0.0099999998  -999.250000  -999.250000  -999.250000  -999.250000  -999.250000  -999.250000  -999.250000  -999.250000  -999.250000
 3150.6262207  -999.250000 0.0099999998  -999.250000  -999.250000  -999.250000  -999.250000  -999.250000  -999.250000  -999.250000  -999.250000  -999.250000
 3150.7512207  -999.250000 0.0109999999  -999.250000  -999.250000  -999.250000  -999.250000  -999.250000  -999.250000  -999.250000  -999.250000  -999.250000
 3150.8759766  -999.250000 0.0120000001  -999.250000  -999.250000  -999.250000  -999.250000  -999.250000  -999.250000  -999.250000  -999.250000  -999.250000
