# LAS format log file from PETREL
# Project units are specified as depth units
#==================================================================
~Version information
VERS.   2.0:
WRAP.   NO:
#==================================================================
~Well
STRT .m      2339.3889160 :
STOP .m      3955.4384766 :
STEP .m     0.00000000 :
NULL .        -999.250000 :
COMP.           : COMPANY
WELL.  34/8-6   : WELL
FLD.            : FIELD
LOC.            : LOCATION
SRVC.           : SERVICE COMPANY
DATE.  2018-09-11 14:48:53   : Log Export Date {yyyy-MM-dd HH:mm:ss}
PROV.           : PROVINCE
UWI.   34/8-6   : UNIQUE WELL ID
API.            : API NUMBER
#==================================================================
~Curve
DEPT .m                   : DEPTH
Lithology_geolink ._      : Lithology_geolink
CALI .in                  : CALI
DRHO .g/cm3               : DRHO
NPHI .m3/m3               : NPHI
RHOB .g/cm3               : RHOB
GR .gAPI                  : GR
DTC .us/ft                : DTC
RDEP .ohm.m               : RDEP
SP .mV                    : SP
RMED .ohm.m               : RMED
~Parameter
#==================================================================
~Ascii
# ...
 3619.5488281 7.0000000000 13.031250000 -0.013201620 0.3951436877 2.5746290684 125.55870056 98.188781738 4.1641349792 144.02459717 7.1570181847
 3619.7014160 7.0000000000 13.031250000 -0.006229016 0.3737600148 2.6330499649 122.87310028 90.302673340 4.3848319054 143.77540588 7.4944310188
 3619.8537598 7.0000000000 13.031250000 0.0013886240 0.3477180898 2.6557719707 121.81659698 91.802787781 4.6392750740 144.02529907 10.062370300
 3620.0061035 16.000000000 13.031259537 0.0011908800 0.3589664102 2.6066460609 129.13169861 93.104263306 4.8105769157 144.52479553 12.916150093
 3620.1584473 16.000000000 13.039151192 -0.007663413 0.3986591101 2.5189929008 136.37919617 97.705406189 4.9662041664 144.27439880 10.555040359
 3620.3107910 16.000000000 13.109411240 -0.002730208 0.4012917876 2.4920730591 139.61749268 101.89850616 4.9953699112 143.77520752 9.0027246475
 3620.4633789 16.000000000 13.132820129 -0.000157915 0.3928220868 2.4925470352 135.12539673 100.99800873 5.1025052071 143.90010071 9.5957164764
 3620.6157227 16.000000000 13.156239510 -0.000906762 0.4028685987 2.5085530281 135.99749756 100.00000000 4.9882321358 144.15010071 10.847579956
 3620.7680664 7.0000000000 13.148410797 -0.003512883 0.4071480036 2.5052289963 132.87469482 100.00090790 4.8070349693 144.27510071 10.989370346
 3620.9204102 7.0000000000 13.124951363 0.0000367000 0.4381267130 2.5146338940 132.62350464 100.80030060 4.7201328278 144.40020752 10.938599586
 3621.0729980 7.0000000000 13.093720436 -0.001455225 0.4189363122 2.5030930042 131.62640381 101.00559998 4.6746749878 144.52569580 11.309419632
 3621.2253418 7.0000000000 13.078140259 -0.003227795 0.4500407875 2.5022709370 132.37460327 102.59909821 4.5439720154 144.90029907 11.973440170
 3621.3776855 7.0000000000 13.093799591 -0.005481256 0.4121302068 2.5009200573 131.74380493 101.19919586 4.4649081230 145.27450562 11.353219986
 3621.5300293 7.0000000000 13.140680313 -0.006180535 0.4239549935 2.5373980999 125.81079865 100.39859009 4.5319271088 144.77450562 9.5723123550
 3621.6826172 7.0000000000 13.179689407 -0.006569475 0.4137754142 2.5511910915 124.62920380 99.401611328 4.5580768585 144.40130615 8.0896396637
 3621.8349609 7.0000000000 13.179689407 -0.007759540 0.4231840968 2.5346419811 127.00250244 100.30279541 4.4765138626 145.14959717 7.8765621185
 3621.9873047 7.0000000000 13.179689407 -0.009886339 0.4125269949 2.4995419979 131.62959290 101.60139465 4.6080470085 144.40049744 8.9706811905
 3622.1396484 7.0000000000 13.179689407 -0.011713190 0.4096764028 2.4756669998 136.62319946 103.10230255 4.6605691910 144.90100098 10.087220192
 3622.2922363 7.0000000000 13.179689407 -0.003270582 0.4217756987 2.4887540340 135.26069641 104.90100098 4.6471447945 145.64959717 11.290089607
 3622.4445801 7.0000000000 13.179689407 -0.003532827 0.4119381011 2.4778969288 141.75000000 105.49620056 4.5373430252 145.39990234 12.164879799
 3622.5969238 7.0000000000 13.179689407 -0.005090868 0.3851645887 2.4757559299 141.74859619 103.59880829 4.2325959206 145.27470398 11.586839676
 3622.7492676 7.0000000000 13.179689407 -0.003697901 0.3604206145 2.4951820374 139.98970032 102.09539795 3.8716089725 144.90060425 9.8818645477
 3622.9016113 7.0000000000 13.179689407 0.0006962110 0.3641191125 2.5413639545 131.11199951 98.096649170 3.6103999615 145.40109253 7.6203041077
 3623.0541992 7.0000000000 13.179611206 0.0018033120 0.3640420139 2.5770540237 122.62159729 95.898605347 3.3107650280 146.15020752 6.0452427864
 3623.2065430 7.0000000000 13.140548706 0.0006878358 0.3510155082 2.5819380283 120.81269836 95.499946594 3.0791709423 146.27529907 4.8741250038
 3623.3588867 7.0000000000 13.031250000 -0.002721268 0.3362278044 2.5676729679 121.13069916 95.400306702 2.8927040100 146.77510071 4.0604381561
 3623.5112305 7.0000000000 13.031250000 -0.000839605 0.3713817000 2.5599908829 126.69090271 95.700843811 2.7342228889 146.89959717 3.6607511044
 3623.6638184 7.0000000000 13.031250000 -0.002848856 0.3929387033 2.5629580021 129.13519287 96.298759460 2.5920460224 146.64909363 3.4382340908
 3623.8161621 7.0000000000 13.031250000 -0.005362833 0.3889414072 2.5962560177 134.87179565 95.599319458 2.4386520386 146.14999390 3.2895879745
 3623.9685059 7.0000000000 13.031291008 0.0026761901 0.3566260040 2.6295239925 128.99890137 95.299263000 2.3265380859 146.15069580 3.2102921009
 3624.1208496 7.0000000000 13.070449829 0.0110116899 0.3569442928 2.6291079521 127.80780029 94.500251770 2.2029099464 146.90060425 3.1994938850
 3624.2734375 7.0000000000 13.179689407 0.0128159802 0.3550479114 2.5739068985 124.13569641 94.698539734 2.0988810062 147.40100098 3.3355009556
 3624.4257813 7.0000000000 13.179689407 0.0164965894 0.3536011875 2.5338809490 130.62759399 93.797576904 2.0237019062 148.02529907 3.5263528824
 3624.5781250 7.0000000000 13.179689407 0.0385619290 0.3639546931 2.5331130028 136.87579346 92.599472046 2.0358738899 148.77450562 3.7796180248
 3624.7304688 7.0000000000 13.179689407 0.0452294387 0.3759976923 2.5307428837 137.87690735 91.897140503 2.0493099689 148.14880371 4.0992579460
 3624.8828125 7.0000000000 13.179689407 0.0416379198 0.3790008128 2.5332210064 139.49409485 89.400032043 2.1665959358 147.15060425 4.1705188751
 3625.0354004 7.0000000000 13.179689407 0.0286288504 0.3656376898 2.5223929882 135.62449646 89.406967163 2.2110829353 147.52450562 4.0541591644
 3625.1877441 7.0000000000 13.179689407 0.0182376895 0.3742508888 2.5336210728 135.37260437 91.399971008 2.1868729591 147.27540588 3.8700640202
 3625.3400879 7.0000000000 13.179617882 0.0085062394 0.3581990898 2.5309979916 131.74949646 91.301445007 2.1007258892 147.90049744 3.9027469158
 3625.4924316 7.0000000000 13.109269142 0.0031554820 0.3421115875 2.5460960865 131.25399780 92.703781128 2.0574040413 148.39999390 3.8605780602
 3625.6450195 7.0000000000 13.031250000 -0.003203981 0.3427898884 2.5466029644 134.13160706 95.399482727 1.9418239594 148.39979553 3.6241219044
 3625.7973633 7.0000000000 13.031250000 -0.009079085 0.3638704121 2.5421380997 137.87530518 95.098083496 1.9593019485 148.27549744 3.1565620899
 3625.9497070 7.0000000000 13.031250000 -0.011072790 0.3854174912 2.5480129719 138.37500000 94.199737549 2.0216948986 149.27420044 2.7955629826
 3626.1020508 7.0000000000 13.031250000 -0.011182570 0.3776830137 2.5736238956 138.37280273 93.899383545 2.1101210117 148.39950562 2.6972510815
 3626.2546387 7.0000000000 13.031250000 -0.010591250 0.3524970114 2.5940990448 136.63729858 93.400169373 2.1633510590 148.02439880 2.8121380806
 3626.4069824 7.0000000000 13.031250000 -0.008835505 0.3642545044 2.5920009613 144.12800598 93.497596741 2.2280631065 147.64999390 2.9124948978
 3626.5593262 7.0000000000 13.031250000 -0.017388690 0.3718856871 2.5851318836 151.50280762 92.297149658 2.1127290726 147.65020752 2.8714199066
 3626.7116699 7.0000000000 13.031259537 -0.013538230 0.3772605956 2.6367440224 155.11500549 88.596099854 2.0650200844 147.90100098 2.9011850357
 3626.8640137 7.0000000000 13.039050102 0.0012177920 0.3270722926 2.7263860703 146.35209656 85.194252014 2.0057330132 148.77650452 3.2926239967
 3627.0166016 7.0000000000 13.031370163 0.0116155399 0.3060019016 2.7598729134 131.23910522 81.400009155 1.9777640104 149.77520752 4.0304322243
 3627.1689453 7.0000000000 13.093809128 0.0146460300 0.3194499016 2.6563310623 125.43699646 81.400642395 1.9471199512 149.90010071 4.5153031349
 3627.3212891 7.0000000000 13.187640190 0.0305915605 0.3365839124 2.5576059818 124.69470215 82.405502319 2.1490740776 150.02490234 3.8567969799
 3627.4736328 7.0000000000 13.320228577 0.0336591788 0.3501298130 2.4852869511 131.75779724 87.804039001 2.3483910561 149.89999390 3.4099569321
 3627.6262207 7.0000000000 13.257678986 0.0390627012 0.3366934061 2.5043480396 137.38139343 90.694053650 2.4566860199 149.89999390 3.2296669483
 3627.7785645 7.0000000000 13.179689407 0.0459030718 0.3526087105 2.5516889095 140.99859619 87.300636292 2.5717420578 149.89979553 3.4476189613
 3627.9309082 7.0000000000 13.179700851 0.0236025695 0.3622362018 2.6285789013 138.24259949 87.593574524 2.5087759495 149.52499390 3.5780711174
