# LAS format log file from PETREL
# Project units are specified as depth units
#==================================================================
~Version information
VERS.   2.0:
WRAP.   NO:
#==================================================================
~Well
STRT .m      2339.3889160 :
STOP .m      3955.4384766 :
STEP .m     0.00000000 :
NULL .        -999.250000 :
COMP.           : COMPANY
WELL.  34/8-6   : WELL
FLD.            : FIELD
LOC.            : LOCATION
SRVC.           : SERVICE COMPANY
DATE.  2018-09-11 14:48:53   : Log Export Date {yyyy-MM-dd HH:mm:ss}
PROV.           : PROVINCE
UWI.   34/8-6   : UNIQUE WELL ID
API.            : API NUMBER
#==================================================================
~Curve
DEPT .m                   : DEPTH
Lithology_geolink ._      : Lithology_geolink
CALI .in                  : CALI
DRHO .g/cm3               : DRHO
NPHI .m3/m3               : NPHI
RHOB .g/cm3               : RHOB
GR .gAPI                  : GR
DTC .us/ft                : DTC
RDEP .ohm.m               : RDEP
SP .mV                    : SP
RMED .ohm.m               : RMED
~Parameter
#==================================================================
~Ascii
# ...
 3192.8288574  -999.250000 13.179689407 0.0004490340 0.2675943077 2.5388510227 98.306297302 91.498069763 1.6736969948 132.52529907 2.0931839943
 3192.9814453  -999.250000 13.179689407 0.0011985750 0.2543180883 2.5399620533 93.246513367 89.889976501 1.7228549719 132.77600098 2.1698150635
 3193.1337891  -999.250000 13.179678917 -0.002136467 0.2657206059 2.5409460068 91.062232971 83.594322205 1.7383960485 133.39990234 2.4773480892
 3193.2861328  -999.250000 13.156160355 -0.001144200 0.2452311963 2.5623540878 90.316291809 80.699920654 1.7354229689 133.14959717 2.8594779968
 3193.4384766  -999.250000 13.038990021 -0.002001729 0.2353810072 2.5627419949 95.499313354 80.602546692 1.7430249453 132.65010071 2.8763129711
 3193.5910645  -999.250000 12.968640327 -0.004688486 0.2261340022 2.5568308830 94.877937317 82.909103394 1.7590709925 132.77479553 2.7230229378
 3193.7434082  -999.250000 12.890629768 -0.011737710 0.2464924008 2.5310869217 96.875061035 89.100502014 1.7823250294 132.64999390 2.4739339352
 3193.8957520  -999.250000 12.890600204 -0.011993570 0.2693279088 2.5270628929 97.124618530 91.200439453 1.7904740572 132.64950562 2.3075211048
 3194.0480957  -999.250000 12.851530075 -0.011184910 0.2832301855 2.5149259567 96.503898621 91.400390625 1.7609690428 131.90010071 2.2533390522
 3194.2004395  -999.250000 12.820319176 -0.011772910 0.2842535973 2.5090010166 100.49980164 91.799873352 1.7236130238 132.02580261 2.2450549603
 3194.3530273  -999.250000 12.828109741 -0.010291090 0.2950272858 2.5089409351 100.38069916 91.701187134 1.6986060143 132.64999390 2.2072000504
 3194.5053711  -999.250000 12.820300102 -0.006427306 0.2912690043 2.5175440311 103.68699646 92.399780273 1.6867920160 132.64959717 2.1739220619
 3194.6577148  -999.250000 12.796830177 -0.009821817 0.2871406078 2.5102310181 102.74870300 92.300102234 1.6910799742 131.90060425 2.2015700340
 3194.8100586  -999.250000 12.742190361 -0.011982090 0.2837977111 2.5095620155 101.18379974 92.399627686 1.7086219788 132.64950562 2.2722070217
 3194.9626465  -999.250000 12.742190361 -0.013694640 0.2794095874 2.5090780258 98.186706543 92.100616455 1.7139610052 132.27459717 2.3388779163
 3195.1149902  -999.250000 12.742190361 -0.012153780 0.2716180980 2.5150570869 97.688140869 92.500389099 1.7157109976 132.02490234 2.3818399906
 3195.2673340  -999.250000 12.742190361 -0.011590840 0.2655299902 2.5112309456 99.500053406 92.700149536 1.7192929983 131.77510071 2.4128739834
 3195.4196777  -999.250000 12.742190361 -0.007806453 0.2786934972 2.5200200081 99.561752319 92.900573730 1.7060760260 131.90040588 2.3833250999
 3195.5722656  -999.250000 12.742190361 -0.006792631 0.2756693065 2.5281651020 98.876731873 93.400726318 1.6832150221 132.27569580 2.3115379810
 3195.7246094  -999.250000 12.742190361 -0.001304492 0.2749232948 2.5396530628 100.06400299 93.900268555 1.6341110468 132.77499390 2.2204809189
 3195.8769531  -999.250000 12.742190361 -0.001495371 0.2751078904 2.5315608978 106.62660217 95.098937988 1.5829449892 132.64990234 2.1201050282
 3196.0292969  -999.250000 12.742190361 0.0009818993 0.2964920998 2.5305359364 109.31210327 94.599868774 1.5637099743 132.52490234 2.0738120079
 3196.1816406  -999.250000 12.742190361 0.0015074600 0.2972986996 2.5294950008 108.87519836 94.500000000 1.5646140575 132.40020752 2.0672121048
 3196.3342285  -999.250000 12.742190361 0.0012356910 0.2945539951 2.5335431099 109.00000000 94.499671936 1.5629899502 132.52459717 2.0786080360
 3196.4865723  -999.250000 12.742190361 -0.000846392 0.2917914093 2.5208320618 109.00070190 94.299133301 1.5813360214 132.27490234 2.1118929386
 3196.6389160  -999.250000 12.742190361 -0.003137584 0.2969815135 2.5096681118 110.43240356 93.899169922 1.6258640289 132.02520752 2.1704249382
 3196.7912598  -999.250000 12.742190361 -0.008658552 0.2943151891 2.5032460690 104.30780029 92.898918152 1.6830179691 132.27529907 2.3689479828
 3196.9438477  -999.250000 12.742190361 -0.011379420 0.2820323110 2.5106461048 100.43170166 91.997680664 1.7396939993 132.52499390 2.5308260918
 3197.0961914  -999.250000 12.742190361 -0.008999900 0.2631042004 2.5173189640 96.750259399 90.499221802 1.7577389479 132.52510071 2.5570569038
 3197.2485352  -999.250000 12.742250443 -0.010421740 0.2554323971 2.5096359253 97.499107361 90.100006104 1.7542250156 132.77510071 2.6659750938
 3197.4008789  -999.250000 12.828181267 -0.008906085 0.2433194965 2.5063700676 96.251007080 90.101203918 1.7490830421 132.90049744 2.6574330330
 3197.5534668  -999.250000 12.875020027 -0.005513483 0.2484624982 2.5105080605 97.191040039 91.201316833 1.7363610268 133.39939880 2.5121500492
 3197.7058105  -999.250000 12.890629768 -0.001080471 0.2560380995 2.5241351128 99.625312805 92.100090027 1.7150180340 133.02499390 2.3633379936
 3197.8581543  -999.250000 12.890660286 -0.000620038 0.2701351941 2.5337450504 100.99929810 92.400230408 1.7055360079 133.14999390 2.2871239185
 3198.0104980  -999.250000 12.953230858 -0.002594808 0.2882179916 2.5314691067 99.751197815 92.500099182 1.6913019419 133.14990234 2.2942800522
 3198.1628418  -999.250000 13.062780380 -0.006737212 0.2993879914 2.5240709782 101.00119781 92.599365234 1.6644970179 133.02569580 2.3085820675
 3198.3154297  -999.250000 13.273460388 -0.009639771 0.2954269946 2.5216310024 101.93769836 92.099998474 1.6313029528 133.52499390 2.3085799217
 3198.4677734  -999.250000 13.468799591 -0.012474350 0.2828998864 2.5270349979 104.31079865 92.199981689 1.5977170467 133.15020752 2.2902100086
 3198.6201172  -999.250000 13.585960388 -0.010007230 0.2507350147 2.5225534439 100.55659485 92.200744629 1.5557426214 133.52470398 2.2912230492
 3198.7724609  -999.250000 13.609379768 -0.007673880 0.2500162125 2.5172195435 98.122192383 92.500305176 1.5411669016 133.14979553 2.2911238670
 3198.9250488  -999.250000 13.609609604 -0.005510293 0.2553223073 2.5125620365 97.136611938 92.603340149 1.5405331850 133.02439880 2.2560753822
 3199.0773926  -999.250000 13.757809639 -0.004195787 0.2744964957 2.5185143948 99.569656372 93.301788330 1.5487591028 132.64979553 2.2108974457
 3199.2297363  -999.250000 13.757809639 0.0000924000 0.2788564861 2.5220525265 103.24478912 93.801391602 1.5757188797 132.15020752 2.1449508667
 3199.3820801  -999.250000 13.757850647 -0.004037524 0.2837252915 2.5118286610 100.99199677 94.398101807 1.6124091148 132.40040588 2.0806210041
 3199.5346680  -999.250000 13.796970367 -0.008319275 0.2816078067 2.5028424263 97.985504150 93.693016052 1.6237003803 132.77520752 2.0810132027
 3199.6870117  -999.250000 13.859380722 -0.009689983 0.2815811932 2.5014338493 94.875122070 92.196372986 1.6353813410 132.90020752 2.1964325905
 3199.8393555  -999.250000 13.898441315 -0.006871052 0.2734456062 2.5163047314 94.933410645 90.192466736 1.6580486298 133.77479553 2.4202282429
 3199.9916992  -999.250000 13.898441315 -0.006164358 0.2641572058 2.5317656994 93.065208435 88.199203491 1.6853034496 133.39970398 2.6846947670
 3200.1442871  -999.250000 13.898441315 -0.002893681 0.2597017884 2.5447354317 94.131217957 87.901374817 1.7118296623 133.14999390 2.7778179646
 3200.2966309  -999.250000 13.898441315 -0.002257003 0.2621049881 2.5430195332 95.501480103 88.201179504 1.7410759926 133.14999390 2.7271831036
 3200.4489746  -999.250000 13.898441315 0.0010119370 0.2666336000 2.5432815552 96.370628357 88.903671265 1.7672461271 132.77499390 2.6348307133
 3200.6013184  -999.250000 13.898441315 -0.000752891 0.2565489113 2.5387027264 94.245445251 89.901679993 1.7828886509 132.77549744 2.5000510216
 3200.7536621  -999.250000 13.898461342 -0.000930221 0.2484629005 2.5410118103 92.374137878 90.601394653 1.7813646793 133.40029907 2.4210233688
 3200.9062500  -999.250000 13.914209366 -0.003946627 0.2518719137 2.5370843410 92.072601318 91.097625732 1.7710599899 133.64920044 2.5062820911
 3201.0585938  -999.250000 14.007828712 -0.004801094 0.2630476952 2.5355930328 94.179405212 90.598930359 1.7370578051 133.14990234 2.7617113590
 3201.2109375  -999.250000 14.046879768 -0.006417427 0.2450086027 2.5312302113 90.004463196 90.298843384 1.7088738680 133.02499390 2.9074246883
