# LAS format log file from PETREL
# Project units are specified as depth units
#==================================================================
~Version information
VERS.   2.0:
WRAP.   NO:
#==================================================================
~Well
STRT .m      2339.3889160 :
STOP .m      3955.4384766 :
STEP .m     0.00000000 :
NULL .        -999.250000 :
COMP.           : COMPANY
WELL.  34/8-6   : WELL
FLD.            : FIELD
LOC.            : LOCATION
SRVC.           : SERVICE COMPANY
DATE.  2018-09-11 14:48:53   : Log Export Date {yyyy-MM-dd HH:mm:ss}
PROV.           : PROVINCE
UWI.   34/8-6   : UNIQUE WELL ID
API.            : API NUMBER
#==================================================================
~Curve
DEPT .m                   : DEPTH
Lithology_geolink ._      : Lithology_geolink
CALI .in                  : CALI
DRHO .g/cm3               : DRHO
NPHI .m3/m3               : NPHI
RHOB .g/cm3               : RHOB
GR .gAPI                  : GR
DTC .us/ft                : DTC
RDEP .ohm.m               : RDEP
SP .mV                    : SP
RMED .ohm.m               : RMED
~Parameter
#==================================================================
~Ascii
 2339.3889160  -999.250000 12.296899796 -1.059826016 0.4951691031 1.9149835110 83.990547180 111.89983368 1.0617842674 131.08880615 1.4007093906
 2339.5412598  -999.250000 12.320308685 -1.055390000 0.4983536005 1.9159489870 80.133949280 111.80533600 1.0700516701 132.58810425 1.3971463442
 2339.6936035  -999.250000 12.320308685 -1.051756978 0.4574502110 1.9215530157 83.312423706 113.69999695 1.0835729837 133.07189941 1.3618160486
 2339.8461914  -999.250000 12.320308685 -1.031509995 0.4574452043 1.9401152134 83.934822083 114.19999695 1.0844304562 132.55589294 1.3255487680
 2339.9985352  -999.250000 12.320308685 -1.027743101 0.4456683099 1.9476572275 82.551910400 114.20135498 1.0722547770 131.58619690 1.2998656034
 2340.1508789  -999.250000 12.320308685 -1.030285001 0.4642201066 1.9402477741 77.988273621 114.79790497 1.0621272326 129.82049561 1.3208123446
 2340.3032227  -999.250000 12.320308685 -1.043974042 0.4642199874 1.9251190424 73.625648499 114.00009918 1.0604369640 128.57209778 1.3447610140
 2340.4555664  -999.250000 12.320308685 -1.054301023 0.4561603963 1.9153300524 74.626251221 114.69999695 1.0517660379 128.05639648 1.3356070518
 2340.6081543  -999.250000 12.320308685 -1.062047005 0.4550597072 1.9052363634 80.315925598 114.80110168 1.0563005209 128.54089355 1.3340573311
 2340.7604980  -999.250000 12.320308685 -1.055202007 0.4902853966 1.9035626650 81.876762390 115.29869843 1.0615868568 129.07209778 1.3479659557
 2340.9128418  -999.250000 12.320308685 -1.050250053 0.4902853966 1.8964999914 82.562309265 114.80010223 1.0646259785 129.30619812 1.3822519779
 2341.0651855  -999.250000 12.289059639 -1.039881945 0.4741675854 1.9022489786 77.812767029 115.00009918 1.0689990520 129.33760071 1.4103499651
 2341.2177734  -999.250000 12.289071083 -1.038660049 0.4353747070 1.9156873226 80.624732971 115.39942932 1.0601046085 130.35299683 1.3924815655
 2341.3701172  -999.250000 12.296880722 -1.044257998 0.4101963043 1.9121425152 80.495735168 115.10094452 1.0573319197 130.10400391 1.3822438717
 2341.5224609  -999.250000 12.304690361 -1.051562071 0.4368878007 1.9092441797 78.740379333 115.50051880 1.0486032963 131.10380554 1.3746240139
 2341.6748047  -999.250000 12.304690361 -1.062456012 0.4439556003 1.8812359571 75.312606812 115.70010376 1.0593869686 131.63439941 1.3547099829
 2341.8273926  -999.250000 12.289071083 -1.059566021 0.4561732113 1.8781433105 79.131431580 115.70132446 1.0601046085 131.11849976 1.3016717434
 2341.9797363  -999.250000 12.304690361 -1.044620037 0.4678950012 1.8958151340 82.444274902 116.39717865 1.0629514456 130.36839294 1.2909786701
 2342.1320801  -999.250000 12.304699898 -1.084126949 0.4511638880 1.9277894497 85.358123779 115.19922638 1.0544890165 129.86959839 1.3294022083
 2342.2844238  -999.250000 12.320308685 -1.134225965 0.4358474016 1.9936230183 79.063476563 114.90010834 1.0513939857 130.61860657 1.3638679981
 2342.4367676  -999.250000 12.320308685 -1.127190948 0.4252411127 2.1214449406 77.499923706 115.49999237 1.0572309494 130.36869812 1.3696709871
 2342.5893555  -999.250000 12.304690361 -1.123664975 0.4108276069 2.1329565048 77.132919312 115.39890289 1.0554293394 130.10279846 1.3673816919
 2342.7416992  -999.250000 12.304699898 -1.173148036 0.4131988883 1.9599401951 80.748397827 114.90183258 1.0493886471 129.60339355 1.3528026342
 2342.8940430  -999.250000 12.320308685 -1.139989972 0.3714354932 1.8689759970 80.125183105 115.59980011 1.0460469723 129.85299683 1.3419680595
 2343.0463867  -999.250000 12.320308685 -1.077505946 0.4010407031 1.8508520126 78.937362671 115.30000305 1.0383930206 129.58740234 1.3257930279
 2343.1989746  -999.250000 12.320308685 -1.065997005 0.4251638055 1.8553328514 77.310569763 116.00057983 1.0253549814 128.86860657 1.3138002157
 2343.3513184  -999.250000 12.320308685 -1.065647006 0.4267697930 1.8726795912 76.369247437 116.29776764 1.0134108067 128.61849976 1.3020250797
 2343.5036621  -999.250000 12.320308685 -1.069566011 0.4249418974 1.8705500364 74.000968933 115.40029907 0.9951906204 128.35319519 1.2846469879
 2343.6560059  -999.250000 12.320308685 -1.061221957 0.4359214008 1.8805600405 73.062538147 116.39990234 0.9540619850 127.85311127 1.2709779739
 2343.8085938  -999.250000 12.320308685 -1.068704963 0.4552220106 1.8713194132 74.632606506 116.49868011 0.9293800592 128.60330200 1.2507385015
 2343.9609375  -999.250000 12.320308685 -1.052116036 0.4567025006 1.8977859020 78.562934875 115.80486298 0.9127696753 129.08779907 1.2185903788
 2344.1132813  -999.250000 12.320308685 -1.042469978 0.4640124142 1.9070394039 78.761161804 117.90113831 0.9021450877 129.58799744 1.1714701653
 2344.2656250  -999.250000 12.320308685 -1.044428945 0.4587113857 1.8954570293 82.936813354 118.29989624 0.9004473090 130.07179260 1.1453690529
 2344.4179688  -999.250000 12.320308685 -1.048568964 0.4841901064 1.8847559690 85.312759399 117.19960022 0.9011899829 130.32170105 1.1181149483
 2344.5705566  -999.250000 12.320308685 -1.047870040 0.4659225941 1.8708906174 86.550933838 115.69790649 0.9083613753 129.55610657 1.1406878233
 2344.7229004  -999.250000 12.320308685 -1.034016967 0.5181335211 1.9010523558 81.235710144 114.69828033 0.9184048772 129.28970337 1.2130268812
 2344.8752441  -999.250000 12.320308685 -1.042837977 0.5008037090 1.8806819916 75.626632690 114.00019836 0.9358475208 128.32209778 1.3027930260
 2345.0275879  -999.250000 12.320308685 -1.050346971 0.4847134054 1.8728729486 75.125038147 113.50000000 0.9478859901 128.55630493 1.3532370329
 2345.1801758  -999.250000 12.320308685 -1.058035970 0.4567123055 1.8539748192 75.632568359 113.80016327 0.9651213288 129.04069519 1.3680280447
 2345.3325195  -999.250000 12.320308685 -1.059898019 0.4383169115 1.8632292747 79.304496765 113.90291595 0.9827550650 129.32229614 1.3767851591
 2345.4848633  -999.250000 12.320308685 -1.059705973 0.4394713938 1.8721699715 76.001373291 115.09950256 1.0002110004 129.80599976 1.3799619675
 2345.6372070  -999.250000 12.320308685 -1.057044029 0.4519673884 1.8765540123 82.687187195 115.20000458 1.0037620068 130.29060364 1.3371930122
 2345.7897949  -999.250000 12.320308685 -1.058946013 0.4455040097 1.8656096458 81.510231018 115.30216980 0.9961883426 131.05630493 1.2982630730
 2345.9421387  -999.250000 12.320308685 -1.053329945 0.4755662084 1.8734636307 86.813095093 116.39795685 0.9883446693 131.30589294 1.2683560848
 2346.0944824  -999.250000 12.320308685 -1.047811031 0.4479280114 1.8769328594 87.075286865 115.49922180 0.9810000658 130.82159424 1.2553313971
 2346.2468262  -999.250000 12.320308685 -1.060122013 0.4506888092 1.8525300026 91.874183655 115.20011139 0.9786344767 130.60310364 1.2574249506
 2346.3994141  -999.250000 12.320308685 -1.060796976 0.4824722111 1.8367497921 94.366661072 115.49852753 0.9889312983 130.58749390 1.2741587162
 2346.5517578  -999.250000 12.320308685 -1.035277963 0.4667092860 1.8491383791 89.740371704 114.69874573 1.0077854395 130.58779907 1.2970384359
 2346.7041016  -999.250000 12.320308685 -0.987768471 0.4830732048 1.8961063623 85.302841187 114.09896088 1.0274176598 131.07159424 1.3086020947
 2346.8564453  -999.250000 12.320308685 -0.965824425 0.4249367118 1.9131829739 81.501129150 113.70010376 1.0559060574 130.82189941 1.3536289930
 2347.0087891  -999.250000 12.320308685 -0.959352314 0.4236378968 1.9099580050 83.687568665 113.69999695 1.0716530085 131.58749390 1.4264090061
 2347.1613770  -999.250000 12.320308685 -0.959293604 0.4589264095 1.9220392704 84.623207092 113.90142822 1.0904576778 132.08819580 1.4667068720
 2347.3137207  -999.250000 12.320308685 -0.966069579 0.4720183909 1.9340157509 83.747894287 114.60120392 1.1158500910 133.57170105 1.4422553778
 2347.4660645  -999.250000 12.320308685 -0.991853178 0.4835605025 1.9257700443 82.875366211 115.09980011 1.1408209801 133.35319519 1.3951059580
 2347.6184082  -999.250000 12.320308685 -1.007143974 0.4389312863 1.9001389742 81.062599182 115.00000000 1.1482330561 133.60310364 1.4000380039
 2347.7709961  -999.250000 12.320308685 -1.027891994 0.4528388083 1.9119225740 82.875602722 113.39792633 1.1534684896 132.83729553 1.4707030058
