# LAS format log file from PETREL
# Project units are specified as depth units
#==================================================================
~Version information
VERS.   2.0:
WRAP.   NO:
#==================================================================
~Well
STRT .m      2339.3889160 :
STOP .m      3955.4384766 :
STEP .m     0.00000000 :
NULL .        -999.250000 :
COMP.           : COMPANY
WELL.  34/8-6   : WELL
FLD.            : FIELD
LOC.            : LOCATION
SRVC.           : SERVICE COMPANY
DATE.  2018-09-11 14:48:53   : Log Export Date {yyyy-MM-dd HH:mm:ss}
PROV.           : PROVINCE
UWI.   34/8-6   : UNIQUE WELL ID
API.            : API NUMBER
#==================================================================
~Curve
DEPT .m                   : DEPTH
Lithology_geolink ._      : Lithology_geolink
CALI .in                  : CALI
DRHO .g/cm3               : DRHO
NPHI .m3/m3               : NPHI
RHOB .g/cm3               : RHOB
GR .gAPI                  : GR
DTC .us/ft                : DTC
RDEP .ohm.m               : RDEP
SP .mV                    : SP
RMED .ohm.m               : RMED
~Parameter
#==================================================================
~Ascii
# ...
 2979.4687500  -999.250000 13.757809639 -0.010297600 0.2720724940 2.4875710011 93.621742249 92.695442200 1.8658289909 132.14830017 2.4611399174
 2979.6213379  -999.250000 13.757490158 -0.009268663 0.2754899859 2.4924950600 91.948410034 91.398139954 1.9549759626 131.27529907 2.5111229420
 2979.7736816  -999.250000 13.616511345 -0.002145236 0.2939119041 2.4602479935 96.685432434 90.598937988 2.0102870464 131.40080261 2.4978840351
 2979.9260254  -999.250000 12.983598709 0.0082602259 0.2893666029 2.4152340889 94.746139526 89.599136353 2.0154249668 132.15020752 2.5459098816
 2980.0783691  -999.250000 12.445200920 0.0279789902 0.2772571146 2.3942930698 92.055168152 89.000373840 2.0259559155 132.27499390 2.6886909008
 2980.2307129  -999.250000 12.382800102 0.0536741801 0.2805927098 2.4195399284 88.003807068 89.200775146 2.0479459763 132.27499390 2.8200089931
 2980.3833008  -999.250000 12.375020027 0.0695472434 0.3002437055 2.4593529701 89.759048462 89.400520325 2.0774769783 132.27560425 2.7801790237
 2980.5356445  -999.250000 12.382820129 0.0527772792 0.3043513894 2.4632999897 93.315773010 89.599876404 2.1127250195 132.52520752 2.6401031017
 2980.6879883  -999.250000 12.390609741 0.0281636603 0.2903999090 2.4589099884 95.806098938 89.500022888 2.1328721046 132.64810181 2.6901280880
 2980.8403320  -999.250000 12.382749557 0.0070977532 0.2695424855 2.4623808861 91.996536255 89.497810364 2.1373510361 131.52470398 2.7093529701
 2980.9929199  -999.250000 12.351639748 -0.003881194 0.2780564129 2.4787049294 90.304199219 88.900260925 2.1307959557 131.39999390 2.7938659191
 2981.1452637  -999.250000 12.382809639 -0.012021330 0.2795622945 2.4896359444 86.876701355 89.000686646 2.1397929192 131.40060425 2.9037079811
 2981.2976074  -999.250000 12.382860184 -0.008879050 0.2753975987 2.5019130707 88.314346313 89.600021362 2.1537039280 131.90060425 2.8585889339
 2981.4499512  -999.250000 12.414059639 -0.011964710 0.2760871053 2.5073609352 89.507331848 89.598579407 2.1632099152 132.27670288 2.8053998947
 2981.6025391  -999.250000 12.414079666 -0.008752303 0.2667047083 2.5150520802 93.312927246 89.199768066 2.1456658840 133.15060425 2.8787879944
 2981.7548828  -999.250000 12.421879768 -0.003641070 0.2668634057 2.5262250900 93.501121521 89.100517273 2.1203210354 133.40080261 2.9497170448
 2981.9072266  -999.250000 12.429719925 -0.003987602 0.2764742970 2.5166029930 94.560539246 89.602127075 2.0963029861 134.14860535 2.9347569942
 2982.0595703  -999.250000 12.453130722 -0.009935400 0.3000968993 2.5030639172 93.183677673 91.100357056 2.0799589157 133.14840698 2.8379070759
 2982.2119141  -999.250000 12.453330040 -0.006708595 0.3083873093 2.5015809536 91.060333252 91.298866272 2.1048679352 132.27450562 2.6739110947
 2982.3645020  -999.250000 12.546760559 -0.009092176 0.2989034057 2.4997839928 90.057426453 90.997978210 2.1225080490 132.02560425 2.5710608959
 2982.5168457  -999.250000 12.499919891 -0.012297700 0.2808203995 2.4989769459 88.060791016 90.198432922 2.1216270924 132.27520752 2.6027679443
 2982.6691895  -999.250000 12.437439919 -0.014175060 0.2853029966 2.5019280910 86.750938416 88.998497009 2.1225070953 132.40020752 2.7718451023
 2982.8215332  -999.250000 12.398421288 -0.013248420 0.2829455137 2.5149669647 87.313903809 88.101837158 2.1205980778 132.52600098 2.9379119873
 2982.9741211  -999.250000 12.390469551 -0.011924310 0.2894614935 2.5318980217 88.002563477 88.601211548 2.1093111038 133.02560425 3.0506849289
 2983.1264648  -999.250000 12.328120232 -0.012062000 0.2739943862 2.5340509415 89.061988831 89.100830078 2.1320569515 133.27499390 3.0475199223
 2983.2788086  -999.250000 12.320308685 -0.010279490 0.2685402930 2.5255560875 88.627220154 89.800178528 2.1786539555 133.27499390 2.9098269939
 2983.4311523  -999.250000 12.320308685 -0.008050035 0.2579213083 2.5147879124 90.066810608 89.900337219 2.1846439838 133.27310181 2.7722799778
 2983.5837402  -999.250000 12.320308685 -0.006093842 0.2610633969 2.5140280724 92.313346863 89.998626709 2.1724190712 132.27499390 2.7515280247
 2983.7360840  -999.250000 12.320308685 -0.004076792 0.2567439973 2.5239470005 92.690391541 89.400314331 2.1473639011 132.27499390 2.8268399239
 2983.8884277  -999.250000 12.320308685 -0.002564160 0.2526992857 2.5194470882 95.432350159 89.701110840 2.1014559269 132.27499390 2.8678240776
 2984.0407715  -999.250000 12.320308685 -0.005348969 0.2643283904 2.5127799511 91.812950134 90.499282837 2.0923299789 132.27679443 2.7798390388
 2984.1931152  -999.250000 12.320308685 -0.005070997 0.2712838054 2.5092968941 92.054000854 90.100028992 2.1055788994 133.27690125 2.6671099663
 2984.3457031  -999.250000 12.320349693 -0.002512910 0.2803233862 2.5166049004 88.130203247 90.098731995 2.1043629646 134.14840698 2.6584520340
 2984.4980469  -999.250000 12.335920334 -0.001797680 0.2760182023 2.5240650177 90.190170288 89.599983215 2.0980370045 133.52369690 2.7638471127
 2984.6503906  -999.250000 12.320308685 -0.001753822 0.2774381936 2.5262439251 92.245323181 89.599678040 2.0699200630 132.52499390 2.8452908993
 2984.8027344  -999.250000 12.320308685 -0.001297097 0.2658295035 2.5292479992 89.437370300 89.401451111 2.0196309090 132.52470398 2.8636898994
 2984.9553223  -999.250000 12.320308685 -0.000885156 0.2558253109 2.5247249603 89.364501953 89.804557800 1.9586869478 132.39909363 2.8577620983
 2985.1076660  -999.250000 12.320308685 -0.003844482 0.2512415946 2.5095467567 85.007232666 91.702217102 1.8978459835 132.02459717 2.8088479042
 2985.2600098  -999.250000 12.320308685 -0.002301754 0.2549827993 2.5026419163 91.192787170 93.602172852 1.8389530182 131.65040588 2.6146640778
 2985.4123535  -999.250000 12.320308685 -0.002140471 0.2774162889 2.4951059818 94.630836487 95.003181458 1.8019239902 131.89999390 2.3299870491
 2985.5649414  -999.250000 12.320308685 0.0017487910 0.2924388051 2.5083179474 97.678550720 95.896934509 1.7750649452 131.89970398 2.1264889240
 2985.7172852  -999.250000 12.320308685 -0.000139990 0.2961803973 2.5056159496 93.745697021 95.098861694 1.7599500418 131.77430725 2.0755739212
 2985.8696289  -999.250000 12.320308685 -0.001263868 0.2804087996 2.5103139877 89.621200562 93.998725891 1.7521419525 131.15159607 2.1677401066
 2986.0219727  -999.250000 12.320308685 -0.003381581 0.2680645883 2.5055749416 86.935493469 93.096618652 1.7533969879 132.27609253 2.3129670620
 2986.1743164  -999.250000 12.320308685 -0.005381160 0.2739112973 2.5091660023 85.811157227 91.197395325 1.7629890442 132.90029907 2.4648079872
 2986.3269043  -999.250000 12.320308685 -0.011103800 0.2636382878 2.5042359829 85.190963745 90.499771118 1.7899299860 133.02310181 2.5844318867
 2986.4792480  -999.250000 12.320388794 -0.012206930 0.2602638006 2.5001580715 86.562980652 90.402336121 1.8179700375 132.27450562 2.6749629974
 2986.6315918  -999.250000 12.382929802 -0.010282570 0.2663202882 2.4983389378 86.942993164 92.201156616 1.8436110020 131.90020752 2.6673510075
 2986.7839355  -999.250000 12.453130722 -0.010740550 0.2725456953 2.4902420044 90.246711731 92.901100159 1.8606660366 132.02650452 2.5267260075
 2986.9365234  -999.250000 12.453130722 -0.008074875 0.2880922854 2.4921929836 88.630966187 93.199302673 1.8738240004 132.77439880 2.3577609062
 2987.0888672  -999.250000 12.453130722 -0.003496194 0.2766709924 2.4942700863 91.123123169 92.899406433 1.8801649809 132.52510071 2.2701950073
 2987.2412109  -999.250000 12.453130722 -0.002855121 0.2756865919 2.5030610561 89.501243591 92.398933411 1.8851410151 132.65020752 2.3222100735
 2987.3935547  -999.250000 12.453130722 -0.005576717 0.2475050986 2.4906430244 90.307746887 91.698646545 1.8541729450 132.77380371 2.4387650490
 2987.5461426  -999.250000 12.453130722 -0.006105247 0.2345387936 2.4968550205 87.808403015 91.299644470 1.8462760448 132.14999390 2.5034399033
 2987.6984863  -999.250000 12.453130722 -0.007494320 0.2130360007 2.4863560200 85.999549866 91.200607300 1.8578100204 132.14999390 2.5469799042
 2987.8508301  -999.250000 12.453130722 -0.004321975 0.2305170000 2.4992589951 85.570053101 91.800849915 1.8629109859 132.14979553 2.5646030903
