# LAS format log file from PETREL
# Project units are specified as depth units
#==================================================================
~Version information
VERS.   2.0:
WRAP.   NO:
#==================================================================
~Well
STRT .m      3213.0371094 :
STOP .m      5477.8535156 :
STEP .m     0.00000000 :
NULL .        -999.250000 :
COMP.           : COMPANY
WELL.  34/8-7   : WELL
FLD.            : FIELD
LOC.            : LOCATION
SRVC.           : SERVICE COMPANY
DATE.  2018-09-11 14:48:53   : Log Export Date {yyyy-MM-dd HH:mm:ss}
PROV.           : PROVINCE
UWI.   34/8-7   : UNIQUE WELL ID
API.            : API NUMBER
#==================================================================
~Curve
DEPT .m                   : DEPTH
Lithology_geolink ._      : Lithology_geolink
CALI .in                  : CALI
BS .in                    : BS
DRHO .g/cm3               : DRHO
NPHI .m3/m3               : NPHI
RHOB .g/cm3               : RHOB
GR .gAPI                  : GR
DTC .us/ft                : DTC
RDEP .ohm.m               : RDEP
SP .mV                    : SP
RSHA .ohm.m               : RSHA
RMED .ohm.m               : RMED
~Parameter
#==================================================================
~Ascii
# ...
 5319.8149414 5.0000000000 10.116998672 8.5000000000 0.0221999995 0.1707299948 2.6229999065 66.834999084 66.779586792 4.9770002365 -134.4219971 0.4463999867 4.8959999084
 5319.9672852 5.0000000000 10.116998672 8.5000000000 0.0245999992 0.1706700027 2.6549999714 64.963996887 66.795181274 5.4819998741 -134.4669952 0.4677000046 5.4699997902
 5320.1196289 5.0000000000 10.109000206 8.5000000000 0.0333000049 0.1700700074 2.6789999008 62.993000031 66.567855835 6.2529997826 -134.5290070 0.4837999940 6.3020000458
 5320.2719727 5.0000000000 10.097000122 8.5000000000 0.0507000014 0.1683499962 2.6930000782 61.832000732 66.603096008 7.1090002060 -134.5859985 0.4833000004 7.1020002365
 5320.4243164 5.0000000000 10.093999863 8.5000000000 0.0720999986 0.1653899997 2.7000000477 62.015998840 66.593215942 7.3670001030 -134.6100006 0.4754000008 7.1779999733
 5320.5766602 6.0000000000 10.093999863 8.5000000000 0.0896999985 0.1616699994 2.7030000687 63.430999756 66.051635742 6.8020000458 -134.5850067 0.4702000022 6.5500001907
 5320.7290039 6.0000000000 10.093999863 8.5000000000 0.0979999974 0.1579400003 2.7019999027 65.222000122 67.020050049 5.9239997864 -134.5260010 0.4629000127 5.7849998474
 5320.8818359 6.0000000000 10.093999863 8.5000000000 0.1028999984 0.1548600048 2.6989998817 66.279998779 68.894470215 5.2069997787 -134.4629974 0.4465999901 5.1729998589
 5321.0341797 6.0000000000 10.093999863 8.5000000000 0.1023999974 0.1526899934 2.6940000057 66.261001587 69.000801086 4.8049998283 -134.4170074 0.4332000017 4.7639999390
 5321.1865234 5.0000000000 10.093999863 8.5000000000 0.0885000005 0.1513299942 2.6870000362 66.066001892 68.173126221 4.8959999084 -134.3820038 0.4320999980 4.7670001984
 5321.3388672 5.0000000000 10.093999863 8.5000000000 0.0697000027 0.1505700052 2.6809999943 66.904998779 67.199188232 5.4340000153 -134.3300018 0.4411999881 5.2600002289
 5321.4912109 5.0000000000 10.093999863 8.5000000000 0.0516000018 0.1503300071 2.6760001183 68.905998230 65.752708435 6.3229999542 -134.2350006 0.4523999989 6.1690001488
 5321.6435547 5.0000000000 10.093999863 8.5000000000 0.0303000007 0.1506499946 2.6730000973 70.754997253 65.397071838 6.7529997826 -134.0870056 0.4620999992 6.4790000916
 5321.7958984 5.0000000000 10.093999863 8.5000000000 0.0147000002 0.1514800042 2.6730000973 70.853996277 66.856971741 6.0900001526 -133.8930054 0.4745000005 5.7500000000
 5321.9482422 5.0000000000 10.093999863 8.5000000000 0.0119000003 0.1524599940 2.6730000973 68.735000610 68.507286072 5.3029999733 -133.6759949 0.4862999916 5.1310000420
 5322.1005859 5.0000000000 10.083000183 8.5000000000 0.0125000002 0.1529999971 2.6730000973 65.327003479 69.518569946 5.1100001335 -133.4559937 0.4900999963 5.0450000763
 5322.2534180 5.0000000000 10.067999840 8.5000000000 0.0109000001 0.1525000036 2.6730000973 61.915000916 69.593261719 5.2989997864 -133.2530060 0.4930000007 5.2270002365
 5322.4057617 5.0000000000 10.062999725 8.5000000000 0.0107000005 0.1505700052 2.6730000973 59.113998413 68.368179321 5.5260000229 -133.0850067 0.5055000186 5.5300002098
 5322.5581055 5.0000000000 10.062999725 8.5000000000 0.0126000000 0.1470800042 2.6740000248 57.551998138 66.718147278 5.8239998817 -132.9649963 0.5171999931 5.8800001144
 5322.7104492 5.0000000000 10.062999725 8.5000000000 0.0170000009 0.1421400011 2.6749999523 58.352001190 65.324745178 6.3379998207 -132.8910065 0.5112000108 6.3740000725
 5322.8627930 3.0000000000 10.062999725 8.5000000000 0.0241000000 0.1359100044 2.6740000248 61.480998993 64.358840942 7.0809998512 -132.8379974 0.5038999915 7.0619997978
 5323.0151367 3.0000000000 10.062999725 8.5000000000 0.0333999991 0.1286000013 2.6730000973 64.638000488 64.052230835 7.6100001335 -132.7689972 0.5123000145 7.4600000381
 5323.1674805 3.0000000000 10.062999725 8.5000000000 0.0344999991 0.1204999983 2.6710000038 65.203002930 64.168830872 7.5560002327 -132.6600037 0.5206999779 7.3420000076
 5323.3198242 3.0000000000 10.062999725 8.5000000000 0.0271000005 0.1121499985 2.6700000763 62.837001801 64.274528503 7.3600001335 -132.5090027 0.5134999752 7.1630001068
 5323.4726563 3.0000000000 10.062999725 8.5000000000 0.0223999992 0.1043300033 2.6710000038 59.131000519 64.030715942 7.5180001259 -132.3359985 0.4972000122 7.2569999695
 5323.6250000 3.0000000000 10.062999725 8.5000000000 0.0244999994 0.0979100019 2.6730000973 55.347999573 63.725002289 8.7309999466 -132.1580048 0.4973999858 8.1890001297
 5323.7773438 3.0000000000 10.062999725 8.5000000000 0.0230999999 0.0935399979 2.6749999523 51.540000916 63.280574799 10.824999809 -131.9810028 0.5133000016 10.152000427
 5323.9296875 3.0000000000 10.062999725 8.5000000000 0.0148000000 0.0913600028 2.6760001183 47.877998352 62.265880585 12.557999611 -131.8020020 0.5245000124 12.123999596
 5324.0820313 5.0000000000 10.062999725 8.5000000000 0.0104000000 0.0910499990 2.6749999523 45.250999451 61.003742218 14.041000366 -131.6179962 0.5278999805 13.852999687
 5324.2343750 5.0000000000 10.062999725 8.5000000000 0.0098000001 0.0919800028 2.6730000973 43.952999115 60.057701111 15.840999603 -131.4290009 0.5256999731 15.593000412
 5324.3867188 5.0000000000 10.062999725 8.5000000000 0.0099999998 0.0934699997 2.6719999313 43.783000946 59.694213867 17.080999374 -131.2429962 0.5224000216 16.593000412
 5324.5390625 5.0000000000 10.062999725 8.5000000000 0.0109999999 0.0950200036 2.6719999313 45.613998413 59.846477509 16.280000687 -131.0679932 0.5202999711 16.018999100
 5324.6914063 5.0000000000 10.062999725 8.5000000000 0.0133999996 0.0962899998 2.6749999523 50.933998108 60.986156464 13.079999924 -130.9040070 0.5160999894 13.295999527
 5324.8442383 5.0000000000 10.062999725 8.5000000000 0.0186000001 0.0970600024 2.6779999733 59.137001038 63.307872772 9.6079998016 -130.7510071 0.5027999878 9.9259996414
 5324.9965820 5.0000000000 10.062999725 8.5000000000 0.0242999997 0.0972099975 2.6809999943 66.350997925 65.678138733 7.8540000916 -130.6150055 0.4810999930 8.0970001221
 5325.1489258 5.0000000000 10.060000420 8.5000000000 0.0277999993 0.0967800021 2.6830000877 68.462997437 66.891868591 7.4739999771 -130.5050049 0.4616000056 7.7550001144
 5325.3012695 5.0000000000 10.024000168 8.5000000000 0.0294000003 0.0961200073 2.6840000153 65.204002380 66.455596924 8.0150003433 -130.4199982 0.4550999999 8.4600000381
 5325.4536133 4.0000000000 9.9650001526 8.5000000000 0.0298999995 0.0958900005 2.6830000877 60.061000824 65.317626953 9.1780004501 -130.3500061 0.4638999999 9.6450004578
 5325.6059570 4.0000000000 9.9290008545 8.5000000000 0.0266999993 0.0970899984 2.6809999943 56.630001068 64.678009033 9.8439998627 -130.2859955 0.4724000096 10.173999786
 5325.7583008 4.0000000000 9.9190006256 8.5000000000 0.0221999995 0.1007499993 2.6760001183 56.347999573 64.792701721 9.3839998245 -130.2189941 0.4724000096 9.7150001526
 5325.9106445 4.0000000000 9.9180002213 8.5000000000 0.0186999999 0.1075199991 2.6710000038 58.782001495 65.278594971 8.3660001755 -130.1380005 0.4713999927 8.7620000839
 5326.0629883 3.0000000000 9.9149999619 8.5000000000 0.0143999998 0.1170499995 2.6649999619 62.617000580 65.679069519 7.5079998970 -130.0140076 0.4706000090 7.8930001259
 5326.2158203 3.0000000000 9.9139995575 8.5000000000 0.0102000004 0.1276600063 2.6610000134 66.082000732 65.880859375 7.1640000343 -129.8090057 0.4663999975 7.5500001907
 5326.3681641 3.0000000000 9.8849992752 8.5000000000 0.0077000000 0.1365800053 2.6579999924 66.858001709 65.507400513 7.5000000000 -129.5140076 0.4675999880 8.0369997025
 5326.5205078 3.0000000000 9.7860002518 8.5000000000 0.0081000002 0.1408499926 2.6570000648 63.330001831 63.719177246 8.8870000839 -129.1820068 0.4794999957 9.7320003510
 5326.6728516 3.0000000000 9.6459999084 8.5000000000 0.0104999999 0.1385000050 2.6570000648 56.354000092 61.659290314 11.545999527 -128.9120026 0.5047000051 12.614000320
 5326.8251953 3.0000000000 9.5419998169 8.5000000000 0.0131000001 0.1294700056 2.6559998989 48.852001190 60.597072601 14.708999634 -128.8070068 0.5388000011 15.664999962
 5326.9775391 3.0000000000 9.5050001144 8.5000000000 0.0135000004 0.1158400029 2.6559998989 43.736000061 60.358966827 16.618999481 -128.9129944 0.5598999858 17.346000671
