# LAS format log file from PETREL
# Project units are specified as depth units
#==================================================================
~Version information
VERS.   2.0:
WRAP.   NO:
#==================================================================
~Well
STRT .m      2339.3889160 :
STOP .m      3955.4384766 :
STEP .m     0.00000000 :
NULL .        -999.250000 :
COMP.           : COMPANY
WELL.  34/8-6   : WELL
FLD.            : FIELD
LOC.            : LOCATION
SRVC.           : SERVICE COMPANY
DATE.  2018-09-11 14:48:53   : Log Export Date {yyyy-MM-dd HH:mm:ss}
PROV.           : PROVINCE
UWI.   34/8-6   : UNIQUE WELL ID
API.            : API NUMBER
#==================================================================
~Curve
DEPT .m                   : DEPTH
Lithology_geolink ._      : Lithology_geolink
CALI .in                  : CALI
DRHO .g/cm3               : DRHO
NPHI .m3/m3               : NPHI
RHOB .g/cm3               : RHOB
GR .gAPI                  : GR
DTC .us/ft                : DTC
RDEP .ohm.m               : RDEP
SP .mV                    : SP
RMED .ohm.m               : RMED
~Parameter
#==================================================================
~Ascii
# ...
 2877.0561523  -999.250000 12.601559639 -0.026919490 0.3279471099 2.5388669968 93.067848206 100.40240479 1.3188300133 129.40049744 1.8703409433
 2877.2084961  -999.250000 12.601559639 -0.017156061 0.3312830925 2.4994649887 101.94210052 101.50000000 1.3197699785 130.27450562 1.7530000210
 2877.3608398  -999.250000 12.601559639 -0.015492410 0.3248279095 2.4796299934 106.68209839 101.50229645 1.3218920231 129.77479553 1.6843169928
 2877.5134277  -999.250000 12.601559639 -0.005529708 0.3123759925 2.4758629799 102.62270355 103.19879913 1.3201800585 129.64810181 1.6912950277
 2877.6657715  -999.250000 12.601559639 -0.010553310 0.3172287047 2.4798169136 101.24749756 102.49900055 1.3167090416 128.52520752 1.7175459862
 2877.8181152  -999.250000 12.601559639 -0.014457510 0.3137592971 2.4568850994 96.065727234 101.99970245 1.3175300360 128.90020752 1.7371330261
 2877.9704590  -999.250000 12.601559639 -0.023483770 0.3114250898 2.4622569084 99.871658325 101.59970856 1.3252120018 129.14970398 1.7519149780
 2878.1228027  -999.250000 12.601559639 -0.015225240 0.2866705954 2.4758450985 97.128463745 101.39969635 1.3362720013 128.90060425 1.7796720266
 2878.2753906  -999.250000 12.601551056 -0.013282810 0.3082642853 2.4941449165 99.315429688 101.19960785 1.3483159542 129.27619934 1.8215370178
 2878.4277344  -999.250000 12.593719482 -0.006028064 0.3050631881 2.4910280704 100.81390381 101.10020447 1.3573130369 129.89959717 1.8427950144
 2878.5800781  -999.250000 12.546879768 -0.006692246 0.3296419978 2.4765930176 102.81179810 101.29990387 1.3601750135 129.39970398 1.8448460102
 2878.7324219  -999.250000 12.554738998 0.0008937931 0.3263210058 2.4705340862 102.18009949 101.20069885 1.3606220484 129.14889526 1.8411289454
 2878.8850098  -999.250000 12.593750000 0.0018909280 0.3406085074 2.4683339596 97.117469788 101.70150757 1.3590450287 128.39930725 1.8265659809
 2879.0373535  -999.250000 12.593750000 0.0037325330 0.3420715928 2.4742219448 93.001449585 102.50039673 1.3407369852 128.02510071 1.7893689871
 2879.1896973  -999.250000 12.593730927 0.0031804829 0.3327653110 2.4721999168 95.438583374 102.70000458 1.3258780241 128.27540588 1.7313560247
 2879.3420410  -999.250000 12.578089714 0.0005577887 0.3253729045 2.4714620113 96.565750122 102.70000458 1.3132820129 128.65100098 1.6995910406
 2879.4946289  -999.250000 12.554738998 -0.004704624 0.3059880137 2.4635028839 98.997978210 102.69920349 1.2930140495 129.40020752 1.7118940353
 2879.6469727  -999.250000 12.585890770 -0.005141960 0.3065784872 2.4775769711 97.814613342 102.19999695 1.2738440037 129.52490234 1.7371850014
 2879.7993164  -999.250000 12.492160797 -0.004481811 0.3065519035 2.4765779972 102.31310272 102.20019531 1.2769049406 129.27499390 1.7200390100
 2879.9516602  -999.250000 12.460929871 -0.010325050 0.3233476877 2.4778308868 102.99520111 102.40029907 1.2782000303 129.27470398 1.7170380354
 2880.1040039  -999.250000 12.453130722 -0.007397441 0.3137725890 2.4684879780 98.992118835 102.59970093 1.2750960588 129.02439880 1.7163840532
 2880.2565918  -999.250000 12.453130722 -0.005908640 0.3054505885 2.4796218872 93.998420715 102.40039825 1.2720500231 128.65049744 1.7524640560
 2880.4089355  -999.250000 12.453130722 -0.007460019 0.3101777136 2.4721050262 93.186790466 102.49990082 1.2618110180 128.89959717 1.7471460104
 2880.5612793  -999.250000 12.453130722 -0.013666609 0.3255087137 2.4751238823 92.190681458 102.40039825 1.2542070150 128.39959717 1.7352230549
 2880.7136230  -999.250000 12.453130722 -0.008550313 0.3352178037 2.4754331112 95.124633789 102.79969788 1.2701950073 128.02499390 1.6959860325
 2880.8662109  -999.250000 12.453130722 -0.013819620 0.3366551995 2.4774019718 94.872962952 102.60050964 1.2723089457 128.02430725 1.6683880091
 2881.0185547  -999.250000 12.453130722 -0.014485100 0.3249625862 2.4677419662 93.749076843 102.89910889 1.2746109962 127.65019989 1.6773699522
 2881.1708984  -999.250000 12.453130722 -0.015746489 0.3133769929 2.4756460190 92.185829163 102.49990082 1.2827149630 128.02520752 1.7061389685
 2881.3232422  -999.250000 12.453130722 -0.012109000 0.3000583947 2.4720489979 90.441146851 102.39989471 1.2915869951 128.27520752 1.7291519642
 2881.4758301  -999.250000 12.453130722 -0.015643330 0.3076398075 2.4741740227 93.187919617 102.30020142 1.2870730162 128.39920044 1.7291220427
 2881.6281738  -999.250000 12.453130722 -0.011651960 0.3008973897 2.4724690914 93.437438965 102.39880371 1.2952059507 127.90009308 1.7352780104
 2881.7805176  -999.250000 12.453130722 -0.018032920 0.3031266034 2.4786250591 93.313697815 101.80079651 1.2978160381 128.02510071 1.7603579760
 2881.9328613  -999.250000 12.453130722 -0.017409131 0.2903612852 2.4773669243 94.746246338 102.79979706 1.2894879580 128.15029907 1.7962340117
 2882.0852051  -999.250000 12.453130722 -0.016429570 0.2902418077 2.4756131172 91.622848511 102.60079956 1.2803080082 128.39959717 1.7999119759
 2882.2377930  -999.250000 12.453130722 -0.015044549 0.2937596142 2.4601039886 90.249786377 103.10060120 1.2714329958 128.15020752 1.7604349852
 2882.3901367  -999.250000 12.453130722 -0.020084949 0.3167965114 2.4542770386 89.628440857 103.40010071 1.2671259642 128.77529907 1.7001320124
 2882.5424805  -999.250000 12.453130722 -0.011618150 0.3473624885 2.4689600468 94.501083374 103.49970245 1.2610369921 129.14999390 1.6513520479
 2882.6948242  -999.250000 12.453130722 -0.011406850 0.3415038884 2.4729256630 95.500808716 103.19969940 1.2503099442 129.14959717 1.6516829729
 2882.8474121  -999.250000 12.453130722 -0.011709010 0.3189949095 2.4724569321 96.058311462 102.99999237 1.2439639568 128.90069580 1.6630389690
 2882.9997559  -999.250000 12.453130722 -0.013767040 0.2934535146 2.4615941048 93.749641418 102.99999237 1.2393770218 129.27470398 1.6762219667
 2883.1520996  -999.250000 12.453130722 -0.013211670 0.2735396922 2.4684059620 93.121383667 102.99980927 1.2339639664 128.77529907 1.7160270214
 2883.3044434  -999.250000 12.453130722 -0.011644390 0.2808788121 2.4752049446 89.311347961 102.80040741 1.2321859598 129.14900208 1.7638449669
 2883.4570313  -999.250000 12.453130722 -0.007464791 0.3198699951 2.4830200672 88.443077087 103.09970093 1.2349849939 128.39979553 1.7576760054
 2883.6093750  -999.250000 12.453130722 -0.006950955 0.3368768096 2.4821870327 91.753349304 102.89940643 1.2376630306 128.27510071 1.6917840242
 2883.7617188  -999.250000 12.453130722 -0.010845710 0.3298046887 2.4725639820 99.125877380 102.59980011 1.2432049513 128.40029907 1.6501120329
 2883.9140625  -999.250000 12.453130722 -0.009745857 0.3006885946 2.4731030464 100.18800354 102.29940033 1.2459779978 128.77560425 1.6619689465
 2884.0664063  -999.250000 12.453130722 -0.009814794 0.3010757864 2.4725430012 100.55290222 101.80030060 1.2432999611 129.27400208 1.6797569990
 2884.2189941  -999.250000 12.453130722 -0.011414080 0.2993982136 2.4743199348 94.374610901 102.00140381 1.2383439541 128.64990234 1.6948499680
 2884.3713379  -999.250000 12.453130722 -0.008943616 0.3017959893 2.4745519161 93.186973572 102.70009613 1.2392319441 128.52499390 1.7034900188
 2884.5236816  -999.250000 12.453130722 -0.005100070 0.3061917126 2.4753239155 92.436569214 102.80020142 1.2458139658 128.52510071 1.7085009813
 2884.6760254  -999.250000 12.453130722 -0.006443006 0.3227663040 2.4702670574 91.559989929 103.00070953 1.2484090328 128.64979553 1.7012380362
 2884.8286133  -999.250000 12.453130722 -0.009328805 0.3353624940 2.4714360237 89.807319641 103.49929810 1.2542550564 128.52639771 1.6934560537
 2884.9809570  -999.250000 12.453130722 -0.007492897 0.3292702138 2.4751110077 86.940467834 103.09999847 1.2534819841 129.27529907 1.6901470423
 2885.1333008  -999.250000 12.453130722 -0.008010102 0.3253743947 2.4800810814 92.128410339 103.09980011 1.2507569790 129.77450562 1.6907089949
 2885.2856445  -999.250000 12.453130722 -0.009541633 0.2968967855 2.4763898849 95.754501343 102.80000305 1.2531570196 129.27430725 1.7018140554
 2885.4382324  -999.250000 12.453130722 -0.008954422 0.3106749058 2.4731469154 99.178703308 102.80078888 1.2547600269 128.77459717 1.7066860199
