# LAS format log file from PETREL
# Project units are specified as depth units
#==================================================================
~Version information
VERS.   2.0:
WRAP.   NO:
#==================================================================
~Well
STRT .m      3213.0371094 :
STOP .m      5477.8535156 :
STEP .m     0.00000000 :
NULL .        -999.250000 :
COMP.           : COMPANY
WELL.  34/8-7   : WELL
FLD.            : FIELD
LOC.            : LOCATION
SRVC.           : SERVICE COMPANY
DATE.  2018-09-11 14:48:53   : Log Export Date {yyyy-MM-dd HH:mm:ss}
PROV.           : PROVINCE
UWI.   34/8-7   : UNIQUE WELL ID
API.            : API NUMBER
#==================================================================
~Curve
DEPT .m                   : DEPTH
Lithology_geolink ._      : Lithology_geolink
CALI .in                  : CALI
BS .in                    : BS
DRHO .g/cm3               : DRHO
NPHI .m3/m3               : NPHI
RHOB .g/cm3               : RHOB
GR .gAPI                  : GR
DTC .us/ft                : DTC
RDEP .ohm.m               : RDEP
SP .mV                    : SP
RSHA .ohm.m               : RSHA
RMED .ohm.m               : RMED
~Parameter
#==================================================================
~Ascii
# ...
 4266.4257813  -999.250000 10.024000168 8.5000000000 -0.010200000 0.2295800000 2.5959999561 63.337001801 86.271430969 1.9400000572 -80.12000275  -999.250000 2.9019999504
 4266.5786133  -999.250000 10.029999733 8.5000000000 -0.010200000 0.2311200052 2.5940001011 63.369998932 86.311958313 1.9400000572 -80.21199799  -999.250000 3.2675127983
 4266.7309570  -999.250000 10.031000137 8.5000000000 -0.009600000 0.2328100055 2.5929999352 63.638999939 86.506462097 1.9399968386 -80.33599854  -999.250000 3.4270513058
 4266.8833008  -999.250000 10.031000137 8.5000000000 -0.007900000 0.2343499959 2.5940001011 64.209999084 87.022140503 1.9390962124 -80.44599915  -999.250000 3.4430353642
 4267.0356445  -999.250000 10.031000137 8.5000000000 -0.006000000 0.2357199937 2.5950000286 65.226997375 87.653694153 1.9695031643 -80.51399994  -999.250000 3.4540159702
 4267.1879883  -999.250000 10.031000137 8.5000000000 -0.005500000 0.2370200008 2.5969998837 66.394996643 87.733726501 2.1266517639 -80.54000092  -999.250000 3.4590256214
 4267.3403320  -999.250000 10.031000137 8.5000000000 -0.006200000 0.2382899970 2.5989999771 66.806999207 86.666191101 2.3299999237 -80.54499817  -999.250000 3.4670000076
 4267.4926758  -999.250000 10.031000137 8.5000000000 -0.007400000 0.2393500060 2.6010000706 65.824996948 85.347694397 2.4219999313 -80.55599976  -999.250000 3.4790000916
 4267.6450195  -999.250000 10.057999611 8.5000000000 -0.008600000 0.2399400026 2.6029999256 63.987998962 84.692535400 2.4419999123 -80.59100342  -999.250000 3.4830000401
 4267.7973633  -999.250000 10.107999802 8.5000000000 -0.010000000 0.2399999946 2.6070001125 62.604000092 84.495651245 2.4479999542 -80.65299988  -999.250000 3.4830000401
 4267.9501953  -999.250000 10.135999680 8.5000000000 -0.011300000 0.2398999929 2.6110000610 62.390998840 84.746223450 2.4540801048 -80.72899628  -999.250000 3.4702243805
 4268.1025391  -999.250000 10.140999794 8.5000000000 -0.012700000 0.2402900010 2.6150000095 62.806999207 84.980125427 2.4791924953 -80.79799652  -999.250000 3.2277853489
 4268.2548828  -999.250000 10.140999794 8.5000000000 -0.014600000 0.2418099940 2.6189999580 62.898998260 85.029655457 2.5391185284 -80.83599854  -999.250000 2.8494422436
 4268.4072266  -999.250000 10.140999794 8.5000000000 -0.014400000 0.2447700053 2.6219999790 62.477001190 85.048385620 2.5759680271 -80.82499695  -999.250000 2.6759166718
 4268.5595703  -999.250000 10.140999794 8.5000000000 -0.011500000 0.2489400059 2.6250000000 62.212001801 84.961036682 2.5659584999 -80.76000214  -999.250000 2.6499936581
 4268.7119141  -999.250000 10.140999794 8.5000000000 -0.008500000 0.2537499964 2.6280000210 62.590000153 84.842613220 2.5529999733 -80.64800262  -999.250000 2.6480000019
 4268.8642578  -999.250000 10.140999794 8.5000000000 -0.006400000 0.2583999932 2.6310000420 63.321998596 84.858146667 2.5490000248 -80.50900269  -999.250000 2.6480000019
 4269.0166016  -999.250000 10.140999794 8.5000000000 -0.005600000 0.2622199953 2.6340000629 63.907001495 84.868606567 2.5450000763 -80.36799622  -999.250000 2.6689999104
 4269.1694336  -999.250000 10.140999794 8.5000000000 -0.006600000 0.2647399902 2.6370000839 64.241996765 84.735069275 2.5349583626 -80.25800323  -999.250000 2.6328301430
 4269.3217773  -999.250000 10.140999794 8.5000000000 -0.007200000 0.2656899989 2.6400001049 64.583999634 84.815551758 2.5219743252 -80.20500183  -999.250000 2.5800929070
 4269.4741211  -999.250000 10.140999794 8.5000000000 -0.005500000 0.2648400068 2.6429998875 65.117996216 84.310203552 2.5139870644 -80.21600342  -999.250000 2.6091024876
 4269.6264648  -999.250000 10.140999794 8.5000000000 -0.002800000 0.2620300055 2.6459999084 65.807998657 83.041831970 2.5099935532 -80.28199768  -999.250000 2.6410257816
 4269.7788086  -999.250000 10.140999794 8.5000000000 -0.001200000 0.2573400140 2.6480000019 66.582000732 82.510688782 2.5079903603 -80.38099670  -999.250000 2.6490192413
 4269.9311523  -999.250000 10.140999794 8.5000000000 -0.000100000 0.2513200045 2.6500000954 67.321998596 82.610237122 2.5049841404 -80.49299622  -999.250000 2.6550190449
 4270.0834961  -999.250000 10.140999794 8.5000000000 0.0013000000 0.2448900044 2.6510000229 67.728996277 82.709930420 2.5000000000 -80.60299683  -999.250000 2.6610000134
 4270.2358398  -999.250000 10.140999794 8.5000000000 0.0017000000 0.2389400005 2.6510000229 67.472000122 82.808525085 2.4960000515 -80.70400238  -999.250000 2.6679999828
 4270.3881836  -999.250000 10.140999794 8.5000000000 0.0008000000 0.2340800017 2.6500000954 66.591003418 82.820022583 2.4920001030 -80.79699707  -999.250000 2.6779999733
 4270.5410156  -999.250000 10.140999794 8.5000000000 -0.000800000 0.2304700017 2.6470000744 65.592002869 82.771553040 2.4889936447 -80.88800049  -999.250000 2.6890351772
 4270.6933594  -999.250000 10.142999649 8.5000000000 -0.003400000 0.2278400064 2.6459999084 64.938003540 82.789405823 2.4869935513 -80.98000336  -999.250000 2.7000417709
 4270.8457031  -999.250000 10.203000069 8.5000000000 -0.006300000 0.2255800068 2.6449999809 64.728996277 81.772773743 2.4849903584 -81.06600189  -999.250000 2.7130417824
 4270.9980469  -999.250000 10.326000214 8.5000000000 -0.009400000 0.2230200022 2.6459999084 65.157997131 80.553153992 2.4819872379 -81.13400269  -999.250000 2.7260417938
 4271.1503906  -999.250000 10.413001060 8.5000000000 -0.011900000 0.2198500037 2.6489999294 66.544998169 80.629959106 2.4779870510 -81.16799927  -999.250000 2.7390449047
 4271.3027344  -999.250000 10.435999870 8.5000000000 -0.011900000 0.2161799967 2.6530001163 68.163002014 80.247154236 2.4739999771 -81.15799713  -999.250000 2.7530000210
 4271.4550781  -999.250000 10.435000420 8.5000000000 -0.010600000 0.2124900073 2.6589999199 68.013000488 79.848114014 2.4709999561 -81.10800171  -999.250000 2.7669999599
 4271.6074219  -999.250000 10.430999756 8.5000000000 -0.009200000 0.2093700022 2.6649999619 64.626998901 80.452743530 2.4690001011 -81.02799988  -999.250000 2.7839999199
 4271.7597656  -999.250000 10.429999352 8.5000000000 -0.006600000 0.2073300034 2.6710000038 58.729999542 80.668304443 2.4660000801 -80.94200134  -999.250000 2.8010001183
 4271.9125977  -999.250000 10.429999352 8.5000000000 -0.003200000 0.2068199962 2.6749999523 52.876998901 80.250389099 2.4619967937 -80.87799835  -999.250000 2.8190705776
 4272.0649414  -999.250000 10.429999352 8.5000000000 -0.001500000 0.2081499994 2.6770000458 49.349998474 79.842086792 2.4609904289 -80.85399628  -999.250000 2.8410835266
 4272.2172852  -999.250000 10.429999352 8.5000000000 -0.002600000 0.2112900019 2.6770000458 48.334999084 79.671401978 2.4579904079 -80.87500000  -999.250000 2.8670706749
 4272.3696289  -999.250000 10.429999352 8.5000000000 -0.005800000 0.2156600058 2.6740000248 48.404998779 79.710769653 2.4549934864 -80.92800140  -999.250000 2.8890545368
 4272.5219727  -999.250000 10.429999352 8.5000000000 -0.009100000 0.2202100009 2.6700000763 48.506999969 79.810226440 2.4529936314 -80.99299622  -999.250000 2.9060573578
 4272.6743164  -999.250000 10.429999352 8.5000000000 -0.010700000 0.2237100005 2.6670000553 48.547000885 79.921127319 2.4509999752 -81.05000305  -999.250000 2.9240000248
 4272.8266602  -999.250000 10.429999352 8.5000000000 -0.011300000 0.2250899971 2.6649999619 48.730998993 80.728225708 2.4479999542 -81.08899689  -999.250000 2.9449999332
 4272.9790039  -999.250000 10.429999352 8.5000000000 -0.009800000 0.2238399982 2.6649999619 49.180999756 81.951004028 2.4449999332 -81.11399841  -999.250000 2.9670000076
 4273.1318359  -999.250000 10.437999725 8.5000000000 -0.006400000 0.2203100026 2.6649999619 49.784999847 82.003120422 2.4439904690 -81.13500214  -999.250000 2.9870607853
 4273.2841797  -999.250000 10.480999947 8.5000000000 -0.004100000 0.2157000005 2.6649999619 50.432998657 81.525375366 2.4409968853 -81.15899658  -999.250000 3.0060641766
 4273.4365234  -999.250000 10.526000023 8.5000000000 -0.003700000 0.2116000056 2.6640000343 51.196998596 81.541366577 2.4400095940 -81.18299866  -999.250000 3.0260608196
 4273.5888672  -999.250000 10.534000397 8.5000000000 -0.003100000 0.2092799991 2.6619999409 51.932998657 81.310050964 2.4430031776 -81.19899750  -999.250000 3.0450608730
