# LAS format log file from PETREL
# Project units are specified as depth units
#==================================================================
~Version information
VERS.   2.0:
WRAP.   NO:
#==================================================================
~Well
STRT .m      3213.0371094 :
STOP .m      5477.8535156 :
STEP .m     0.00000000 :
NULL .        -999.250000 :
COMP.           : COMPANY
WELL.  34/8-7   : WELL
FLD.            : FIELD
LOC.            : LOCATION
SRVC.           : SERVICE COMPANY
DATE.  2018-09-11 14:48:53   : Log Export Date {yyyy-MM-dd HH:mm:ss}
PROV.           : PROVINCE
UWI.   34/8-7   : UNIQUE WELL ID
API.            : API NUMBER
#==================================================================
~Curve
DEPT .m                   : DEPTH
Lithology_geolink ._      : Lithology_geolink
CALI .in                  : CALI
BS .in                    : BS
DRHO .g/cm3               : DRHO
NPHI .m3/m3               : NPHI
RHOB .g/cm3               : RHOB
GR .gAPI                  : GR
DTC .us/ft                : DTC
RDEP .ohm.m               : RDEP
SP .mV                    : SP
RSHA .ohm.m               : RSHA
RMED .ohm.m               : RMED
~Parameter
#==================================================================
~Ascii
# ...
 3366.6564941  -999.250000 13.185999870 12.250000954 0.0133999996 0.2958000004 2.5350000858 76.140998840 89.443626404 2.3629679680 -61.45700073  -999.250000 2.7528815269
 3366.8088379  -999.250000 13.187999725 12.250000954 0.0087000001 0.3059999943 2.5350000858 76.255996704 89.547142029 2.3530399799 -61.49800110  -999.250000 2.7159776688
 3366.9611816  -999.250000 13.187999725 12.250000954 0.0057000001 0.3151899874 2.5349953175 75.563003540 89.607604980 2.3780593872 -61.59199905  -999.250000 2.7020335197
 3367.1135254  -999.250000 13.187999725 12.250000954 0.0041999999 0.3224599957 2.5319919586 74.472999573 88.839302063 2.4150545597 -61.69699860  -999.250000 2.7231442928
 3367.2658691  -999.250000 13.187999725 12.250000954 0.0051000002 0.3271400034 2.5269918442 73.597999573 87.094062805 2.4490768909 -61.78200150  -999.250000 2.8132884502
 3367.4184570  -999.250000 13.241000175 12.250000954 0.0076000001 0.3289799988 2.5219841003 72.987998962 85.284126282 2.4972431660 -61.84600067  -999.250000 2.9936881065
 3367.5708008  -999.250000 13.342000008 12.250000954 0.0113000004 0.3282000124 2.5169935226 72.404998779 84.966758728 2.5731394291 -61.90399933  -999.250000 3.2082676888
 3367.7231445  -999.250000 13.432000160 12.250000954 0.0223999992 0.3255299926 2.5130000114 71.960998535 85.910034180 2.6600978374 -61.97800064  -999.250000 3.3751602173
 3367.8754883  -999.250000 13.489000320 12.250000954 0.0381000005 0.3221499920 2.5130031109 71.907997131 86.457542419 2.7210080624 -62.08399963  -999.250000 3.4750769138
 3368.0280762  -999.250000 13.487999916 12.250000954 0.0469999984 0.3193500042 2.5150065422 72.252998352 86.414672852 2.7258529663 -62.22800064  -999.250000 3.5228559971
 3368.1804199  -999.250000 13.425000191 12.250000954 0.0487999991 0.3179700077 2.5170063972 72.875999451 86.539016724 2.6799247265 -62.39599991  -999.250000 3.4777643681
 3368.3327637  -999.250000 13.395999908 12.250000954 0.0469000004 0.3179300129 2.5210046768 73.693000793 87.336166382 2.6329727173 -62.55699539  -999.250000 3.3307373524
 3368.4851074  -999.250000 13.418000221 12.250000954 0.0406999998 0.3183400035 2.5240046978 74.581001282 88.157424927 2.6159904003 -62.67099762  -999.250000 3.1668014526
 3368.6376953  -999.250000 13.394999504 12.250000954 0.0315000005 0.3181799948 2.5270094872 75.392997742 88.579277039 2.6099679470 -62.69499588  -999.250000 3.0427536964
 3368.7900391  -999.250000 13.354999542 12.250000954 0.0251000002 0.3167099953 2.5300047398 76.142997742 88.851760864 2.5999805927 -62.60000229  -999.250000 2.9659376144
 3368.9423828  -999.250000 13.298999786 12.250000954 0.0241000000 0.3136300147 2.5330030918 76.966003418 89.191398621 2.5879712105 -62.38100052  -999.250000 2.9269711971
 3369.0947266  -999.250000 13.199999809 12.250000954 0.0230999999 0.3089599907 2.5350031853 77.841003418 89.646217346 2.5699629784 -62.07500076  -999.250000 2.9090030193
 3369.2470703  -999.250000 13.156000137 12.250000954 0.0186999999 0.3030799925 2.5370030403 78.552001953 89.911621094 2.5469629765 -61.75199890  -999.250000 2.9110465050
 3369.3996582  -999.250000 13.175999641 12.250000954 0.0148000000 0.2966400087 2.5390031338 78.961997986 90.123680115 2.5239391327 -61.48600006  -999.250000 2.9401409626
 3369.5520020  -999.250000 13.189999580 12.250000954 0.0120000001 0.2904399931 2.5400016308 79.197998047 90.069221497 2.5049760342 -61.32400131  -999.250000 2.9840304852
 3369.7043457  -999.250000 13.234000206 12.250000954 0.0098999999 0.2852500081 2.5410015583 79.499000549 89.740722656 2.4899857044 -61.27000046  -999.250000 3.0029406548
 3369.8566895  -999.250000 13.312000275 12.250000954 0.0077000000 0.2817400098 2.5420017242 79.930000305 89.451576233 2.4809935093 -61.29800034  -999.250000 2.9658975601
 3370.0092773  -999.250000 13.357998848 12.250000954 0.0041999999 0.2802799940 2.5430030823 80.386001587 89.294219971 2.4769487381 -61.36899948  -999.250000 2.9018366337
 3370.1616211  -999.250000 13.366999626 12.250000954 0.0011000000 0.2806099951 2.5440015793 80.647003174 89.431823730 2.4609439373 -61.44800186  -999.250000 2.8509440422
 3370.3139648  -999.250000 13.369999886 12.250000954 0.0002000000 0.2814700007 2.5450081825 80.446998596 89.766784668 2.4259376526 -61.52399826  -999.250000 2.8159487247
 3370.4663086  -999.250000 13.378999710 12.250000954 0.0007000000 0.2807599902 2.5500128269 79.700996399 87.105918884 2.3869647980 -61.60800171  -999.250000 2.7839503288
 3370.6188965  -999.250000 13.395999908 12.250000954 0.0009000000 0.2765600085 2.5580353737 78.211997986 81.537284851 2.3650031090 -61.71799850  -999.250000 2.7529263496
 3370.7712402  -999.250000 13.439000130 12.250000954 0.0031999999 0.2684600055 2.5690176487 75.431999207 78.410369873 2.3660447598 -61.86600113  -999.250000 2.7299857140
 3370.9235840  -999.250000 13.586999893 12.250000954 0.0068000001 0.2582300007 2.5800094604 71.641998291 78.070419312 2.3940513134 -62.04800034  -999.250000 2.7211024761
 3371.0759277  -999.250000 13.810000420 12.250000954 0.0081000002 0.2491399944 2.5859982967 69.055000305 78.798431396 2.4259970188 -62.24399948  -999.250000 2.7854807377
 3371.2282715  -999.250000 13.876000404 12.250000954 0.0063999998 0.2443599999 2.5849871635 70.301002502 81.985694885 2.4239454269 -62.42399979  -999.250000 3.0859551430
 3371.3808594  -999.250000 13.786000252 12.250000954 0.0024999999 0.2453500032 2.5769615173 75.480003357 86.763351440 2.3898496628 -62.55900192  -999.250000 3.6828591824
 3371.5332031  -999.250000 13.756999969 12.250000954 -0.003200000 0.2510899901 2.5649776459 81.561996460 90.293975830 2.3428750038 -62.62599564  -999.250000 4.2617964745
 3371.6855469  -999.250000 13.786000252 12.250000954 -0.006800000 0.2587499917 2.5509824753 85.251998901 91.824668884 2.2648029327 -62.61299515  -999.250000 4.1337518692
 3371.8378906  -999.250000 13.796999931 12.250000954 -0.005900000 0.2651799917 2.5399870872 86.096000671 92.304794312 2.1418044567 -62.51499939  -999.250000 3.3551008701
 3371.9904785  -999.250000 13.796999931 12.250000954 -0.004300000 0.2685500085 2.5319840908 86.025001526 92.844383240 2.0197792053 -62.35200119  -999.250000 2.7946417332
 3372.1428223  -999.250000 13.807000160 12.250000954 -0.003800000 0.2690199912 2.5269935131 86.376998901 93.299697876 1.9509599209 -62.16799927  -999.250000 2.6830482483
 3372.2951660  -999.250000 13.850000381 12.250000954 -0.003100000 0.2679699957 2.5229952335 86.735000610 93.518600464 1.9259775877 -62.02099991  -999.250000 2.7130031586
 3372.4475098  -999.250000 13.873000145 12.250000954 -0.002100000 0.2668299973 2.5199983120 86.339996338 93.627395630 1.9119790792 -61.95500183  -999.250000 2.7149486542
 3372.6000977  -999.250000 13.814001083 12.250000954 0.0007000000 0.2662500143 2.5190095901 85.322998047 93.531127930 1.8989808559 -61.97900009  -999.250000 2.6829040051
 3372.7524414  -999.250000 13.682000160 12.250000954 0.0094999997 0.2662299871 2.5220129490 84.537002563 93.390930176 1.8930064440 -62.06399918  -999.250000 2.6529569626
 3372.9047852  -999.250000 13.521000862 12.250000954 0.0313000008 0.2665700018 2.5300192833 84.653999329 93.349502563 1.8970223665 -62.16199875  -999.250000 2.6259262562
 3373.0571289  -999.250000 13.376000404 12.250000954 0.0630000010 0.2672800124 2.5420258045 85.466003418 93.326210022 1.9110368490 -62.23099899  -999.250000 2.5799214840
 3373.2094727  -999.250000 13.260000229 12.250000954 0.0936999992 0.2685399950 2.5580241680 86.042999268 93.616600037 1.9340319633 -62.25999832  -999.250000 2.5309550762
 3373.3620605  -999.250000 13.199999809 12.250000954 0.1147999987 0.2706399858 2.5730206966 85.583000183 93.366371155 1.9540176392 -62.27700043  -999.250000 2.5029857159
 3373.5144043  -999.250000 13.163998604 12.250000954 0.1225000024 0.2736800015 2.5860128403 84.196998596 92.339134216 1.9649935961 -62.32600021  -999.250000 2.4939968586
 3373.6667480  -999.250000 13.126000404 12.250000954 0.1186000034 0.2773900032 2.5940032005 82.653999329 91.730613708 1.9609807730 -62.43199921  -999.250000 2.4920513630
 3373.8190918  -999.250000 13.131999969 12.250000954 0.1086999997 0.2812500000 2.5959935188 81.412002563 91.582687378 1.9489743710 -62.57799911  -999.250000 2.5241441727
