# LAS format log file from PETREL
# Project units are specified as depth units
#==================================================================
~Version information
VERS.   2.0:
WRAP.   NO:
#==================================================================
~Well
STRT .m      2339.3889160 :
STOP .m      3955.4384766 :
STEP .m     0.00000000 :
NULL .        -999.250000 :
COMP.           : COMPANY
WELL.  34/8-6   : WELL
FLD.            : FIELD
LOC.            : LOCATION
SRVC.           : SERVICE COMPANY
DATE.  2018-09-11 14:48:53   : Log Export Date {yyyy-MM-dd HH:mm:ss}
PROV.           : PROVINCE
UWI.   34/8-6   : UNIQUE WELL ID
API.            : API NUMBER
#==================================================================
~Curve
DEPT .m                   : DEPTH
Lithology_geolink ._      : Lithology_geolink
CALI .in                  : CALI
DRHO .g/cm3               : DRHO
NPHI .m3/m3               : NPHI
RHOB .g/cm3               : RHOB
GR .gAPI                  : GR
DTC .us/ft                : DTC
RDEP .ohm.m               : RDEP
SP .mV                    : SP
RMED .ohm.m               : RMED
~Parameter
#==================================================================
~Ascii
# ...
 3406.1887207 13.000000000 13.015659332 -0.012752860 0.2919152975 2.5510489941 102.12249756 97.997375488 1.1128760576 137.02420044 1.6326949596
 3406.3410645 13.000000000 13.031250000 -0.010204270 0.2980962098 2.5814330578 100.93579865 97.301017761 1.1129469872 136.64909363 1.6711870432
 3406.4936523 13.000000000 13.031250000 -0.005298666 0.2888058126 2.6034750938 100.25959778 97.702583313 1.1118170023 136.27529907 1.7215499878
 3406.6459961 13.000000000 13.031250000 -0.006483676 0.2725596130 2.5757699013 103.62719727 98.601959229 1.1063350439 136.40119934 1.7026619911
 3406.7983398 13.000000000 13.031250000 -0.007715140 0.2807416022 2.5470850468 105.01339722 99.799659729 1.1074810028 137.15119934 1.6554679871
 3406.9506836 13.000000000 13.031250000 -0.001472358 0.2939634025 2.5301508904 111.68029785 99.699302673 1.1123839617 137.77499390 1.6032550335
 3407.1032715 13.000000000 13.031250000 0.0009609463 0.3226695061 2.5325028896 108.63490295 99.398353577 1.1145700216 137.77189636 1.5827389956
 3407.2556152 13.000000000 13.031250000 0.0001616515 0.3405117989 2.5286989212 112.24330139 98.798377991 1.1162610054 136.64889526 1.5866730213
 3407.4079590 13.000000000 13.031250000 0.0040070210 0.3222849071 2.5447740555 107.80909729 97.700691223 1.1108479500 135.89950562 1.6309460402
 3407.5603027 13.000000000 13.031250000 0.0044326140 0.3123101890 2.5542480946 105.99430084 97.901557922 1.1026209593 135.64970398 1.6869460344
 3407.7128906 13.000000000 13.031309128 0.0005948611 0.2911300957 2.5458190441 103.43419647 98.302093506 1.0943620205 135.52630615 1.7330729961
 3407.8652344 13.000000000 13.054719925 -0.004855364 0.2976661026 2.5317931175 102.19419861 99.100692749 1.0868949890 136.02549744 1.7132979631
 3408.0175781 13.000000000 13.078060150 -0.005439676 0.2883915007 2.5197410583 107.06759644 99.600013733 1.0814490318 136.39959717 1.6560080051
 3408.1699219 13.000000000 13.039079666 -0.006141804 0.2844701111 2.5219891071 110.00530243 99.601486206 1.0776389837 136.14920044 1.6027159691
 3408.3222656 13.000000000 13.046910286 -0.005848134 0.2921425104 2.5210070610 112.48390198 100.00070190 1.0614910126 135.77619934 1.5597660542
 3408.4748535 13.000000000 13.062509537 -0.007960808 0.2971831858 2.5175700188 105.99089813 100.30039978 1.0457220078 136.27450562 1.5259959698
 3408.6271973 13.000000000 13.070289612 -0.002781469 0.2874318957 2.5221340656 98.749092102 100.59950256 1.0347779989 135.90080261 1.5042660236
 3408.7795410 13.000000000 13.054639816 -0.000917068 0.2843205035 2.5298509598 98.193466187 100.29890442 1.0233969688 136.40150452 1.5084290504
 3408.9318848 13.000000000 13.031319618 0.0004080143 0.2957550883 2.5334749222 101.20149994 100.00000000 1.0174930096 137.14729309 1.5249780416
 3409.0844727 13.000000000 13.062439919 0.0025186799 0.2937594056 2.5419340134 107.11920166 99.998908997 1.0172079802 136.02360535 1.5367189646
 3409.2368164 13.000000000 13.039059639 0.0060828500 0.3002279103 2.5468630791 104.99770355 99.600486755 1.0186749697 135.52589417 1.5388779640
 3409.3891602 13.000000000 13.039059639 0.0043403539 0.2791062891 2.5499529839 103.43099976 99.899650574 1.0222959518 136.14950562 1.5449579954
 3409.5415039 13.000000000 13.039079666 0.0030896950 0.3101983070 2.5461089611 99.936393738 99.802307129 1.0267759562 135.90029907 1.5556629896
 3409.6940918 13.000000000 13.046850204 -0.000336932 0.3104811013 2.5376830101 99.438957214 100.39969635 1.0308040380 136.02529907 1.5683729649
 3409.8464355 13.000000000 13.039050102 -0.002030581 0.3339903951 2.5260479450 100.00050354 100.30010223 1.0321110487 136.15029907 1.5764640570
 3409.9987793 13.000000000 13.031259537 -0.006015745 0.3107953072 2.5172579288 100.37670135 100.40069580 1.0393539667 136.39830017 1.5746239424
 3410.1511230 13.000000000 13.039050102 -0.010515970 0.3146362007 2.5130710602 101.37909698 100.80000305 1.0436890125 135.39970398 1.5560580492
 3410.3037109 13.000000000 13.031250000 -0.011128100 0.2884750962 2.5154719353 103.31739807 100.79979706 1.0495040417 135.27560425 1.5354700089
 3410.4560547 13.000000000 13.031250000 -0.011217600 0.3079519868 2.5234429836 105.31210327 100.69950104 1.0491839647 135.52549744 1.5550520420
 3410.6083984 13.000000000 13.031250000 -0.013282470 0.2981404066 2.5216870308 104.99960327 100.30069733 1.0444619656 135.90100098 1.5878889561
 3410.7607422 13.000000000 13.031250000 -0.013824970 0.3209486902 2.5324618816 104.74639893 100.70111084 1.0403959751 136.52600098 1.5948330164
 3410.9130859 13.000000000 13.031250000 -0.011940310 0.3178989887 2.5291910172 102.93289948 100.99979401 1.0366799831 137.02529907 1.5553430319
 3411.0656738 13.000000000 13.031250000 -0.007181002 0.3223915100 2.5350160599 100.99150085 100.90079498 1.0376789570 137.15100098 1.5091860294
 3411.2180176 13.000000000 13.031250000 -0.003314311 0.3271048069 2.5248100758 97.875930786 101.19940186 1.0375130177 137.52479553 1.4944490194
 3411.3703613 13.000000000 13.031250000 -0.004787570 0.3187718093 2.5255439281 98.498733521 100.80000305 1.0272890329 137.39790344 1.5125160217
 3411.5227051 13.000000000 13.031250000 -0.002544236 0.3264118135 2.5262761116 97.829063416 100.80110168 1.0191179514 136.27389526 1.5302799940
 3411.6752930 13.000000000 13.031250000 -0.001057402 0.3100320101 2.5326089859 105.25209808 101.10030365 1.0173809528 135.77529907 1.5298110247
 3411.8276367 13.000000000 13.031250000 -0.002675362 0.3143911958 2.5262329578 106.06390381 101.19960785 1.0195749998 135.90150452 1.5129770041
 3411.9799805 13.000000000 13.031250000 -0.006779643 0.3050411940 2.5325219631 107.11759949 100.89960480 1.0177110434 137.02479553 1.5151859522
 3412.1323242 13.000000000 13.031250000 -0.000632073 0.3246096969 2.5483250618 102.87779999 100.69930267 1.0192650557 136.89999390 1.5436810255
 3412.2849121 13.000000000 13.031250000 0.0052199219 0.3207669854 2.5703558922 104.19409943 100.50051117 1.0174369812 136.90209961 1.5664720535
 3412.4372559 13.000000000 13.031250000 0.0055482285 0.3307738900 2.5652658939 106.87449646 100.70059967 1.0176730156 137.77360535 1.5311000347
 3412.5895996 13.000000000 13.031250000 0.0026550021 0.3360219896 2.5527789593 106.50039673 101.20010376 1.0227890015 136.64920044 1.5026069880
 3412.7419434 13.000000000 13.031250000 0.0052640699 0.3396750987 2.5539460182 106.75099945 101.29710388 1.0294690132 136.14920044 1.5006150007
 3412.8942871 13.000000000 13.031250000 0.0021102601 0.3347412944 2.5548911095 107.24299622 100.49909973 1.0277789831 135.77349854 1.5313179493
 3413.0468750 13.000000000 13.031250000 0.0005308844 0.3223147094 2.5587959290 104.24629974 100.09920502 1.0259120464 135.15269470 1.5554569960
 3413.1992188 13.000000000 13.031250000 -0.004394305 0.3295562863 2.5541648865 102.87830353 99.799552917 1.0274649858 136.15179443 1.5567719936
 3413.3515625 13.000000000 13.031250000 -0.006979469 0.3375121057 2.5464639664 105.13089752 99.500343323 1.0278609991 137.40089417 1.5532399416
 3413.5039063 13.000000000 13.031250000 -0.008043620 0.3372321129 2.5435550213 108.31109619 99.598503113 1.0294890404 137.89889526 1.5477240086
 3413.6564941 13.000000000 13.031250000 -0.008087435 0.3349812925 2.5379040241 107.67890167 99.200271606 1.0328719616 137.39840698 1.5436199903
 3413.8088379 13.000000000 13.031250000 -0.008997263 0.3202916980 2.5474491119 104.37400055 99.299842834 1.0345309973 136.77450562 1.5384399891
 3413.9611816 13.000000000 13.031250000 -0.007149041 0.2986569107 2.5510420799 103.62239838 99.199836731 1.0388610363 136.39959717 1.5403800011
 3414.1135254 13.000000000 13.031250000 -0.005490102 0.3005090952 2.5507678986 102.12359619 99.100738525 1.0425590277 136.14950562 1.5471379757
 3414.2661133 13.000000000 13.031250000 -0.004676749 0.2951872945 2.5388970375 101.44239807 99.301002502 1.0467829704 135.89939880 1.5576870441
 3414.4184570 13.000000000 13.031250000 -0.001939719 0.3212879002 2.5411150455 103.43810272 99.700019836 1.0548440218 135.65010071 1.5679199696
 3414.5708008 13.000000000 13.031250000 -0.002861167 0.3067626059 2.5402190685 103.93479919 99.699516296 1.0632489920 135.77619934 1.5812950134
