# LAS format log file from PETREL
# Project units are specified as depth units
#==================================================================
~Version information
VERS.   2.0:
WRAP.   NO:
#==================================================================
~Well
STRT .m      2339.3889160 :
STOP .m      3955.4384766 :
STEP .m     0.00000000 :
NULL .        -999.250000 :
COMP.           : COMPANY
WELL.  34/8-6   : WELL
FLD.            : FIELD
LOC.            : LOCATION
SRVC.           : SERVICE COMPANY
DATE.  2018-09-11 14:48:53   : Log Export Date {yyyy-MM-dd HH:mm:ss}
PROV.           : PROVINCE
UWI.   34/8-6   : UNIQUE WELL ID
API.            : API NUMBER
#==================================================================
~Curve
DEPT .m                   : DEPTH
Lithology_geolink ._      : Lithology_geolink
CALI .in                  : CALI
DRHO .g/cm3               : DRHO
NPHI .m3/m3               : NPHI
RHOB .g/cm3               : RHOB
GR .gAPI                  : GR
DTC .us/ft                : DTC
RDEP .ohm.m               : RDEP
SP .mV                    : SP
RMED .ohm.m               : RMED
~Parameter
#==================================================================
~Ascii
# ...
 2766.1088867  -999.250000 13.757820129 -0.013205820 0.2779118121 2.4379832745 96.866935730 99.700538635 1.6987195015 134.40049744 2.1885485649
 2766.2614746  -999.250000 13.765762329 -0.014980800 0.2692422867 2.4394476414 93.828582764 99.900001526 1.6796339750 134.89959717 2.1452286243
 2766.4138184  -999.250000 13.859380722 -0.014435980 0.2728314102 2.4452447891 97.312164307 99.899650574 1.6481132507 134.64999390 2.1249711514
 2766.5661621  -999.250000 13.898441315 -0.011810560 0.2746460140 2.4544923306 97.119911194 99.701118469 1.6121252775 134.52499390 2.1867964268
 2766.7185059  -999.250000 13.898441315 -0.009070664 0.2754751146 2.4571049213 94.746864319 99.998985291 1.5911052227 134.52479553 2.2319393158
 2766.8710938  -999.250000 13.898441315 -0.008179539 0.2730706036 2.4539833069 93.513694763 99.608520508 1.5743623972 134.27479553 2.2130568027
 2767.0234375  -999.250000 13.898441315 -0.004858778 0.2814679146 2.4621345997 96.563835144 101.50048065 1.5551522970 134.14999390 2.1134521961
 2767.1757813  -999.250000 13.898441315 -0.001815447 0.2799499035 2.4638161659 97.368194580 101.80000305 1.5397200584 134.14999390 2.0300011635
 2767.3281250  -999.250000 13.898441315 -0.003137922 0.2812685966 2.4633042812 94.002235413 101.80052185 1.5191724300 134.15010071 1.9901031256
 2767.4807129  -999.250000 13.898441315 -0.005771346 0.2676671147 2.4455070496 94.945098877 101.99739075 1.4907360077 134.27569580 1.9677014351
 2767.6330566  -999.250000 13.898441315 -0.004948982 0.2669982016 2.4483420849 96.686264038 101.39920807 1.4701361656 134.89990234 1.9438437223
 2767.7854004  -999.250000 13.898441315 -0.004933819 0.2732535005 2.4583745003 96.003547668 100.89926910 1.4571597576 135.27510071 1.9381144047
 2767.9377441  -999.250000 13.898441315 -0.006538621 0.2887204885 2.4649250507 97.879653931 100.49810028 1.4526083469 135.64909363 1.9571057558
 2768.0900879  -999.250000 13.898441315 -0.004802854 0.3113827109 2.4662795067 99.937004089 100.00208282 1.4528173208 134.27490234 1.9725875854
 2768.2426758  -999.250000 13.898441315 -0.005994256 0.3113678098 2.4577713013 99.732505798 100.80136108 1.4674268961 134.14979553 1.9741981030
 2768.3950195  -999.250000 13.898441315 -0.006289168 0.3006773889 2.4638240337 95.936836243 101.10000610 1.4833039045 134.02499390 1.9780187607
 2768.5473633  -999.250000 13.898441315 -0.001024489 0.2937012017 2.4725911617 95.562637329 101.09918213 1.5007402897 133.89999390 1.9904012680
 2768.6997070  -999.250000 13.898441315 -0.000136987 0.2845591903 2.4676108360 95.631713867 100.90000153 1.5190294981 133.89990234 2.0380487442
 2768.8522949  -999.250000 13.898329735 -0.001675969 0.2926945090 2.4601113796 98.296882629 100.90093994 1.5355682373 133.77609253 2.0903844833
 2769.0046387  -999.250000 13.812500000 -0.001398425 0.2896482050 2.4611761570 94.817314148 101.10014343 1.5590724945 134.02459717 2.1459608078
 2769.1569824  -999.250000 13.789050102 -0.000873289 0.2962189913 2.4619555473 97.741714478 101.17230225 1.6037433147 133.77470398 2.1283860207
 2769.3093262  -999.250000 13.757809639 -0.007391341 0.2964645028 2.5066723824 93.615478516 93.496681213 1.6551280022 133.65089417 2.0901081562
 2769.4619141  -999.250000 13.757760048 -0.000312909 0.2787264884 2.5862591267 89.583251953 92.099136353 1.6870330572 134.02661133 2.2586750984
 2769.6142578  -999.250000 13.710941315 0.0104934396 0.2820400894 2.6793236732 80.005470276 91.899688721 1.7185691595 134.39979553 2.5129828453
 2769.7666016  -999.250000 13.726571083 0.0042477199 0.2818461955 2.6086146832 82.882644653 91.707344055 1.7367570400 134.27519226 2.5818552971
 2769.9189453  -999.250000 13.757809639 -0.003017090 0.2890976965 2.5241069794 86.943542480 95.611175537 1.7524150610 134.40029907 2.4330475330
 2770.0712891  -999.250000 13.757809639 0.0005335243 0.2818140090 2.4679362774 89.615997314 98.498687744 1.7849185467 134.52629089 2.3231668472
 2770.2238770  -999.250000 13.757809639 0.0042780102 0.2833211124 2.4694159031 86.194374084 98.000488281 1.8082902431 135.02609253 2.3078105450
 2770.3762207  -999.250000 13.757809639 0.0027348781 0.2707566023 2.4640424252 87.691886902 98.100181580 1.8083690405 135.27630615 2.3638186455
 2770.5285645  -999.250000 13.757809639 0.0014352590 0.2560273111 2.4612407684 90.186172485 98.199264526 1.8158493042 136.02391052 2.3972604275
 2770.6809082  -999.250000 13.757809639 0.0012774300 0.2559868097 2.4585139751 89.559860229 98.000541687 1.8179233074 135.52720642 2.3962852955
 2770.8334961  -999.250000 13.757809639 -0.003147961 0.2721975148 2.4491231441 88.528411865 98.197334290 1.8124859333 136.39999390 2.3940012455
 2770.9858398  -999.250000 13.757809639 -0.004802762 0.2815825939 2.4476375580 94.878562927 97.600196838 1.8164874315 136.39898682 2.4081933498
 2771.1381836  -999.250000 13.757820129 -0.000524021 0.2548716962 2.4566917419 97.053993225 97.699989319 1.8192057610 135.77499390 2.4483084679
 2771.2905273  -999.250000 13.765690804 -0.000316819 0.2399815023 2.4715828896 92.809089661 97.700469971 1.8221635818 135.77529907 2.4778933525
 2771.4431152  -999.250000 13.843769073 -0.000650648 0.2349475026 2.4764611721 91.358482361 97.899139404 1.8294210434 135.90220642 2.4773375988
 2771.5954590  -999.250000 13.859370232 0.0020236750 0.2564359903 2.4776694775 87.574279785 97.700950623 1.8425270319 136.40049744 2.4345905781
 2771.7478027  -999.250000 13.898441315 0.0003223979 0.2619549930 2.4668061733 94.677894592 98.299415588 1.8513280153 136.77479553 2.4356286526
 2771.9001465  -999.250000 13.898441315 -0.002321929 0.2716299891 2.4581317902 89.576934814 97.999610901 1.8588446379 136.65060425 2.4579901695
 2772.0524902  -999.250000 13.898441315 -0.002277646 0.2809109986 2.4536230564 95.996261597 97.898460388 1.8679910898 136.90029907 2.4955163002
 2772.2050781  -999.250000 13.898461342 -0.003369756 0.2818345129 2.4536311626 94.584785461 97.297271729 1.8806313276 137.02670288 2.5293514729
 2772.3574219  -999.250000 13.914069176 -0.002078690 0.2754983008 2.4667909145 99.431488037 96.698799133 1.9050544500 137.39959717 2.5369498730
 2772.5097656  -999.250000 13.937519073 -0.001113048 0.2755126953 2.4673278332 95.994163513 95.994064331 1.9315565825 137.15161133 2.5189542770
 2772.6621094  -999.250000 13.976600647 -0.004332266 0.2761400938 2.4685230255 93.231979370 94.397987366 1.9500259161 137.89880371 2.5622935295
 2772.8146973  -999.250000 14.015620232 -0.003881308 0.2708964050 2.4711410999 86.001670837 93.600448608 1.9656112194 137.40049744 2.6602315903
 2772.9670410  -999.250000 14.007809639 -0.000388705 0.2550072968 2.5067660809 86.375610352 93.700004578 1.9831763506 137.52519226 2.7788717747
 2773.1193848  -999.250000 13.960909843 0.0072213300 0.2628937960 2.5473864079 86.758338928 93.702171326 2.0183575153 137.64898682 2.8246223927
 2773.2717285  -999.250000 13.898441315 0.0102530299 0.2561143935 2.5800311565 90.933509827 94.299758911 2.0629501343 137.14880371 2.6895272732
 2773.4243164  -999.250000 13.898441315 0.0128704300 0.2625063956 2.5932369232 89.237030029 94.190498352 2.0940382481 136.65269470 2.6479845047
 2773.5766602  -999.250000 13.898441315 0.0160438102 0.2365929037 2.5990586281 86.252716064 92.001182556 2.0775523186 137.27470398 2.8675544262
 2773.7290039  -999.250000 13.898441315 0.0189604200 0.2566097975 2.5906510353 87.746726990 92.601898193 2.0384812355 137.14878845 3.1120290756
 2773.8813477  -999.250000 13.898441315 0.0070584612 0.2650082111 2.5394020081 86.005447388 93.608467102 2.0305249691 136.52470398 3.0817248821
 2774.0336914  -999.250000 13.898441315 0.0007852999 0.2977007031 2.4802694321 88.441085815 95.804176331 2.0385508537 136.39970398 2.7648777962
 2774.1862793  -999.250000 13.898441315 -0.001532489 0.2926762998 2.4480838776 89.825340271 97.398635864 2.0559642315 136.27391052 2.5754113197
 2774.3386230  -999.250000 13.898441315 -0.008960303 0.2901656032 2.4293968678 92.632507324 97.099311829 2.0705795288 136.02539063 2.5787396431
 2774.4909668  -999.250000 13.898430824 -0.011513240 0.2906939089 2.4368872643 96.931823730 96.701110840 2.0260396004 136.27549744 2.6402995586
