# LAS format log file from PETREL
# Project units are specified as depth units
#==================================================================
~Version information
VERS.   2.0:
WRAP.   NO:
#==================================================================
~Well
STRT .m      2339.3889160 :
STOP .m      3955.4384766 :
STEP .m     0.00000000 :
NULL .        -999.250000 :
COMP.           : COMPANY
WELL.  34/8-6   : WELL
FLD.            : FIELD
LOC.            : LOCATION
SRVC.           : SERVICE COMPANY
DATE.  2018-09-11 14:48:53   : Log Export Date {yyyy-MM-dd HH:mm:ss}
PROV.           : PROVINCE
UWI.   34/8-6   : UNIQUE WELL ID
API.            : API NUMBER
#==================================================================
~Curve
DEPT .m                   : DEPTH
Lithology_geolink ._      : Lithology_geolink
CALI .in                  : CALI
DRHO .g/cm3               : DRHO
NPHI .m3/m3               : NPHI
RHOB .g/cm3               : RHOB
GR .gAPI                  : GR
DTC .us/ft                : DTC
RDEP .ohm.m               : RDEP
SP .mV                    : SP
RMED .ohm.m               : RMED
~Parameter
#==================================================================
~Ascii
# ...
 3730.4960938 3.0000000000 11.882719040 -0.006320273 0.1514351964 2.4473090172 80.936203003 70.601371765 3.3090429306 205.14999390 2.6456620693
 3730.6484375 3.0000000000 11.789019585 -0.005628281 0.1598649025 2.4319820404 79.629661560 72.001632690 3.2172689438 205.14970398 2.3978080750
 3730.8007813 3.0000000000 11.757800102 -0.003248501 0.1583991945 2.4329659939 83.059692383 73.199310303 3.0046930313 204.90089417 2.4743089676
 3730.9531250 3.0000000000 11.750000954 -0.000290091 0.1601283997 2.4427590370 81.436836243 72.801483154 2.8328890800 205.39840698 2.5844039917
 3731.1057129 3.0000000000 11.749979973 -0.006915635 0.1609251052 2.4346868992 81.117622375 73.201469421 2.6427268982 204.65310669 2.3851830959
 3731.2580566 3.0000000000 11.742191315 -0.011803920 0.1573446989 2.4204809666 78.118461609 73.799263000 2.5197460651 205.90060425 2.1709489822
 3731.4104004 3.0000000000 11.742191315 -0.014807070 0.1464560032 2.4154639244 72.806900024 73.199050903 2.5176570415 206.40119934 2.0874130726
 3731.5627441 3.0000000000 11.742191315 -0.015037980 0.1389060020 2.4082169533 69.312133789 72.600013733 2.5530369282 207.14849854 2.0636379719
 3731.7153320 3.0000000000 11.742191315 -0.020354580 0.1395639926 2.3930819035 69.131568909 72.601387024 2.5504539013 206.39819336 2.0858700275
 3731.8676758 3.0000000000 11.742191315 -0.016284220 0.1391433030 2.3838179111 71.940261841 73.200660706 2.6244859695 205.64920044 2.0973699093
 3732.0200195 3.0000000000 11.742191315 -0.015711520 0.1368492991 2.3812570572 74.436302185 73.800720215 2.6911449432 204.89889526 2.1347379684
 3732.1723633 3.0000000000 11.742159843 -0.011514500 0.1269555986 2.3976290226 73.627998352 74.297576904 2.7358810902 204.14860535 2.2653260231
 3732.3249512 3.0000000000 11.726600647 -0.012477710 0.1330070049 2.4106070995 75.249313354 73.596946716 2.8635818958 203.40220642 2.4936370850
 3732.4772949 3.0000000000 11.742191315 -0.014527060 0.1290031970 2.4217040539 74.941787720 72.800003052 2.9761381149 204.39999390 2.7057549953
 3732.6296387 3.0000000000 11.742170334 -0.013978320 0.1385197937 2.4364399910 79.311149597 72.799720764 3.1406280994 204.39999390 2.7763140202
 3732.7819824 3.0000000000 11.726589203 -0.013060900 0.1494587064 2.4391100407 78.312286377 72.601707458 3.2709829807 204.39779663 2.7161560059
 3732.9343262 3.0000000000 11.742191315 -0.012767530 0.1666073948 2.4349560738 78.181373596 73.600753784 3.2485949993 203.14950562 2.6579570770
 3733.0869141 3.0000000000 11.742191315 -0.019701259 0.1755957007 2.4160909653 75.246932983 73.801460266 3.1661870480 202.89939880 2.6351480484
 3733.2392578 3.0000000000 11.742191315 -0.022806790 0.1644950956 2.4120090008 73.999389648 74.399139404 3.0378689766 202.65060425 2.6101388931
 3733.3916016 3.0000000000 11.742191315 -0.027683821 0.1469195932 2.4104759693 73.503593445 73.700317383 2.9908409119 203.15080261 2.4712769985
 3733.5439453 3.0000000000 11.742191315 -0.026723810 0.1348508000 2.4134519100 75.754173279 73.900352478 3.0226700306 203.64999390 2.2688810825
 3733.6965332 3.0000000000 11.742191315 -0.032510899 0.1358370930 2.4052031040 77.877326965 73.998359680 3.1088690758 203.65170288 2.1409149170
 3733.8488770 3.0000000000 11.742191315 -0.034654811 0.1534599960 2.4011769295 78.874237061 73.299690247 3.0711920261 204.39779663 2.2752730846
 3734.0012207 3.0000000000 11.742191315 -0.029890001 0.1638011038 2.4161829948 78.188140869 73.000442505 3.0595440865 202.39889526 2.7624700069
 3734.1535645 3.0000000000 11.742191315 -0.021832990 0.1606876999 2.4393539429 78.629707336 73.300689697 3.1560750008 201.65139771 3.1937799454
 3734.3061523 3.0000000000 11.742191315 -0.022873450 0.1550201029 2.4379808903 81.192588806 73.498123169 3.1660261154 202.39720154 3.0328609943
 3734.4584961 3.0000000000 11.742191315 -0.014970970 0.1427296996 2.4431369305 83.499877930 73.000389099 3.3039600849 201.15069580 2.8397850990
 3734.6108398 3.0000000000 11.742191315 -0.011969930 0.1482311934 2.4365379810 83.370063782 73.399856567 3.2778069973 201.90100098 2.8504860401
 3734.7631836 3.0000000000 11.742191315 -0.007631877 0.1470225006 2.4520170689 79.688568115 73.299659729 3.1555991173 202.64790344 2.8756229877
 3734.9155273 3.0000000000 11.742191315 -0.006920226 0.1557690948 2.4466660023 80.315750122 73.103302002 2.9975678921 201.39840698 2.8401360512
 3735.0681152 3.0000000000 11.742191315 -0.006005205 0.1565123051 2.4431769848 81.880958557 74.003646851 2.8926999569 200.64880371 2.6228010654
 3735.2204590 3.0000000000 11.742191315 -0.011955960 0.1591870040 2.4242329597 84.309692383 75.500366211 2.8699750900 200.14939880 2.3499550819
 3735.3728027 3.0000000000 11.742191315 -0.013248680 0.1592593938 2.4155240059 81.993461609 75.799842834 2.7892429829 199.65080261 2.2452609539
 3735.5251465 3.0000000000 11.742191315 -0.012411660 0.1629512012 2.4149849415 77.873542786 75.698921204 2.7118849754 200.14950562 2.3451011181
 3735.6777344 3.0000000000 11.742191315 -0.010825550 0.1589871049 2.4159760475 77.120216370 75.398612976 2.6342940331 199.89939880 2.4983301163
 3735.8300781 3.0000000000 11.742191315 -0.011921660 0.1583639979 2.4101901054 75.061752319 74.799667358 2.7511210442 199.64889526 2.5501348972
 3735.9824219 3.0000000000 11.742191315 -0.012950680 0.1534589976 2.4100370407 74.372627258 74.500427246 3.0147418976 198.64909363 2.4713521004
 3736.1347656 3.0000000000 11.742230415 -0.011456431 0.1513898969 2.4186289310 72.753646851 74.797943115 3.2168350220 198.02220154 2.2993090153
 3736.2873535 3.0000000000 11.766169548 -0.001846560 0.1366167963 2.4754290581 74.749313354 74.194313049 3.4630649090 196.52389526 2.4160630703
 3736.4396973 3.0000000000 12.015689850 0.0023612611 0.1321174055 2.5387220383 74.442619324 72.698631287 3.6241219044 196.02459717 3.4510419369
 3736.5920410 3.0000000000 12.086030006 0.0124510797 0.1375173926 2.5918970108 79.750076294 71.298927307 3.7697970867 195.64950562 6.7978439331
 3736.7443848 3.0000000000 12.156279564 0.0111269504 0.1561969966 2.5771150589 79.818458557 70.502563477 4.0552058220 195.27540588 8.7932262421
 3736.8967285 3.0000000000 12.171879768 0.0080510294 0.1691143066 2.5260479450 83.307586670 72.008796692 4.5598559380 195.52290344 6.5369391441
 3737.0493164 3.0000000000 12.171760559 0.0042202668 0.1693311036 2.4797129631 80.935707092 74.401840210 4.4632148743 194.52459717 5.0183038712
 3737.2016602 3.0000000000 12.039050102 0.0018952010 0.1632530987 2.4500730038 78.809478760 76.601066589 4.3298420906 194.02439880 4.0645680428
 3737.3540039 3.0000000000 12.031250000 -0.001894942 0.1598387957 2.4334270954 76.311607361 77.500152588 4.2273278236 193.52459717 3.5116798878
 3737.5063477 3.0000000000 12.031270027 -0.004723745 0.1609672010 2.4305961132 75.761917114 77.597862244 4.2052350044 193.27330017 3.0850100517
 3737.6589355 3.0000000000 12.039369583 -0.006928579 0.1827536970 2.4640939236 81.897827148 76.993530273 4.3132820129 192.40119934 3.4158499241
 3737.8112793 3.0000000000 12.171879768 -0.004797467 0.1854484975 2.5036590099 91.758789063 74.199119568 4.5520048141 192.89819336 5.7696571350
 3737.9636230 3.0000000000 12.179759979 -0.001950168 0.2088076025 2.5580801964 99.884696960 73.400123596 4.7391939163 191.27479553 8.8951749802
 3738.1159668 3.0000000000 12.226610184 -0.005980455 0.2100120038 2.5730381012 106.56320190 73.501823425 5.0720238686 191.14770508 9.1557817459
 3738.2685547 3.0000000000 12.249930382 -0.003330452 0.2193764001 2.6109540462 106.93979645 74.500762939 5.2984471321 189.90080261 9.7260112762
 3738.4208984 3.0000000000 12.218710899 0.0037751710 0.2142395973 2.6378240585 107.99289703 74.699531555 5.4889898300 190.27499390 9.2729539871
 3738.5732422 3.0000000000 12.179679871 0.0011455680 0.2021778971 2.6020290852 100.55639648 74.200126648 5.5461020470 190.27450562 7.7428312302
 3738.7255859 3.0000000000 12.171879768 -0.003368236 0.1799000949 2.5318620205 95.927650452 74.299652100 5.4018239975 189.90060425 6.8174839020
 3738.8781738 3.0000000000 12.171879768 -0.002533529 0.1563841999 2.5024609566 90.116760254 74.099617004 5.1944770813 190.27420044 6.6410570145
