# LAS format log file from PETREL
# Project units are specified as depth units
#==================================================================
~Version information
VERS.   2.0:
WRAP.   NO:
#==================================================================
~Well
STRT .m      2339.3889160 :
STOP .m      3955.4384766 :
STEP .m     0.00000000 :
NULL .        -999.250000 :
COMP.           : COMPANY
WELL.  34/8-6   : WELL
FLD.            : FIELD
LOC.            : LOCATION
SRVC.           : SERVICE COMPANY
DATE.  2018-09-11 14:48:53   : Log Export Date {yyyy-MM-dd HH:mm:ss}
PROV.           : PROVINCE
UWI.   34/8-6   : UNIQUE WELL ID
API.            : API NUMBER
#==================================================================
~Curve
DEPT .m                   : DEPTH
Lithology_geolink ._      : Lithology_geolink
CALI .in                  : CALI
DRHO .g/cm3               : DRHO
NPHI .m3/m3               : NPHI
RHOB .g/cm3               : RHOB
GR .gAPI                  : GR
DTC .us/ft                : DTC
RDEP .ohm.m               : RDEP
SP .mV                    : SP
RMED .ohm.m               : RMED
~Parameter
#==================================================================
~Ascii
# ...
 3943.8562012  -999.250000 3.2500002384 -0.020762499 0.3486636877 2.5926320553 162.12500000 78.800003052 4.4257907867 174.89999390 5.9361982346
 3944.0085449  -999.250000 3.2500002384 -0.020762499 0.3486635983 2.5926320553 162.12500000 78.800003052 5.0214757919 174.89959717 5.5725197792
 3944.1608887  -999.250000 3.2500002384 -0.020762499 0.3486635983 2.5926320553 162.12500000 78.800003052 5.1770381927 174.27529907 5.3807611465
 3944.3134766  -999.250000 3.2500002384 -0.020762499 0.3486635983 2.5926320553 162.12500000 78.800003052 5.0760931969 174.52450562 5.1118669510
 3944.4658203  -999.250000 3.2500002384 -0.020762499 0.3486635089 2.5926320553 162.12500000 78.800003052 5.3512430191 174.14970398 5.2066931725
 3944.6181641  -999.250000 3.2500002384 -0.020762499 0.3486633897 2.5926320553 162.12500000 78.800003052 6.2962150574 172.52389526 5.7673268318
 3944.7705078  -999.250000 3.2500002384 -0.020762499 0.3486633897 2.5926320553 162.12500000 78.800003052 6.8916521072 170.52400208 6.0521340370
 3944.9228516  -999.250000 3.2500002384 -0.020762499 0.3486633003 2.5926320553 162.12500000 78.800003052 7.2667608261 169.39889526 5.9244279861
 3945.0754395  -999.250000 3.2500002384 -0.020762499 0.3486633003 2.5926320553 162.12500000 78.800003052 6.5579471588 168.52380371 6.0891880989
 3945.2277832  -999.250000 3.2500002384 -0.020762499 0.3486632109 2.5926320553 162.12500000 78.800003052 4.9774627686 167.77549744 6.2881269455
 3945.3801270  -999.250000 3.2500002384 -0.020762499 0.3486632109 2.5926320553 162.12500000 78.800003052 4.3344588280 169.15040588 6.3860321045
 3945.5324707  -999.250000 3.2500002384 -0.020762499 0.3486630917 2.5926320553 162.12500000 78.800003052 4.1056919098 169.64939880 5.5876407623
 3945.6850586  -999.250000 3.2500002384 -0.020762499 0.3486630917 2.5926320553 162.12500000 78.800003052 3.8980739117 169.15130615 4.6307940483
 3945.8374023  -999.250000 3.2500002384 -0.020762499 0.3486630023 2.5926320553 162.12500000 78.800003052 3.8421111107 170.02499390 4.6302638054
 3945.9897461  -999.250000 3.2500002384 -0.020762499 0.3486630023 2.5926320553 162.12500000 78.800003052 3.1528320313 169.89930725 4.9510631561
 3946.1420898  -999.250000 3.2500002384 -0.020762499 0.3486630023 2.5926320553 162.12500000 78.800003052 2.8158950806 168.77439880 4.9445080757
 3946.2946777  -999.250000 3.2500002384 -0.020762499 0.3486629128 2.5926320553 162.12500000 78.800003052 2.8317692280 168.14950562 4.9210214615
 3946.4470215  -999.250000 3.2500002384 -0.020762499 0.3486629128 2.5926320553 162.12500000 78.800003052 3.0187549591 167.77490234 5.2117800713
 3946.5993652  -999.250000 3.2500002384 -0.020762499 0.3486629128 2.5926320553 162.12500000 78.800003052 3.2432599068 167.15010071 5.6272587776
 3946.7517090  -999.250000 3.2500002384 -0.020762499 0.3486627042 2.5926320553 162.12500000 78.800003052 3.3684179783 167.27529907 5.6167798042
 3946.9040527  -999.250000 3.2500002384 -0.020762499 0.3486627042 2.5926320553 162.12500000 78.800003052 3.3591694832 167.65170288 5.3897333145
 3947.0566406  -999.250000 3.2500002384 -0.020762499 0.3486627042 2.5926320553 162.12500000 78.800003052 3.4295639992 169.02400208 5.6220602989
 3947.2089844  -999.250000 3.2500002384 -0.020762499 0.3486626148 2.5926320553 162.12500000 78.800003052 3.5315945148 168.39970398 6.0889887810
 3947.3613281  -999.250000 3.2500002384 -0.020762499 0.3486626148 2.5926320553 162.12500000 78.800003052 3.6043744087 167.64959717 6.2463450432
 3947.5136719  -999.250000 3.2500002384 -0.020762499 0.3486624956 2.5926320553 162.12500000 78.800003052 3.7037444115 167.14970398 6.2439179420
 3947.6662598  -999.250000 3.2500002384 -0.020762499 0.3486624956 2.5926320553 162.12500000 78.800003052 3.7452497482 166.89979553 6.2500529289
 3947.8186035  -999.250000 3.2500002384 -0.020762499 0.3486622870 2.5926320553 162.12500000 78.800003052 3.7577316761 166.77499390 6.2550015450
 3947.9709473  -999.250000 3.2500002384 -0.020762499 0.3486622870 2.5926320553 162.12500000 78.800003052 3.8011727333 166.64970398 6.2871556282
 3948.1232910  -999.250000 3.2500002384 -0.020762499 0.3486622870 2.5926320553 162.12500000 78.800003052 3.8346030712 166.15020752 6.3324441910
 3948.2758789  -999.250000 3.2500002384 -0.020762499 0.3486622870 2.5926320553 162.12500000 78.800003052 3.8314037323 166.39950562 6.3555288315
 3948.4282227  -999.250000 3.2500002384 -0.020762499 0.3486621976 2.5926320553 162.12500000 78.800003052 3.8213436604 166.02490234 6.3720016479
 3948.5805664  -999.250000 3.2500002384 -0.020762499 0.3486621082 2.5926320553 162.12500000 78.800003052 3.8099567890 165.27470398 6.3799805641
 3948.7329102  -999.250000 3.2500002384 -0.020762499 0.3486619890 2.5926320553 162.12500000 78.800003052 3.8048446178 164.65010071 6.3852190971
 3948.8852539  -999.250000 3.2500002384 -0.020762499 0.3486619890 2.5926320553 162.12500000 78.800003052 3.8027849197 164.77420044 6.3959703445
 3949.0378418  -999.250000 3.2500002384 -0.020762499 0.3486619890 2.5926320553 162.12500000 78.800003052 3.7970576286 164.14999390 6.3895626068
 3949.1901855  -999.250000 3.2500002384 -0.020762499 0.3486619890 2.5926320553 162.12500000 78.800003052 3.7949988842 163.52560425 6.3837265968
 3949.3425293  -999.250000 3.2500002384 -0.020762499 0.3486618996 2.5926320553 162.12500000 78.800003052 3.7925305367 165.02409363 6.3971610069
 3949.4948730  -999.250000 3.2500002384 -0.020762499 0.3486618102 2.5926320553 162.12500000 78.800003052 3.7853837013 163.89889526 6.3941779137
 3949.6474609  -999.250000 3.2500002384 -0.020762499 0.3486616910 2.5926320553 162.12500000 78.800003052 3.7857694626 162.89939880 6.3971333504
 3949.7998047  -999.250000 3.2500002384 -0.020762499 0.3486616910 2.5926320553 162.12500000 78.800003052 3.7896654606 162.52499390 6.3896894455
 3949.9521484  -999.250000 3.2500002384 -0.020762499 0.3486616910 2.5926320553 162.12500000 78.800003052 3.7911474705 162.64990234 6.3956837654
 3950.1044922  -999.250000 3.2500002384 -0.020762499 0.3486616015 2.5926320553 162.12500000 78.800003052 3.7926998138 162.52569580 6.4031548500
 3950.2570801  -999.250000 3.2500002384 -0.020762499 0.3486616015 2.5926320553 162.12500000 78.800003052 3.7962305546 163.27520752 6.3967728615
 3950.4094238  -999.250000 3.2500002384 -0.020762499 0.3486615121 2.5926320553 162.12500000 78.800003052 3.7998049259 163.39999390 6.3925738335
 3950.5617676  -999.250000 3.2500002384 -0.020762499 0.3486615121 2.5926320553 162.12500000 78.800003052 3.8035440445 163.27510071 6.3897929192
 3950.7141113  -999.250000 3.2500002384 -0.020762499 0.3486613929 2.5926320553 162.12500000 78.800003052 3.7917325497 163.39999390 6.3995976448
 3950.8666992  -999.250000 3.2500002384 -0.020762499 0.3486613035 2.5926320553 162.12500000 78.800003052 3.7957072258 163.40029907 6.3968300819
 3951.0190430  -999.250000 3.2500002384 -0.020762499 0.3486613035 2.5926320553 162.12500000 78.800003052 3.7976539135 163.64999390 6.4052166939
 3951.1713867  -999.250000 3.2500002384 -0.020762499 0.3486613035 2.5926320553 162.12500000 78.800003052 3.8039355278 163.14999390 6.3911790848
 3951.3237305  -999.250000 3.2500002384 -0.020762499 0.3486612141 2.5926320553 162.12500000 78.800003052 3.7937486172 163.27459717 6.3938388824
 3951.4760742  -999.250000 3.2500002384 -0.020762499 0.3486612141 2.5926320553 162.12500000 78.800003052 3.8078608513 162.77510071 6.4030780792
 3951.6286621  -999.250000 3.2500002384 -0.020762499 0.3486610949 2.5926320553 162.12500000 78.800003052 3.8095731735 162.89939880 6.4017271996
 3951.7810059  -999.250000 3.2500002384 -0.020762499 0.3486610949 2.5926320553 162.12500000 78.800003052 3.8027377129 162.52510071 6.3951582909
 3951.9333496  -999.250000 3.2500002384 -0.020762499 0.3486610949 2.5926320553 162.12500000 78.800003052 3.8074829578 162.77520752 6.4057388306
 3952.0856934  -999.250000 3.2500002384 -0.020762499 0.3486610055 2.5926320553 162.12500000 78.800003052 3.8092198372 163.14959717 6.4074783325
 3952.2382813  -999.250000 3.2500002384 -0.020762499 0.3486610055 2.5926320553 162.12500000 78.800003052 3.8054037094 162.77450562 6.4258847237
