# LAS format log file from PETREL
# Project units are specified as depth units
#==================================================================
~Version information
VERS.   2.0:
WRAP.   NO:
#==================================================================
~Well
STRT .m      2339.3889160 :
STOP .m      3955.4384766 :
STEP .m     0.00000000 :
NULL .        -999.250000 :
COMP.           : COMPANY
WELL.  34/8-6   : WELL
FLD.            : FIELD
LOC.            : LOCATION
SRVC.           : SERVICE COMPANY
DATE.  2018-09-11 14:48:53   : Log Export Date {yyyy-MM-dd HH:mm:ss}
PROV.           : PROVINCE
UWI.   34/8-6   : UNIQUE WELL ID
API.            : API NUMBER
#==================================================================
~Curve
DEPT .m                   : DEPTH
Lithology_geolink ._      : Lithology_geolink
CALI .in                  : CALI
DRHO .g/cm3               : DRHO
NPHI .m3/m3               : NPHI
RHOB .g/cm3               : RHOB
GR .gAPI                  : GR
DTC .us/ft                : DTC
RDEP .ohm.m               : RDEP
SP .mV                    : SP
RMED .ohm.m               : RMED
~Parameter
#==================================================================
~Ascii
# ...
 3517.1362305 6.0000000000 12.570309639 0.0007795967 0.3283999860 2.4128570557 158.99960327 110.70171356 2.4804263115 137.89999390 4.4269104004
 3517.2885742 6.0000000000 12.539070129 -0.000243065 0.3228293955 2.4090619087 158.75390625 111.70217133 2.4281327724 137.77510071 3.9611296654
 3517.4409180 6.0000000000 12.546859741 -0.004907493 0.3280175030 2.4015009403 160.61679077 112.30120087 2.3699402809 138.02499390 3.6349685192
 3517.5935059 6.0000000000 12.531279564 -0.002830085 0.3407275081 2.3995258808 157.26368713 112.79999542 2.2826559544 138.02470398 3.5338795185
 3517.7458496 6.0000000000 12.554690361 -0.005616326 0.3634960055 2.3923578262 160.37489319 112.80047607 2.2131147385 137.77499390 3.5378725529
 3517.8981934 6.0000000000 12.554690361 -0.007366705 0.3707945943 2.3935508728 160.38201904 113.10071564 2.1768889427 137.89999390 3.5599749088
 3518.0505371 6.0000000000 12.554719925 -0.008759832 0.3854564130 2.3996701241 164.00138855 113.30119324 2.1544978619 138.02529907 3.5549104214
 3518.2031250 6.0000000000 12.593741417 -0.005671925 0.3815110922 2.4021508694 164.62071228 113.79958344 2.1551423073 138.39959717 3.5526683331
 3518.3554688 6.0000000000 12.585940361 -0.004064879 0.3869873881 2.3990514278 163.61738586 113.70031738 2.1658163071 138.02510071 3.5577497482
 3518.5078125 6.0000000000 12.570309639 -0.005402214 0.3624601960 2.3943588734 158.74839783 113.89926147 2.1716105938 137.39990234 3.5407848358
 3518.6601563 6.0000000000 12.570329666 -0.006871871 0.3619638979 2.3910393715 157.88070679 113.49620819 2.1712687016 137.15040588 3.5657989979
 3518.8125000 6.0000000000 12.593759537 -0.007994542 0.3627046943 2.3936634064 160.50671387 112.49775696 2.1573319435 137.90060425 3.6707127094
 3518.9650879 6.0000000000 12.601551056 -0.008193938 0.3632768095 2.4070947170 163.12840271 111.60137177 2.1311619282 138.52450562 3.7494995594
 3519.1174316 6.0000000000 12.593750000 -0.008713841 0.3731380105 2.4353439808 163.87368774 111.89951324 2.1130707264 138.14999390 3.7005622387
 3519.2697754 6.0000000000 12.601559639 -0.007986851 0.3506020904 2.4433267117 163.12269592 111.60108185 2.1104137897 138.14979553 3.5653114319
 3519.4221191 6.0000000000 12.601559639 -0.005758143 0.3571217060 2.4399952888 162.00119019 111.89958191 2.1065003872 137.77479553 3.4396216869
 3519.5747070 6.0000000000 12.601559639 -0.003914398 0.3500890136 2.4253079891 162.47752380 111.69517517 2.0923509598 137.52589417 3.3409748077
 3519.7270508 6.0000000000 12.601559639 -0.003849390 0.3739382029 2.4349365234 157.37739563 110.59913635 2.0620365143 138.27499390 3.3397891521
 3519.8793945 6.0000000000 12.601559639 -0.000517397 0.3692776859 2.4377703667 158.74418640 110.00144196 1.9994387627 138.27499390 3.4467377663
 3520.0317383 6.0000000000 12.593741417 0.0004901145 0.3736627102 2.4441578388 155.74829102 110.40214539 1.9331707954 138.39959717 3.6339814663
 3520.1843262 6.0000000000 12.585940361 -0.001758902 0.3459798098 2.4253067970 154.99360657 111.30303192 1.8781572580 137.77470398 3.5126152039
 3520.3366699 6.0000000000 12.585940361 -0.001280925 0.3535650074 2.4249525070 153.49890137 112.00165558 1.8504846096 137.52499390 3.0741517544
 3520.4890137 6.0000000000 12.570309639 -0.001378108 0.3508374989 2.4235050678 152.63691711 113.10025787 1.8240227699 137.52499390 2.7207353115
 3520.6413574 6.0000000000 12.554699898 -0.001024229 0.3851152062 2.4348094463 159.24728394 113.20071411 1.7927081585 137.39999390 2.6513788700
 3520.7937012 6.0000000000 12.570280075 -0.002353274 0.3884527087 2.4350569248 157.99237061 113.39920807 1.7591414452 137.39999390 2.7680742741
 3520.9462891 6.0000000000 12.531250954 -0.000284398 0.3972418904 2.4362907410 154.97412109 113.10135651 1.7383294106 137.40020752 2.8878483772
 3521.0986328 6.0000000000 12.531250954 -0.000713263 0.3720557988 2.4318494797 149.24940491 113.40064240 1.7472119331 137.52499390 2.9060411453
 3521.2509766 7.0000000000 12.539059639 0.0012360450 0.3785906136 2.4353404045 148.88220215 113.79963684 1.7664504051 137.27499390 2.9006268978
 3521.4033203 7.0000000000 12.531240463 0.0033030710 0.3858132958 2.4379568100 152.37199402 113.70067596 1.7767332792 137.27490234 2.9661409855
 3521.5559082 7.0000000000 12.523460388 0.0033247799 0.3769637942 2.4377357960 151.12440491 113.99864960 1.7831546068 137.15119934 3.1113967896
 3521.7082520 7.0000000000 12.539059639 0.0013851330 0.3437955976 2.4316802025 151.00300598 113.69983673 1.7864235640 138.14990234 3.1684935093
 3521.8605957 7.0000000000 12.523441315 -0.001271697 0.3425494134 2.4267289639 152.87309265 113.60215759 1.7643443346 137.77499390 3.0552668571
 3522.0129395 7.0000000000 12.531270027 -0.000248392 0.3635393083 2.4261181355 151.87698364 114.19999695 1.7390167713 137.77490234 2.9273953438
 3522.1655273 7.0000000000 12.554690361 -0.002788616 0.3872872889 2.4268965721 152.72872925 114.20041656 1.7169202566 137.64999390 2.8328075409
 3522.3178711 7.0000000000 12.554690361 -0.001671631 0.3699711859 2.4274008274 147.74949646 114.30016327 1.6882848740 137.64999390 2.7848422527
 3522.4702148 7.0000000000 12.562500000 -0.002987855 0.3699387908 2.4302976131 146.87771606 114.40105438 1.6701068878 137.65039063 2.7087752819
 3522.6225586 7.0000000000 12.539079666 -0.003882757 0.3643032908 2.4300248623 148.38961792 115.00035858 1.6563364267 137.90049744 2.6217646599
 3522.7749023 7.0000000000 12.570320129 -0.004823199 0.3637039065 2.4355790615 155.13200378 115.10078430 1.6485641003 138.14970398 2.6136815548
 3522.9274902 7.0000000000 12.578160286 -0.005388780 0.3760387897 2.4261538982 157.87500000 115.40229797 1.6418504715 138.02391052 2.7277855873
 3523.0798340 7.0000000000 12.601559639 -0.004367587 0.3843604922 2.4220390320 157.86747742 115.90096283 1.6467065811 137.77539063 2.8273205757
 3523.2321777 7.0000000000 12.593750000 -0.004322202 0.3838905990 2.4101374149 153.37699890 116.50071716 1.6552011967 138.02499390 2.8570628166
 3523.3845215 7.0000000000 12.593759537 -0.000976467 0.3666453958 2.4072685242 154.37561035 116.69853973 1.6790226698 138.02499390 2.8444519043
 3523.5371094 7.0000000000 12.601559639 -0.002114862 0.3533253074 2.4101011753 154.63539124 116.09864044 1.6912961006 138.02499390 2.8406350613
 3523.6894531 7.0000000000 12.601559639 -0.001784523 0.3729633987 2.4166326523 157.00189209 115.79935455 1.6913435459 138.02499390 2.8584167957
 3523.8417969 7.0000000000 12.601559639 -0.002127185 0.3583996892 2.4196863174 158.24829102 115.39927673 1.6922864914 138.02589417 2.8912742138
 3523.9941406 7.0000000000 12.601539612 -0.000059900 0.3728209138 2.4273598194 157.37330627 115.20027161 1.6938691139 138.52391052 2.8908309937
 3524.1467285 7.0000000000 12.570291519 -0.000385022 0.3716785908 2.4302663803 156.63928223 115.29873657 1.6895581484 138.02868652 2.8540337086
 3524.2990723 7.0000000000 12.546879768 0.0015705790 0.3938237131 2.4322397709 159.99459839 114.99977875 1.6989616156 138.89999390 2.8178002834
 3524.4514160 7.0000000000 12.570309639 0.0016667870 0.3862924874 2.4285652637 156.99508667 114.79957581 1.7030469179 139.02389526 2.8242533207
 3524.6037598 7.0000000000 12.562500000 0.0023280680 0.3756996095 2.4250185490 154.23249817 114.59819794 1.7073525190 138.39891052 2.8450508118
 3524.7561035 7.0000000000 12.570219040 0.0018461969 0.3608781099 2.4172670841 146.13671875 114.10130310 1.7120454311 137.89970398 2.8892171383
 3524.9086914 7.0000000000 12.468729973 0.0030778570 0.3624576926 2.4098570347 150.77188110 114.59906006 1.7279065847 137.77670288 2.9299154282
 3525.0610352 7.0000000000 12.453130722 0.0055175750 0.3582889140 2.4192461967 155.64161682 114.40048218 1.7306121588 138.14999390 2.9758892059
 3525.2133789 7.0000000000 12.453130722 0.0060699550 0.3551661968 2.4373493195 165.63059998 114.69819641 1.7400895357 138.15100098 3.0033843517
 3525.3657227 7.0000000000 12.453130722 0.0066164932 0.3534708023 2.4424629211 168.36657715 114.20094299 1.7528929710 138.64819336 3.0309145451
 3525.5183105 7.0000000000 12.453130722 0.0024556869 0.3471902013 2.4243831635 164.85751343 114.60178375 1.7628414631 137.90049744 3.0116693974
