# LAS format log file from PETREL
# Project units are specified as depth units
#==================================================================
~Version information
VERS.   2.0:
WRAP.   NO:
#==================================================================
~Well
STRT .m      3213.0371094 :
STOP .m      5477.8535156 :
STEP .m     0.00000000 :
NULL .        -999.250000 :
COMP.           : COMPANY
WELL.  34/8-7   : WELL
FLD.            : FIELD
LOC.            : LOCATION
SRVC.           : SERVICE COMPANY
DATE.  2018-09-11 14:48:53   : Log Export Date {yyyy-MM-dd HH:mm:ss}
PROV.           : PROVINCE
UWI.   34/8-7   : UNIQUE WELL ID
API.            : API NUMBER
#==================================================================
~Curve
DEPT .m                   : DEPTH
Lithology_geolink ._      : Lithology_geolink
CALI .in                  : CALI
BS .in                    : BS
DRHO .g/cm3               : DRHO
NPHI .m3/m3               : NPHI
RHOB .g/cm3               : RHOB
GR .gAPI                  : GR
DTC .us/ft                : DTC
RDEP .ohm.m               : RDEP
SP .mV                    : SP
RSHA .ohm.m               : RSHA
RMED .ohm.m               : RMED
~Parameter
#==================================================================
~Ascii
# ...
 3966.5026855  -999.250000 14.258000374 8.5000000000 -0.005200000 0.1903100014 2.6340000629 41.902999878 80.978996277 4.3450798988 -77.29199982  -999.250000 4.6411619186
 3966.6552734  -999.250000 14.251000404 8.5000000000 -0.005700000 0.1949300021 2.6280000210 40.022998810 79.959777832 4.3943729401 -77.23600006  -999.250000 5.9934401512
 3966.8076172  -999.250000 14.250000000 8.5000000000 -0.004900000 0.2032600045 2.6189999580 38.816001892 78.291343689 4.1987128258 -77.13400269  -999.250000 7.6874523163
 3966.9599609  -999.250000 14.260998726 8.5000000000 -0.004500000 0.2127500027 2.6110000610 38.820999146 76.703285217 4.0199713707 -77.00000000  -999.250000 7.3426265717
 3967.1123047  -999.250000 14.267998695 8.5000000000 -0.007500000 0.2195899934 2.6070001125 39.465999603 79.178291321 4.0020270348 -76.85500336  -999.250000 5.2386746407
 3967.2648926  -999.250000 14.251000404 8.5000000000 -0.009200000 0.2203399986 2.6089999676 39.560001373 83.534133911 4.0190353394 -76.72499847  -999.250000 3.7886240482
 3967.4172363  -999.250000 14.204999924 8.5000000000 -0.005900000 0.2135799974 2.6180000305 38.625000000 82.681121826 4.0299615860 -76.63300323  -999.250000 3.3605208397
 3967.5695801  -999.250000 14.161000252 8.5000000000 -0.000900000 0.2006199956 2.6319999695 37.463001251 77.530487061 4.0058813095 -76.59700012  -999.250000 3.6863718033
 3967.7219238  -999.250000 14.142999649 8.5000000000 0.0013000000 0.1849299967 2.6459999084 36.984001160 71.880584717 3.9318587780 -76.62000275  -999.250000 4.5421328545
 3967.8745117  -999.250000 14.185998917 8.5000000000 0.0003000000 0.1706400067 2.6559998989 37.117000580 67.359680176 3.8436641693 -76.69499969  -999.250000 5.2493600845
 3968.0268555  -999.250000 14.140999794 8.5000000000 -0.002600000 0.1610900015 2.6600000858 37.492000580 66.371429443 3.7388734818 -76.79900360  -999.250000 5.6736202240
 3968.1791992  -999.250000 13.956000328 8.5000000000 -0.004800000 0.1580000073 2.6570000648 38.396999359 70.293785095 3.6599793434 -76.91000366  -999.250000 6.0600848198
 3968.3315430  -999.250000 13.854000092 8.5000000000 -0.005100000 0.1612900048 2.6480000019 40.294998169 75.298545837 3.6468863487 -77.01799774  -999.250000 6.1113877296
 3968.4838867  -999.250000 13.847999573 8.5000000000 -0.006100000 0.1692699939 2.6370000839 43.027999878 76.894104004 3.5757915974 -77.12599945  -999.250000 5.1047916412
 3968.6364746  -999.250000 13.848999977 8.5000000000 -0.009000000 0.1792600006 2.6259999275 45.786998749 76.787704468 3.4458465576 -77.24600220  -999.250000 3.7280657291
 3968.7888184  -999.250000 13.850000381 8.5000000000 -0.013100000 0.1883600056 2.6189999580 47.682998657 77.276580811 3.3979341984 -77.38500214  -999.250000 3.4376635551
 3968.9411621  -999.250000 13.845999718 8.5000000000 -0.013900000 0.1943999976 2.6159999371 48.362998962 77.745643616 3.3569054604 -77.53800201  -999.250000 3.8513174057
 3969.0935059  -999.250000 13.817000389 8.5000000000 -0.011100000 0.1966200024 2.6180000305 47.974998474 77.702201843 3.2980866432 -77.68900299  -999.250000 4.0494375229
 3969.2460938  -999.250000 13.717000008 8.5000000000 -0.007900000 0.1956699938 2.6250000000 46.860000610 77.598953247 3.3525567055 -77.80999756  -999.250000 4.3238592148
 3969.3984375  -999.250000 13.512000084 8.5000000000 -0.003700000 0.1930499971 2.6329998970 45.532001495 77.530448914 3.5264246464 -77.87500000  -999.250000 4.9036407471
 3969.5507813  -999.250000 13.336000443 8.5000000000 0.0006000000 0.1902700067 2.6410000324 44.407001495 76.864463806 3.7915174961 -77.86299896  -999.250000 5.3030896187
 3969.7031250  -999.250000 13.288999557 8.5000000000 0.0013000000 0.1879699975 2.6459999084 43.505001068 75.621200562 4.1144471169 -77.77100372  -999.250000 5.3587484360
 3969.8557129  -999.250000 13.288999557 8.5000000000 -0.000900000 0.1857900023 2.6480000019 42.866001129 74.992530823 4.3937487602 -77.61000061  -999.250000 5.2027873993
 3970.0080566  -999.250000 13.288999557 8.5000000000 -0.003200000 0.1829400063 2.6480000019 42.805000305 75.041427612 4.6272850037 -77.40599823  -999.250000 5.4495768547
 3970.1604004  -999.250000 13.288999557 8.5000000000 -0.004600000 0.1789299995 2.6470000744 43.474998474 75.277877808 4.8052015305 -77.19499969  -999.250000 6.4334120750
 3970.3127441  -999.250000 13.288999557 8.5000000000 -0.004600000 0.1739600003 2.6459999084 44.437999725 75.429130554 4.9313335419 -77.01799774  -999.250000 7.3135128021
 3970.4650879  -999.250000 13.288999557 8.5000000000 -0.003800000 0.1689299941 2.6440000534 44.902000427 75.418960571 5.1395077705 -76.90599823  -999.250000 7.6332707405
 3970.6176758  -999.250000 13.310000420 8.5000000000 -0.003800000 0.1651100069 2.6429998875 44.458000183 75.311119080 5.4567551613 -76.86699677  -999.250000 7.8030176163
 3970.7700195  -999.250000 13.359999657 8.5000000000 -0.004300000 0.1635300070 2.6410000324 43.429000854 75.225982666 5.6920881271 -76.87899780  -999.250000 8.1204786301
 3970.9223633  -999.250000 13.367999077 8.5000000000 -0.004700000 0.1644800007 2.6389999390 42.508998871 75.509208679 5.7469263077 -76.91400146  -999.250000 8.4189004898
 3971.0747070  -999.250000 13.322999954 8.5000000000 -0.005500000 0.1673700064 2.6359999180 42.320999146 76.472999573 5.7008767128 -76.94300079  -999.250000 8.3560705185
 3971.2272949  -999.250000 13.291000366 8.5000000000 -0.006600000 0.1710599959 2.6340000629 43.248001099 77.347778320 5.6235966682 -76.95600128  -999.250000 7.7737774849
 3971.3796387  -999.250000 13.284999847 8.5000000000 -0.007600000 0.1744700074 2.6329998970 45.250999451 77.276374817 5.4977149963 -76.96099854  -999.250000 6.7687950134
 3971.5319824  -999.250000 13.288000107 8.5000000000 -0.008300000 0.1769499928 2.6340000629 47.682998657 77.141761780 5.3197660446 -76.97200012  -999.250000 6.0181841850
 3971.6843262  -999.250000 13.288999557 8.5000000000 -0.007800000 0.1782899946 2.6349999905 49.483001709 77.378929138 5.1739230156 -77.00099945  -999.250000 6.1336936951
 3971.8369141  -999.250000 13.288999557 8.5000000000 -0.006500000 0.1783999950 2.6359999180 49.770000458 77.587944031 5.1260671616 -77.04299927  -999.250000 6.5665760040
 3971.9892578  -999.250000 13.285999298 8.5000000000 -0.004900000 0.1771000028 2.6380000114 48.490001678 77.609718323 5.1471939087 -77.07900238  -999.250000 6.7461504936
 3972.1416016  -999.250000 13.269001007 8.5000000000 -0.002400000 0.1741899997 2.6380000114 46.376998901 76.976432800 5.2683720589 -77.08499908  -999.250000 6.8405675888
 3972.2939453  -999.250000 13.217000008 8.5000000000 -0.000100000 0.1697899997 2.6370000839 44.256999969 76.396629333 5.5002965927 -77.04299927  -999.250000 7.1947579384
 3972.4462891  -999.250000 13.163000107 8.5000000000 0.0001000000 0.1644899994 2.6359999180 42.546001434 75.992813110 5.6851010323 -76.94899750  -999.250000 7.6673378944
 3972.5988770  -999.250000 13.118999481 8.5000000000 0.0000000000 0.1593900025 2.6349999905 41.199001312 75.091522217 5.7480707169 -76.80699921  -999.250000 7.8779325485
 3972.7512207  -999.250000 13.058000565 8.5000000000 -0.000500000 0.1556899995 2.6340000629 39.974998474 74.511825562 5.7700672150 -76.63099670  -999.250000 7.8568491936
 3972.9035645  -999.250000 13.016999245 8.5000000000 -0.003500000 0.1543200016 2.6329998970 38.765998840 74.481605530 5.8120141029 -76.43800354  -999.250000 7.7627563477
 3973.0559082  -999.250000 12.996999741 8.5000000000 -0.005900000 0.1554799974 2.6310000420 37.655998230 74.616470337 5.8209280968 -76.25000000  -999.250000 7.6110415459
 3973.2084961  -999.250000 12.942000389 8.5000000000 -0.006800000 0.1585199982 2.6289999485 36.902000427 74.605453491 5.7759137154 -76.08599854  -999.250000 7.6376786232
 3973.3608398  -999.250000 12.878000259 8.5000000000 -0.008300000 0.1620800048 2.6270000935 36.978000641 74.196487427 5.7490305901 -75.96399689  -999.250000 7.8490142822
 3973.5131836  -999.250000 12.859000206 8.5000000000 -0.008300000 0.1647299975 2.6250000000 38.096000671 74.041687012 5.7681202888 -75.89399719  -999.250000 7.8574771881
 3973.6655273  -999.250000 12.862000465 8.5000000000 -0.007300000 0.1654800028 2.6229999065 39.631000519 74.273422241 5.8432002068 -75.87000275  -999.250000 7.5310835838
