# LAS format log file from PETREL
# Project units are specified as depth units
#==================================================================
~Version information
VERS.   2.0:
WRAP.   NO:
#==================================================================
~Well
STRT .m      3213.0371094 :
STOP .m      5477.8535156 :
STEP .m     0.00000000 :
NULL .        -999.250000 :
COMP.           : COMPANY
WELL.  34/8-7   : WELL
FLD.            : FIELD
LOC.            : LOCATION
SRVC.           : SERVICE COMPANY
DATE.  2018-09-11 14:48:53   : Log Export Date {yyyy-MM-dd HH:mm:ss}
PROV.           : PROVINCE
UWI.   34/8-7   : UNIQUE WELL ID
API.            : API NUMBER
#==================================================================
~Curve
DEPT .m                   : DEPTH
Lithology_geolink ._      : Lithology_geolink
CALI .in                  : CALI
BS .in                    : BS
DRHO .g/cm3               : DRHO
NPHI .m3/m3               : NPHI
RHOB .g/cm3               : RHOB
GR .gAPI                  : GR
DTC .us/ft                : DTC
RDEP .ohm.m               : RDEP
SP .mV                    : SP
RSHA .ohm.m               : RSHA
RMED .ohm.m               : RMED
~Parameter
#==================================================================
~Ascii
# ...
 5019.8916016 5.0000000000 12.022999763 8.5000000000 -0.006700000 0.2020599991 2.6740000248 62.566001892 73.430816650 10.562000275 -171.4519958 19.090000153 10.501999855
 5020.0439453 5.0000000000 12.022999763 8.5000000000 -0.004100000 0.2023900002 2.6770000458 61.668998718 73.080398560 11.244999886 -171.5820007 19.086000443 11.182000160
 5020.1962891 5.0000000000 12.010000229 8.5000000000 -0.000200000 0.2034399956 2.6809999943 61.256000519 72.387168884 11.178000450 -171.7169952 19.068000793 11.131999969
 5020.3486328 5.0000000000 11.975000381 8.5000000000 0.0043000001 0.2049800009 2.6840000153 60.828998566 72.169784546 9.9860000610 -171.8500061 18.493000031 9.9709997177
 5020.5009766 5.0000000000 11.942000389 8.5000000000 0.0070000002 0.2065999955 2.6860001087 60.540000916 72.779083252 8.8990001678 -171.9649963 16.027000427 8.8420000076
 5020.6538086 5.0000000000 11.935000420 8.5000000000 0.0071000000 0.2079399973 2.6860001087 61.145999908 74.072189331 8.7980003357 -172.0379944 13.932000160 8.6870002747
 5020.8061523 5.0000000000 11.937000275 8.5000000000 0.0052000000 0.2089799941 2.6840000153 62.981998444 74.992858887 8.4099998474 -172.0410004 12.519000053 8.3339996338
 5020.9584961 5.0000000000 11.932999611 8.5000000000 0.0015000000 0.2099699974 2.6819999218 65.281997681 75.044235229 7.2630000114 -171.9589996 10.427000046 7.2319998741
 5021.1108398 5.0000000000 11.930000305 8.5000000000 -0.002700000 0.2111400068 2.6809999943 66.803001404 74.528343201 6.4569997787 -171.7960052 9.4910001755 6.4720001221
 5021.2631836 5.0000000000 11.930000305 8.5000000000 -0.004400000 0.2125300020 2.6819999218 67.092002869 73.783912659 6.2329998016 -171.5740051 9.4309997559 6.2779998779
 5021.4155273 5.0000000000 11.930000305 8.5000000000 -0.002800000 0.2139099985 2.6849999428 67.008003235 73.703903198 6.2030000687 -171.3300018 9.6549997330 6.2620000839
 5021.5678711 6.0000000000 11.930000305 8.5000000000 -0.000200000 0.2150000036 2.6900000572 67.843002319 74.787887573 6.2189998627 -171.1009979 10.166000366 6.2789998055
 5021.7202148 6.0000000000 11.930000305 8.5000000000 0.0024999999 0.2156299949 2.6940000057 69.893997192 76.534774780 6.4819998741 -170.9210052 10.748999596 6.5390000343
 5021.8730469 6.0000000000 11.930000305 8.5000000000 0.0052000000 0.2158800066 2.6960000992 72.061996460 77.896568298 6.9130001068 -170.8159943 11.154000282 6.9689998627
 5022.0253906 6.0000000000 11.930000305 8.5000000000 0.0057999999 0.2159499973 2.6949999332 72.977996826 78.477409363 7.2800002098 -170.7830048 11.312000275 7.3390002251
 5022.1777344 6.0000000000 11.930000305 8.5000000000 0.0031999999 0.2160699964 2.6919999123 72.483001709 78.593261719 7.6389999390 -170.7989960 11.302000046 7.6950001717
 5022.3300781 6.0000000000 11.932000160 8.5000000000 0.0000000000 0.2164099962 2.6860001087 71.786003113 78.241668701 7.8949999809 -170.8379974 11.196999550 7.9320001602
 5022.4824219 6.0000000000 11.944000244 8.5000000000 -0.001700000 0.2170500010 2.6789999008 72.097999573 77.852104187 7.9699997902 -170.8979950 10.951999664 7.9879999161
 5022.6347656 6.0000000000 11.972000122 8.5000000000 -0.002000000 0.2180600017 2.6740000248 73.295997620 77.741584778 7.9710001945 -170.9960022 10.590999603 7.9710001945
 5022.7871094 6.0000000000 12.036999702 8.5000000000 -0.000600000 0.2194100022 2.6689999104 74.250000000 77.296951294 7.9670000076 -171.1529999 17.048999786 7.9629998207
 5022.9394531 6.0000000000 12.121999741 8.5000000000 0.0023000001 0.2208700031 2.6670000553 74.403999329 76.486694336 7.9050002098 -171.3679962 21.872999191 7.9149999619
 5023.0917969 6.0000000000 12.181999207 8.5000000000 0.0044000000 0.2220200002 2.6659998894 74.459999084 75.587089539 7.5180001259 -171.6000061 16.469999313 7.5370001793
 5023.2446289 6.0000000000 12.185999870 8.5000000000 0.0041999999 0.2223600000 2.6649999619 75.291000366 75.161598206 6.8359999657 -171.7859955 11.006999969 6.8270001411
 5023.3969727 6.0000000000 12.190999985 8.5000000000 0.0027999999 0.2215700001 2.6649999619 76.694999695 76.060173035 6.2639999390 -171.8650055 8.3070001602 6.2090001106
 5023.5493164 6.0000000000 12.258000374 8.5000000000 0.0019000000 0.2195899934 2.6649999619 77.680999756 77.444221497 5.8969998360 -171.8130035 8.0190000534 5.8200001717
 5023.7016602 6.0000000000 12.333000183 8.5000000000 0.0015000000 0.2166900039 2.6649999619 77.677001953 78.217590332 5.6649999619 -171.6620026 8.9770002365 5.5770001411
 5023.8540039 6.0000000000 12.375999451 8.5000000000 0.0004000000 0.2132800072 2.6659998894 77.058998108 78.455299377 5.6830000877 -171.4770050 9.1960000992 5.5669999123
 5024.0063477 6.0000000000 12.388999939 8.5000000000 0.0001000000 0.2097699940 2.6670000553 76.557998657 78.284591675 6.0409998894 -171.3150024 8.8629999161 5.8730001450
 5024.1586914 6.0000000000 12.390999794 8.5000000000 0.0017000000 0.2064799964 2.6689999104 76.502998352 77.639495850 6.7360000610 -171.1999969 8.8179998398 6.5659999847
 5024.3110352 6.0000000000 12.390999794 8.5000000000 0.0029000000 0.2036100030 2.6710000038 76.671997070 76.880996704 8.0010004044 -171.1119995 8.9309997559 7.8579998016
 5024.4633789 6.0000000000 12.390999794 8.5000000000 0.0027999999 0.2012100071 2.6740000248 76.491996765 76.327186584 9.0920000076 -171.0050049 8.9940004349 8.9429998398
 5024.6162109 6.0000000000 12.390999794 8.5000000000 0.0031999999 0.1991900057 2.6760001183 75.272003174 75.785087585 9.0679998398 -170.8289948 9.0120000839 8.9010000229
 5024.7685547 5.0000000000 12.390999794 8.5000000000 0.0035000001 0.1973900050 2.6770000458 72.571998596 75.004867554 8.6940002441 -170.5740051 9.0260000229 8.5010004044
 5024.9208984 5.0000000000 12.411000252 8.5000000000 0.0027999999 0.1956599951 2.6779999733 68.727996826 73.959510803 8.6389999390 -170.2660065 9.1540002823 8.4230003357
 5025.0732422 5.0000000000 12.474999428 8.5000000000 0.0030000000 0.1940000057 2.6770000458 64.919998169 73.001037598 8.6929998398 -169.9519958 9.8789997101 8.4619998932
 5025.2255859 5.0000000000 12.465000153 8.5000000000 0.0041999999 0.1925400048 2.6749999523 62.550998688 72.804908752 8.7119998932 -169.6549988 12.095000267 8.4739999771
 5025.3779297 5.0000000000 12.223999977 8.5000000000 0.0046000001 0.1914799958 2.6730000973 62.369998932 73.325172424 8.7080001831 -169.3589935 13.807000160 8.4759998322
 5025.5302734 5.0000000000 11.975999832 8.5000000000 0.0040000002 0.1910099983 2.6719999313 64.003997803 74.199768066 8.7040004730 -169.0189972 13.810000420 8.4790000916
 5025.6826172 5.0000000000 11.982999802 8.5000000000 0.0037000000 0.1911700070 2.6730000973 66.277999878 75.041831970 8.7080001831 -168.5890045 12.472000122 8.4759998322
 5025.8354492 5.0000000000 12.095000267 8.5000000000 0.0035000001 0.1917899996 2.6749999523 67.947998047 75.257835388 8.8730001450 -168.0509949 11.001000404 8.6079998016
 5025.9877930 5.0000000000 12.142999649 8.5000000000 0.0031999999 0.1925600022 2.6779999733 68.327003479 75.046554565 9.3950004578 -167.4140015 11.050000191 9.0970001221
 5026.1401367 5.0000000000 12.147998810 8.5000000000 0.0031000001 0.1931100041 2.6809999943 67.471000671 74.649269104 9.8219995499 -166.7070007 11.373999596 9.5310001373
 5026.2924805 5.0000000000 12.147998810 8.5000000000 0.0040000002 0.1931300014 2.6830000877 65.984001160 74.182960510 9.6140003204 -165.9649963 11.420000076 9.4739999771
 5026.4448242 5.0000000000 12.147998810 8.5000000000 0.0055000000 0.1925500035 2.6840000153 64.601997375 73.973617554 8.6059999466 -165.2180023 11.428000450 8.6280002594
 5026.5971680 5.0000000000 12.147998810 8.5000000000 0.0060999999 0.1915999949 2.6840000153 63.771999359 74.130393982 7.3169999123 -164.5000000 11.451000214 7.3309998512
 5026.7495117 5.0000000000 12.147998810 8.5000000000 0.0052000000 0.1908300072 2.6849999428 63.439998627 74.460884094 6.6100001335 -163.8509979 11.491999626 6.5650000572
 5026.9018555 5.0000000000 12.147998810 8.5000000000 0.0044000000 0.1907899976 2.6849999428 63.173000336 74.803039551 6.4359998703 -163.3119965 11.543999672 6.3610000610
 5027.0541992 5.0000000000 12.147998810 8.5000000000 0.0043000001 0.1917500049 2.6849999428 62.679000854 74.732933044 6.3979997635 -162.9069977 11.595999718 6.3169999123
