# LAS format log file from PETREL
# Project units are specified as depth units
#==================================================================
~Version information
VERS.   2.0:
WRAP.   NO:
#==================================================================
~Well
STRT .m      2339.3889160 :
STOP .m      3955.4384766 :
STEP .m     0.00000000 :
NULL .        -999.250000 :
COMP.           : COMPANY
WELL.  34/8-6   : WELL
FLD.            : FIELD
LOC.            : LOCATION
SRVC.           : SERVICE COMPANY
DATE.  2018-09-11 14:48:53   : Log Export Date {yyyy-MM-dd HH:mm:ss}
PROV.           : PROVINCE
UWI.   34/8-6   : UNIQUE WELL ID
API.            : API NUMBER
#==================================================================
~Curve
DEPT .m                   : DEPTH
Lithology_geolink ._      : Lithology_geolink
CALI .in                  : CALI
DRHO .g/cm3               : DRHO
NPHI .m3/m3               : NPHI
RHOB .g/cm3               : RHOB
GR .gAPI                  : GR
DTC .us/ft                : DTC
RDEP .ohm.m               : RDEP
SP .mV                    : SP
RMED .ohm.m               : RMED
~Parameter
#==================================================================
~Ascii
# ...
 3303.7761230  -999.250000 13.031250000 -0.003106911 0.2732050121 2.5745379925 89.935066223 85.800468445 1.9676630497 133.77510071 2.6803479195
 3303.9284668  -999.250000 13.031250000 0.0014394080 0.2552790940 2.6084580421 86.877548218 86.399978638 1.9501099586 133.90069580 2.7351109982
 3304.0808105  -999.250000 13.031250000 0.0010909840 0.2600286901 2.6157660484 89.060302734 86.403686523 1.9362690449 134.52600098 2.4931969643
 3304.2331543  -999.250000 13.031250000 -0.001143851 0.2523384988 2.5865628719 87.634971619 88.802436829 1.9166840315 135.15020752 2.3926839828
 3304.3857422  -999.250000 13.031250000 -0.006359505 0.2604891062 2.5444860458 92.874237061 89.500579834 1.9039800167 135.27549744 2.3157761097
 3304.5380859  -999.250000 13.031250000 -0.001178799 0.2670311928 2.5343770981 91.752792358 90.400306702 1.8973449469 136.02340698 2.2691578865
 3304.6904297  -999.250000 13.031250000 -0.002205518 0.2649812996 2.5326659679 94.438819885 90.700706482 1.8747210503 134.52450562 2.2862319946
 3304.8427734  -999.250000 13.031250000 0.0004421917 0.2642934918 2.5357089043 95.380332947 91.200538635 1.8346940279 134.15089417 2.3336141109
 3304.9953613  -999.250000 13.031319618 0.0021101560 0.2734459937 2.5397510529 98.379287720 91.500755310 1.8098839521 134.65049744 2.3742671013
 3305.1477051  -999.250000 13.062527657 0.0031755851 0.3023462892 2.5390989780 100.37470245 91.700469971 1.7922600508 134.89999390 2.3829069138
 3305.3000488  -999.250000 13.093799591 -0.001426852 0.3275758922 2.5326719284 100.00620270 92.200271606 1.7912119627 134.90029907 2.3633460999
 3305.4523926  -999.250000 13.132839203 -0.002524556 0.3234525025 2.5240530968 104.87239838 92.400192261 1.7896920443 135.14830017 2.3568830490
 3305.6049805  -999.250000 13.148451805 -0.003363792 0.3035948873 2.5211789608 103.31210327 92.499656677 1.7853920460 134.15029907 2.3447420597
 3305.7573242  -999.250000 13.156270027 -0.008053898 0.2727265954 2.5146379471 103.12259674 92.400138855 1.7908550501 134.27540588 2.3106019497
 3305.9096680  -999.250000 13.179689407 -0.007520087 0.2735170126 2.5186018944 100.05970001 92.599876404 1.7933590412 134.77510071 2.2602229118
 3306.0620117  -999.250000 13.179689407 -0.005055203 0.2837862074 2.5217590332 97.618423462 92.499389648 1.8073519468 134.90020752 2.2542369366
 3306.2145996  -999.250000 13.179689407 -0.003893499 0.2843923867 2.5247418880 93.309066772 92.099296570 1.8255319595 135.02569580 2.2662379742
 3306.3669434  -999.250000 13.179689407 -0.003673652 0.2878875136 2.5301029682 91.500747681 91.899467468 1.8308520317 135.39920044 2.3065700531
 3306.5192871  -999.250000 13.179689407 -0.000938981 0.2824889123 2.5373630524 92.628028870 91.099800110 1.8208440542 134.27439880 2.3742549419
 3306.6716309  -999.250000 13.179689407 0.0011125390 0.2808505893 2.5466148853 95.556549072 90.900001526 1.8061950207 133.65100098 2.4402010441
 3306.8239746  -999.250000 13.179689407 0.0010853730 0.2838352919 2.5536310673 91.313049316 90.900169373 1.7922589779 134.40150452 2.4582660198
 3306.9765625  -999.250000 13.179689407 0.0024465311 0.2838669121 2.5558729172 91.622726440 91.001113892 1.7829329967 135.27499390 2.4286329746
 3307.1289063  -999.250000 13.179689407 0.0014124330 0.2854869068 2.5536079407 90.569290161 91.300079346 1.7820500135 135.27529907 2.3817729950
 3307.2812500  -999.250000 13.179731369 -0.001701367 0.2627427876 2.5413749218 98.065368652 91.399986267 1.7818980217 135.65010071 2.3209130764
 3307.4335938  -999.250000 13.210949898 -0.003205829 0.2601464987 2.5388309956 100.31680298 91.400009155 1.7751280069 135.77209473 2.2572391033
 3307.5861816  -999.250000 13.218770027 -0.003597958 0.2634733021 2.5382027626 102.93029785 91.398902893 1.7694530487 134.02400208 2.2360420227
 3307.7385254  -999.250000 13.226618767 -0.002731162 0.2659221888 2.5447869301 99.376167297 91.099868774 1.7587460279 133.52549744 2.3388540745
 3307.8908691  -999.250000 13.296879768 -0.002295362 0.2613669932 2.5464909077 100.87670135 90.899932861 1.7589230537 134.15060425 2.3949830532
 3308.0432129  -999.250000 13.296879768 -0.001972679 0.2581478059 2.5445590019 102.37259674 90.799850464 1.7741049528 134.65040588 2.3939380646
 3308.1958008  -999.250000 13.296891212 -0.001784009 0.2635275126 2.5386319160 100.80809784 90.698265076 1.8035329580 134.90049744 2.3939599991
 3308.3481445  -999.250000 13.304700851 -0.004396322 0.2719438970 2.5289990902 98.497802734 90.199111938 1.8556760550 135.14990234 2.4054980278
 3308.5004883  -999.250000 13.328140259 -0.005493295 0.2613129914 2.5274128914 95.124618530 89.800003052 1.8913429976 135.02470398 2.4219450951
 3308.6528320  -999.250000 13.343730927 -0.004803228 0.2544643879 2.5280349255 94.750076294 89.799552917 1.9130480289 134.77529907 2.4459939003
 3308.8051758  -999.250000 13.328149796 -0.002317408 0.2418586016 2.5394420624 94.811401367 89.500892639 1.9292169809 135.02589417 2.4873499870
 3308.9577637  -999.250000 13.343730927 -0.003857718 0.2508392930 2.5412499905 94.184173584 90.001136780 1.9254930019 135.52389526 2.5124011040
 3309.1101074  -999.250000 13.335921288 -0.003070093 0.2543238103 2.5493450165 92.622467041 90.300254822 1.9321049452 135.02459717 2.5258450508
 3309.2624512  -999.250000 13.320369720 -0.005035240 0.2619960904 2.5429069996 89.812026978 90.600112915 1.9233289957 134.52529907 2.5221319199
 3309.4147949  -999.250000 13.367190361 -0.005386190 0.2640681863 2.5395450592 89.440666199 90.700500488 1.8515119553 134.77619934 2.5008170605
 3309.5673828  -999.250000 13.367110252 -0.010056820 0.2656291127 2.5295100212 91.377502441 91.000030518 1.7721480131 135.52369690 2.4412369728
 3309.7197266  -999.250000 13.328140259 -0.012360980 0.2683781981 2.5239109993 92.624572754 90.999763489 1.7698069811 134.90020752 2.3972439766
 3309.8720703  -999.250000 13.351559639 -0.013972480 0.2691220045 2.5256640911 92.062713623 90.700119019 1.7704590559 135.15100098 2.3752601147
 3310.0244141  -999.250000 13.351590157 -0.015978070 0.2660618126 2.5261940956 92.252830505 90.799537659 1.7704490423 136.02439880 2.3620231152
 3310.1770020  -999.250000 13.367190361 -0.019299570 0.2684493959 2.5289669037 94.130867004 90.499977112 1.7710839510 135.64790344 2.3917670250
 3310.3293457  -999.250000 13.367190361 -0.013595960 0.2779718935 2.5384340286 97.250160217 90.500251770 1.7704730034 134.52470398 2.4129118919
 3310.4816895  -999.250000 13.367190361 -0.011966270 0.3060890138 2.5380010605 97.499557495 90.599700928 1.7745549679 134.02560425 2.4390358925
 3310.6340332  -999.250000 13.367139816 -0.012525900 0.3195317984 2.5367450714 97.054710388 90.300170898 1.7824200392 134.65089417 2.4484450817
 3310.7863770  -999.250000 13.335921288 -0.007866669 0.3132861853 2.5428729057 91.441223145 90.399833679 1.7972539663 135.27499390 2.4505639076
 3310.9389648  -999.250000 13.328109741 -0.004818929 0.2827349007 2.5444588661 93.567932129 90.300758362 1.8147250414 135.27580261 2.4494071007
 3311.0913086  -999.250000 13.320329666 -0.010604599 0.2795087993 2.5289099216 96.129447937 90.499992371 1.8165129423 135.64900208 2.4495370388
 3311.2436523  -999.250000 13.336070061 -0.009770949 0.2803375125 2.5282330513 101.12429810 90.499992371 1.8240180016 134.52470398 2.4517168999
 3311.3959961  -999.250000 13.437500000 -0.006910303 0.3000023067 2.5370020866 100.55909729 90.500503540 1.8348519802 134.27679443 2.4447619915
 3311.5485840  -999.250000 13.437560081 -0.011719360 0.2773289979 2.5343658924 98.494392395 90.799636841 1.8470079899 135.39950562 2.4321599007
 3311.7009277  -999.250000 13.468750954 -0.010682840 0.2737438083 2.5291800499 95.685348511 90.700317383 1.8447389603 135.15029907 2.4343140125
 3311.8532715  -999.250000 13.468750954 -0.008917103 0.2515183091 2.5276660919 92.874717712 91.100227356 1.8289289474 135.52510071 2.4332890511
 3312.0056152  -999.250000 13.468750954 -0.009816987 0.2748445868 2.5384609699 92.628936768 91.299865723 1.8023530245 135.64900208 2.4252970219
 3312.1582031  -999.250000 13.468750954 -0.008727442 0.2708410025 2.5338997841 95.258056641 91.199668884 1.7700649500 135.02450562 2.4083609581
