# LAS format log file from PETREL
# Project units are specified as depth units
#==================================================================
~Version information
VERS.   2.0:
WRAP.   NO:
#==================================================================
~Well
STRT .m      3213.0371094 :
STOP .m      5477.8535156 :
STEP .m     0.00000000 :
NULL .        -999.250000 :
COMP.           : COMPANY
WELL.  34/8-7   : WELL
FLD.            : FIELD
LOC.            : LOCATION
SRVC.           : SERVICE COMPANY
DATE.  2018-09-11 14:48:53   : Log Export Date {yyyy-MM-dd HH:mm:ss}
PROV.           : PROVINCE
UWI.   34/8-7   : UNIQUE WELL ID
API.            : API NUMBER
#==================================================================
~Curve
DEPT .m                   : DEPTH
Lithology_geolink ._      : Lithology_geolink
CALI .in                  : CALI
BS .in                    : BS
DRHO .g/cm3               : DRHO
NPHI .m3/m3               : NPHI
RHOB .g/cm3               : RHOB
GR .gAPI                  : GR
DTC .us/ft                : DTC
RDEP .ohm.m               : RDEP
SP .mV                    : SP
RSHA .ohm.m               : RSHA
RMED .ohm.m               : RMED
~Parameter
#==================================================================
~Ascii
# ...
 4120.1220703  -999.250000 11.128000259 8.5000000000 0.0071999999 0.1264500022 2.6370000839 29.697999954 68.038566589 4.8307080269 -79.15000153  -999.250000 9.0184965134
 4120.2744141  -999.250000 11.109000206 8.5000000000 0.0077999998 0.1371600032 2.6380000114 33.404998779 65.199516296 5.0516829491 -79.12799835  -999.250000 7.0261278152
 4120.4267578  -999.250000 11.050001144 8.5000000000 0.0100999996 0.1443700045 2.6410000324 35.266998291 63.325786591 5.2642426491 -79.04299927  -999.250000 16.442220688
 4120.5791016  -999.250000 11.008999825 8.5000000000 0.0115000000 0.1451500058 2.6429998875 34.766998291 62.190616608 5.3400001526 -78.90799713  -999.250000 30.863000870
 4120.7314453  -999.250000 10.988999367 8.5000000000 0.0098000001 0.1391900033 2.6449999809 33.727001190 60.838119507 5.3509998322 -78.75399780  -999.250000 35.297000885
 4120.8837891  -999.250000 10.937000275 8.5000000000 0.0077000000 0.1294099987 2.6459999084 33.958999634 60.091171265 5.3090000153 -78.62100220  -999.250000 34.348999023
 4121.0366211  -999.250000 10.873999596 8.5000000000 0.0077000000 0.1208000034 2.6449999809 35.046001434 59.819126129 5.4297404289 -78.53800201  -999.250000 27.673292160
 4121.1889648  -999.250000 10.852998734 8.5000000000 0.0083999997 0.1179199964 2.6419999599 35.494998932 60.623672485 5.6598587036 -78.51999664  -999.250000 15.921512604
 4121.3413086  -999.250000 10.852000237 8.5000000000 0.0088000000 0.1225399971 2.6389999390 35.146999359 62.821712494 5.6153912544 -78.56700134  -999.250000 8.2996120453
 4121.4936523  -999.250000 10.862000465 8.5000000000 0.0107000005 0.1330900043 2.6370000839 34.978000641 64.926780701 5.4255900383 -78.66300201  -999.250000 6.3116765022
 4121.6459961  -999.250000 10.885999680 8.5000000000 0.0154999997 0.1459300071 2.6340000629 35.339000702 67.477066040 5.2974629402 -78.78700256  -999.250000 5.8987603188
 4121.7983398  -999.250000 10.902999878 8.5000000000 0.0192000009 0.1574900001 2.6319999695 36.047000885 68.819435120 5.1300001144 -78.91400146  -999.250000 5.5120000839
 4121.9506836  -999.250000 10.903999329 8.5000000000 0.0223999992 0.1655299962 2.6310000420 37.574001312 66.796127319 4.9010000229 -79.02899933  -999.250000 5.3909997940
 4122.1030273  -999.250000 10.923999786 8.5000000000 0.0266999993 0.1693499982 2.6300001144 40.576000214 64.760459900 4.7379999161 -79.12200165  -999.250000 6.0640001297
 4122.2553711  -999.250000 10.968000412 8.5000000000 0.0263000000 0.1693899930 2.6300001144 44.652999878 64.378562927 4.6929998398 -79.19000244  -999.250000 7.6649999619
 4122.4082031  -999.250000 10.944998741 8.5000000000 0.0188999996 0.1670099944 2.6319999695 48.240001678 64.339736938 4.6610450745 -79.23400116  -999.250000 9.4173078537
 4122.5605469  -999.250000 10.925999641 8.5000000000 0.0119000003 0.1644600034 2.6349999905 49.639999390 64.232978821 4.3627467155 -79.25700378  -999.250000 11.075336456
 4122.7128906  -999.250000 10.975999832 8.5000000000 0.0089999996 0.1645900011 2.6389999390 48.101001740 63.774135590 3.9726026058 -79.26100159  -999.250000 13.357878685
 4122.8652344  -999.250000 11.000000000 8.5000000000 0.0051000002 0.1697800010 2.6410000324 44.098999023 62.993000031 3.8489775658 -79.24400330  -999.250000 13.624256134
 4123.0175781  -999.250000 11.000000000 8.5000000000 0.0006000000 0.1804800034 2.6429998875 38.992000580 65.428115845 3.8419489861 -79.20099640  -999.250000 11.520249367
 4123.1699219  -999.250000 11.000000000 8.5000000000 -0.001400000 0.1944199950 2.6440000534 34.469001770 69.419761658 3.8259999752 -79.12699890  -999.250000 9.4139995575
 4123.3222656  -999.250000 11.000000000 8.5000000000 -0.000800000 0.2072300017 2.6449999809 31.826000214 71.371673584 3.8180000782 -79.02200317  -999.250000 6.7069997787
 4123.4746094  -999.250000 11.000000000 8.5000000000 0.0003000000 0.2144100070 2.6459999084 31.252000809 73.537437439 3.8199999332 -78.89600372  -999.250000 5.7820000648
 4123.6274414  -999.250000 11.000000000 8.5000000000 0.0009000000 0.2135500014 2.6480000019 32.006000519 75.327728271 3.7737019062 -78.76899719  -999.250000 7.0939488411
 4123.7797852  -999.250000 11.000000000 8.5000000000 0.0013000000 0.2052599937 2.6500000954 33.437000275 75.447708130 3.6809134483 -78.66200256  -999.250000 7.7000160217
 4123.9321289  -999.250000 11.000000000 8.5000000000 0.0017000000 0.1925199926 2.6530001163 35.012001038 74.445907593 3.6544423103 -78.59300232  -999.250000 7.7050161362
 4124.0844727  -999.250000 11.000000000 8.5000000000 0.0016000000 0.1789000034 2.6549999714 35.879001617 72.632896423 3.7931346893 -78.56199646  -999.250000 7.7100386620
 4124.2368164  -999.250000 11.000000000 8.5000000000 0.0015000000 0.1670999974 2.6570000648 35.452999115 70.694869995 4.1473684311 -78.55599976  -999.250000 7.7220163345
 4124.3891602  -999.250000 11.000000000 8.5000000000 0.0020999999 0.1585499942 2.6579999924 34.223999023 69.751419067 4.5740542412 -78.55999756  -999.250000 7.7261695862
 4124.5415039  -999.250000 11.000000000 8.5000000000 0.0033000000 0.1537500024 2.6579999924 33.534999847 70.050445557 4.9029998779 -78.57299805  -999.250000 7.4670000076
 4124.6938477  -999.250000 11.000000000 8.5000000000 0.0033000000 0.1526400000 2.6559998989 34.331001282 70.846824646 5.0869998932 -78.60900116  -999.250000 6.4330000877
 4124.8461914  -999.250000 11.000000000 8.5000000000 0.0013000000 0.1546099931 2.6530001163 36.255001068 70.898460388 5.0920000076 -78.69599915  -999.250000 5.2210001945
 4124.9990234  -999.250000 11.000000000 8.5000000000 -0.001700000 0.1582600027 2.6510000229 38.036998749 70.289451599 5.0734519958 -78.85299683  -999.250000 5.0986599922
 4125.1513672  -999.250000 11.000000000 8.5000000000 -0.002900000 0.1615799963 2.6489999294 38.937000275 70.174568176 5.2146058083 -79.06099701  -999.250000 6.5518045425
 4125.3037109  -999.250000 11.008000374 8.5000000000 -0.002600000 0.1626400054 2.6489999294 39.320999146 70.083053589 5.4032692909 -79.26799774  -999.250000 7.7337532043
 4125.4560547  -999.250000 11.048999786 8.5000000000 -0.001800000 0.1606100053 2.6510000229 39.653999329 69.454322815 5.4870543480 -79.41200256  -999.250000 7.3443112373
 4125.6083984  -999.250000 11.100999832 8.5000000000 -0.000100000 0.1562899947 2.6519999504 39.848999023 69.520553589 5.5040578842 -79.45099640  -999.250000 6.8188977242
 4125.7607422  -999.250000 11.128000259 8.5000000000 0.0006000000 0.1520600021 2.6519999504 39.703998566 70.339881897 5.5219998360 -79.37599945  -999.250000 6.7870001793
 4125.9130859  -999.250000 11.137999535 8.5000000000 -0.001100000 0.1510300040 2.6519999504 39.476001740 69.624244690 5.6009998322 -79.21800232  -999.250000 7.2329998016
 4126.0654297  -999.250000 11.140999794 8.5000000000 -0.003500000 0.1556899995 2.6510000229 39.812000275 68.038139343 5.7239999771 -79.02400208  -999.250000 8.1059999466
 4126.2177734  -999.250000 11.140999794 8.5000000000 -0.004700000 0.1665499955 2.6500000954 41.041999817 67.741256714 5.8239998817 -78.84100342  -999.250000 8.7799997330
 4126.3706055  -999.250000 11.140999794 8.5000000000 -0.005300000 0.1816399992 2.6500000954 42.796001434 67.738891602 5.8770318031 -78.70300293  -999.250000 8.9684104919
 4126.5229492  -999.250000 11.140999794 8.5000000000 -0.005100000 0.1971900016 2.6510000229 44.352001190 68.975082397 5.8867950439 -78.62100220  -999.250000 9.0978527069
 4126.6752930  -999.250000 11.140999794 8.5000000000 -0.003600000 0.2093300074 2.6510000229 45.258998871 74.320030212 5.8224101067 -78.59100342  -999.250000 9.6746244431
 4126.8276367  -999.250000 11.140999794 8.5000000000 -0.001100000 0.2156500071 2.6489999294 45.630001068 79.411003113 5.6381025314 -78.59600067  -999.250000 9.8657312393
 4126.9799805  -999.250000 11.149001122 8.5000000000 0.0013000000 0.2159900069 2.6440000534 45.916999817 79.744842529 5.3574857712 -78.61900330  -999.250000 8.8435144424
 4127.1323242  -999.250000 11.168000221 8.5000000000 0.0027999999 0.2121299952 2.6370000839 46.319999695 78.388450623 4.8850002289 -78.64399719  -999.250000 7.1319999695
 4127.2846680  -999.250000 11.185999870 8.5000000000 0.0037000000 0.2065799981 2.6300001144 46.348999023 76.631744385 4.1919999123 -78.66699982  -999.250000 5.4460000992
