# LAS format log file from PETREL
# Project units are specified as depth units
#==================================================================
~Version information
VERS.   2.0:
WRAP.   NO:
#==================================================================
~Well
STRT .m      3213.0371094 :
STOP .m      5477.8535156 :
STEP .m     0.00000000 :
NULL .        -999.250000 :
COMP.           : COMPANY
WELL.  34/8-7   : WELL
FLD.            : FIELD
LOC.            : LOCATION
SRVC.           : SERVICE COMPANY
DATE.  2018-09-11 14:48:53   : Log Export Date {yyyy-MM-dd HH:mm:ss}
PROV.           : PROVINCE
UWI.   34/8-7   : UNIQUE WELL ID
API.            : API NUMBER
#==================================================================
~Curve
DEPT .m                   : DEPTH
Lithology_geolink ._      : Lithology_geolink
CALI .in                  : CALI
BS .in                    : BS
DRHO .g/cm3               : DRHO
NPHI .m3/m3               : NPHI
RHOB .g/cm3               : RHOB
GR .gAPI                  : GR
DTC .us/ft                : DTC
RDEP .ohm.m               : RDEP
SP .mV                    : SP
RSHA .ohm.m               : RSHA
RMED .ohm.m               : RMED
~Parameter
#==================================================================
~Ascii
# ...
 5173.5107422 3.0000000000 10.298000336 8.5000000000 -0.002800000 0.0488100015 2.5030000210 14.177000046 69.317535400 13.430000305 -105.5889969 12.817999840 12.069000244
 5173.6630859 3.0000000000 10.334999084 8.5000000000 -0.002500000 0.0500699989 2.5120000839 13.473999977 69.365821838 14.684000015 -106.5120010 15.572999954 13.253000259
 5173.8154297 3.0000000000 10.366999626 8.5000000000 0.0006000000 0.0561599992 2.5230000019 13.651000023 69.055168152 15.725999832 -107.6669998 17.013999939 14.218999863
 5173.9677734 3.0000000000 10.399000168 8.5000000000 0.0055000000 0.0689100027 2.5360000134 16.517999649 68.861495972 15.722000122 -108.9759979 16.725999832 14.262000084
 5174.1201172 3.0000000000 10.425999641 8.5000000000 0.0097000012 0.0892399997 2.5539999008 23.825000763 68.895362854 13.131999969 -110.3519974 14.729999542 12.062999725
 5174.2724609 3.0000000000 10.418000221 8.5000000000 0.0157999992 0.1161400005 2.5750000477 35.521999359 68.944274902 9.0229997635 -111.7170029 11.812000275 8.4890003204
 5174.4248047 6.0000000000 10.120000839 8.5000000000 0.0252999999 0.1463100016 2.5980000496 49.101001740 68.996505737 6.0920000076 -113.0159988 9.7030000687 5.9050002098
 5174.5771484 6.0000000000 9.7030000687 8.5000000000 0.0317000002 0.1750400066 2.6199998856 60.909999847 69.048629761 4.9499998093 -114.2009964 7.9099998474 4.9060001373
 5174.7294922 6.0000000000 9.6730003357 8.5000000000 0.0252000000 0.1979999989 2.6380000114 68.295997620 69.100547791 5.0180001259 -115.2269974 5.4140000343 5.0159997940
 5174.8823242 5.0000000000 9.9919996262 8.5000000000 0.0131000001 0.2129500061 2.6519999504 70.758003235 69.150444031 5.6519999504 -116.0579987 4.2969999313 5.6820001602
 5175.0346680 5.0000000000 10.298000336 8.5000000000 0.0103000002 0.2203399986 2.6610000134 69.684997559 69.036659241 6.2950000763 -116.6770020 5.4840002060 6.3689999580
 5175.1870117 6.0000000000 10.419999123 8.5000000000 0.0129000004 0.2224099934 2.6689999104 67.529998779 68.638114929 6.6669998169 -117.0999985 5.4239997864 6.7670001984
 5175.3393555 6.0000000000 10.488000870 8.5000000000 0.0152000003 0.2215099931 2.6740000248 66.769996643 69.242309570 6.4180002213 -117.3590012 4.7319998741 6.5269999504
 5175.4916992 6.0000000000 10.543999672 8.5000000000 0.0157999992 0.2188699991 2.6779999733 68.588996887 72.673759460 5.6430001259 -117.5039978 8.5190000534 5.7610001564
 5175.6440430 6.0000000000 10.560999870 8.5000000000 0.0138999997 0.2144699991 2.6779999733 71.931999207 76.714080811 5.0689997673 -117.5989990 14.904999733 5.1909999847
 5175.7963867 5.0000000000 10.564999580 8.5000000000 0.0099999998 0.2083099931 2.6749999523 74.160003662 78.072700500 5.0409998894 -117.7070007 18.226999283 5.1529998779
 5175.9487305 5.0000000000 10.588000298 8.5000000000 0.0051000002 0.2015299946 2.6700000763 73.094001770 76.909255981 5.8350000381 -117.8519974 16.298000336 5.8559999466
 5176.1015625 5.0000000000 10.616000175 8.5000000000 -0.001000000 0.1962900013 2.6630001068 68.763999939 74.122886658 7.6750001907 -118.0019989 11.767999649 7.5000000000
 5176.2539063 5.0000000000 10.625000000 8.5000000000 -0.005300000 0.1940000057 2.6559998989 63.596000671 70.738342285 9.1829996109 -118.0749969 9.0590000153 8.8750000000
 5176.4062500 6.0000000000 10.625000000 8.5000000000 -0.004000000 0.1937499940 2.6489999294 60.894001007 69.010017395 9.1569995880 -117.9639969 7.9019999504 8.8549995422
 5176.5585938 6.0000000000 10.625000000 8.5000000000 -0.000100000 0.1922899932 2.6429998875 62.381999969 69.646232605 8.5410003662 -117.5839996 6.2069997787 8.2489995956
 5176.7109375 6.0000000000 10.635999680 8.5000000000 0.0035999999 0.1859800071 2.6380000114 66.431999207 70.960357666 8.4499998093 -116.9250031 4.6040000916 8.1180000305
 5176.8632813 6.0000000000 10.651000023 8.5000000000 0.0074999998 0.1731600016 2.6349999905 69.126998901 71.578346252 9.3830003738 -116.0680008 4.2540001869 8.9230003357
 5177.0156250 6.0000000000 10.672000885 8.5000000000 0.0107000005 0.1552000046 2.6359999180 67.818000793 70.467552185 11.161000252 -115.1630020 6.8509998322 10.501000404
 5177.1679688 5.0000000000 10.706001282 8.5000000000 0.0115000000 0.1357800066 2.6380000114 63.417999268 68.190956116 12.394000053 -114.3679962 10.246000290 11.640000343
 5177.3203125 5.0000000000 10.734999657 8.5000000000 0.0097000012 0.1187700033 2.6400001049 58.838001251 66.430435181 12.765999794 -113.7839966 11.850999832 12.031000137
 5177.4731445 5.0000000000 10.753000259 8.5000000000 0.0076000001 0.1063100025 2.6419999599 55.619998932 65.455146790 13.003000259 -113.4189987 13.607999802 12.256999969
 5177.6254883 4.0000000000 10.774001122 8.5000000000 0.0074000000 0.0981800035 2.6419999599 52.935001373 65.003890991 12.939000130 -113.2070007 15.043000221 12.190999985
 5177.7778320 4.0000000000 10.794999123 8.5000000000 0.0083999997 0.0927100033 2.6380000114 49.639999390 64.995971680 12.604999542 -113.0299988 15.649000168 11.880000114
 5177.9301758 4.0000000000 10.809000015 8.5000000000 0.0091000004 0.0884400010 2.6319999695 45.986999512 65.530876160 12.151000023 -112.7750015 14.779999733 11.456999779
 5178.0825195 4.0000000000 10.822999954 8.5000000000 0.0099999998 0.0849500000 2.6219999790 42.907001495 66.422653198 11.373999596 -112.3740005 13.515999794 10.751999855
 5178.2348633 3.0000000000 10.840999603 8.5000000000 0.0104000000 0.0824899971 2.6080000401 40.561000824 67.580108643 10.454999924 -111.8160019 13.295999527 9.8990001678
 5178.3872070 3.0000000000 10.869000435 8.5000000000 0.0080000004 0.0811600015 2.5929999352 38.429000854 68.935089111 9.7209997177 -111.1320038 11.817000389 9.1990003586
 5178.5395508 3.0000000000 10.902999878 8.5000000000 0.0038000001 0.0803199932 2.5769999027 36.235000610 70.035743713 9.0190000534 -110.3720016 9.7519998550 8.5380001068
 5178.6918945 3.0000000000 10.925000191 8.5000000000 -0.000200000 0.0788900033 2.5620000362 34.077999115 70.958839417 8.4390001297 -109.5790024 9.5920000076 7.9739999771
 5178.8447266 3.0000000000 10.935000420 8.5000000000 -0.000700000 0.0758100003 2.5499999523 31.945999146 71.551353455 8.8909997940 -108.7870026 10.213000298 8.2799997330
 5178.9970703 3.0000000000 10.948000908 8.5000000000 0.0026000000 0.0706000030 2.5439999104 29.718000412 71.357734680 10.376999855 -108.0019989 9.9490003586 9.4919996262
 5179.1494141 3.0000000000 10.958001137 8.5000000000 0.0052999998 0.0636000037 2.5429999828 27.569999695 70.004203796 11.156999588 -107.2170029 9.4840002060 10.138999939
 5179.3017578 3.0000000000 10.961000443 8.5000000000 0.0073000002 0.0559299998 2.5469999313 25.815999985 67.665901184 10.722000122 -106.4260025 14.237999916 9.7489995956
 5179.4541016 3.0000000000 10.961000443 8.5000000000 0.0131000001 0.0490599982 2.5550000668 24.371999741 65.291687012 10.189999580 -105.6610031 21.968000412 9.2829999924
 5179.6064453 3.0000000000 10.961000443 8.5000000000 0.0188999996 0.0441999994 2.5639998913 22.747999191 63.757083893 9.9989995956 -104.9950027 22.684999466 9.1020002365
 5179.7587891 3.0000000000 10.961000443 8.5000000000 0.0173000004 0.0417700000 2.5699999332 20.750999451 63.706249237 9.9379997253 -104.5110016 22.753000259 9.0399999619
 5179.9111328 3.0000000000 10.965999603 8.5000000000 0.0120000001 0.0413100012 2.5710000992 18.902999878 65.315582275 9.6969995499 -104.2760010 25.117000580 8.8660001755
 5180.0639648 3.0000000000 10.978999138 8.5000000000 0.0085000005 0.0419000015 2.5659999847 17.979000092 67.441932678 9.1969995499 -104.3209991 21.166000366 8.4469995499
 5180.2163086 3.0000000000 10.989999771 8.5000000000 0.0057999999 0.0427699983 2.5559999943 18.149000168 69.420143127 9.1660003662 -104.6429977 14.427000046 8.3470001221
 5180.3686523 3.0000000000 10.991999626 8.5000000000 0.0033000000 0.0438099988 2.5460000038 18.726999283 71.441818237 9.5590000153 -105.2200012 10.482999802 8.6590003967
 5180.5209961 3.0000000000 10.991999626 8.5000000000 0.0038000001 0.0456399992 2.5409998894 18.875999451 72.456893921 8.8140001297 -106.0139999 9.8730001450 8.0679998398
 5180.6733398 3.0000000000 10.991999626 8.5000000000 0.0071999999 0.0491599999 2.5420000553 18.645999908 71.308097839 6.9809999466 -106.9639969 11.782999992 6.4739999771
