# LAS format log file from PETREL
# Project units are specified as depth units
#==================================================================
~Version information
VERS.   2.0:
WRAP.   NO:
#==================================================================
~Well
STRT .m      2339.3889160 :
STOP .m      3955.4384766 :
STEP .m     0.00000000 :
NULL .        -999.250000 :
COMP.           : COMPANY
WELL.  34/8-6   : WELL
FLD.            : FIELD
LOC.            : LOCATION
SRVC.           : SERVICE COMPANY
DATE.  2018-09-11 14:48:53   : Log Export Date {yyyy-MM-dd HH:mm:ss}
PROV.           : PROVINCE
UWI.   34/8-6   : UNIQUE WELL ID
API.            : API NUMBER
#==================================================================
~Curve
DEPT .m                   : DEPTH
Lithology_geolink ._      : Lithology_geolink
CALI .in                  : CALI
DRHO .g/cm3               : DRHO
NPHI .m3/m3               : NPHI
RHOB .g/cm3               : RHOB
GR .gAPI                  : GR
DTC .us/ft                : DTC
RDEP .ohm.m               : RDEP
SP .mV                    : SP
RMED .ohm.m               : RMED
~Parameter
#==================================================================
~Ascii
# ...
 3832.9086914 4.0000000000 12.296880722 -0.002515748 0.2139794976 2.5888340473 98.872772217 73.599792480 8.5331020355 185.39979553 14.912019730
 3833.0610352 4.0000000000 12.304690361 0.0012282369 0.1946242005 2.5719909668 95.753723145 73.301620483 8.5163011551 185.15010071 13.802309990
 3833.2136230 4.0000000000 12.304690361 0.0060441960 0.1865410954 2.5630929470 99.186981201 74.799758911 8.0326194763 185.27499390 12.341850281
 3833.3659668 4.0000000000 12.265669823 0.0085151726 0.2021434009 2.5509209633 97.247962952 75.303756714 7.4510769844 184.65159607 11.570810318
 3833.5183105 4.0000000000 12.289078712 0.0031436810 0.1922800988 2.5181419849 96.112411499 76.409866333 6.7376551628 185.52229309 10.157640457
 3833.6706543 4.0000000000 12.296790123 -0.000656523 0.2064301074 2.4846880436 90.369720459 79.001533508 6.0864100456 184.27600098 8.4798488617
 3833.8232422 4.0000000000 12.265650749 -0.002014984 0.2056868970 2.4662320614 88.298606873 79.599723816 5.7981438637 184.64930725 7.2768149376
 3833.9755859 4.0000000000 12.273399353 -0.000735896 0.2243801951 2.4730730057 83.566421509 79.499656677 5.6099171638 184.40100098 6.4573388100
 3834.1279297 4.0000000000 12.249939919 -0.003753931 0.2100393027 2.4837989807 85.876678467 79.297813416 5.4941601753 185.02549744 6.1845698357
 3834.2802734 4.0000000000 12.218790054 0.0017626620 0.2143300027 2.5038070679 86.697387695 78.699516296 5.4153428078 185.27409363 6.4325680733
 3834.4328613 5.0000000000 12.234419823 0.0011100110 0.2177457958 2.5074830055 90.747016907 78.499443054 5.3827052116 184.89999390 7.2441167831
 3834.5852051 5.0000000000 12.249950409 -0.001313763 0.2244326025 2.5072131157 89.690536499 78.299217224 5.3543848991 184.89939880 7.7839717865
 3834.7375488 5.0000000000 12.218870163 -0.001212376 0.2160421014 2.5063230991 91.624763489 77.799644470 5.4545559883 184.52499390 7.8321537971
 3834.8898926 5.0000000000 12.281201363 -0.002093358 0.2088955045 2.4997661114 91.497550964 77.699073792 5.7322978973 184.52470398 7.8039460182
 3835.0422363 4.0000000000 12.257829666 -0.007576294 0.1968867034 2.4932310581 90.451217651 77.299186707 5.9992198944 184.39930725 7.8105888367
 3835.1948242 4.0000000000 12.265650749 -0.008002280 0.2091064006 2.5034639835 95.566871643 76.999389648 6.1135997772 184.15299988 7.7949728966
 3835.3471680 4.0000000000 12.273389816 -0.008454107 0.2092262954 2.5127699375 97.004646301 76.798370361 6.2071609497 185.14750671 7.9663128853
 3835.4995117 4.0000000000 12.250029564 -0.010038090 0.2177463025 2.5218050480 99.544906616 75.896224976 6.3732547760 183.77389526 8.3356199265
 3835.6518555 4.0000000000 12.265650749 -0.008369925 0.2118891031 2.5314989090 91.504142761 74.901542664 6.3721132278 183.27470398 8.8530216217
 3835.8044434 4.0000000000 12.273479462 -0.003541835 0.2100346982 2.5471899509 93.125907898 75.500579834 6.2943620682 183.14959717 9.3081245422
 3835.9567871 4.0000000000 12.289017677 -0.001732398 0.2032863051 2.5436480045 93.442138672 75.702697754 6.3011231422 183.02540588 9.4300842285
 3836.1091309 4.0000000000 12.265529633 -0.002823399 0.2032700032 2.5234270096 96.184799194 77.304389954 6.1394701004 183.27499390 9.0139207840
 3836.2614746 4.0000000000 12.218750000 -0.004899380 0.1980566978 2.4969251156 94.875152588 78.500968933 6.0532879829 183.27499390 8.2103624344
 3836.4140625 4.0000000000 12.218710899 -0.004900555 0.2140378058 2.4851150513 94.936973572 78.900283813 5.9880280495 183.27529907 7.4649820328
 3836.5664063 4.0000000000 12.203148842 -0.005679825 0.2052095979 2.4731819630 94.756439209 78.999206543 5.8578639030 183.40060425 6.9158778191
 3836.7187500 4.0000000000 12.218790054 -0.004597593 0.2076348066 2.4808468819 98.875602722 78.498214722 5.7394690514 183.77450562 6.4669480324
 3836.8710938 4.0000000000 12.242150307 -0.003512397 0.1873746961 2.4934940338 99.186927795 77.999542236 5.6525640488 183.52380371 6.4935221672
 3837.0234375 4.0000000000 12.226599693 -0.003106836 0.2013173997 2.4991409779 98.918983459 77.800003052 5.5829319954 183.02499390 7.0097470284
 3837.1760254 4.0000000000 12.242280006 -0.003846075 0.2056767046 2.4942059517 91.992027283 77.800910950 5.5093398094 183.02729797 7.5718679428
 3837.3283691 4.0000000000 12.273490906 -0.004866211 0.2126739025 2.4831418991 89.376129150 78.100189209 5.4768910408 183.77450562 7.7112798691
 3837.4807129 5.0000000000 12.304670334 -0.000956845 0.2026125938 2.4885139465 89.999862671 78.199256897 5.5081410408 183.52470398 7.6913609505
 3837.6330566 5.0000000000 12.296850204 0.0003602606 0.1992681026 2.4880640507 89.943702698 78.000251770 5.6561107635 183.40060425 7.6357440948
 3837.7856445 5.0000000000 12.288789749 0.0041227778 0.1975332052 2.4906220436 92.376998901 78.099151611 5.8165740967 183.64709473 7.6147990227
 3837.9379883 5.0000000000 12.195289612 0.0025464741 0.1987884045 2.4957320690 93.069427490 77.798980713 5.9367837906 182.65150452 7.5388398170
 3838.0903320 5.0000000000 12.179670334 0.0040566609 0.2031648010 2.5132920742 97.190322876 77.197807312 6.1377420425 183.52420044 7.5828828812
 3838.2426758 5.0000000000 12.171890259 0.0020999371 0.2034710944 2.5351281166 98.559928894 76.598800659 6.3233890533 183.15060425 7.6460628510
 3838.3952637 5.0000000000 12.179690361 0.0036188101 0.2239575982 2.5523920059 97.497741699 76.099159241 6.3620128632 183.40069580 8.0906276703
 3838.5476074 5.0000000000 12.179770470 0.0006494748 0.2262372971 2.5651071072 96.681579590 75.800018311 6.4315910339 183.64999390 8.9207353592
 3838.6999512 4.0000000000 12.234249115 0.0066433600 0.2265692949 2.5713639259 92.876556396 75.803878784 6.3307518959 183.64999390 9.8712005615
 3838.8522949 4.0000000000 12.171879768 0.0090406192 0.2043786943 2.5580689907 93.687789917 76.901611328 6.2263960838 183.64999390 10.547300339
 3839.0046387 4.0000000000 12.171879768 0.0145247001 0.1977896988 2.5177462101 93.809341431 77.602119446 6.2637791634 183.64999390 10.121080399
 3839.1572266 4.0000000000 12.171879768 0.0239914395 0.2116032988 2.5006990433 92.613273621 78.401809692 6.1360578537 183.65040588 8.3338279724
 3839.3095703 4.0000000000 12.171879768 0.0222618394 0.2178194970 2.4901769161 88.751243591 78.999458313 5.9559130669 183.77520752 6.7130808830
 3839.4619141 4.0000000000 12.171890259 0.0143188499 0.2214969993 2.4937438965 89.441833496 78.700767517 5.8832931519 183.90029907 6.4935870171
 3839.6142578 4.0000000000 12.179670334 0.0120463902 0.2076511979 2.4933290482 91.447647095 78.898727417 5.7016921043 184.02499390 7.0736141205
 3839.7668457 4.0000000000 12.171899796 -0.000433316 0.2010380030 2.4790470600 95.430610657 78.399139404 5.4856228828 184.02540588 7.0401601791
 3839.9191895 4.0000000000 12.179690361 -0.009953248 0.1918493956 2.4796330929 93.058113098 78.099838257 5.3548588753 184.14939880 6.9608302116
 3840.0715332 4.0000000000 12.179670334 -0.007158099 0.2043758035 2.4894869328 90.432266235 78.000366211 5.3698678017 183.77470398 7.4484648705
 3840.2238770 4.0000000000 12.171890259 -0.001544255 0.2068364024 2.5032019615 87.882232666 78.098808289 5.4289460182 183.64759827 7.9497961998
 3840.3764648 4.0000000000 12.179690361 -0.006445020 0.2176766992 2.5054759979 90.882980347 77.598358154 5.5114941597 182.64999390 8.1072015762
 3840.5288086 4.0000000000 12.179679871 -0.000739711 0.2103929967 2.5307400227 93.756278992 76.999221802 5.6846499443 182.64860535 7.9474840164
 3840.6811523 4.0000000000 12.171879768 -0.002756952 0.2180051953 2.5451309681 97.806632996 76.496833801 5.8618030548 181.77400208 7.8225421906
 3840.8334961 4.0000000000 12.171879768 -0.005034566 0.2193752974 2.5556600094 94.752571106 75.599548340 6.0105509758 181.27380371 8.2072153091
 3840.9858398 4.0000000000 12.171879768 -0.009792080 0.2230446041 2.5524311066 95.878807068 75.400527954 6.1719598770 180.77499390 9.0829086304
 3841.1384277 4.0000000000 12.171879768 -0.007479568 0.2195972055 2.5538382530 97.317970276 75.599990845 6.3416438103 180.77540588 9.5672273636
 3841.2907715 4.0000000000 12.171879768 -0.006861541 0.2114460021 2.5503931046 99.128242493 75.599456787 6.5857658386 180.89930725 9.5821342468
