# LAS format log file from PETREL
# Project units are specified as depth units
#==================================================================
~Version information
VERS.   2.0:
WRAP.   NO:
#==================================================================
~Well
STRT .m      3213.0371094 :
STOP .m      5477.8535156 :
STEP .m     0.00000000 :
NULL .        -999.250000 :
COMP.           : COMPANY
WELL.  34/8-7   : WELL
FLD.            : FIELD
LOC.            : LOCATION
SRVC.           : SERVICE COMPANY
DATE.  2018-09-11 14:48:53   : Log Export Date {yyyy-MM-dd HH:mm:ss}
PROV.           : PROVINCE
UWI.   34/8-7   : UNIQUE WELL ID
API.            : API NUMBER
#==================================================================
~Curve
DEPT .m                   : DEPTH
Lithology_geolink ._      : Lithology_geolink
CALI .in                  : CALI
BS .in                    : BS
DRHO .g/cm3               : DRHO
NPHI .m3/m3               : NPHI
RHOB .g/cm3               : RHOB
GR .gAPI                  : GR
DTC .us/ft                : DTC
RDEP .ohm.m               : RDEP
SP .mV                    : SP
RSHA .ohm.m               : RSHA
RMED .ohm.m               : RMED
~Parameter
#==================================================================
~Ascii
# ...
 4873.5874023 4.0000000000 9.9930000305 8.5000000000 0.0024999999 0.1644999981 2.7030000687 45.832000732 66.932746887 11.085000038 -82.89099884 19.549999237 10.590999603
 4873.7402344 4.0000000000 9.9949998856 8.5000000000 0.0020999999 0.1687899977 2.6970000267 45.327999115 67.943496704 10.729000092 -82.87999725 14.722000122 10.258759499
 4873.8925781 4.0000000000 9.9989995956 8.5000000000 0.0006000000 0.1725499928 2.6900000572 45.520999908 69.116348267 10.633999825 -82.81700134 12.397999763 10.183926582
 4874.0449219 4.0000000000 10.000000000 8.5000000000 -0.002900000 0.1749099940 2.6840000153 46.264999390 69.953681946 10.586000443 -82.72499847 11.840000153 10.160917282
 4874.1972656 5.0000000000 9.9969997406 8.5000000000 -0.005500000 0.1755400002 2.6789999008 47.178001404 70.142349243 10.560000420 -82.62899780 12.324999809 10.134740829
 4874.3496094 5.0000000000 9.9960002899 8.5000000000 -0.005900000 0.1744900048 2.6749999523 48.097999573 70.190872192 10.439000130 -82.54699707 12.564999580 10.053750992
 4874.5019531 5.0000000000 9.9989995956 8.5000000000 -0.005000000 0.1720100045 2.6730000973 49.333000183 70.428390503 10.307000160 -82.48600006 11.996999741 9.9759998322
 4874.6542969 5.0000000000 10.000000000 8.5000000000 -0.003600000 0.1684799939 2.6719999313 51.084999084 70.698913574 10.295999527 -82.44100189 11.411999702 9.9670000076
 4874.8066406 5.0000000000 10.000000000 8.5000000000 -0.001500000 0.1644700021 2.6719999313 52.750999451 70.884757996 10.328000069 -82.40399933 10.951000214 10.001999855
 4874.9589844 5.0000000000 10.000000000 8.5000000000 0.0002000000 0.1606500000 2.6719999313 53.386001587 70.709320068 10.385999680 -82.36299896 11.065999985 10.050999641
 4875.1118164 5.0000000000 10.000000000 8.5000000000 0.0000000000 0.1577100009 2.6719999313 52.999000549 70.254325867 10.435999870 -82.31199646 11.527999878 10.064987183
 4875.2641602 5.0000000000 10.000000000 8.5000000000 -0.001300000 0.1560299993 2.6719999313 52.671001434 70.055610657 10.463999748 -82.25499725 11.512000084 10.061102867
 4875.4165039 5.0000000000 10.000000000 8.5000000000 -0.002200000 0.1555799991 2.6719999313 53.087001801 70.352470398 10.493000031 -82.19400024 11.024999619 10.093157768
 4875.5688477 5.0000000000 10.000000000 8.5000000000 -0.002300000 0.1559599936 2.6719999313 53.590999603 70.875793457 10.539999962 -82.12799835 11.057999611 10.141981125
 4875.7211914 5.0000000000 10.000000000 8.5000000000 -0.001800000 0.1566199958 2.6730000973 53.345001221 71.155410767 10.574000359 -82.04900360 11.248999596 10.135760307
 4875.8735352 5.0000000000 10.000000000 8.5000000000 -0.001300000 0.1570799947 2.6740000248 52.838001251 70.988815308 10.498000145 -81.95500183 11.326000214 10.060999870
 4876.0258789 5.0000000000 10.000000000 8.5000000000 -0.001100000 0.1570200026 2.6749999523 53.301998138 70.556388855 10.234999657 -81.84799957 11.689999580 9.8479995728
 4876.1782227 5.0000000000 10.000000000 8.5000000000 -0.001300000 0.1564200073 2.6760001183 54.924999237 70.441307068 9.9379997253 -81.72799683 11.619999886 9.5640001297
 4876.3310547 5.0000000000 10.000000000 8.5000000000 -0.001900000 0.1553999931 2.6749999523 56.465000153 70.679084778 9.8219995499 -81.60099792 11.319999695 9.4410829544
 4876.4833984 5.0000000000 10.000000000 8.5000000000 -0.002600000 0.1541499943 2.6730000973 56.717998505 70.889808655 9.8339996338 -81.47899628 10.901000023 9.4673585892
 4876.6357422 5.0000000000 10.000000000 8.5000000000 -0.002800000 0.1527300030 2.6710000038 55.708999634 71.007995605 9.9390001297 -81.37599945 10.498999596 9.5795040131
 4876.7880859 5.0000000000 10.000000000 8.5000000000 -0.002200000 0.1511200070 2.6689999104 54.314998627 70.991500854 10.119999886 -81.30000305 10.739000320 9.7362632751
 4876.9404297 5.0000000000 10.000000000 8.5000000000 -0.001900000 0.1492599994 2.6679999828 53.384998322 70.980400085 10.225999832 -81.24900055 11.118000031 9.8179168701
 4877.0927734 5.0000000000 10.000000000 8.5000000000 -0.001100000 0.1471700072 2.6689999104 53.395999908 71.058677673 10.206999779 -81.21399689 11.420000076 9.7917985916
 4877.2451172 5.0000000000 9.9919996262 8.5000000000 -0.000400000 0.1449300051 2.6710000038 54.465999603 71.099052429 10.140000343 -81.18299866 11.699999809 9.7290000916
 4877.3974609 5.0000000000 9.9699993134 8.5000000000 0.0000000000 0.1424800009 2.6719999313 56.151000977 71.040992737 10.008000374 -81.14700317 11.701999664 9.5939998627
 4877.5498047 4.0000000000 9.9239997864 8.5000000000 0.0002000000 0.1395599991 2.6710000038 57.277999878 70.999061584 9.9860000610 -81.09700012 11.744999886 9.5360002518
 4877.7026367 4.0000000000 9.8450002670 8.5000000000 -0.000600000 0.1358599961 2.6659998894 56.604999542 70.935813904 10.411000252 -81.02300262 11.251999855 9.8908262253
 4877.8549805 4.0000000000 9.7770004272 8.5000000000 -0.003100000 0.1313199997 2.6589999199 53.883998871 70.629966736 11.383000374 -80.91899872 10.901000023 10.774006844
 4878.0073242 4.0000000000 9.7340002060 8.5000000000 -0.005900000 0.1262799948 2.6510000229 50.174999237 70.235710144 12.715999603 -80.78600311 13.126999855 12.022791862
 4878.1596680 4.0000000000 9.6909999847 8.5000000000 -0.006800000 0.1214300022 2.6440000534 46.964000702 69.705528259 13.635999680 -80.63600159 15.623000145 12.891227722
 4878.3120117 5.0000000000 9.6490001678 8.5000000000 -0.005000000 0.1175400019 2.6410000324 44.981998444 68.978149414 13.708999634 -80.49299622 15.847000122 12.960865974
 4878.4643555 5.0000000000 9.6230001450 8.5000000000 -0.001900000 0.1150299981 2.6410000324 43.955001831 68.624397278 13.315999985 -80.37899780 14.925000191 12.607000351
 4878.6166992 5.0000000000 9.6070003510 8.5000000000 -0.000300000 0.1138499975 2.6449999809 43.284999847 68.836929321 12.850999832 -80.29699707 13.611000061 12.185999870
 4878.7690430 5.0000000000 9.5799999237 8.5000000000 -0.000500000 0.1135099977 2.6489999294 42.743999481 69.058052063 12.609999657 -80.23100281 12.845999718 11.961000443
 4878.9213867 5.0000000000 9.5600004196 8.5000000000 -0.001600000 0.1134100035 2.6540000439 42.465999603 69.042869568 12.630000114 -80.15499878 13.307999611 12.006999969
 4879.0742188 5.0000000000 9.5570001602 8.5000000000 -0.002700000 0.1131099984 2.6579999924 42.514999390 69.115463257 12.805000305 -80.05999756 14.213000298 12.211683273
 4879.2265625 5.0000000000 9.5590000153 8.5000000000 -0.004400000 0.1125300005 2.6600000858 42.791999817 69.048233032 12.979000092 -79.95899963 14.461000443 12.424393654
 4879.3789063 5.0000000000 9.5109996796 8.5000000000 -0.006200000 0.1119100004 2.6619999409 43.159999847 68.744140625 13.048999786 -79.88099670 14.463000298 12.546913147
 4879.5312500 5.0000000000 9.4510002136 8.5000000000 -0.003600000 0.1114899963 2.6619999409 43.541999817 68.658935547 12.963999748 -79.84899902 14.940999985 12.519599915
 4879.6835938 5.0000000000 9.4519996643 8.5000000000 0.0015000000 0.1113699973 2.6600000858 43.926998138 68.700927734 12.781999588 -79.86299896 15.805999756 12.394728661
 4879.8359375 5.0000000000 9.4580001831 8.5000000000 0.0037000000 0.1114000008 2.6559998989 44.268001556 68.761802673 12.656000137 -79.90499878 16.243000031 12.310000420
 4879.9882813 5.0000000000 9.4230003357 8.5000000000 0.0043000001 0.1113400012 2.6519999504 44.400001526 68.978401184 12.546999931 -79.94599915 15.901000023 12.267999649
 4880.1406250 5.0000000000 9.3590002060 8.5000000000 0.0033000000 0.1109599993 2.6480000019 44.145999908 69.188972473 12.505999565 -79.97000122 15.329000473 12.272000313
 4880.2934570 5.0000000000 9.2959995270 8.5000000000 0.0006000000 0.1102100015 2.6449999809 43.634998322 69.280128479 12.552000046 -79.97799683 16.097000122 12.328147888
 4880.4458008 5.0000000000 9.2430000305 8.5000000000 -0.002700000 0.1092400029 2.6440000534 43.374000549 69.332374573 12.575153351 -79.98100281 16.656999588 12.374265671
 4880.5981445 5.0000000000 9.1870002747 8.5000000000 -0.006500000 0.1082800031 2.6449999809 43.769001007 69.500083923 12.623634338 -79.98999786 16.856000900 12.457704544
 4880.7504883 5.0000000000 9.1250000000 8.5000000000 -0.009800000 0.1074099988 2.6500000954 44.582000732 69.715469360 12.821904182 -80.01100159 17.926000595 12.678054810
