# LAS format log file from PETREL
# Project units are specified as depth units
#==================================================================
~Version information
VERS.   2.0:
WRAP.   NO:
#==================================================================
~Well
STRT .m      2339.3889160 :
STOP .m      3955.4384766 :
STEP .m     0.00000000 :
NULL .        -999.250000 :
COMP.           : COMPANY
WELL.  34/8-6   : WELL
FLD.            : FIELD
LOC.            : LOCATION
SRVC.           : SERVICE COMPANY
DATE.  2018-09-11 14:48:53   : Log Export Date {yyyy-MM-dd HH:mm:ss}
PROV.           : PROVINCE
UWI.   34/8-6   : UNIQUE WELL ID
API.            : API NUMBER
#==================================================================
~Curve
DEPT .m                   : DEPTH
Lithology_geolink ._      : Lithology_geolink
CALI .in                  : CALI
DRHO .g/cm3               : DRHO
NPHI .m3/m3               : NPHI
RHOB .g/cm3               : RHOB
GR .gAPI                  : GR
DTC .us/ft                : DTC
RDEP .ohm.m               : RDEP
SP .mV                    : SP
RMED .ohm.m               : RMED
~Parameter
#==================================================================
~Ascii
# ...
 2552.7487793  -999.250000 13.320340157 -0.009516007 0.3023110032 2.4237051010 113.62039948 107.19830322 1.2927099466 131.15040588 1.5827560425
 2552.9013672  -999.250000 13.336178780 -0.012021000 0.3005926907 2.4230120182 110.99819946 106.19889832 1.3039809465 131.40049744 1.5988099575
 2553.0537109  -999.250000 13.453141212 -0.013281200 0.2898037136 2.4252638817 110.12290192 105.89939880 1.3136999607 131.64939880 1.6534969807
 2553.2060547  -999.250000 13.468750954 -0.004947606 0.3016240895 2.4406030178 107.74909973 105.19950867 1.3304649591 131.02510071 1.6960610151
 2553.3583984  -999.250000 13.468750954 -0.005281610 0.2946706116 2.4459950924 107.00019836 104.80000305 1.3506239653 131.15119934 1.7236230373
 2553.5107422  -999.250000 13.468750954 -0.003168453 0.2936758995 2.4449830055 107.12190247 104.79819489 1.3655899763 131.90020752 1.7319790125
 2553.6633301  -999.250000 13.468750954 -0.003312558 0.2857348025 2.4414041042 105.56369781 104.30039978 1.3885179758 132.02459717 1.7383569479
 2553.8156738  -999.250000 13.468750954 -0.002562621 0.2959106863 2.4349930286 107.18759918 104.80050659 1.4271130562 131.52510071 1.7352449894
 2553.9680176  -999.250000 13.468750954 -0.007543632 0.2882350087 2.4240069389 107.31089783 105.29939270 1.4589040279 131.64979553 1.7170200348
 2554.1203613  -999.250000 13.468750954 -0.003514882 0.3016892076 2.4264659882 106.25000000 104.89778900 1.4840509892 131.52499390 1.7044229507
 2554.2729492  -999.250000 13.468750954 -0.006676177 0.3121050894 2.4317166805 106.24349976 103.69770050 1.5072369576 131.52439880 1.7568440437
 2554.4252930  -999.250000 13.468750954 -0.002490940 0.3165755868 2.4467220306 103.30960083 103.09899139 1.5314680338 131.27540588 1.8534660339
 2554.5776367  -999.250000 13.468750954 -0.001350752 0.2991820872 2.4502360821 100.43779755 102.09880066 1.5485969782 131.65080261 1.9750210047
 2554.7299805  -999.250000 13.468750954 0.0005324155 0.2811830938 2.4443659782 100.68840027 101.20159912 1.5615379810 132.27389526 2.0054950714
 2554.8825684  -999.250000 13.468750954 -0.000966697 0.2717725933 2.4372808933 101.19180298 102.09960175 1.5729399920 131.64889526 1.9637490511
 2555.0349121  -999.250000 13.468750954 -0.001889132 0.2658641040 2.4311048985 103.24880219 102.00099945 1.5745270252 131.14990234 1.9197219610
 2555.1872559  -999.250000 13.468750954 -0.003017804 0.2623868883 2.4270620346 101.81600189 103.09980011 1.5716069937 131.02479553 1.8741589785
 2555.3395996  -999.250000 13.468750954 -0.005875038 0.2754130960 2.4198050499 104.62860107 102.90160370 1.5596799850 130.89979553 1.8248499632
 2555.4921875  -999.250000 13.468750954 -0.005086144 0.2870213985 2.4198739529 106.86689758 103.90249634 1.5468449593 130.77699280 1.7906780243
 2555.6445313  -999.250000 13.468750954 -0.004009463 0.3033721149 2.4217851162 102.74829865 104.59990692 1.5521110296 131.77520752 1.7704319954
 2555.7968750  -999.250000 13.468750954 -0.003500410 0.3136399984 2.4257149696 100.43659973 104.40000153 1.5681120157 132.02490234 1.7546269894
 2555.9492188  -999.250000 13.468750954 -0.006407860 0.3134374917 2.4252638817 99.631568909 104.40000153 1.5813790560 131.89939880 1.7552789450
 2556.1015625  -999.250000 13.468750954 -0.009154344 0.3136551082 2.4220750332 104.06620026 104.39949799 1.6031119823 131.52479553 1.7692730427
 2556.2541504  -999.250000 13.468909264 -0.013967970 0.3012003899 2.4116859436 106.06099701 104.09919739 1.6246889830 131.39939880 1.7900559902
 2556.4064941  -999.250000 13.539119720 -0.016480271 0.2998386025 2.4007120132 105.37449646 103.89980316 1.6313400269 131.15060425 1.7880769968
 2556.5588379  -999.250000 13.593770027 -0.015631121 0.3066087961 2.4045050144 104.87280273 103.70040894 1.6431519985 131.77639771 1.7740659714
 2556.7111816  -999.250000 13.609438896 -0.013765380 0.3016172945 2.4089341164 103.25039673 103.99969482 1.6529289484 132.77479553 1.7622339725
 2556.8637695  -999.250000 13.648669243 -0.009405254 0.2960363925 2.4166738987 103.49569702 103.80040741 1.6510889530 132.64920044 1.7602519989
 2557.0161133  -999.250000 13.757809639 -0.009574165 0.2847939134 2.4122009277 101.43630219 103.90000916 1.6483989954 132.27529907 1.7770379782
 2557.1684570  -999.250000 13.757809639 -0.007961857 0.2847678065 2.4146640301 100.05799866 103.89910126 1.6354819536 132.64970398 1.8088049889
 2557.3208008  -999.250000 13.757809639 -0.003488926 0.2910709977 2.4241149426 96.439399719 103.19989777 1.6124140024 132.39939880 1.8338409662
 2557.4733887  -999.250000 13.757809639 -0.001304815 0.2999907136 2.4259800911 97.629661560 103.10070038 1.5785119534 132.02470398 1.8414109945
 2557.6257324  -999.250000 13.757809639 0.0005707967 0.3379190862 2.4304509163 100.00340271 103.30110168 1.5381640196 131.89990234 1.8227449656
 2557.7780762  -999.250000 13.757809639 0.0037655029 0.3559603095 2.4333319664 104.62419891 104.80079651 1.5036569834 131.77470398 1.7788790464
 2557.9304199  -999.250000 13.757789612 0.0005034267 0.3348743021 2.4351539612 103.87529755 105.50150299 1.4665960073 131.52569580 1.7095619440
 2558.0827637  -999.250000 13.742170334 -0.001677206 0.2942557037 2.4379150867 104.05740356 106.49979401 1.4299199581 132.02479553 1.6367410421
 2558.2353516  -999.250000 13.734380722 -0.002193819 0.2861626148 2.4335989952 101.32550049 106.39849854 1.3981280327 131.89999390 1.6018899679
 2558.3876953  -999.250000 13.734330177 -0.004170282 0.2991538048 2.4298059940 107.18669891 105.99919128 1.3778489828 131.90020752 1.6209059954
 2558.5400391  -999.250000 13.687451363 -0.008414754 0.3011259139 2.4166779518 106.37419891 105.19920349 1.3675359488 132.14970398 1.6642270088
 2558.6923828  -999.250000 13.648589134 -0.004799805 0.2840755880 2.4235959053 105.74710083 104.59999847 1.3639320135 131.89909363 1.6968380213
 2558.8449707  -999.250000 13.734419823 -0.007419817 0.2787424922 2.4252998829 104.05639648 104.59849548 1.3618340492 131.39920044 1.7248909473
 2558.9973145  -999.250000 13.757809639 -0.010101200 0.2777760923 2.4210479259 101.12509918 104.19979858 1.3614530563 131.02529907 1.7546310425
 2559.1496582  -999.250000 13.757809639 -0.008427354 0.2814759910 2.4225900173 101.18240356 104.00060272 1.3574730158 131.40029907 1.7595850229
 2559.3020020  -999.250000 13.757809639 -0.007818153 0.2986930013 2.4162170887 97.001586914 104.50099945 1.3452860117 131.64979553 1.7327330112
 2559.4545898  -999.250000 13.758009911 -0.006985777 0.3189849854 2.4182939529 97.998779297 105.10140228 1.3323789835 131.52380371 1.6917949915
 2559.6069336  -999.250000 13.859399796 -0.005400951 0.3275515139 2.4184029102 97.375228882 105.50050354 1.3107099533 130.89979553 1.6356760263
 2559.7592773  -999.250000 13.898441315 -0.005560773 0.3201042116 2.4173290730 97.685997009 106.20040131 1.2913080454 130.64990234 1.5934360027
 2559.9116211  -999.250000 13.898441315 -0.007259482 0.2988241017 2.4178760052 96.315521240 106.59999847 1.2823630571 130.52499390 1.5617879629
 2560.0639648  -999.250000 13.898471832 -0.005106912 0.3361035883 2.4163510799 98.375923157 106.59950256 1.2799910307 130.52479553 1.5399320126
 2560.2165527  -999.250000 13.914049149 -0.008565653 0.3324809074 2.4179379940 98.891769409 106.29699707 1.2940690517 130.39970398 1.5514800549
 2560.3688965  -999.250000 13.906259537 -0.005748564 0.3307648003 2.4142549038 106.49939728 105.49720001 1.3135720491 130.27490234 1.5961689949
 2560.5212402  -999.250000 13.914060593 -0.006594571 0.2756442130 2.4291620255 105.87259674 102.59780121 1.3316379786 130.14999390 1.6914939880
 2560.6735840  -999.250000 13.914038658 -0.000748821 0.2819296122 2.4627819061 104.04709625 100.99909973 1.3565230370 130.14939880 1.8278080225
 2560.8261719  -999.250000 13.898449898 -0.001093880 0.3138467968 2.4913949966 95.057060242 100.50110626 1.3806879520 129.77499390 1.9277449846
 2560.9785156  -999.250000 13.906259537 0.0027368411 0.3254418075 2.4787409306 92.438133240 100.80180359 1.3888139725 129.77510071 1.8385770321
 2561.1308594  -999.250000 13.914119720 -0.003784195 0.3201847076 2.4384319782 93.193412781 103.00029755 1.3825269938 129.90029907 1.7314959764
