# LAS format log file from PETREL
# Project units are specified as depth units
#==================================================================
~Version information
VERS.   2.0:
WRAP.   NO:
#==================================================================
~Well
STRT .m      3213.0371094 :
STOP .m      5477.8535156 :
STEP .m     0.00000000 :
NULL .        -999.250000 :
COMP.           : COMPANY
WELL.  34/8-7   : WELL
FLD.            : FIELD
LOC.            : LOCATION
SRVC.           : SERVICE COMPANY
DATE.  2018-09-11 14:48:53   : Log Export Date {yyyy-MM-dd HH:mm:ss}
PROV.           : PROVINCE
UWI.   34/8-7   : UNIQUE WELL ID
API.            : API NUMBER
#==================================================================
~Curve
DEPT .m                   : DEPTH
Lithology_geolink ._      : Lithology_geolink
CALI .in                  : CALI
BS .in                    : BS
DRHO .g/cm3               : DRHO
NPHI .m3/m3               : NPHI
RHOB .g/cm3               : RHOB
GR .gAPI                  : GR
DTC .us/ft                : DTC
RDEP .ohm.m               : RDEP
SP .mV                    : SP
RSHA .ohm.m               : RSHA
RMED .ohm.m               : RMED
~Parameter
#==================================================================
~Ascii
# ...
 5473.4335938  -999.250000 7.2620000839  -999.250000  -999.250000 0.0000000000 0.0000000000 0.0000000000  -999.250000 7.5619997978 -127.6720047 6.0900001526 6.9109997749
 5473.5859375  -999.250000 7.2620000839  -999.250000  -999.250000 0.0000000000 0.0000000000 0.0000000000  -999.250000 7.5619997978 -127.6520081 6.0900001526 6.9180002213
 5473.7387695  -999.250000 7.2620000839  -999.250000  -999.250000 0.0000000000 0.0000000000 0.0000000000  -999.250000 7.5560002327 -127.6189957 6.0900001526 6.9210000038
 5473.8911133  -999.250000 7.2620000839  -999.250000  -999.250000 0.0000000000 0.0000000000 0.0000000000  -999.250000 7.5590000153 -127.5739975 6.0900001526 6.9120001793
 5474.0434570  -999.250000 7.2620000839  -999.250000  -999.250000 0.0000000000 0.0000000000 0.0000000000  -999.250000 7.5689997673 -127.5210114 6.0900001526 6.9070000648
 5474.1958008  -999.250000 7.2620000839  -999.250000  -999.250000 0.0000000000 0.0000000000 0.0000000000  -999.250000 7.5679998398 -127.4729996 6.0900001526 6.9019999504
 5474.3481445  -999.250000 7.2620000839  -999.250000  -999.250000 0.0000000000 0.0000000000 0.0000000000  -999.250000 7.5659999847 -127.4410019 6.0900001526 6.8969998360
 5474.5004883  -999.250000 7.2620000839  -999.250000  -999.250000 0.0000000000 0.0000000000 0.0000000000  -999.250000 7.5640001297 -127.4320068 6.0900001526 6.8990001678
 5474.6528320  -999.250000 7.2620000839  -999.250000  -999.250000 0.0000000000 0.0000000000 0.0000000000  -999.250000 7.5630002022 -127.4440002 6.0900001526 6.8930001259
 5474.8051758  -999.250000 7.2620000839  -999.250000  -999.250000 0.0000000000 0.0000000000 0.0000000000  -999.250000 7.5659999847 -127.4660110 6.0900001526 6.8940000534
 5474.9575195  -999.250000 7.2620000839  -999.250000  -999.250000 0.0000000000 0.0000000000 0.0000000000  -999.250000 7.5780000687 -127.4829941 6.0900001526 6.9149999619
 5475.1103516  -999.250000 7.2620000839  -999.250000  -999.250000 0.0000000000 0.0000000000 0.0000000000  -999.250000 7.5920000076 -127.4860077 6.0900001526 6.9380002022
 5475.2626953  -999.250000 7.2620000839  -999.250000  -999.250000 0.0000000000 0.0000000000 0.0000000000  -999.250000 7.5850000381 -127.4790039 6.0900001526 6.9530000687
 5475.4150391  -999.250000 7.2620000839  -999.250000  -999.250000 0.0000000000 0.0000000000 0.0000000000  -999.250000 7.5679998398 -127.4720001 6.0900001526 6.9580001831
 5475.5673828  -999.250000 7.2620000839  -999.250000  -999.250000 0.0000000000 0.0000000000 0.0000000000  -999.250000 7.5580000877 -127.4700012 6.0900001526 6.9450001717
 5475.7197266  -999.250000 7.2620000839  -999.250000  -999.250000 0.0000000000 0.0000000000 0.0000000000  -999.250000 7.5619997978 -127.4660110 6.0900001526 6.9250001907
 5475.8720703  -999.250000 7.2620000839  -999.250000  -999.250000 0.0000000000 0.0000000000 0.0000000000  -999.250000 7.5729999542 -127.4500046 6.0900001526 6.9099998474
 5476.0244141  -999.250000 7.2620000839  -999.250000  -999.250000 0.0000000000 0.0000000000 0.0000000000  -999.250000 7.5729999542 -127.4160004 6.0900001526 6.9029998779
 5476.1767578  -999.250000 7.2620000839  -999.250000  -999.250000 0.0000000000 0.0000000000 0.0000000000  -999.250000 7.5659999847 -127.3700027 6.0900001526 6.9000000954
 5476.3291016  -999.250000 7.2620000839  -999.250000  -999.250000 0.0000000000 0.0000000000 0.0000000000  -999.250000 7.5700001717 -127.3229980 6.0900001526 6.9000000954
 5476.4819336  -999.250000 7.2620000839  -999.250000  -999.250000 0.0000000000 0.0000000000 0.0000000000  -999.250000 7.5650000572 -127.2899933 6.0900001526 6.9140000343
 5476.6342773  -999.250000 7.2620000839  -999.250000  -999.250000 0.0000000000 0.0000000000 0.0000000000  -999.250000 7.5570001602 -127.2819901 6.0900001526 6.9270000458
 5476.7866211  -999.250000 7.2620000839  -999.250000  -999.250000 0.0000000000 0.0000000000 0.0000000000  -999.250000 7.6139998436 -127.3010101 6.0900001526 6.9289999008
 5476.9389648  -999.250000 7.2620000839  -999.250000  -999.250000 0.0000000000 0.0000000000 0.0000000000  -999.250000 7.6529998779 -127.3410034 6.0900001526 6.9250001907
 5477.0913086  -999.250000 7.2620000839  -999.250000  -999.250000 0.0000000000 0.0000000000 0.0000000000  -999.250000 7.6389999390 -127.3980026 6.0900001526 6.9260001183
 5477.2436523  -999.250000 7.2620000839  -999.250000  -999.250000 0.0000000000 0.0000000000 0.0000000000  -999.250000 7.6350002289 -127.4680023 6.0900001526 6.9320001602
 5477.3959961  -999.250000 7.2620000839  -999.250000  -999.250000 0.0000000000 0.0000000000 0.0000000000  -999.250000 7.5580000877 -127.5479965 6.0900001526 6.9409999847
 5477.5483398  -999.250000 7.2620000839  -999.250000  -999.250000 0.0000000000 0.0000000000 0.0000000000  -999.250000 25.430999756 -127.6330032 6.0900001526 495.73400879
 5477.7011719  -999.250000 7.2620000839  -999.250000  -999.250000 0.0000000000 0.0000000000 0.0000000000  -999.250000 33.965000153 -127.7099991 6.0900001526 728.60101318
 5477.8535156  -999.250000 7.2620000839  -999.250000  -999.250000 0.0000000000 0.0000000000 0.0000000000  -999.250000  -999.250000 -127.7630005  -999.250000  -999.250000
