# LAS format log file from PETREL
# Project units are specified as depth units
#==================================================================
~Version information
VERS.   2.0:
WRAP.   NO:
#==================================================================
~Well
STRT .m      3213.0371094 :
STOP .m      5477.8535156 :
STEP .m     0.00000000 :
NULL .        -999.250000 :
COMP.           : COMPANY
WELL.  34/8-7   : WELL
FLD.            : FIELD
LOC.            : LOCATION
SRVC.           : SERVICE COMPANY
DATE.  2018-09-11 14:48:53   : Log Export Date {yyyy-MM-dd HH:mm:ss}
PROV.           : PROVINCE
UWI.   34/8-7   : UNIQUE WELL ID
API.            : API NUMBER
#==================================================================
~Curve
DEPT .m                   : DEPTH
Lithology_geolink ._      : Lithology_geolink
CALI .in                  : CALI
BS .in                    : BS
DRHO .g/cm3               : DRHO
NPHI .m3/m3               : NPHI
RHOB .g/cm3               : RHOB
GR .gAPI                  : GR
DTC .us/ft                : DTC
RDEP .ohm.m               : RDEP
SP .mV                    : SP
RSHA .ohm.m               : RSHA
RMED .ohm.m               : RMED
~Parameter
#==================================================================
~Ascii
# ...
 3812.8835449  -999.250000 12.616999626 12.250000954 -0.004800000 0.3232600093 2.5599999428 91.259002686 87.054580688 1.9339054823 -75.75199890  -999.250000 2.2610511780
 3813.0358887  -999.250000 12.616999626 12.250000954 -0.004600000 0.3130899966 2.5599999428 91.246002197 87.417968750 1.8748654127 -75.70099640  -999.250000 2.9170143604
 3813.1884766  -999.250000 12.614998817 12.250000954 -0.002000000 0.3040199876 2.5599999428 90.574996948 86.023796082 1.7908335924 -75.64499664  -999.250000 3.5486481190
 3813.3408203  -999.250000 12.608000755 12.250000954 0.0013000000 0.2973600030 2.5599999428 89.928001404 84.573410034 1.7389551401 -75.60500336  -999.250000 3.4379148483
 3813.4931641  -999.250000 12.600000381 12.250000954 0.0031999999 0.2936399877 2.5610001087 89.837997437 85.935699463 1.7109519243 -75.60099792  -999.250000 2.7611186504
 3813.6455078  -999.250000 12.597998619 12.250000954 0.0048000002 0.2926099896 2.5610001087 90.168998718 89.269989014 1.6809054613 -75.64399719  -999.250000 2.2116360664
 3813.7980957  -999.250000 12.602999687 12.250000954 0.0060999999 0.2934400141 2.5620000362 90.524002075 92.399291992 1.6217087507 -75.72399902  -999.250000 1.9848495722
 3813.9504395  -999.250000 12.608000755 12.250000954 0.0049999999 0.2950299978 2.5620000362 90.782997131 94.000526428 1.5308686495 -75.81600189  -999.250000 1.9380208254
 3814.1027832  -999.250000 12.612000465 12.250000954 0.0024000001 0.2964000106 2.5629999638 91.096000671 94.256752014 1.4489278793 -75.90000153  -999.250000 1.9510384798
 3814.2551270  -999.250000 12.608000755 12.250000954 0.0009000000 0.2970899940 2.5639998913 91.463996887 93.927169800 1.4039871693 -75.97200012  -999.250000 1.9750673771
 3814.4074707  -999.250000 12.605999947 12.250000954 0.0013000000 0.2971099913 2.5650000572 91.528999329 93.362823486 1.3960224390 -76.02600098  -999.250000 2.0170946121
 3814.5600586  -999.250000 12.611001015 12.250000954 0.0022000000 0.2966899872 2.5659999847 91.055999756 92.890701294 1.4100511074 -76.04799652  -999.250000 2.0761280060
 3814.7124023  -999.250000 12.611001015 12.250000954 0.0027999999 0.2961399853 2.5659999847 90.533996582 92.570198059 1.4260224104 -76.02200317  -999.250000 2.1159951687
 3814.8647461  -999.250000 12.607000351 12.250000954 0.0029000000 0.2957899868 2.5659999847 90.714996338 92.304878235 1.4400241375 -75.94999695  -999.250000 2.1129550934
 3815.0170898  -999.250000 12.608000755 12.250000954 0.0022000000 0.2957899868 2.5650000572 91.676002502 92.350486755 1.4550385475 -75.86299896  -999.250000 2.0849392414
 3815.1696777  -999.250000 12.616999626 12.250000954 0.0010000000 0.2958900034 2.5659999847 92.963996887 92.628784180 1.4791343212 -75.81800079  -999.250000 2.0468590260
 3815.3220215  -999.250000 12.616000175 12.250000954 0.0004000000 0.2955900133 2.5680000782 93.711997986 92.871231079 1.5211122036 -75.87100220  -999.250000 2.0029406548
 3815.4743652  -999.250000 12.608000755 12.250000954 0.0000000000 0.2945300043 2.5729999542 92.128997803 93.125297546 1.5911521912 -76.04699707  -999.250000 1.9660288095
 3815.6267090  -999.250000 12.602999687 12.250000954 0.0002000000 0.2928499877 2.5810000896 86.410003662 93.110748291 1.6861714125 -76.32399750  -999.250000 1.9843076468
 3815.7792969  -999.250000 12.586000443 12.250000954 0.0018000000 0.2911599874 2.5889999866 76.884002686 91.779220581 1.7933647633 -76.64299774  -999.250000 2.1774017811
 3815.9316406  -999.250000 12.559999466 12.250000954 0.0020000001 0.2900300026 2.5969998837 66.654998779 88.664543152 1.9072051048 -76.93099976  -999.250000 2.6148302555
 3816.0839844  -999.250000 12.542999268 12.250000954 0.0003000000 0.2897099853 2.6029999256 59.509998322 84.670219421 2.0352437496 -77.13500214  -999.250000 3.1325094700
 3816.2363281  -999.250000 12.536001205 12.250000954 -0.002100000 0.2901299894 2.6059999466 56.909999847 81.194770813 2.1872739792 -77.24400330  -999.250000 3.4500834942
 3816.3886719  -999.250000 12.532999039 12.250000954 -0.004500000 0.2911199927 2.6070001125 57.053001404 79.750114441 2.3583126068 -77.27999878  -999.250000 3.5019071102
 3816.5412598  -999.250000 12.534000397 12.250000954 -0.005300000 0.2925400138 2.6059999466 57.264999390 79.843330383 2.5536816120 -77.27500153  -999.250000 3.4439072609
 3816.6936035  -999.250000 12.532999039 12.250000954 -0.003000000 0.2943300009 2.6050000191 56.580001831 79.818771362 2.7663252354 -77.25099945  -999.250000 3.4150512218
 3816.8459473  -999.250000 12.526000977 12.250000954 -0.000300000 0.2964999974 2.6040000916 55.533000946 79.687866211 2.9692950249 -77.21099854  -999.250000 3.4471843243
 3816.9982910  -999.250000 12.520999908 12.250000954 0.0006000000 0.2989900112 2.6050000191 54.903999329 79.498962402 3.1532852650 -77.13400269  -999.250000 3.5624375343
 3817.1508789  -999.250000 12.519001007 12.250000954 0.0006000000 0.3015899956 2.6059999466 55.047000885 78.750885010 3.3314480782 -76.99500275  -999.250000 3.8366863728
 3817.3032227  -999.250000 12.527999878 12.250000954 0.0000000000 0.3040699959 2.6070001125 55.625000000 77.259330750 3.4710817337 -76.79100037  -999.250000 4.3635883331
 3817.4555664  -999.250000 12.534000397 12.250000954 -0.000900000 0.3063099980 2.6070001125 55.949001312 74.863494873 3.5218687057 -76.55899811  -999.250000 5.3553256989
 3817.6079102  -999.250000 12.532999039 12.250000954 -0.000800000 0.3083899915 2.6070001125 56.247001648 71.916114807 3.4396266937 -76.35399628  -999.250000 6.8052468300
 3817.7604980  -999.250000 12.531000137 12.250000954 -0.000800000 0.3104600012 2.6059999466 58.423000336 70.085365295 3.2059311867 -76.22799683  -999.250000 7.5790171623
 3817.9128418  -999.250000 12.534000397 12.250000954 -0.001900000 0.3124800026 2.6040000916 64.550003052 71.740158081 2.8724341393 -76.20600128  -999.250000 6.6469583511
 3818.0651855  -999.250000 12.538000107 12.250000954 -0.002400000 0.3142699897 2.6019999981 74.172996521 77.724655151 2.5195000172 -76.28399658  -999.250000 4.7494916916
 3818.2175293  -999.250000 12.534000397 12.250000954 -0.001400000 0.3155699968 2.5999999046 83.459999084 85.212860107 2.2076041698 -76.42900085  -999.250000 3.1857163906
 3818.3698730  -999.250000 12.531000137 12.250000954 -0.000700000 0.3161500096 2.5969998837 87.986999512 90.287666321 1.9606778622 -76.59799957  -999.250000 2.3855416775
 3818.5224609  -999.250000 12.552000046 12.250000954 0.0003000000 0.3157399893 2.5920000076 86.633003235 92.268493652 1.7594815493 -76.75000000  -999.250000 2.0998175144
 3818.6748047  -999.250000 12.524999619 12.250000954 0.0020000001 0.3140400052 2.5880000591 82.221000671 92.684852600 1.5978060961 -76.86000061  -999.250000 2.0430352688
 3818.8271484  -999.250000 12.505000114 12.250000954 0.0013000000 0.3108600080 2.5829999447 78.399002075 91.692474365 1.4768686295 -76.92299652  -999.250000 2.0651524067
 3818.9794922  -999.250000 12.553999901 12.250000954 -0.001100000 0.3063400090 2.5789999962 76.851997375 89.446937561 1.3949294090 -76.94699860  -999.250000 2.1602885723
 3819.1320801  -999.250000 12.578000069 12.250000954 -0.002000000 0.3010100126 2.5769999027 77.386001587 87.768066406 1.3509551287 -76.93599701  -999.250000 2.3402175903
 3819.2844238  -999.250000 12.578000069 12.250000954 -0.002200000 0.2955799997 2.5750000477 79.349998474 87.873779297 1.3370079994 -76.89900208  -999.250000 2.4076714516
 3819.4367676  -999.250000 12.578000069 12.250000954 -0.002400000 0.2907600105 2.5739998817 81.975997925 89.655456543 1.3420592546 -76.84799957  -999.250000 2.2025368214
 3819.5891113  -999.250000 12.578000069 12.250000954 -0.002100000 0.2869899869 2.5729999542 83.727996826 91.256683350 1.3791313171 -76.79599762  -999.250000 1.9138942957
 3819.7416992  -999.250000 12.578000069 12.250000954 -0.002400000 0.2842600048 2.5720000267 83.096000671 90.548965454 1.4613391161 -76.75599670  -999.250000 1.8487457037
 3819.8940430  -999.250000 12.578000069 12.250000954 -0.003500000 0.2821600139 2.5710000992 80.278999329 87.914825439 1.5671843290 -76.73600006  -999.250000 2.0814824104
 3820.0463867  -999.250000 12.578000069 12.250000954 -0.005200000 0.2800599933 2.5710000992 77.092002869 84.820709229 1.6822035313 -76.74299622  -999.250000 2.3822691441
