# LAS format log file from PETREL
# Project units are specified as depth units
#==================================================================
~Version information
VERS.   2.0:
WRAP.   NO:
#==================================================================
~Well
STRT .m      3213.0371094 :
STOP .m      5477.8535156 :
STEP .m     0.00000000 :
NULL .        -999.250000 :
COMP.           : COMPANY
WELL.  34/8-7   : WELL
FLD.            : FIELD
LOC.            : LOCATION
SRVC.           : SERVICE COMPANY
DATE.  2018-09-11 14:48:53   : Log Export Date {yyyy-MM-dd HH:mm:ss}
PROV.           : PROVINCE
UWI.   34/8-7   : UNIQUE WELL ID
API.            : API NUMBER
#==================================================================
~Curve
DEPT .m                   : DEPTH
Lithology_geolink ._      : Lithology_geolink
CALI .in                  : CALI
BS .in                    : BS
DRHO .g/cm3               : DRHO
NPHI .m3/m3               : NPHI
RHOB .g/cm3               : RHOB
GR .gAPI                  : GR
DTC .us/ft                : DTC
RDEP .ohm.m               : RDEP
SP .mV                    : SP
RSHA .ohm.m               : RSHA
RMED .ohm.m               : RMED
~Parameter
#==================================================================
~Ascii
# ...
 4420.0454102 13.000000000 17.920999527 8.5000000000 -0.092399999 0.2335499972 2.3940000534 68.039001465 82.420799255 1.6750576496 -81.45400238 0.7141000032 1.6429679394
 4420.1977539 13.000000000 17.316999435 8.5000000000 -0.094300002 0.2231699973 2.4010000229 68.348999023 82.627220154 1.6929935217 -81.44899750 0.6176000237 1.6330159903
 4420.3500977 13.000000000 15.514999390 8.5000000000 -0.087499999 0.2164999992 2.4119999409 68.901000977 82.344520569 1.6910128593 -81.36299896 0.6132000089 1.6380544901
 4420.5024414 13.000000000 13.925999641 8.5000000000 -0.076399997 0.2129299939 2.4279999733 68.686996460 82.323738098 1.6950224638 -81.23899841 0.6543999910 1.6549999714
 4420.6547852 13.000000000 13.794000626 8.5000000000 -0.064099997 0.2112900019 2.4479999542 66.953002930 82.639305115 1.7019616365 -81.10500336 0.7429999709 1.6549712420
 4420.8071289 13.000000000 14.090999603 8.5000000000 -0.055100001 0.2105499953 2.4690001011 64.132003784 82.950286865 1.6900000572 -80.99099731 0.8413000107 1.6460000277
 4420.9594727 13.000000000 14.212999344 8.5000000000 -0.059200000 0.2102999985 2.4879999161 61.450000763 83.228851318 1.6759999990 -80.92099762 0.8655999899 1.6440000534
 4421.1118164 13.000000000 14.343000412 8.5000000000 -0.071900003 0.2107599974 2.5050001144 59.855998993 83.470802307 1.6909999847 -80.90399933 0.8543999791 1.6519999504
 4421.2646484 13.000000000 14.522000313 8.5000000000 -0.079499997 0.2124799937 2.5179998875 59.451999664 83.731323242 1.7191377878 -80.93399811 0.8424000144 1.6761345863
 4421.4169922 13.000000000 14.678000450 8.5000000000 -0.076700002 0.2159699947 2.5299999714 59.796001434 84.058639526 1.7623877525 -80.99600220 0.8321999907 1.7182853222
 4421.5693359 13.000000000 14.810000420 8.5000000000 -0.060500000 0.2214500010 2.5409998894 60.462001801 84.289077759 1.8834102154 -81.07399750 0.8202999830 1.8073557615
 4421.7216797 13.000000000 14.930999756 8.5000000000 -0.038600001 0.2288299948 2.5480000973 61.171001434 84.383544922 2.0111761093 -81.15699768 0.8059999943 1.9181922674
 4421.8740234 13.000000000 15.013998985 8.5000000000 -0.023300000 0.2378199995 2.5499999523 61.797000885 84.611999512 2.0660736561 -81.23999786 0.7943000197 1.9780801535
 4422.0263672 13.000000000 15.067000389 8.5000000000 -0.015000000 0.2481999993 2.5429999828 62.472000122 85.045707703 2.0889136791 -81.31999969 0.7876999974 2.0029745102
 4422.1787109 13.000000000 15.168999672 8.5000000000 -0.014700000 0.2598800063 2.5290000439 63.296001434 85.395576477 2.0620000362 -81.39499664 0.7835000157 1.9950000048
 4422.3310547 13.000000000 14.888999939 8.5000000000 -0.024300000 0.2726599872 2.5079998970 64.053001404 85.501533508 2.1919999123 -81.46099854 0.7810999751 2.1770000458
 4422.4833984 13.000000000 14.409000397 8.5000000000 -0.037000000 0.2858400047 2.4860000610 64.463996887 85.617073059 2.3480000496 -81.51300049 0.7785000205 2.3429999352
 4422.6362305 13.000000000 14.237999916 8.5000000000 -0.043699998 0.2980900109 2.4649999142 64.569000244 85.637496948 2.1782627106 -81.54399872 0.7753999829 2.1833975315
 4422.7885742 13.000000000 14.102999687 8.5000000000 -0.045600001 0.3079900146 2.4489998817 64.731002808 85.416961670 1.9490768909 -81.54599762 0.7728999853 1.9960129261
 4422.9409180 13.000000000 13.968999863 8.5000000000 -0.053500000 0.3146899939 2.4370000362 65.234001160 84.997787476 1.9731987715 -81.51000214 0.7675999999 2.0001313686
 4423.0932617 13.000000000 13.829999924 8.5000000000 -0.065700002 0.3183600008 2.4279999733 65.903999329 84.498611450 2.0348687172 -81.43800354 0.7605999708 2.0409262180
 4423.2456055 13.000000000 13.643999100 8.5000000000 -0.072499998 0.3199700117 2.4240000248 66.266998291 84.028816223 1.9942715168 -81.33899689 0.7567999959 2.0182969570
 4423.3979492 13.000000000 13.531000137 8.5000000000 -0.069799997 0.3207400143 2.4260001183 66.234001160 83.613464355 2.0789999962 -81.23400116 0.7551000118 2.1110000610
 4423.5502930 13.000000000 13.656000137 8.5000000000 -0.056200001 0.3214899898 2.4349999428 66.192001343 83.453269958 2.2109999657 -81.14099884 0.7540000081 2.2469999790
 4423.7026367 13.000000000 14.048999786 8.5000000000 -0.032499999 0.3222599924 2.4509999752 66.347000122 83.665847778 2.2730000019 -81.07099915 0.7512000203 2.3039999008
 4423.8549805 13.000000000 14.421999931 8.5000000000 -0.002600000 0.3224900067 2.4709999561 66.492996216 84.394676208 2.2679998875 -81.02500153 0.7907999754 2.2780001163
 4424.0078125 13.000000000 14.569999695 8.5000000000 0.0219000001 0.3217400014 2.4909999371 66.274002075 85.095108032 2.2047724724 -81.00299835 0.7947000265 2.2067692280
 4424.1601563 13.000000000 14.645998955 8.5000000000 0.0333000049 0.3203699887 2.5079998970 65.583999634 85.268928528 2.1337981224 -81.01100159 0.8413000107 2.1348013878
 4424.3125000 13.000000000 14.704000473 8.5000000000 0.0408999994 0.3195900023 2.5179998875 64.874000549 85.161041260 2.0707628727 -81.05799866 0.9203000069 2.0728428364
 4424.4648438 13.000000000 14.718999863 8.5000000000 0.0500999987 0.3207800090 2.5220000744 64.766998291 85.113052368 1.9966794252 -81.14900208 0.9208999872 2.0237338543
 4424.6171875 13.000000000 14.718999863 8.5000000000 0.0522000007 0.3246299922 2.5220000744 65.362998962 85.822700500 1.8966709375 -81.28500366 0.9050999880 1.9406453371
 4424.7695313 13.000000000 14.668999672 8.5000000000 0.0441999994 0.3307400048 2.5209999084 66.216003418 87.477684021 1.7940000296 -81.44899750 0.8600999713 1.8300000429
 4424.9218750 13.000000000 14.592000008 8.5000000000 0.0310999993 0.3376899958 2.5230000019 66.852996826 88.886978149 1.7640000582 -81.61299896 0.8489999771 1.7960000038
 4425.0742188 13.000000000 14.227999687 8.5000000000 0.0156999994 0.3434999883 2.5299999714 67.133003235 89.601936340 1.8190000057 -81.75099945 0.9635000229 1.8430000544
 4425.2270508 13.000000000 13.131999969 8.5000000000 0.0063000000 0.3464899957 2.5420000553 67.223999023 90.491249084 1.8621153831 -81.84500122 0.9901999831 1.8921185732
 4425.3793945 13.000000000 12.104999542 8.5000000000 0.0074999998 0.3461599946 2.5569999218 67.327003479 91.548080444 1.8980929852 -81.88899994 0.9376000166 1.9289968014
 4425.5317383 13.000000000 11.798999786 8.5000000000 0.0115999999 0.3434000015 2.5710000992 67.405998230 92.314704895 1.9269647598 -81.88700104 1.0559999943 1.9278621674
 4425.6840820 13.000000000 11.739999771 8.5000000000 0.0137999998 0.3400099874 2.5799999237 67.344001770 93.003356934 1.9158236980 -81.84600067 1.0230000019 1.8848141432
 4425.8364258 13.000000000 11.713999748 8.5000000000 0.0193000007 0.3376899958 2.5810000896 67.249000549 92.236686707 1.8607370853 -81.77300262 0.7918999791 1.8267500401
 4425.9887695 13.000000000 11.711001396 8.5000000000 0.0271000005 0.3371900022 2.5759999752 67.361000061 92.136772156 1.7789329290 -81.67500305 0.6881999969 1.7489136457
 4426.1411133 13.000000000 11.711001396 8.5000000000 0.0296000000 0.3381600082 2.5629999638 67.835998535 94.466590881 1.7580000162 -81.55699921 0.8665999770 1.7220000029
 4426.2934570 13.000000000 11.711001396 8.5000000000 0.0252999999 0.3395600021 2.5450000763 68.633003235 95.728836060 1.8140000105 -81.43199921 1.0190000534 1.7819999456
 4426.4458008 13.000000000 11.711001396 8.5000000000 0.0154999997 0.3403199911 2.5220000744 69.421997070 94.913810730 1.9099999666 -81.31099701 0.8945999742 1.8910000324
 4426.5986328 13.000000000 11.711001396 8.5000000000 0.0001000000 0.3399600089 2.4939999580 69.818000793 93.164749146 2.0103108883 -81.21099854 0.6644999981 2.0032949448
 4426.7509766 13.000000000 11.711001396 8.5000000000 -0.018900000 0.3388299942 2.4660000801 69.818000793 91.104591370 2.1071219444 -81.13800049 0.5490999818 2.0951473713
 4426.9033203 13.000000000 11.706000328 8.5000000000 -0.037999999 0.3378100097 2.4379999638 69.730003357 88.535453796 2.1449103355 -81.09200287 0.5550000072 2.1409840584
 4427.0556641 13.000000000 11.697999001 8.5000000000 -0.056100000 0.3377099931 2.4140000343 69.680999756 86.381408691 2.1170289516 -81.06800079 0.5363000035 2.1360223293
 4427.2080078 13.000000000 11.701001167 8.5000000000 -0.067500003 0.3387399912 2.3959999084 69.508003235 83.167610168 2.1261405945 -81.06099701 0.5277000070 2.1431627274
