# LAS format log file from PETREL
# Project units are specified as depth units
#==================================================================
~Version information
VERS.   2.0:
WRAP.   NO:
#==================================================================
~Well
STRT .m      3213.0371094 :
STOP .m      5477.8535156 :
STEP .m     0.00000000 :
NULL .        -999.250000 :
COMP.           : COMPANY
WELL.  34/8-7   : WELL
FLD.            : FIELD
LOC.            : LOCATION
SRVC.           : SERVICE COMPANY
DATE.  2018-09-11 14:48:53   : Log Export Date {yyyy-MM-dd HH:mm:ss}
PROV.           : PROVINCE
UWI.   34/8-7   : UNIQUE WELL ID
API.            : API NUMBER
#==================================================================
~Curve
DEPT .m                   : DEPTH
Lithology_geolink ._      : Lithology_geolink
CALI .in                  : CALI
BS .in                    : BS
DRHO .g/cm3               : DRHO
NPHI .m3/m3               : NPHI
RHOB .g/cm3               : RHOB
GR .gAPI                  : GR
DTC .us/ft                : DTC
RDEP .ohm.m               : RDEP
SP .mV                    : SP
RSHA .ohm.m               : RSHA
RMED .ohm.m               : RMED
~Parameter
#==================================================================
~Ascii
# ...
 3666.5795898  -999.250000 12.420998573 12.250000954 -0.008300000 0.2510400116 2.5590143204 67.763999939 89.659332275 2.0600335598 -68.44599915  -999.250000 2.7631459236
 3666.7319336  -999.250000 12.421999931 12.250000954 -0.006900000 0.2379699945 2.5680112839 67.384002686 85.338249207 2.0810225010 -68.54799652  -999.250000 3.4782276154
 3666.8842773  -999.250000 12.421999931 12.250000954 -0.002100000 0.2289600074 2.5750031471 67.166999817 81.387664795 2.0950737000 -68.61799622  -999.250000 4.2431154251
 3667.0368652  -999.250000 12.421999931 12.250000954 0.0026000000 0.2261299938 2.5769934654 66.858001709 80.584884644 2.1413264275 -68.63899994  -999.250000 4.3126606941
 3667.1892090  -999.250000 12.421999931 12.250000954 0.0052000000 0.2281699926 2.5749919415 66.611999512 82.891151428 2.2431972027 -68.62799835  -999.250000 3.5827484131
 3667.3415527  -999.250000 12.421999931 12.250000954 0.0070000002 0.2314099967 2.5699918270 66.662002563 86.593223572 2.3661248684 -68.62000275  -999.250000 2.8025417328
 3667.4938965  -999.250000 12.421999931 12.250000954 0.0071999999 0.2323099971 2.5649952888 67.152000427 89.420951843 2.4440319538 -68.64600372  -999.250000 2.5173814297
 3667.6464844  -999.250000 12.421999931 12.250000954 0.0043000001 0.2294899970 2.5620031357 68.097000122 89.185241699 2.4640960693 -68.71099854  -999.250000 2.7567217350
 3667.7988281  -999.250000 12.421999931 12.250000954 0.0005000000 0.2239000052 2.5630064011 69.246002197 86.111984253 2.4941859245 -68.79000092  -999.250000 3.2936601639
 3667.9511719  -999.250000 12.421999931 12.250000954 -0.002300000 0.2173500061 2.5670094490 70.130996704 83.376495361 2.6103332043 -68.84899902  -999.250000 3.7051041126
 3668.1035156  -999.250000 12.421999931 12.250000954 -0.002600000 0.2109699994 2.5730128288 70.337997437 82.605888367 2.8183414936 -68.86199951  -999.250000 3.7700960636
 3668.2561035  -999.250000 12.421999931 12.250000954 0.0001000000 0.2049299926 2.5810256004 69.731002808 81.951446533 3.0312271118 -68.81800079  -999.250000 3.8316030502
 3668.4084473  -999.250000 12.421999931 12.250000954 0.0023000001 0.1994100064 2.5890128613 68.809997559 80.567451477 3.1018157005 -68.71900177  -999.250000 4.3325257301
 3668.5607910  -999.250000 12.421999931 12.250000954 0.0033000000 0.1956000030 2.5970094204 68.837997437 77.856781006 2.9866762161 -68.57599640  -999.250000 5.2837724686
 3668.7131348  -999.250000 12.421999931 12.250000954 0.0054000001 0.1956200004 2.6030030251 70.850997925 75.472694397 2.7846634388 -68.41699982  -999.250000 5.7637996674
 3668.8654785  -999.250000 12.421999931 12.250000954 0.0068999999 0.2012100071 2.6049969196 74.317001343 76.451271057 2.5746779442 -68.28299713  -999.250000 5.0139870644
 3669.0180664  -999.250000 12.421999931 12.250000954 0.0057000001 0.2121199965 2.6029806137 77.333999634 80.450233459 2.3733696938 -68.20999908  -999.250000 3.7571775913
 3669.1704102  -999.250000 12.421999931 12.250000954 0.0049999999 0.2257499993 2.5969870090 78.507003784 86.068969727 2.1766602993 -68.21299744  -999.250000 2.8773941994
 3669.3227539  -999.250000 12.421999931 12.250000954 0.0054000001 0.2383500040 2.5889904499 78.293998718 90.714759827 1.9646747112 -68.27400208  -999.250000 2.4998686314
 3669.4750977  -999.250000 12.421999931 12.250000954 0.0034000000 0.2470600009 2.5829935074 78.255996704 91.935043335 1.7617708445 -68.36599731  -999.250000 2.4180223942
 3669.6276855  -999.250000 12.385000229 12.250000954 0.0002000000 0.2513799965 2.5789999962 79.292999268 90.900428772 1.6187727451 -68.45999908  -999.250000 2.4318206310
 3669.7800293  -999.250000 12.317000389 12.250000954 -0.002000000 0.2529399991 2.5790047646 80.600997925 90.771629333 1.5480031967 -68.55100250  -999.250000 2.3757083416
 3669.9323730  -999.250000 12.279999733 12.250000954 -0.004600000 0.2542400062 2.5820064545 80.218002319 92.638092041 1.5501153469 -68.65599823  -999.250000 2.1937274933
 3670.0847168  -999.250000 12.272999763 12.250000954 -0.007200000 0.2570900023 2.5860047340 76.722999573 94.160049438 1.6221730709 -68.78900146  -999.250000 2.0239968300
 3670.2373047  -999.250000 12.272999763 12.250000954 -0.008800000 0.2618800104 2.5890095234 70.488998413 93.440231323 1.7303520441 -68.94599915  -999.250000 2.0228929520
 3670.3896484  -999.250000 12.272999763 12.250000954 -0.009500000 0.2676999867 2.5920031071 63.680000305 90.677139282 1.8401811123 -69.10399628  -999.250000 2.3020641804
 3670.5419922  -999.250000 12.272999763 12.250000954 -0.008900000 0.2731499970 2.5940017700 58.825000763 86.731124878 1.9532451630 -69.24600220  -999.250000 2.9663300514
 3670.6943359  -999.250000 12.272999763 12.250000954 -0.006800000 0.2771199942 2.5950047970 56.786998749 82.636611938 2.1063702106 -69.37300110  -999.250000 3.7956714630
 3670.8466797  -999.250000 12.272999763 12.250000954 -0.003900000 0.2791599929 2.5980031490 56.409000397 79.619071960 2.3374757767 -69.49600220  -999.250000 4.2141060829
 3670.9992676  -999.250000 12.272999763 12.250000954 -0.002100000 0.2794300020 2.6000063419 56.256999969 78.546958923 2.6349439621 -69.61699677  -999.250000 4.2810239792
 3671.1516113  -999.250000 12.272999763 12.250000954 -0.001500000 0.2784700096 2.6020016670 56.015998840 78.002098083 2.9293572903 -69.72299957  -999.250000 4.6007561684
 3671.3039551  -999.250000 12.272999763 12.250000954 -0.000300000 0.2769699991 2.6029968262 55.932998657 77.131278992 3.1522195339 -69.78399658  -999.250000 5.0720338821
 3671.4562988  -999.250000 12.272999763 12.250000954 0.0018000000 0.2756400108 2.6009969711 55.849998474 77.506690979 3.2890801430 -69.77999878  -999.250000 5.0923013687
 3671.6088867  -999.250000 12.283999443 12.250000954 0.0020999999 0.2750200033 2.5989871025 55.380001068 78.736045837 3.3386671543 -69.72000122  -999.250000 4.6564402580
 3671.7612305  -999.250000 12.305000305 12.250000954 0.0015000000 0.2753500044 2.5949935913 54.977001190 78.622535706 3.2345767021 -69.63800049  -999.250000 4.4828157425
 3671.9135742  -999.250000 12.322999954 12.250000954 0.0022000000 0.2764199972 2.5909936428 56.333000183 77.577873230 2.9705142975 -69.57399750  -999.250000 4.9918141365
 3672.0659180  -999.250000 12.328000069 12.250000954 0.0037000000 0.2771599889 2.5869917870 60.834999084 77.265174866 2.6676218510 -69.54100037  -999.250000 5.4981842041
 3672.2185059  -999.250000 12.322999954 12.250000954 0.0049999999 0.2755900025 2.5819840431 67.147003174 78.304191589 2.4315807819 -69.52799988  -999.250000 4.9858942032
 3672.3708496  -999.250000 12.326000214 12.250000954 0.0065000001 0.2695200145 2.5769934654 71.177001953 81.659301758 2.3009505272 -69.51699829  -999.250000 3.7053542137
 3672.5231934  -999.250000 12.322999954 12.250000954 0.0077000000 0.2576400042 2.5729968548 69.453002930 86.608108521 2.2700400352 -69.50399780  -999.250000 2.6793606281
 3672.6755371  -999.250000 12.312000275 12.250000954 0.0078999996 0.2402099967 2.5710017681 62.527999878 89.308975220 2.2950720787 -69.50199890  -999.250000 2.2812211514
 3672.8278809  -999.250000 12.305999756 12.250000954 0.0068999999 0.2191299945 2.5720081329 54.581001282 87.873367310 2.3401360512 -69.53099823  -999.250000 2.4200046062
 3672.9804688  -999.250000 12.290999413 12.250000954 0.0057999999 0.1975300014 2.5770223141 49.471000671 83.913307190 2.4255118370 -69.60500336  -999.250000 3.0494816303
 3673.1328125  -999.250000 12.277001381 12.250000954 0.0055999998 0.1791799963 2.5840113163 47.800998688 79.416824341 2.5853879452 -69.71700287  -999.250000 4.1362833977
 3673.2851563  -999.250000 12.272999763 12.250000954 0.0054000001 0.1673599929 2.5910096169 48.070999146 75.429450989 2.8274405003 -69.84400177  -999.250000 5.5615625381
 3673.4375000  -999.250000 12.272999763 12.250000954 0.0055999998 0.1635400057 2.5970015526 49.634998322 72.468917847 3.1023526192 -69.95400238  -999.250000 7.1596026421
 3673.5900879  -999.250000 12.272999763 12.250000954 0.0073000002 0.1666900069 2.5979905128 53.068000793 72.569458008 3.3223264217 -70.02200317  -999.250000 8.1553316116
 3673.7424316  -999.250000 12.272999763 12.250000954 0.0091000004 0.1738799959 2.5949871540 58.097000122 75.957466125 3.4240112305 -70.03299713  -999.250000 7.3207163811
