# LAS format log file from PETREL
# Project units are specified as depth units
#==================================================================
~Version information
VERS.   2.0:
WRAP.   NO:
#==================================================================
~Well
STRT .m      2339.3889160 :
STOP .m      3955.4384766 :
STEP .m     0.00000000 :
NULL .        -999.250000 :
COMP.           : COMPANY
WELL.  34/8-6   : WELL
FLD.            : FIELD
LOC.            : LOCATION
SRVC.           : SERVICE COMPANY
DATE.  2018-09-11 14:48:53   : Log Export Date {yyyy-MM-dd HH:mm:ss}
PROV.           : PROVINCE
UWI.   34/8-6   : UNIQUE WELL ID
API.            : API NUMBER
#==================================================================
~Curve
DEPT .m                   : DEPTH
Lithology_geolink ._      : Lithology_geolink
CALI .in                  : CALI
DRHO .g/cm3               : DRHO
NPHI .m3/m3               : NPHI
RHOB .g/cm3               : RHOB
GR .gAPI                  : GR
DTC .us/ft                : DTC
RDEP .ohm.m               : RDEP
SP .mV                    : SP
RMED .ohm.m               : RMED
~Parameter
#==================================================================
~Ascii
# ...
 3090.4162598  -999.250000 13.421879768 -0.006352847 0.2814343870 2.5049755573 93.438247681 92.099876404 1.7950814962 132.65029907 2.4517157078
 3090.5686035  -999.250000 13.351559639 -0.004008949 0.2892475128 2.5102717876 93.939727783 92.000907898 1.7630159855 132.89839172 2.4458866119
 3090.7209473  -999.250000 13.343739510 -0.004009690 0.2956663072 2.5138919353 95.137855530 92.501159668 1.7761397362 132.02410889 2.4188482761
 3090.8735352  -999.250000 13.328129768 -0.003677039 0.3084209859 2.5170378685 100.87709808 92.800003052 1.7916524410 131.65469360 2.4038903713
 3091.0258789  -999.250000 13.335941315 -0.004713478 0.3048888147 2.5104539394 101.37359619 92.801139832 1.8183019161 132.77551270 2.3928050995
 3091.1782227  -999.250000 13.320309639 -0.003861554 0.2976278961 2.5135488510 100.55288696 93.500137329 1.8331987858 133.27459717 2.3741590977
 3091.3305664  -999.250000 13.320309639 -0.005604663 0.2807424963 2.5172972679 95.055633545 93.599266052 1.8144307137 133.02470398 2.3580174446
 3091.4831543  -999.250000 13.320309639 -0.003926481 0.2823973894 2.5188481808 91.818351746 93.395133972 1.8130058050 132.89540100 2.3778235912
 3091.6354980  -999.250000 13.320309639 -0.002124232 0.2801701128 2.5197837353 93.249893188 92.200096130 1.8117073774 131.77500916 2.4345507622
 3091.7878418  -999.250000 13.320309639 0.0025234390 0.2827681005 2.5238809586 93.503334045 91.999656677 1.8032417297 131.52539063 2.5148534775
 3091.9401855  -999.250000 13.320309639 0.0036473139 0.2787500918 2.5269689560 95.549713135 91.800354004 1.7912434340 131.77499390 2.5404713154
 3092.0922852  -999.250000 13.320309639 0.0076412810 0.2948884964 2.5411689281 89.126510620 91.900466919 1.7946339846 131.77510071 2.4185099602
 3092.2446289  -999.250000 13.320309639 0.0081506809 0.2772529125 2.5400080681 91.123809814 92.501014709 1.8001480103 131.89990234 2.3939380646
 3092.3972168  -999.250000 13.320309639 0.0093048131 0.2911148965 2.5456929207 90.062606812 93.399909973 1.8287680149 131.77499390 2.3939380646
 3092.5495605  -999.250000 13.320309639 0.0002743671 0.2976196110 2.5296859741 94.187110901 93.599899292 1.8205039501 131.77479553 2.3917260170
 3092.7019043  -999.250000 13.320309639 -0.000390836 0.2998909056 2.5282750130 92.686988831 93.094886780 1.6688350439 130.90020752 2.3862390518
 3092.8542480  -999.250000 13.320309639 -0.003160127 0.2782410085 2.5247240067 91.872566223 90.800483704 1.5676720142 131.27549744 2.4197189808
 3093.0068359  -999.250000 13.320309639 -0.009863996 0.2663300037 2.5279788971 89.438072205 91.299888611 1.5686559677 131.77490234 2.4810690880
 3093.1591797  -999.250000 13.320309639 -0.016901881 0.2757436931 2.5585370064 91.874923706 91.300163269 1.5680480003 131.90010071 2.5020670891
 3093.3115234  -999.250000 13.320340157 -0.006764985 0.2731462121 2.5771648884 91.253608704 92.305473328 1.5686060190 132.52459717 2.5747699738
 3093.4638672  -999.250000 13.367039680 -0.007078076 0.2712484002 2.5606501102 98.436790466 94.899780273 1.5686930418 131.64979553 2.3492379189
 3093.6164551  -999.250000 13.195369720 -0.011323760 0.2702600062 2.5159618855 97.625289917 94.600112915 1.5691219568 131.40010071 2.1496200562
 3093.7687988  -999.250000 13.156250000 -0.004394772 0.2820529044 2.5056369305 97.437469482 94.600013733 1.5699659586 131.27499390 2.1477680206
 3093.9211426  -999.250000 13.179689407 0.0030838221 0.2668063939 2.5092639923 93.000259399 94.700798035 1.5714919567 130.77499390 2.1442120075
 3094.0734863  -999.250000 13.179689407 0.0002285930 0.2712999880 2.5052630901 93.689270020 95.100082397 1.5724200010 130.77540588 2.1424379349
 3094.2260742  -999.250000 13.179689407 -0.000638063 0.2704950869 2.5098249912 96.061347961 95.199966431 1.5726920366 131.27470398 2.1415529251
 3094.3784180  -999.250000 13.164059639 -0.004530686 0.2775909901 2.5085890293 99.124641418 95.599960327 1.5721210241 131.64990234 2.1397840977
 3094.5307617  -999.250000 13.179689407 -0.004852403 0.2587623894 2.5105519295 100.68679810 96.000404358 1.5728960037 131.77479553 2.1371340752
 3094.6831055  -999.250000 13.179689407 -0.005519216 0.2677643895 2.5106248856 98.061447144 97.599113464 1.5657299757 130.89959717 2.1318559647
 3094.8354492  -999.250000 13.179671288 -0.004857546 0.2677634954 2.5138440132 96.376052856 97.199516296 1.5484420061 130.27490234 2.1292269230
 3094.9880371  -999.250000 13.164071083 -0.007454299 0.2668279111 2.5044770241 97.437240601 96.700119019 1.5143270493 130.14999390 2.1274809837
 3095.1403809  -999.250000 13.179689407 -0.004430119 0.2499547005 2.5058059692 101.37500000 96.599983215 1.5137959719 130.65010071 2.1318569183
 3095.2927246  -999.250000 13.164071083 -0.003985591 0.2496849000 2.5082709789 101.12349701 96.400627136 1.5134660006 131.52510071 2.1275339127
 3095.4450684  -999.250000 13.179689407 -0.002437577 0.2601059973 2.5126791000 98.059806824 96.700286865 1.5109959841 131.65020752 2.1265449524
 3095.5976563  -999.250000 13.179689407 -0.004766439 0.2670792937 2.5088698864 94.938652039 96.999893188 1.5012300014 131.89990234 2.0565528870
 3095.7500000  -999.250000 13.093749046 -0.006193101 0.2816627920 2.4927740097 92.250000000 97.599983215 1.4870510101 131.64999390 1.9832979441
 3095.9023438  -999.250000 13.062509537 -0.008595806 0.2947326899 2.4820029736 91.062248230 98.099792480 1.4601739645 131.52520752 1.9916859865
 3096.0546875  -999.250000 13.093779564 -0.011450430 0.2945845127 2.4784710407 90.373657227 97.999839783 1.4290139675 132.15029907 1.9901549816
 3096.2072754  -999.250000 13.132789612 -0.012288870 0.2852300107 2.4818780422 88.563392639 97.800102234 1.4194799662 132.52479553 1.9886770248
 3096.3596191  -999.250000 13.156250000 -0.007795601 0.2758040130 2.4985311031 88.375022888 97.900009155 1.4197160006 132.64999390 1.9878649712
 3096.5119629  -999.250000 13.179689407 -0.006126832 0.2961842120 2.4927270412 94.563583374 97.700019836 1.4190030098 132.64979553 1.9878629446
 3096.6643066  -999.250000 13.179689407 -0.003727296 0.3349756002 2.4999969006 98.999847412 97.800003052 1.4174749851 132.02439880 1.9805870056
 3096.8166504  -999.250000 13.179689407 -0.004080303 0.3367548883 2.4901900291 98.746871948 97.800018311 1.4219440222 131.02490234 1.9644930363
 3096.9692383  -999.250000 13.179689407 -0.002752459 0.3363131881 2.5012800694 95.563301086 97.800003052 1.4329270124 130.89999390 1.9630520344
 3097.1215820  -999.250000 13.179689407 -0.006258931 0.3147892952 2.4986870289 95.750343323 97.899955750 1.4583699703 130.77510071 1.9667329788
 3097.2739258  -999.250000 13.179689407 -0.007998535 0.3280918896 2.5030050278 98.687622070 97.799552917 1.4789019823 131.52479553 1.9742289782
 3097.4262695  -999.250000 13.179689407 -0.007282977 0.3119480014 2.4967939854 98.936492920 97.598915100 1.4838160276 131.15040588 1.9782340527
 3097.5788574  -999.250000 13.179689407 -0.006661411 0.3020378947 2.4965262413 97.750450134 96.300506592 1.4885879755 131.64979553 2.0346949100
 3097.7312012  -999.250000 13.179689407 -0.006499113 0.2907676101 2.4959650040 93.750030518 94.100028992 1.5220890045 131.39999390 2.1462659836
 3097.8835449  -999.250000 13.085960388 -0.005842006 0.2733309865 2.4996340275 91.938858032 93.195098877 1.6278159618 131.52499390 2.2474908829
 3098.0358887  -999.250000 13.156270027 -0.001982293 0.2729544044 2.5068299770 95.688591003 90.699707031 1.7220480442 131.52510071 2.2751290798
 3098.1884766  -999.250000 13.179678917 0.0003546061 0.2725076973 2.5160160065 97.186737061 90.300216675 1.7560629845 131.64990234 2.2872331142
 3098.3408203  -999.250000 13.179689407 0.0047744578 0.2951605022 2.5249330997 102.43679810 90.100036621 1.7581770420 132.27490234 2.2932500839
 3098.4931641  -999.250000 13.179689407 0.0071490682 0.2857136130 2.5291020870 96.124870300 90.099998474 1.7578469515 131.52510071 2.3001949787
 3098.6455078  -999.250000 13.187499046 0.0085258409 0.2791923881 2.5363650322 95.559661865 90.000236511 1.7628020048 131.89970398 2.3272829056
 3098.7978516  -999.250000 13.179700851 0.0053609540 0.2587937117 2.5368840694 90.879028320 90.100112915 1.7663190365 131.40020752 2.3787400723
