# LAS format log file from PETREL
# Project units are specified as depth units
#==================================================================
~Version information
VERS.   2.0:
WRAP.   NO:
#==================================================================
~Well
STRT .m      3213.0371094 :
STOP .m      5477.8535156 :
STEP .m     0.00000000 :
NULL .        -999.250000 :
COMP.           : COMPANY
WELL.  34/8-7   : WELL
FLD.            : FIELD
LOC.            : LOCATION
SRVC.           : SERVICE COMPANY
DATE.  2018-09-11 14:48:53   : Log Export Date {yyyy-MM-dd HH:mm:ss}
PROV.           : PROVINCE
UWI.   34/8-7   : UNIQUE WELL ID
API.            : API NUMBER
#==================================================================
~Curve
DEPT .m                   : DEPTH
Lithology_geolink ._      : Lithology_geolink
CALI .in                  : CALI
BS .in                    : BS
DRHO .g/cm3               : DRHO
NPHI .m3/m3               : NPHI
RHOB .g/cm3               : RHOB
GR .gAPI                  : GR
DTC .us/ft                : DTC
RDEP .ohm.m               : RDEP
SP .mV                    : SP
RSHA .ohm.m               : RSHA
RMED .ohm.m               : RMED
~Parameter
#==================================================================
~Ascii
# ...
 3512.9604492  -999.250000 12.578000069 12.250000954 0.0020999999 0.0437700003 2.6090030670 31.065999985 60.005851746 13.085570335 -64.00499725  -999.250000 30.631986618
 3513.1127930  -999.250000 12.578000069 12.250000954 0.0014000000 0.0419300012 2.6100029945 30.701999664 60.238208771 15.131411552 -64.14399719  -999.250000 41.268554688
 3513.2651367  -999.250000 12.578000069 12.250000954 0.0020000001 0.0431200005 2.6119999886 29.948999405 59.931087494 14.761133194 -64.30400085  -999.250000 73.071746826
 3513.4174805  -999.250000 12.578000069 12.250000954 0.0012000001 0.0495299995 2.6119952202 31.040000916 59.348136902 12.347208977 -64.45300293  -999.250000 654.37658691
 3513.5700684  -999.250000 12.578000069 12.250000954 -0.000200000 0.0640999973 2.6089839935 35.912998199 58.728385925 9.3540706635 -64.57299805  -999.250000 1557.4058838
 3513.7224121  -999.250000 12.578000069 12.250000954 0.0012000001 0.0882999972 2.6039857864 44.555000305 59.358585358 6.8813958168 -64.67400360  -999.250000 1343.4466553
 3513.8747559  -999.250000 12.578000069 12.250000954 0.0027999999 0.1207299978 2.5949840546 54.942001343 63.652465820 5.2574439049 -64.78199768  -999.250000 427.38543701
 3514.0270996  -999.250000 12.586000443 12.250000954 0.0029000000 0.1571200043 2.5849871635 64.226997375 71.336128235 4.2869601250 -64.91600037  -999.250000 41.330467224
 3514.1796875  -999.250000 12.611001015 12.250000954 0.0046999999 0.1917600036 2.5769839287 70.216003418 79.656814575 3.6374127865 -65.07900238  -999.250000 5.4807825089
 3514.3320313  -999.250000 12.663000107 12.250000954 0.0074000000 0.2195799947 2.5719969273 72.263999939 86.179176331 3.1423923969 -65.24199677  -999.250000 3.5434982777
 3514.4843750  -999.250000 12.713000298 12.250000954 0.0083999997 0.2376800030 2.5699999332 71.309997559 89.530334473 2.7635817528 -65.36299896  -999.250000 3.2311747074
 3514.6367188  -999.250000 12.727001190 12.250000954 0.0080000004 0.2459499985 2.5700016022 69.292999268 90.206604004 2.5027532578 -65.40899658  -999.250000 3.3403155804
 3514.7890625  -999.250000 12.727001190 12.250000954 0.0071000000 0.2465499938 2.5710000992 67.735000610 90.251220703 2.3488991261 -65.37799835  -999.250000 3.5372035503
 3514.9416504  -999.250000 12.727001190 12.250000954 0.0057999999 0.2426500022 2.5709969997 66.822998047 90.632942200 2.2860159874 -65.28500366  -999.250000 3.6640160084
 3515.0939941  -999.250000 12.727001190 12.250000954 0.0038000001 0.2372500002 2.5699999332 66.350997925 90.562370300 2.2910575867 -65.15299988  -999.250000 3.6689438820
 3515.2463379  -999.250000 12.727001190 12.250000954 0.0008000000 0.2326100022 2.5699999332 66.496002197 89.175033569 2.3270511627 -64.99600220  -999.250000 3.6340625286
 3515.3986816  -999.250000 12.727001190 12.250000954 -0.001000000 0.2301699966 2.5700016022 67.196998596 86.670356750 2.3590352535 -64.83100128  -999.250000 3.6732037067
 3515.5512695  -999.250000 12.727001190 12.250000954 -0.000600000 0.2305299938 2.5710031986 67.759002686 84.866912842 2.3810479641 -64.68599701  -999.250000 3.8001184464
 3515.7036133  -999.250000 12.727001190 12.250000954 0.0001000000 0.2333299965 2.5720000267 67.444000244 84.390266418 2.3960256577 -64.60199738  -999.250000 3.8367321491
 3515.8559570  -999.250000 12.727001190 12.250000954 0.0007000000 0.2374899983 2.5719983578 66.203002930 84.878051758 2.4120383263 -64.60600281  -999.250000 3.6697196960
 3516.0083008  -999.250000 12.727001190 12.250000954 0.0023000001 0.2417600006 2.5710000992 64.790000916 85.912742615 2.4360241890 -64.70200348  -999.250000 3.4949839115
 3516.1608887  -999.250000 12.727001190 12.250000954 0.0041999999 0.2452200055 2.5709969997 64.166000366 86.132850647 2.4509968758 -64.87000275  -999.250000 3.4853551388
 3516.3132324  -999.250000 12.727001190 12.250000954 0.0052000000 0.2474700063 2.5699968338 64.709999084 85.813346863 2.4499857426 -65.07099915  -999.250000 3.5961730480
 3516.4655762  -999.250000 12.727001190 12.250000954 0.0046999999 0.2484599948 2.5679969788 66.061996460 85.768997192 2.4409918785 -65.26100159  -999.250000 3.7040736675
 3516.6179199  -999.250000 12.727001190 12.250000954 0.0034000000 0.2484100014 2.5659968853 67.459999084 86.266792297 2.4359953403 -65.41100311  -999.250000 3.7499582767
 3516.7702637  -999.250000 12.727001190 12.250000954 0.0019000000 0.2478599995 2.5639967918 68.321998596 87.161216736 2.4330112934 -65.52200317  -999.250000 3.7238702774
 3516.9228516  -999.250000 12.727001190 12.250000954 -0.000100000 0.2473399937 2.5619969368 68.658996582 87.643539429 2.4400513172 -65.61499786  -999.250000 3.6428556442
 3517.0751953  -999.250000 12.727001190 12.250000954 -0.001400000 0.2467799932 2.5599982738 68.872001648 87.781013489 2.4721040726 -65.70999908  -999.250000 3.5528862476
 3517.2275391  -999.250000 12.727001190 12.250000954 -0.001600000 0.2449399978 2.5590016842 69.072998047 87.930015564 2.5371825695 -65.81600189  -999.250000 3.4819281101
 3517.3798828  -999.250000 12.727001190 12.250000954 -0.002100000 0.2396599948 2.5600016117 68.682998657 88.211013794 2.6512868404 -65.92500305  -999.250000 3.4369711876
 3517.5324707  -999.250000 12.727001190 12.250000954 -0.004200000 0.2288900018 2.5610096455 66.948997498 88.337547302 2.8308384418 -66.01999664  -999.250000 3.4190926552
 3517.6848145  -999.250000 12.727001190 12.250000954 -0.005000000 0.2118400037 2.5640046597 63.561000824 87.047668457 3.0925433636 -66.08699799  -999.250000 3.4483220577
 3517.8371582  -999.250000 12.727001190 12.250000954 -0.001100000 0.1898600012 2.5670063496 58.784000397 84.205268860 3.4316217899 -66.11599731  -999.250000 3.6501729488
 3517.9895020  -999.250000 12.753000259 12.250000954 0.0054000001 0.1662199944 2.5710082054 53.388999939 80.784217834 3.8197565079 -66.10399628  -999.250000 4.3840322495
 3518.1420898  -999.250000 12.842000008 12.250000954 0.0098000001 0.1450199932 2.5760223866 48.591999054 76.924163818 4.2928781509 -66.05100250  -999.250000 6.2835087776
 3518.2944336  -999.250000 12.989998817 12.250000954 0.0125000002 0.1296599954 2.5830111504 45.575000763 71.839073181 4.8791327477 -65.95800018  -999.250000 9.5631599426
 3518.4467773  -999.250000 13.173000336 12.250000954 0.0154999997 0.1219199970 2.5900094509 44.676998138 67.253814697 5.5860352516 -65.83000183  -999.250000 13.405119896
 3518.5991211  -999.250000 13.359000206 12.250000954 0.0146000003 0.1220500022 2.5960063934 45.173000336 65.270370483 6.2312035561 -65.69100189  -999.250000 15.972291946
 3518.7517090  -999.250000 13.473999977 12.250000954 0.0082999999 0.1294700056 2.6000030041 46.049999237 64.371246338 6.3563389778 -65.58200073  -999.250000 16.152597427
 3518.9040527  -999.250000 13.500000000 12.250000954 0.0024000001 0.1432799995 2.6009936333 47.331001282 64.012252808 5.8377680779 -65.53800201  -999.250000 15.716143608
 3519.0563965  -999.250000 13.500000000 12.250000954 0.0009000000 0.1618800014 2.5969903469 49.842998505 65.051902771 5.0689263344 -65.56400299  -999.250000 15.802813530
 3519.2087402  -999.250000 13.500000000 12.250000954 0.0006000000 0.1824299991 2.5909872055 53.221000671 67.765373230 4.3992643356 -65.63400269  -999.250000 13.810730934
 3519.3610840  -999.250000 13.496999741 12.250000954 -0.000300000 0.2011899948 2.5829887390 55.473999023 72.205001831 3.9406154156 -65.70099640  -999.250000 9.2758693695
 3519.5136719  -999.250000 13.472000122 12.250000954 0.0022000000 0.2150200009 2.5759871006 54.845001221 77.886558533 3.7006256580 -65.73799896  -999.250000 5.4519052505
 3519.6660156  -999.250000 13.381999969 12.250000954 0.0122999996 0.2229299992 2.5719983578 51.786998749 83.442085266 3.5837197304 -65.75099945  -999.250000 3.8649423122
 3519.8183594  -999.250000 13.260999680 12.250000954 0.0205000006 0.2265599966 2.5710017681 49.006999969 85.269348145 3.4086008072 -65.76899719  -999.250000 3.8306186199
 3519.9707031  -999.250000 13.200999260 12.250000954 0.0197000001 0.2286999971 2.5720031261 49.160999298 81.834320068 3.1596844196 -65.81800079  -999.250000 4.8411445618
 3520.1232910  -999.250000 13.190999985 12.250000954 0.0165999997 0.2312300056 2.5740094185 52.799999237 77.448928833 2.9627857208 -65.89600372  -999.250000 6.1774353981
