# LAS format log file from PETREL
# Project units are specified as depth units
#==================================================================
~Version information
VERS.   2.0:
WRAP.   NO:
#==================================================================
~Well
STRT .m      3213.0371094 :
STOP .m      5477.8535156 :
STEP .m     0.00000000 :
NULL .        -999.250000 :
COMP.           : COMPANY
WELL.  34/8-7   : WELL
FLD.            : FIELD
LOC.            : LOCATION
SRVC.           : SERVICE COMPANY
DATE.  2018-09-11 14:48:53   : Log Export Date {yyyy-MM-dd HH:mm:ss}
PROV.           : PROVINCE
UWI.   34/8-7   : UNIQUE WELL ID
API.            : API NUMBER
#==================================================================
~Curve
DEPT .m                   : DEPTH
Lithology_geolink ._      : Lithology_geolink
CALI .in                  : CALI
BS .in                    : BS
DRHO .g/cm3               : DRHO
NPHI .m3/m3               : NPHI
RHOB .g/cm3               : RHOB
GR .gAPI                  : GR
DTC .us/ft                : DTC
RDEP .ohm.m               : RDEP
SP .mV                    : SP
RSHA .ohm.m               : RSHA
RMED .ohm.m               : RMED
~Parameter
#==================================================================
~Ascii
# ...
 4719.9682617 5.0000000000 16.014999390 8.5000000000 0.0011000000 0.1301899999 2.5079998970 43.354000092 74.651550293 15.505999565 -72.71399689 5.9949998856 10.795999527
 4720.1206055 5.0000000000 15.927000999 8.5000000000 -0.002200000 0.1271000057 2.5039999485 42.958000183 74.490982056 15.781999588 -72.57900238 5.9590001106 11.008000374
 4720.2734375 4.0000000000 15.840000153 8.5000000000 -0.005100000 0.1239499971 2.5009999275 42.247001648 74.445503235 16.197610855 -72.41000366 5.9460000992 11.328186035
 4720.4257813 4.0000000000 15.756999016 8.5000000000 -0.008500000 0.1202900037 2.4990000725 41.300998688 74.210662842 16.700954437 -72.22499847 6.0219998360 11.698483467
 4720.5781250 4.0000000000 15.668999672 8.5000000000 -0.010300000 0.1158199981 2.5000000000 40.192001343 73.905158997 17.312032700 -72.05400085 6.6360001564 12.162134171
 4720.7304688 4.0000000000 15.579998970 8.5000000000 -0.010200000 0.1105299965 2.5009999275 39.025001526 73.948509216 18.258272171 -71.92099762 7.7909998894 12.828199387
 4720.8828125 4.0000000000 15.489999771 8.5000000000 -0.010300000 0.1047300026 2.5050001144 38.062000275 74.076606750 19.278295517 -71.83399963 8.8870000839 13.513635635
 4721.0351563 4.0000000000 15.392001152 8.5000000000 -0.009600000 0.0988799930 2.5090000629 37.556999207 73.916450500 19.995000839 -71.78099823 9.1920003891 14.024000168
 4721.1875000 4.0000000000 15.284999847 8.5000000000 -0.007000000 0.0933500007 2.5139999390 37.534999847 73.320037842 20.429000854 -71.73999786 9.3339996338 14.413000107
 4721.3398438 4.0000000000 15.187000275 8.5000000000 -0.003500000 0.0882400125 2.5190000534 37.719001770 72.496627808 20.634000778 -71.68399811 10.248999596 14.657999992
 4721.4921875 4.0000000000 15.102998734 8.5000000000 -0.001800000 0.0833600014 2.5220000744 37.763000488 72.031059265 20.639999390 -71.59400177 11.402999878 14.710000038
 4721.6450195 4.0000000000 15.022000313 8.5000000000 -0.002700000 0.0784799978 2.5239999294 37.625999451 71.885223389 20.499513626 -71.46600342 12.366999626 14.689028740
 4721.7973633 4.0000000000 14.942999840 8.5000000000 -0.004600000 0.0736000016 2.5239999294 37.590999603 71.549087524 20.347496033 -71.30799866 13.385000229 14.698051453
 4721.9497070 4.0000000000 14.873000145 8.5000000000 -0.006700000 0.0689600036 2.5230000019 37.890998840 71.143775940 20.190410614 -71.12699890 14.314999580 14.714051247
 4722.1020508 4.0000000000 14.814000130 8.5000000000 -0.009000000 0.0649899989 2.5209999084 38.377998352 71.091476440 20.006803513 -70.92800140 15.659999847 14.730291367
 4722.2543945 4.0000000000 14.760000229 8.5000000000 -0.009600000 0.0619900003 2.5209999084 38.599998474 71.299377441 19.945749283 -70.71199799 16.687999725 14.821057320
 4722.4067383 4.0000000000 14.703000069 8.5000000000 -0.008600000 0.0599800013 2.5199999809 38.161998749 71.550773621 19.868000031 -70.48600006 16.247999191 14.838999748
 4722.5590820 4.0000000000 14.644000053 8.5000000000 -0.008200000 0.0587599985 2.5209999084 37.175998688 71.859771729 19.448999405 -70.25299835 15.892000198 14.607999802
 4722.7114258 5.0000000000 14.587999344 8.5000000000 -0.006700000 0.0581299998 2.5209999084 36.358001709 72.208366394 18.832000732 -70.01499939 16.183000565 14.296999931
 4722.8642578 5.0000000000 14.541000366 8.5000000000 -0.003700000 0.0580700003 2.5220000744 36.604000092 72.469390869 18.255710602 -69.76799774 16.613000870 14.035366058
 4723.0166016 5.0000000000 14.484999657 8.5000000000 -0.002700000 0.0586600006 2.5230000019 38.251998901 72.608573914 17.854482651 -69.51399994 16.856000900 13.837795258
 4723.1689453 5.0000000000 14.420000076 8.5000000000 -0.004000000 0.0599200018 2.5220000744 40.658000946 72.618385315 17.693454742 -69.25800323 17.372999191 13.773922920
 4723.3212891 5.0000000000 14.361000061 8.5000000000 -0.004500000 0.0617100000 2.5209999084 42.778999329 72.514297485 17.523410797 -69.01200104 17.740999222 13.749750137
 4723.4736328 5.0000000000 14.309000015 8.5000000000 -0.005000000 0.0636800006 2.5179998875 44.055999756 72.629554749 17.339996338 -68.78900146 17.325000763 13.671993256
 4723.6259766 5.0000000000 14.269000053 8.5000000000 -0.006800000 0.0655300021 2.5150001049 44.683998108 72.896713257 17.340003967 -68.59600067 16.663000107 13.670827866
 4723.7783203 5.0000000000 14.230999947 8.5000000000 -0.008200000 0.0671400130 2.5109999180 44.924999237 73.001396179 17.652999878 -68.43299866 15.847000122 13.928999901
 4723.9306641 5.0000000000 14.197999954 8.5000000000 -0.010000000 0.0685599968 2.5069999695 44.590999603 73.088027954 18.170000076 -68.29100037 15.218999863 14.342000008
 4724.0830078 5.0000000000 14.172000885 8.5000000000 -0.012400000 0.0699099973 2.5050001144 43.641998291 73.119560242 18.636999130 -68.16000366 14.750000000 14.680999756
 4724.2358398 5.0000000000 14.140000343 8.5000000000 -0.013100000 0.0711600035 2.5039999485 42.700000763 73.042541504 18.867744446 -68.03399658 14.286000252 14.810804367
 4724.3881836 5.0000000000 14.102000237 8.5000000000 -0.010200000 0.0721499994 2.5039999485 42.566001892 73.089256287 18.787115097 -67.91699982 13.685999870 14.749516487
 4724.5405273 5.0000000000 14.057999611 8.5000000000 -0.006300000 0.0727100000 2.5050001144 43.354999542 73.179382324 18.510601044 -67.81400299 13.600000381 14.598215103
 4724.6928711 5.0000000000 14.010999680 8.5000000000 -0.002900000 0.0728799999 2.5069999695 44.465999603 73.200424194 18.074474335 -67.72899628 14.293000221 14.353079796
 4724.8452148 5.0000000000 13.972000122 8.5000000000 -0.000200000 0.0729499981 2.5090000629 45.154998779 73.227546692 17.598806381 -67.66100311 14.753999710 14.066246033
 4724.9975586 5.0000000000 13.942000389 8.5000000000 0.0023000001 0.0734099969 2.5130000114 44.944000244 73.133102417 17.225999832 -67.60099792 14.657999992 13.831000328
 4725.1499023 5.0000000000 13.914999962 8.5000000000 0.0022000000 0.0746100023 2.5169999599 43.898998260 73.082771301 16.937999725 -67.54100037 14.458000183 13.638999939
 4725.3022461 5.0000000000 13.892998695 8.5000000000 -0.001700000 0.0766299963 2.5230000019 42.627998352 73.309761047 16.649000168 -67.47299957 15.116000175 13.465999603
 4725.4545898 5.0000000000 13.873000145 8.5000000000 -0.006300000 0.0791800022 2.5280001163 41.953998566 73.660224915 16.304000854 -67.39299774 16.087999344 13.267000198
 4725.6074219 5.0000000000 13.857000351 8.5000000000 -0.009400000 0.0818000063 2.5339999199 42.328998566 74.039901733 15.958833694 -67.30300140 15.432000160 13.009205818
 4725.7597656 5.0000000000 13.837999344 8.5000000000 -0.012000000 0.0840699971 2.5380001068 43.488998413 74.380020142 15.594403267 -67.21099854 14.147000313 12.760961533
 4725.9121094 5.0000000000 13.811000824 8.5000000000 -0.013800000 0.0858100131 2.5409998894 44.808998108 74.618156433 15.095816612 -67.13700104 13.927000046 12.436438560
 4726.0644531 5.0000000000 13.788000107 8.5000000000 -0.013500000 0.0870400071 2.5420000553 46.020999908 74.668327332 14.414621353 -67.10299683 14.486000061 11.949407578
 4726.2167969 5.0000000000 13.776000023 8.5000000000 -0.012200000 0.0878400132 2.5409998894 47.395000458 74.528633118 13.672508240 -67.12500000 14.677000046 11.452275276
 4726.3691406 5.0000000000 13.762999535 8.5000000000 -0.010300000 0.0881899968 2.5390000343 49.122001648 74.213386536 12.895000458 -67.20600128 14.623000145 10.913999557
 4726.5214844 5.0000000000 13.739001274 8.5000000000 -0.008600000 0.0879599974 2.5369999409 50.980998993 73.933868408 12.317999840 -67.33100128 15.001999855 10.475999832
 4726.6738281 5.0000000000 13.720000267 8.5000000000 -0.008600000 0.0869999975 2.5380001068 52.710998535 73.967529297 12.381999969 -67.47299957 15.682999611 10.524999619
 4726.8266602 5.0000000000 13.706999779 8.5000000000 -0.009200000 0.0853300020 2.5409998894 54.181999207 74.017616272 13.105112076 -67.61599731 15.949999809 11.086383820
 4726.9790039 5.0000000000 13.689999580 8.5000000000 -0.010100000 0.0832799971 2.5469999313 55.129001617 73.848770142 14.073336601 -67.75199890 15.553000450 11.828205109
 4727.1313477 5.0000000000 13.675999641 8.5000000000 -0.010400000 0.0815099999 2.5529999733 54.860000610 73.565849304 14.175436020 -67.88300323 15.237000465 11.889906883
