# LAS format log file from PETREL
# Project units are specified as depth units
#==================================================================
~Version information
VERS.   2.0:
WRAP.   NO:
#==================================================================
~Well
STRT .m      3213.0371094 :
STOP .m      5477.8535156 :
STEP .m     0.00000000 :
NULL .        -999.250000 :
COMP.           : COMPANY
WELL.  34/8-7   : WELL
FLD.            : FIELD
LOC.            : LOCATION
SRVC.           : SERVICE COMPANY
DATE.  2018-09-11 14:48:53   : Log Export Date {yyyy-MM-dd HH:mm:ss}
PROV.           : PROVINCE
UWI.   34/8-7   : UNIQUE WELL ID
API.            : API NUMBER
#==================================================================
~Curve
DEPT .m                   : DEPTH
Lithology_geolink ._      : Lithology_geolink
CALI .in                  : CALI
BS .in                    : BS
DRHO .g/cm3               : DRHO
NPHI .m3/m3               : NPHI
RHOB .g/cm3               : RHOB
GR .gAPI                  : GR
DTC .us/ft                : DTC
RDEP .ohm.m               : RDEP
SP .mV                    : SP
RSHA .ohm.m               : RSHA
RMED .ohm.m               : RMED
~Parameter
#==================================================================
~Ascii
 3213.0371094  -999.250000 12.421999931 12.250000954 -1.047999978 0.2479799986 1.1655399799 69.572998047 93.839927673 1.6660256386 -54.49700165  -999.250000 2.4590225220
 3213.1894531  -999.250000 12.421999931 12.250000954 -1.042000055 0.3192000091 1.5024054050 69.434997559 93.736488342 1.6820176840 -53.72299957  -999.250000 2.4730143547
 3213.3420410  -999.250000 12.421999931 12.250000954 -1.042000055 0.3728699982 1.7554928064 69.670997620 93.397994995 1.6930127144 -52.97700119  -999.250000 2.4820415974
 3213.4943848  -999.250000 12.421999931 12.250000954 -1.050999999 0.4054999948 1.9091169834 69.725997925 92.811950684 1.6969840527 -52.43299866  -999.250000 2.4950222969
 3213.6467285  -999.250000 12.421999931 12.250000954 -1.065000057 0.4211100042 1.9820464849 69.263999939 92.317176819 1.6869664192 -52.04999924  -999.250000 2.5089569092
 3213.7990723  -999.250000 12.421999931 12.250000954 -1.078999996 0.4274399877 2.0110223293 68.600997925 92.364006042 1.6659920216 -51.64599991  -999.250000 2.4818751812
 3213.9516602  -999.250000 12.421999931 12.250000954 -1.095999956 0.4309499860 2.0250225067 68.044998169 92.949554443 1.6610575914 -51.06600189  -999.250000 2.4037473202
 3214.1040039  -999.250000 12.421999931 12.250000954 -1.108000040 0.4329099953 2.0319936275 67.291999817 93.699195862 1.6790080070 -50.32600021  -999.250000 2.3249535561
 3214.2563477  -999.250000 12.421999931 12.250000954 -1.110999942 0.4326399863 2.0279760361 65.916000366 94.354507446 1.6839903593 -49.64799881  -999.250000 2.2960257530
 3214.4086914  -999.250000 12.421999931 12.250000954 -1.106999993 0.4303599894 2.0129647255 64.235000610 94.599548340 1.6780015230 -49.36100006  -999.250000 2.3120272160
 3214.5612793  -999.250000 12.421999931 12.250000954 -1.092000008 0.4270899892 1.9909296036 63.271999359 94.571563721 1.6790064573 -49.73500061  -999.250000 2.3289935589
 3214.7136230  -999.250000 12.421999931 12.250000954 -1.067000031 0.4242199957 1.9689711332 63.790000916 94.608047485 1.6809887886 -50.84400177  -999.250000 2.3269805908
 3214.8659668  -999.250000 12.421999931 12.250000954 -1.047999978 0.4227100015 1.9509840012 65.526000977 94.587341309 1.6739743948 -52.49800110  -999.250000 2.3150017262
 3215.0183105  -999.250000 12.421999931 12.250000954 -1.041000009 0.4223900139 1.9409967661 67.405998230 94.337455750 1.6579679251 -54.28400040  -999.250000 2.3160288334
 3215.1706543  -999.250000 12.421999931 12.250000954 -1.042999983 0.4221099913 1.9390064478 68.429000854 93.874938965 1.6379776001 -55.68099976  -999.250000 2.3340272903
 3215.3232422  -999.250000 12.421999931 12.250000954 -1.039999962 0.4204899967 1.9430111647 68.406997681 93.595573425 1.6239695549 -56.25299835  -999.250000 2.3509871960
 3215.4755859  -999.250000 12.421999931 12.250000954 -1.032999992 0.4168199897 1.9500129223 68.022003174 93.820968628 1.6049727201 -55.83399963  -999.250000 2.3429517746
 3215.6279297  -999.250000 12.421999931 12.250000954 -1.023000002 0.4113700092 1.9580079317 68.263999939 94.300750732 1.5879936218 -54.60100174  -999.250000 2.3129470348
 3215.7802734  -999.250000 12.421999931 12.250000954 -1.014000058 0.4053100049 1.9630016088 69.665000916 94.798645020 1.5839791298 -52.98099899  -999.250000 2.2799518108
 3215.9328613  -999.250000 12.421999931 12.250000954 -1.018000007 0.4002799988 1.9639967680 71.928001404 95.208755493 1.5709424019 -51.46200180  -999.250000 2.2499296665
 3216.0852051  -999.250000 12.421999931 12.250000954 -1.027999997 0.3978500068 1.9629985094 74.275001526 95.498703003 1.5529984236 -50.44100189  -999.250000 2.2279934883
 3216.2375488  -999.250000 12.421999931 12.250000954 -1.036000013 0.3989000022 1.9619984627 76.010002136 95.656501770 1.5520209074 -50.15100098  -999.250000 2.2240142822
 3216.3898926  -999.250000 12.421999931 12.250000954 -1.037999988 0.4032999873 1.9609999657 76.766998291 95.550003052 1.5650129318 -50.65200043  -999.250000 2.2330176830
 3216.5424805  -999.250000 12.421999931 12.250000954 -1.034000039 0.4100799859 1.9609999657 76.417999268 95.304779053 1.5729999542 -51.82199860  -999.250000 2.2440192699
 3216.6948242  -999.250000 12.421999931 12.250000954 -1.026000023 0.4176900089 1.9609984159 75.113998413 95.318649292 1.5729984045 -53.36700058  -999.250000 2.2500081062
 3216.8471680  -999.250000 12.421999931 12.250000954 -1.019000053 0.4246099889 1.9599952698 73.440002441 95.429519653 1.5719984770 -54.88000107  -999.250000 2.2550289631
 3216.9995117  -999.250000 12.421999931 12.250000954 -1.018000007 0.4300599992 1.9569952488 72.204002380 95.448585510 1.5710256100 -55.96799850  -999.250000 2.2730593681
 3217.1520996  -999.250000 12.421999931 12.250000954 -1.019999981 0.4344399869 1.9539903402 71.925003052 95.360092163 1.5871312618 -56.40100098  -999.250000 2.3101150990
 3217.3044434  -999.250000 12.421999931 12.250000954 -1.021999955 0.4387399852 1.9509919882 72.307998657 95.212669373 1.6280288696 -56.19599915  -999.250000 2.3460159302
 3217.4567871  -999.250000 12.421999931 12.250000954 -1.023000002 0.4435299933 1.9459887743 72.443000793 95.210090637 1.6459743977 -55.56600189  -999.250000 2.3559679985
 3217.6091309  -999.250000 12.421999931 12.250000954 -1.024000049 0.4484300017 1.9389840364 71.554000854 95.309715271 1.6299823523 -54.77099991  -999.250000 2.3359582424
 3217.7614746  -999.250000 12.421999931 12.250000954 -1.027999997 0.4523299932 1.9289776087 69.746002197 95.379066467 1.6190191507 -53.96799850  -999.250000 2.3099775314
 3217.9140625  -999.250000 12.421999931 12.250000954 -1.036000013 0.4541200101 1.9149583578 68.091003418 95.369514465 1.6310416460 -53.18199921  -999.250000 2.2960064411
 3218.0664063  -999.250000 12.421999931 12.250000954 -1.042000055 0.4533700049 1.9019839764 67.761001587 95.287849426 1.6439968348 -52.38499832  -999.250000 2.2980337143
 3218.2187500  -999.250000 12.421999931 12.250000954 -1.042000055 0.4505600035 1.8919919729 69.015998840 95.066505432 1.6420047283 -51.61899948  -999.250000 2.3190608025
 3218.3710938  -999.250000 12.421999931 12.250000954 -1.039999962 0.4468899965 1.8869999647 70.804000854 94.583770752 1.6450335979 -51.06200027  -999.250000 2.3570883274
 3218.5236816  -999.250000 12.421999931 12.250000954 -1.036999941 0.4435600042 1.8870064020 71.581001282 93.631767273 1.6660416126 -50.96300125  -999.250000 2.4122591019
 3218.6760254  -999.250000 12.421999931 12.250000954 -1.034000039 0.4411700070 1.8890064955 70.606002808 92.499214172 1.6790080070 -51.51399994  -999.250000 2.4931523800
 3218.8283691  -999.250000 12.421999931 12.250000954 -1.036000013 0.4395500124 1.8930064440 68.532997131 91.996582031 1.6839935780 -52.72800064  -999.250000 2.5880689621
 3218.9807129  -999.250000 12.421999931 12.250000954 -1.041000009 0.4380699992 1.8970079422 66.837997437 92.284873962 1.6799967289 -54.42200089  -999.250000 2.6308927536
 3219.1333008  -999.250000 12.421999931 12.250000954 -1.041000009 0.4359999895 1.9020223618 66.567001343 93.071243286 1.6780511141 -56.28599930  -999.250000 2.5635199547
 3219.2856445  -999.250000 12.421999931 12.250000954 -1.037999988 0.4327400029 1.9090160131 67.668998718 94.068557739 1.6940240860 -57.96799850  -999.250000 2.4137756824
 3219.4379883  -999.250000 12.421999931 12.250000954 -1.036999941 0.4281499982 1.9190208912 69.218002319 94.494338989 1.7089984417 -59.13299942  -999.250000 2.2739357948
 3219.5903320  -999.250000 12.421999931 12.250000954 -1.037999988 0.4226799905 1.9320273399 70.208999634 94.165229797 1.7079855204 -59.49700165  -999.250000 2.2341201305
 3219.7426758  -999.250000 12.421999931 12.250000954 -1.041000009 0.4172399938 1.9490385056 70.251998901 93.377853394 1.6989775896 -58.89300156  -999.250000 2.3091843128
 3219.8952637  -999.250000 12.421999931 12.250000954 -1.050999999 0.4125800133 1.9730896950 69.747001648 92.320465088 1.6849902868 -57.34400177  -999.250000 2.4241535664
 3220.0476074  -999.250000 12.421999931 12.250000954 -1.077000022 0.4090699852 2.0010399818 69.557998657 91.735458374 1.6820417643 -55.10699844  -999.250000 2.4719517231
 3220.1999512  -999.250000 12.421999931 12.250000954 -1.105000019 0.4068099856 2.0260257721 70.253997803 91.860008240 1.7080479860 -52.64400101  -999.250000 2.4419405460
