# LAS format log file from PETREL
# Project units are specified as depth units
#==================================================================
~Version information
VERS.   2.0:
WRAP.   NO:
#==================================================================
~Well
STRT .m      2339.3889160 :
STOP .m      3955.4384766 :
STEP .m     0.00000000 :
NULL .        -999.250000 :
COMP.           : COMPANY
WELL.  34/8-6   : WELL
FLD.            : FIELD
LOC.            : LOCATION
SRVC.           : SERVICE COMPANY
DATE.  2018-09-11 14:48:53   : Log Export Date {yyyy-MM-dd HH:mm:ss}
PROV.           : PROVINCE
UWI.   34/8-6   : UNIQUE WELL ID
API.            : API NUMBER
#==================================================================
~Curve
DEPT .m                   : DEPTH
Lithology_geolink ._      : Lithology_geolink
CALI .in                  : CALI
DRHO .g/cm3               : DRHO
NPHI .m3/m3               : NPHI
RHOB .g/cm3               : RHOB
GR .gAPI                  : GR
DTC .us/ft                : DTC
RDEP .ohm.m               : RDEP
SP .mV                    : SP
RMED .ohm.m               : RMED
~Parameter
#==================================================================
~Ascii
# ...
 2450.3361816  -999.250000 13.320309639 -0.005409184 0.3669027984 2.4314470291 105.12370300 113.40071869 0.9721915126 126.77499390 1.3525028229
 2450.4885254  -999.250000 13.320309639 -0.004543421 0.3431721926 2.4402539730 104.50050354 113.59980011 0.9713662267 126.77499390 1.3361519575
 2450.6408691  -999.250000 13.320309639 -0.007177349 0.3101193011 2.4396600723 102.87570190 113.40010071 0.9774358869 126.77499390 1.3171000481
 2450.7934570  -999.250000 13.320309639 -0.004971214 0.3003593981 2.4503059387 101.87259674 113.70127869 0.9890815616 126.14999390 1.3231582642
 2450.9458008  -999.250000 13.320309639 -0.003396994 0.3147873878 2.4476993084 100.31420135 114.50189972 1.0049339533 126.14979553 1.3170275688
 2451.0981445  -999.250000 13.320309639 -0.007188103 0.3378779888 2.4347331524 101.19129181 115.50189972 0.9993017912 126.02470398 1.2830719948
 2451.2504883  -999.250000 13.320309639 -0.010503160 0.3381659985 2.4241540432 102.87400055 115.99970245 0.9892516136 125.90010834 1.2618759871
 2451.4030762  -999.250000 13.296879768 -0.006420697 0.3405581117 2.4236085415 101.87409973 116.39862061 0.9766345024 125.77519226 1.2766453028
 2451.5554199  -999.250000 13.234380722 -0.007389010 0.3370971084 2.4258596897 101.18569946 115.59910583 0.9607926607 125.90000153 1.3061782122
 2451.7077637  -999.250000 13.249999046 -0.009268462 0.3321410120 2.4220268726 100.19099426 115.10749054 0.9389234781 125.90000153 1.3205970526
 2451.8601074  -999.250000 13.249999046 -0.008702975 0.3383218944 2.4164440632 101.81140137 117.09860229 0.9576922059 125.90000153 1.2912969589
 2452.0124512  -999.250000 13.257808685 -0.009887833 0.3575826883 2.3978929520 101.99990082 117.29989624 0.9702823758 126.14990997 1.2800910473
 2452.1650391  -999.250000 13.249999046 -0.013371020 0.3896606863 2.3784856796 102.68750000 117.19903564 0.9673737288 126.15079498 1.2432446480
 2452.3173828  -999.250000 13.234390259 -0.012395220 0.3822768033 2.3914077282 102.68830109 116.59855652 0.9719077945 126.64950562 1.2704282999
 2452.4697266  -999.250000 13.273410797 -0.010965400 0.3766503930 2.4062569141 103.06220245 116.20030212 0.9607744217 126.40019989 1.2780669928
 2452.6220703  -999.250000 13.320289612 -0.003338044 0.3565159142 2.4300789833 101.75060272 114.90059662 0.9323515892 126.52489471 1.3040440083
 2452.7746582  -999.250000 13.320309639 -0.001408516 0.3506534100 2.4379451275 104.99419403 115.19936371 0.9495370984 126.52519989 1.3082555532
 2452.9270020  -999.250000 13.320309639 -0.001184358 0.3650428951 2.4350252151 101.56650543 114.80032349 0.9743981361 126.65069580 1.3086248636
 2453.0793457  -999.250000 13.320420265 -0.003814511 0.3687882125 2.4294879436 103.67961121 115.00045776 0.9893677831 127.02669525 1.3185214996
 2453.2316895  -999.250000 13.492090225 -0.004264508 0.3550606966 2.4188339710 100.18959808 115.09989166 1.0072109699 127.77459717 1.3206579685
 2453.3842773  -999.250000 13.585920334 -0.009874313 0.3439964056 2.4160659313 103.43289185 114.79936218 1.0270253420 127.89900208 1.3428653479
 2453.5366211  -999.250000 13.320309639 -0.010288900 0.3440681100 2.4240961075 100.99949646 114.40000153 1.0165927410 127.27410126 1.3555554152
 2453.6889648  -999.250000 13.328119278 -0.011492980 0.3635661900 2.4217751026 100.68330383 114.40190125 1.0126514435 126.77471161 1.3619847298
 2453.8413086  -999.250000 13.320320129 -0.011748910 0.3592672050 2.4193971157 98.688926697 114.89969635 1.0198270082 126.65009308 1.3631240129
 2453.9936523  -999.250000 13.328119278 -0.013988560 0.3360239863 2.4067339897 99.749633789 115.39980316 1.0262570381 126.65000916 1.3597040176
 2454.1462402  -999.250000 13.367190361 -0.014532080 0.3200154901 2.4077303410 104.00550842 115.50031281 1.0350217819 126.64960480 1.3604637384
 2454.2985840  -999.250000 13.390648842 -0.011750530 0.3364183903 2.4086267948 107.37959290 115.69999695 1.0410916805 126.40000916 1.3616007566
 2454.4509277  -999.250000 13.453069687 -0.007705562 0.3502807021 2.4215679169 109.68560028 115.69999695 1.0502339602 126.40000916 1.3608419895
 2454.6032715  -999.250000 13.453129768 -0.005662147 0.3555580974 2.4265420437 106.37660217 116.19979858 1.0689870119 126.27510834 1.3631240129
 2454.7558594  -999.250000 13.468750954 -0.006070752 0.3262923062 2.4260034561 102.74278259 116.20031738 1.0588185787 126.02541351 1.3608560562
 2454.9082031  -999.250000 13.468750954 -0.010899300 0.3177717924 2.4225554466 98.003860474 116.39958191 1.0504467487 126.27590942 1.3696243763
 2455.0605469  -999.250000 13.468750954 -0.015736639 0.3274581134 2.4134683609 100.05410767 116.19999695 1.0515097380 126.77560425 1.3642444611
 2455.2128906  -999.250000 13.468750954 -0.018072311 0.3388854861 2.4035980701 96.314727783 116.19999695 1.0401060581 127.02480316 1.3532929420
 2455.3654785  -999.250000 13.468750954 -0.018052541 0.3308089972 2.3857176304 96.815399170 116.19903564 1.0368319750 127.02500916 1.3525192738
 2455.5178223  -999.250000 13.468760490 -0.002976182 0.3282743096 2.3736057281 98.693717957 115.60350800 1.0661386251 127.02541351 1.3421703577
 2455.6701660  -999.250000 13.507850647 0.0011547420 0.3188469112 2.3591229916 102.25329590 117.59071350 1.0808154345 127.27548981 1.3765907288
 2455.8225098  -999.250000 13.585880280 0.0065448200 0.3290125132 2.3659989834 103.81140137 115.10179901 1.0711029768 127.52481079 1.3738830090
 2455.9748535  -999.250000 13.609370232 0.0220010504 0.3249110878 2.4035959244 99.688949585 114.80010223 1.0656559467 127.64990234 1.4174050093
 2456.1274414  -999.250000 13.609379768 0.0255893003 0.3186436892 2.4390394688 100.12760162 114.39936066 1.0648918152 127.27519989 1.4314306974
 2456.2797852  -999.250000 13.609379768 0.0053574019 0.2985428870 2.4293150902 101.74929810 114.00179291 1.0268245935 127.39971161 1.4511687756
 2456.4321289  -999.250000 13.609379768 0.0066352412 0.2845428884 2.4244489670 101.37529755 114.49960327 1.0366059542 127.27509308 1.4485889673
 2456.5844727  -999.250000 13.609379768 0.0033085730 0.3452877104 2.4010839462 101.81230164 114.69989777 1.0776710510 127.27500153 1.4228659868
 2456.7370605  -999.250000 14.062449455 -0.005025920 0.3696888089 2.3805012703 96.998916626 114.79759979 1.0958495140 127.15060425 1.3928871155
 2456.8894043  -999.250000 13.632809639 -0.002709925 0.3888297975 2.3942968845 95.996276855 113.29809570 1.1154992580 127.52519989 1.3787300587
 2457.0417480  -999.250000 13.609379768 -0.001345302 0.3436996937 2.4110488892 94.009056091 112.29809570 1.1343061924 127.65059662 1.4236381054
 2457.1940918  -999.250000 13.609379768 -0.003465031 0.3445932865 2.4210000038 98.060058594 111.80030060 1.1082049608 127.89979553 1.4717350006
 2457.3466797  -999.250000 13.695289612 -0.005585832 0.3415093124 2.4145350456 100.49839783 111.20298767 1.0942764282 127.77480316 1.5011831522
 2457.4990234  -999.250000 13.757809639 -0.005219925 0.3494212031 2.4169957638 99.869018555 112.99909973 1.1413606405 127.65000916 1.4806780815
 2457.6513672  -999.250000 13.757809639 -0.007329663 0.3476676941 2.4131925106 96.433425903 112.50000000 1.1803919077 127.65000916 1.4651474953
 2457.8037109  -999.250000 13.757809639 -0.006662318 0.3600738943 2.4197990894 94.501411438 112.50000000 1.2108620405 127.65000916 1.4735380411
 2457.9560547  -999.250000 13.757809639 -0.007751431 0.3481558859 2.4410109520 96.249366760 110.10089874 1.2452570200 128.52470398 1.4952290058
 2458.1086426  -999.250000 13.757809639 -0.003030033 0.3429288864 2.5032362938 96.689422607 106.39968872 1.2632092237 128.39959717 1.5740290880
 2458.2609863  -999.250000 13.710888863 -0.000187650 0.3317033052 2.5507566929 97.874877930 106.20396423 1.2708451748 128.15119934 1.6400468349
 2458.4133301  -999.250000 13.586041451 -0.001169023 0.3166340888 2.5143740177 97.812553406 107.29900360 1.2522640228 128.77450562 1.6087460518
 2458.5656738  -999.250000 13.578129768 -0.008091611 0.3227626979 2.4438970089 97.375213623 109.49890137 1.2422649860 129.02490234 1.5299979448
 2458.7182617  -999.250000 13.578129768 -0.007629210 0.3287709951 2.4034194946 94.750114441 112.50019073 1.2203682661 129.02459717 1.4624558687
