# LAS format log file from PETREL
# Project units are specified as depth units
#==================================================================
~Version information
VERS.   2.0:
WRAP.   NO:
#==================================================================
~Well
STRT .m      2339.3889160 :
STOP .m      3955.4384766 :
STEP .m     0.00000000 :
NULL .        -999.250000 :
COMP.           : COMPANY
WELL.  34/8-6   : WELL
FLD.            : FIELD
LOC.            : LOCATION
SRVC.           : SERVICE COMPANY
DATE.  2018-09-11 14:48:53   : Log Export Date {yyyy-MM-dd HH:mm:ss}
PROV.           : PROVINCE
UWI.   34/8-6   : UNIQUE WELL ID
API.            : API NUMBER
#==================================================================
~Curve
DEPT .m                   : DEPTH
Lithology_geolink ._      : Lithology_geolink
CALI .in                  : CALI
DRHO .g/cm3               : DRHO
NPHI .m3/m3               : NPHI
RHOB .g/cm3               : RHOB
GR .gAPI                  : GR
DTC .us/ft                : DTC
RDEP .ohm.m               : RDEP
SP .mV                    : SP
RMED .ohm.m               : RMED
~Parameter
#==================================================================
~Ascii
# ...
 2663.6960449  -999.250000 13.468760490 -0.009531178 0.2566657066 2.4207348824 95.688476563 102.49990082 1.7145329714 135.77490234 2.1101369858
 2663.8483887  -999.250000 13.468750954 -0.010395260 0.2652353942 2.4121820927 97.499740601 102.19999695 1.7315399647 136.02499390 2.1443810463
 2664.0007324  -999.250000 13.468750954 -0.009961859 0.2684912980 2.4067740440 93.999336243 101.79920197 1.7719670534 135.52499390 2.1701710224
 2664.1530762  -999.250000 13.468750954 -0.010398740 0.2739534080 2.4290180206 92.498832703 101.39730072 1.8266459703 135.52479553 2.2135679722
 2664.3056641  -999.250000 13.468750954 -0.007532371 0.2747581005 2.4776320457 91.063102722 98.001419067 1.8619869947 135.27510071 2.2915060520
 2664.4580078  -999.250000 13.468750954 -0.000016500 0.2732068002 2.5201220512 90.812522888 97.800025940 1.8961950541 135.77499390 2.3568990231
 2664.6103516  -999.250000 13.468750954 -0.000519852 0.2833363116 2.4992859364 88.187561035 98.002113342 1.9166129827 136.27510071 2.3717989922
 2664.7626953  -999.250000 13.468750954 -0.003455282 0.2687974870 2.4616799355 88.377227783 99.102317810 1.9406100512 136.77520752 2.3399031162
 2664.9152832  -999.250000 13.468750954 -0.003283535 0.2733770907 2.4356989861 91.623229980 100.09950256 1.9667069912 137.02490234 2.2948000431
 2665.0676270  -999.250000 13.468750954 -0.001448837 0.2709378898 2.4331851006 92.437362671 100.19998932 1.9744069576 137.39990234 2.2831449509
 2665.2199707  -999.250000 13.468750954 -0.004098546 0.2830012143 2.4192862511 95.249580383 99.699996948 1.9713469744 137.52490234 2.3221070766
 2665.3723145  -999.250000 13.468750954 -0.005398773 0.2964980900 2.4177739620 93.063758850 99.599136353 1.9749599695 137.27529907 2.3569130898
 2665.5249023  -999.250000 13.468750954 -0.010005660 0.2978534997 2.4073739052 95.310989380 99.200248718 1.9781700373 137.89959717 2.3764200211
 2665.6772461  -999.250000 13.468750954 -0.010011490 0.3011668026 2.4120860100 90.626419067 98.900131226 1.9740469456 138.14990234 2.3857350349
 2665.8295898  -999.250000 13.468750954 -0.012354190 0.2877877057 2.4111120701 88.937652588 98.400032043 1.9698849916 138.02499390 2.4033811092
 2665.9819336  -999.250000 13.468750954 -0.009597549 0.2945966125 2.4225571156 91.251960754 98.798591614 1.9709169865 138.02520752 2.4287359715
 2666.1342773  -999.250000 13.468750954 -0.006607513 0.2972466052 2.4275949001 95.752159119 98.100257874 1.9693659544 138.40020752 2.4333660603
 2666.2868652  -999.250000 13.468750954 -0.002066112 0.2901127040 2.4314448833 98.436347961 98.399856567 1.9655499458 138.64990234 2.4285230637
 2666.4392090  -999.250000 13.468750954 0.0021231091 0.2857089043 2.4360749722 98.375000000 98.899978638 1.9646970034 138.27499390 2.4106509686
 2666.5915527  -999.250000 13.468750954 0.0035387999 0.2621870935 2.4378540516 96.687606812 98.699432373 1.9644789696 137.64990234 2.3986499310
 2666.7438965  -999.250000 13.468750954 -0.000264349 0.2504788041 2.4357419014 97.059661865 98.400009155 1.9632450342 137.40020752 2.3994989395
 2666.8964844  -999.250000 13.468750954 -0.005883622 0.2340438068 2.4312980175 92.877311707 98.399986267 1.9588559866 137.64990234 2.4236779213
 2667.0488281  -999.250000 13.468750954 -0.011337470 0.2518455088 2.4241609573 94.937118530 98.400009155 1.9407459497 137.52499390 2.4333679676
 2667.2011719  -999.250000 13.468750954 -0.012972600 0.2609452903 2.4143130779 93.813507080 98.000183105 1.9230079651 136.52499390 2.4069290161
 2667.3535156  -999.250000 13.468750954 -0.015246940 0.2754738033 2.4060690403 99.250549316 98.801528931 1.9019789696 136.40010071 2.3534479141
 2667.5061035  -999.250000 13.468750954 -0.013225260 0.2632664144 2.4158682823 100.24929810 99.499542236 1.8712999821 136.52490234 2.2801771164
 2667.6584473  -999.250000 13.468750954 -0.011820930 0.2672601938 2.4226779938 99.312789917 99.699966431 1.8364139795 136.27510071 2.2115190029
 2667.8107910  -999.250000 13.453129768 -0.009890779 0.2874048948 2.4295940399 93.812400818 100.19998932 1.8201969862 136.02499390 2.1462640762
 2667.9631348  -999.250000 13.453129768 -0.013667100 0.2939726114 2.4231309891 92.188438416 100.50099945 1.8033939600 135.77490234 2.0921740532
 2668.1154785  -999.250000 13.468750954 -0.011712040 0.3173345923 2.4260699749 94.376991272 100.99979401 1.8011870384 135.52479553 2.0647389889
 2668.2680664  -999.250000 13.468750954 -0.011440990 0.3074111938 2.4362289906 96.873908997 100.80010223 1.8147150278 135.27510071 2.0820949078
 2668.4204102  -999.250000 13.468750954 -0.019548239 0.3042030931 2.5127611160 93.312736511 93.500450134 1.8213629723 135.14999390 2.2084848881
 2668.5727539  -999.250000 13.468750954 -0.007718874 0.2620212138 2.6341402531 86.186836243 89.699630737 1.8055989742 135.02520752 2.5550370216
 2668.7250977  -999.250000 13.468779564 0.0012902480 0.2232645005 2.7261888981 84.003021240 88.500442505 1.8175330162 135.65020752 2.9036710262
 2668.8776855  -999.250000 13.507789612 -0.010534920 0.2213470042 2.6167058945 88.497467041 88.699913025 1.8167289495 135.89990234 2.7718210220
 2669.0300293  -999.250000 13.609359741 -0.024149461 0.2485651970 2.5100879669 92.811668396 95.398719788 1.8148610592 135.52510071 2.4285819530
 2669.1823730  -999.250000 13.632829666 -0.010440880 0.2744331956 2.4566309452 94.437080383 98.100181580 1.8069319725 135.02499390 2.2562808990
 2669.3347168  -999.250000 13.742198944 -0.010413750 0.2873502970 2.4362270832 92.062088013 99.100646973 1.7653700113 134.89979553 2.1994960308
 2669.4873047  -999.250000 13.757800102 -0.008094830 0.2885015011 2.4259250164 91.313011169 99.399803162 1.7206460238 134.52529907 2.1472480297
 2669.6396484  -999.250000 13.757809639 -0.005527180 0.2894015908 2.4289529324 96.310913086 100.09980011 1.7052789927 135.02479553 2.0931088924
 2669.7919922  -999.250000 13.757809639 -0.005024888 0.2923814058 2.4323470592 98.187767029 100.40000153 1.6913150549 134.89999390 2.0750119686
 2669.9443359  -999.250000 13.757809639 -0.003426085 0.2917123139 2.4395270348 103.49770355 100.00019836 1.6826490164 134.89999390 2.0803399086
 2670.0966797  -999.250000 13.757809639 -0.005718664 0.2864935994 2.4383211136 98.063186646 100.09999847 1.6828089952 135.02490234 2.1153390408
 2670.2492676  -999.250000 13.757809639 -0.008758211 0.2894496024 2.4313340187 98.937110901 100.09999847 1.6853209734 134.90010071 2.1443660259
 2670.4016113  -999.250000 13.757809639 -0.011297810 0.2932820022 2.4286370277 96.000221252 100.09999847 1.6863629818 135.64990234 2.1481580734
 2670.5539551  -999.250000 13.757809639 -0.007535549 0.3050859869 2.4296269417 98.874649048 99.999969482 1.6991740465 136.02499390 2.1442110538
 2670.7062988  -999.250000 13.757809639 -0.007438675 0.3033255935 2.4329390526 97.685760498 99.899322510 1.7155220509 136.02529907 2.1396749020
 2670.8588867  -999.250000 13.757809639 -0.003510743 0.2984856069 2.4236710072 95.064002991 99.600158691 1.7330540419 136.52470398 2.1424369812
 2671.0112305  -999.250000 13.757809639 -0.002085851 0.2909742892 2.4315750599 95.000022888 99.999908447 1.7510169744 136.77490234 2.1548020840
 2671.1635742  -999.250000 13.703121185 0.0019944659 0.2926293910 2.4424428940 92.750900269 99.299873352 1.7636239529 136.64999390 2.1720910072
 2671.3159180  -999.250000 13.648421288 0.0011438160 0.2908298075 2.4578280449 98.062568665 98.599342346 1.7749010324 136.90020752 2.2055160999
 2671.4685059  -999.250000 13.609397888 -0.001398526 0.2858949006 2.4516859055 98.187423706 98.300193787 1.7952740192 137.27470398 2.2435600758
 2671.6208496  -999.250000 13.570320129 -0.000583617 0.2740699053 2.4448530674 94.501197815 98.499931335 1.8199549913 137.64990234 2.2534050941
 2671.7731934  -999.250000 13.468750954 0.0010656980 0.2819068134 2.4385190010 93.937477112 99.099975586 1.8532730341 137.64999390 2.2544500828
 2671.9255371  -999.250000 13.468750954 -0.003797681 0.2933548093 2.4296569824 93.564308167 98.498970032 1.8809159994 138.27470398 2.2555038929
 2672.0778809  -999.250000 13.468750954 -0.004299384 0.2907891870 2.4296710491 97.936973572 98.000030518 1.8987590075 137.64999390 2.2831799984
