# LAS format log file from PETREL
# Project units are specified as depth units
#==================================================================
~Version information
VERS.   2.0:
WRAP.   NO:
#==================================================================
~Well
STRT .m      3213.0371094 :
STOP .m      5477.8535156 :
STEP .m     0.00000000 :
NULL .        -999.250000 :
COMP.           : COMPANY
WELL.  34/8-7   : WELL
FLD.            : FIELD
LOC.            : LOCATION
SRVC.           : SERVICE COMPANY
DATE.  2018-09-11 14:48:53   : Log Export Date {yyyy-MM-dd HH:mm:ss}
PROV.           : PROVINCE
UWI.   34/8-7   : UNIQUE WELL ID
API.            : API NUMBER
#==================================================================
~Curve
DEPT .m                   : DEPTH
Lithology_geolink ._      : Lithology_geolink
CALI .in                  : CALI
BS .in                    : BS
DRHO .g/cm3               : DRHO
NPHI .m3/m3               : NPHI
RHOB .g/cm3               : RHOB
GR .gAPI                  : GR
DTC .us/ft                : DTC
RDEP .ohm.m               : RDEP
SP .mV                    : SP
RSHA .ohm.m               : RSHA
RMED .ohm.m               : RMED
~Parameter
#==================================================================
~Ascii
# ...
 4566.3491211 17.000000000 14.505999565 8.5000000000 -0.010100000 0.1838600039 2.5810000896 55.051998138 76.037261963 3.7349998951 -75.90499878 2000.0000000 3.5789999962
 4566.5014648 17.000000000 14.386999130 8.5000000000 -0.007200000 0.2093999982 2.6040000916 55.842998505 80.197189331 3.5559999943 -75.99900055 1332.2769775 3.4630000591
 4566.6538086 17.000000000 13.664999962 8.5000000000 -0.003800000 0.2251899987 2.6189999580 56.415000916 85.115226746 3.7960000038 -76.06300354 336.60400391 3.7239999771
 4566.8066406 17.000000000 13.295999527 8.5000000000 0.0016000000 0.2288700044 2.6219999790 56.611999512 83.444549561 4.2930159569 -76.10700226 4.6950001717 4.2207465172
 4566.9589844 17.000000000 13.350000381 8.5000000000 0.0051000002 0.2213200033 2.6150000095 55.348999023 81.012939453 5.2354712486 -76.15100098 1.3999999762 5.0791568756
 4567.1113281 17.000000000 13.671999931 8.5000000000 0.0080000004 0.2053399980 2.6010000706 51.745998383 79.499641418 6.6322498322 -76.20300293 680.88098145 6.3772759438
 4567.2636719 17.000000000 14.152000427 8.5000000000 0.0098000001 0.1843799949 2.5880000591 46.182998657 76.978927612 8.5889139175 -76.24700165 1004.9990234 8.0266342163
 4567.4160156 17.000000000 14.116000175 8.5000000000 0.0027000001 0.1617400050 2.5780000687 40.187000275 75.674842834 12.621672630 -76.26100159 337.65701294 10.722759247
 4567.5683594 17.000000000 13.654999733 8.5000000000 -0.004100000 0.1403699964 2.5729999542 35.380001068 75.231155396 17.815216064 -76.24199677 688.45001221 14.074606895
 4567.7207031 17.000000000 13.477999687 8.5000000000 0.0007000000 0.1229100004 2.5710000992 32.491001129 75.733886719 20.378999710 -76.19899750 1679.1800537 15.824000359
 4567.8730469 17.000000000 13.468999863 8.5000000000 0.0046999999 0.1113800034 2.5690000057 31.077999115 75.485229492 19.926000595 -76.13899994 2000.0000000 15.630999565
 4568.0253906 17.000000000 13.446001053 8.5000000000 0.0024000001 0.1064700037 2.5620000362 30.309000015 73.824707031 18.430000305 -76.05599976 2000.0000000 14.829999924
 4568.1782227 17.000000000 13.411000252 8.5000000000 -0.000200000 0.1072600037 2.5499999523 30.054000854 74.624160767 17.040328979 -75.93299866 2000.0000000 14.117673874
 4568.3305664 17.000000000 13.381999969 8.5000000000 -0.003700000 0.1115999967 2.5350000858 30.822999954 77.165985107 16.207986832 -75.76799774 2000.0000000 13.704038620
 4568.4829102 17.000000000 13.364001274 8.5000000000 -0.008600000 0.1172399968 2.5230000019 33.201999664 78.876998901 15.579394341 -75.59400177 2000.0000000 13.403695107
 4568.6352539 17.000000000 13.335000038 8.5000000000 -0.010100000 0.1226999983 2.5179998875 37.597000122 78.578804016 14.766788483 -75.46700287 2000.0000000 12.996804237
 4568.7875977 17.000000000 13.315999985 8.5000000000 -0.008000000 0.1275500059 2.5220000744 43.740001678 76.813407898 14.076191902 -75.42900085 2000.0000000 12.623041153
 4568.9399414 17.000000000 13.302000046 8.5000000000 -0.006700000 0.1319400072 2.5339999199 50.294998169 75.854476929 13.199999809 -75.48400116 2000.0000000 12.012000084
 4569.0922852 17.000000000 13.270999908 8.5000000000 -0.006600000 0.1360100061 2.5499999523 55.457000732 75.325180054 11.647000313 -75.59600067 2000.0000000 10.859999657
 4569.2446289 17.000000000 13.239000320 8.5000000000 -0.004800000 0.1398400068 2.5650000572 58.041000366 74.837951660 10.588000298 -75.71700287 2000.0000000 10.088999748
 4569.3969727 17.000000000 13.220000267 8.5000000000 -0.001900000 0.1436800063 2.5759999752 57.917999268 75.654289246 10.840000153 -75.81999969 2000.0000000 10.371000290
 4569.5498047 17.000000000 13.211999893 8.5000000000 0.0009000000 0.1480299979 2.5810000896 56.265998840 76.948753357 11.618063927 -75.90599823 2000.0000000 11.003525734
 4569.7021484 17.000000000 13.215999603 8.5000000000 0.0016000000 0.1530700028 2.5810000896 55.040000916 77.293106079 11.948035240 -75.99199677 2000.0000000 11.165859222
 4569.8544922 17.000000000 13.220999718 8.5000000000 0.0001000000 0.1578699946 2.5780000687 54.964000702 76.348190308 11.647521973 -76.09899902 2000.0000000 10.810682297
 4570.0068359 17.000000000 13.220000267 8.5000000000 -0.000300000 0.1602800041 2.5729999542 54.566001892 75.122840881 11.503528595 -76.23200226 2000.0000000 10.715669632
 4570.1591797 17.000000000 13.227000237 8.5000000000 0.0017000000 0.1577900052 2.5659999847 51.695999146 74.340400696 12.927149773 -76.38200378 2000.0000000 11.867134094
 4570.3115234 17.000000000 13.230999947 8.5000000000 0.0024999999 0.1488900036 2.5580000877 45.928001404 73.632186890 17.653999329 -76.52500153 1341.9139404 15.029000282
 4570.4638672 17.000000000 13.222000122 8.5000000000 0.0001000000 0.1341200024 2.5469999313 39.310001373 73.564559937 22.361999512 -76.63099670 595.94598389 18.099000931
 4570.6162109 17.000000000 13.218999863 8.5000000000 -0.002400000 0.1161900014 2.5350000858 34.584999084 73.683982849 21.965000153 -76.68800354 1047.7419434 17.908000946
 4570.7690430 17.000000000 13.218999863 8.5000000000 -0.003100000 0.0988899991 2.5209999084 32.715000153 73.209289551 18.293811798 -76.70700073 1795.7530518 15.555987358
 4570.9213867 17.000000000 13.218999863 8.5000000000 -0.002700000 0.0854599923 2.5069999695 32.622001648 73.044441223 15.119564056 -76.72399902 2000.0000000 13.370586395
 4571.0737305 17.000000000 13.218999863 8.5000000000 -0.002900000 0.0773300007 2.4960000515 33.099998474 72.962974548 13.426320076 -76.76999664 2000.0000000 11.995538712
 4571.2260742 17.000000000 13.218999863 8.5000000000 -0.003300000 0.0741100013 2.4890000820 33.515998840 72.407875061 12.589615822 -76.86000061 2000.0000000 11.227204323
 4571.3784180 17.000000000 13.215999603 8.5000000000 -0.002800000 0.0744699985 2.4869999886 33.630001068 72.218452454 11.533176422 -76.98600006 2000.0000000 10.354900360
 4571.5307617 17.000000000 13.211999893 8.5000000000 -0.003300000 0.0769700035 2.4930000305 34.236000061 72.329803467 10.341986656 -77.12599945 2000.0000000 9.3892011642
 4571.6831055 17.000000000 13.213999748 8.5000000000 -0.005200000 0.0802899972 2.5079998970 36.763000488 72.377151489 9.7139997482 -77.25399780 2000.0000000 8.8280000687
 4571.8354492 17.000000000 13.193999290 8.5000000000 -0.004900000 0.0829800069 2.5320000648 41.506999969 72.207618713 9.4160003662 -77.35099792 2000.0000000 8.5369997025
 4571.9877930 17.000000000 13.152000427 8.5000000000 -0.001400000 0.0835499987 2.5610001087 46.903999329 69.272132874 9.2080001831 -77.41300201 2000.0000000 8.3229999542
 4572.1406250 17.000000000 13.147000313 8.5000000000 0.0012000001 0.0808800012 2.5880000591 50.896999359 64.501556396 9.2317981720 -77.44100189 2000.0000000 8.3336954117
 4572.2929688 17.000000000 13.187001228 8.5000000000 0.0008000000 0.0748199970 2.6080000401 52.720001221 65.038520813 9.4807910919 -77.43800354 2000.0000000 8.5505800247
 4572.4453125 17.000000000 13.218999863 8.5000000000 0.0007000000 0.0665500015 2.6119999886 52.930999756 66.657135010 9.7271280289 -77.41400146 2000.0000000 8.7308425903
 4572.5976563 17.000000000 13.359999657 8.5000000000 0.0020999999 0.0587200001 2.5969998837 52.174999237 65.163940430 9.7658624649 -77.38800049 2000.0000000 8.6806287766
 4572.7500000 17.000000000 13.678999901 8.5000000000 0.0031000001 0.0551900007 2.5629999638 50.875000000 66.738639832 9.4090185165 -77.38400269 1322.9079590 8.2514085770
 4572.9023438 17.000000000 13.956999779 8.5000000000 -0.005300000 0.0599000007 2.5130000114 49.932998657 71.741371155 8.4790000916 -77.41500092 324.20300293 7.4429998398
 4573.0546875 17.000000000 14.131999969 8.5000000000 -0.031599998 0.0751900002 2.4579999447 50.409999847 76.649566650 7.0619997978 -77.47699738 0.4909999967 6.3779997826
 4573.2070313 17.000000000 14.449000359 8.5000000000 -0.062500000 0.1003300026 2.4070000648 52.493999481 77.567237854 5.7760000229 -77.55799866 0.4607999921 5.3689999580
 4573.3593750 17.000000000 14.664999962 8.5000000000 -0.080899999 0.1313900054 2.3689999580 55.362998962 72.610649109 5.1729998589 -77.63999939 0.4647000134 4.8109998703
 4573.5122070 17.000000000 14.388999939 8.5000000000 -0.087600000 0.1627500057 2.3459999561 57.827999115 64.491920471 5.1511697769 -77.69599915 0.7932000160 4.7480292320
