# LAS format log file from PETREL
# Project units are specified as depth units
#==================================================================
~Version information
VERS.   2.0:
WRAP.   NO:
#==================================================================
~Well
STRT .m      963.35791016 :
STOP .m      4034.6738281 :
STEP .m     0.00000000 :
NULL .        -999.250000 :
COMP.           : COMPANY
WELL.  35/11-2   : WELL
FLD.            : FIELD
LOC.            : LOCATION
SRVC.           : SERVICE COMPANY
DATE.  2018-09-11 14:48:55   : Log Export Date {yyyy-MM-dd HH:mm:ss}
PROV.           : PROVINCE
UWI.   35/11-2   : UNIQUE WELL ID
API.            : API NUMBER
#==================================================================
~Curve
DEPT .m                   : DEPTH
Lithology_geolink ._      : Lithology_geolink
CALI .in                  : CALI
DRHO .g/cm3               : DRHO
NPHI .m3/m3               : NPHI
RHOB .g/cm3               : RHOB
GR .gAPI                  : GR
DTC .us/ft                : DTC
RDEP .ohm.m               : RDEP
SP .mV                    : SP
RSHA .ohm.m               : RSHA
RMED .ohm.m               : RMED
~Parameter
#==================================================================
~Ascii
# ...
 2012.6315918 5.0000000000 18.666000366 0.0080000004 0.5410215259 2.3450169563 40.500000000 107.75000000 1.6759967804 -40.84299850 1.6119999886 1.6119999886
 2012.7840576 5.0000000000 18.635000229 0.0099967951 0.5123759508 2.3430030346 41.437999725 107.25000000 1.6739879847 -39.84299850 1.5679999590 1.5679999590
 2012.9364014 5.0000000000 18.750000000 0.0080048041 0.5038105249 2.3410048485 41.187999725 109.62500000 1.6689984798 -36.34299850 1.5360000134 1.5360000134
 2013.0888672 5.0000000000 18.743000031 0.0089983968 0.5198042989 2.3479888439 39.844001770 106.00000000 1.6679543257 -36.34299850 1.5089999437 1.5089999437
 2013.2412109 5.0000000000 18.715999603 0.0089999996 0.5115133524 2.3579840660 38.437999725 104.24999237 1.6489647627 -35.34299850 1.5440000296 1.5440000296
 2013.3935547 5.0000000000 18.736000061 0.0119927945 0.4906202555 2.3669784069 34.594001770 103.87500000 1.6269760132 -37.84299850 1.5740000010 1.5740000010
 2013.5460205 5.0000000000 18.708000183 0.0139967958 0.4664787054 2.3610095978 35.812999725 105.12500000 1.6119871140 -40.84299850 1.6460000277 1.6460000277
 2013.6983643 5.0000000000 18.752000809 0.0149975978 0.4687743485 2.3500263691 36.219001770 107.12500000 1.6039935350 -41.34299850 1.6380000114 1.6380000114
 2013.8508301 5.0000000000 18.840999603 0.0189935900 0.4844947755 2.3390176296 36.719001770 107.50000000 1.5999928713 -41.84299850 1.5900000334 1.5900000334
 2014.0031738 5.0000000000 18.802999496 0.0189999994 0.5017684698 2.3190479279 37.844001770 110.12500000 1.5969696045 -42.84299850 1.5110000372 1.5110000372
 2014.1556396 5.0000000000 18.646999359 0.0289839730 0.5026087165 2.2930417061 37.594001770 106.50000000 1.5779062510 -37.34299850 1.4919999838 1.4919999838
 2014.3079834 5.0000000000 18.586000443 0.0359831862 0.4932525456 2.2441177368 40.625000000 109.75000000 1.5389438868 -37.34299850 1.4889999628 1.4889999628
 2014.4604492 5.0000000000 18.507999420 0.0539711565 0.4863210917 2.2110528946 40.562999725 112.25000000 1.5039542913 -37.34299850 1.4539999962 1.4539999962
 2014.6127930 5.0000000000 18.294000626 0.0619807839 0.4899512231 2.1910479069 41.562999725 111.12500000 1.4849776030 -35.34299850 1.4349999428 1.4349999428
 2014.7652588 6.0000000000 18.179000854 0.0699871778 0.4931548834 2.2019822598 40.875000000 113.25000000 1.4709807634 -39.84299850 1.4220000505 1.4220000505
 2014.9176025 6.0000000000 18.205999374 0.0779807866 0.4809294343 2.2309303284 41.469001770 109.12500000 1.4630000591 -38.84299850 1.4170000553 1.4170000553
 2015.0700684 6.0000000000 18.406000137 0.0829919875 0.4864411354 2.2669422626 43.405998230 109.37500763 1.4630265236 -41.34299850 1.4299999475 1.4299999475
 2015.2224121 6.0000000000 18.503999710 0.0810032040 0.4926201105 2.3009455204 45.655998230 106.12500000 1.4739935398 -43.34299850 1.4359999895 1.4359999895
 2015.3748779 6.0000000000 18.485000610 0.0670224205 0.4926000535 2.3189711571 46.155998230 106.12500000 1.4699567556 -35.84299850 1.4479999542 1.4479999542
 2015.5272217 6.0000000000 18.551000595 0.0590128191 0.4823963940 2.3309807777 48.187999725 106.25000000 1.4519535303 -36.34299850 1.4420000315 1.4420000315
 2015.6795654 6.0000000000 18.587999344 0.0520168133 0.4886848330 2.3319976330 46.562999725 108.87500000 1.4229663610 -35.34299850 1.4659999609 1.4659999609
 2015.8320313 6.0000000000 18.615999222 0.0490048081 0.4961680174 2.3270080090 46.125000000 108.75000000 1.4019831419 -34.84299850 1.4509999752 1.4509999752
 2015.9843750 6.0000000000 18.670999527 0.0529903919 0.4876804650 2.3210144043 45.030998230 110.87500000 1.3950191736 -37.34299850 1.4390000105 1.4390000105
 2016.1368408 6.0000000000 18.684000015 0.0579919852 0.4727938771 2.3110160828 45.062999725 116.87500763 1.4070719481 -41.84299850 1.3569999933 1.3569999933
 2016.2891846 6.0000000000 18.881000519 0.0490216166 0.4593722224 2.2970335484 44.187999725 115.62500763 1.4370609522 -40.84299850 1.2799999714 1.2799999714
 2016.4416504 5.0000000000 18.995000839 0.0380176269 0.4540185630 2.3059856892 42.437999725 114.62500000 1.4750624895 -42.34299850 1.2749999762 1.2749999762
 2016.5939941 5.0000000000 18.853000641 0.0230360292 0.4599058330 2.3379232883 38.844001770 108.75000000 1.5010336637 -37.84299850 1.3509999514 1.3509999514
 2016.7464600 5.0000000000 18.688999176 0.0140144238 0.4800077677 2.3889181614 35.937999725 100.87500000 1.5220408440 -36.34299850 1.4839999676 1.4839999676
 2016.8988037 5.0000000000 18.534999847 0.0080144117 0.4990941584 2.4119446278 36.844001770 98.125007629 1.5390609503 -36.84299850 1.6380000114 1.6380000114
 2017.0512695 5.0000000000 18.493000031 0.0070016026 0.4812587202 2.3970241547 38.250000000 99.125000000 1.5770648718 -35.34299850 1.8099999428 1.8099999428
 2017.2036133 5.0000000000 18.496000290 0.0159783829 0.4563798308 2.3640792370 37.719001770 105.25000000 1.6040352583 -37.34299850 1.7610000372 1.7610000372
 2017.3560791 5.0000000000 18.444000244 0.0299775638 0.4518072307 2.3370430470 36.780998230 105.00000000 1.6260071993 -40.84299850 1.6250000000 1.6250000000
 2017.5084229 5.0000000000 18.438999176 0.0389855765 0.4642100930 2.3280143738 37.187999725 105.49999237 1.6289790869 -42.34299850 1.5559999943 1.5559999943
 2017.6607666 5.0000000000 18.576999664 0.0360072032 0.4826955199 2.3260047436 38.905998230 104.87500000 1.6159151793 -40.34299850 1.4600000381 1.4600000381
 2017.8132324 5.0000000000 18.670000076 0.0399935879 0.4812424183 2.3230047226 39.844001770 105.75000000 1.5629398823 -35.84299850 1.4329999685 1.4329999685
 2017.9655762 5.0000000000 18.635999680 0.0519711785 0.4660465717 2.3130240440 40.812999725 105.87500000 1.5379375219 -32.84299850 1.4060000181 1.4060000181
 2018.1180420 5.0000000000 18.705999374 0.0539967977 0.4474098384 2.2970256805 41.219001770 106.25000000 1.4989687204 -40.34299850 1.4069999456 1.4069999456
 2018.2703857 5.0000000000 18.743000031 0.0440240204 0.4412547648 2.2900168896 40.062999725 104.00000000 1.4860031605 -35.84299850 1.4110000134 1.4110000134
 2018.4228516 5.0000000000 18.587999344 0.0280256420 0.4456529319 2.2810142040 40.500000000 105.12500000 1.4880577326 -40.34299850 1.4659999609 1.4659999609
 2018.5751953 5.0000000000 18.465999603 0.0240096077 0.4557058215 2.2710239887 39.562999725 107.00000000 1.5120111704 -35.84299850 1.4789999723 1.4789999723
 2018.7276611 5.0000000000 18.400999069 0.0329855755 0.4665027261 2.2779889107 39.312999725 106.12500000 1.5190072060 -36.34299850 1.5069999695 1.5069999695
 2018.8800049 5.0000000000 18.486999512 0.0399831869 0.4951410890 2.2889735699 37.437999725 108.75000000 1.5219935179 -33.84299850 1.5149999857 1.5149999857
 2019.0324707 5.0000000000 18.569000244 0.0439935885 0.5175141692 2.2999823093 38.530998230 107.50000000 1.5180120468 -36.34299850 1.5340000391 1.5340000391
 2019.1848145 5.0000000000 18.541000366 0.0360192135 0.5219494104 2.2999999523 40.562999725 104.75000000 1.5229808092 -38.84299850 1.5039999485 1.5039999485
 2019.3372803 5.0000000000 18.611000061 0.0250176284 0.5222994685 2.2999999523 43.125000000 107.62500000 1.5109640360 -39.84299850 1.4689999819 1.4689999819
 2019.4896240 5.0000000000 18.687999725 0.0259983987 0.5120065212 2.3049919605 45.469001770 106.50000000 1.4960112572 -40.84299850 1.4259999990 1.4259999990
 2019.6418457 5.0000000000 18.694999695 0.0359679721 0.5058795810 2.2980225086 44.064125061 105.62570953 1.5030176640 -39.34420013 1.4629703760 1.4629703760
 2019.7943115 5.0000000000 18.624000549 0.0409879833 0.4889806807 2.2690696716 43.375549316 109.12220001 1.5250552893 -34.84659958 1.4210336208 1.4210336208
 2019.9466553 5.0000000000 18.475999832 0.0340224206 0.4773871005 2.2341120243 40.033676147 117.49328613 1.5940945148 -36.34179688 1.4020152092 1.4020152092
 2020.0991211 5.0000000000 18.350999832 0.0250216350 0.4599020481 2.2310070992 37.782798767 106.50880432 1.7120945454 -32.84580231 1.3520400524 1.3520400524
 2020.2514648 5.0000000000 18.350999832 0.0170256216 0.4356378019 2.2648911476 32.785003662 92.761016846 1.7710015774 -39.33779144 1.4559166431 1.4559166431
