# LAS format log file from PETREL
# Project units are specified as depth units
#==================================================================
~Version information
VERS.   2.0:
WRAP.   NO:
#==================================================================
~Well
STRT .m      1242.0020752 :
STOP .m      2811.1123047 :
STEP .m     0.00000000 :
NULL .        -999.250000 :
COMP.           : COMPANY
WELL.  35/11-9   : WELL
FLD.            : FIELD
LOC.            : LOCATION
SRVC.           : SERVICE COMPANY
DATE.  2018-09-11 14:48:57   : Log Export Date {yyyy-MM-dd HH:mm:ss}
PROV.           : PROVINCE
UWI.   35/11-9   : UNIQUE WELL ID
API.            : API NUMBER
#==================================================================
~Curve
DEPT .m                   : DEPTH
Lithology_geolink ._      : Lithology_geolink
CALI .in                  : CALI
BS .in                    : BS
DRHO .g/cm3               : DRHO
NPHI .m3/m3               : NPHI
RHOB .g/cm3               : RHOB
GR .gAPI                  : GR
DTC .us/ft                : DTC
DTS .us/ft                : DTS
RDEP .ohm.m               : RDEP
SP .mV                    : SP
RMIC .ohm.m               : RMIC
~Parameter
#==================================================================
~Ascii
# ...
 1658.9683838 19.000000000 12.149000168 12.250000954 0.0763597041 0.4784318209 2.2130329609 93.920776367 137.63099670 408.72198486 0.7834430933 15.948773384 0.4040000141
 1659.1208496 19.000000000 12.134000778 12.250000954 0.0568309985 0.5355346799 2.1389999390 92.403114319 139.83700562 425.15802002 0.7227925658 18.486999512 0.3059999943
 1659.2731934 19.000000000 11.974000931 12.250000954 0.0547019988 0.5316093564 2.0750000477 97.465675354 141.14500427 448.99499512 0.6436554193 18.531000137 0.4009999931
 1659.4256592 19.000000000 11.970998764 12.250000954 0.0415050015 0.5270206332 2.0590000153 99.545890808 140.18400574 445.79302979 0.6077407002 17.611999512 0.2599999905
 1659.5780029 19.000000000 12.036000252 12.250000954 0.0310139991 0.4893682003 2.0940001011 90.746078491 137.40699768 431.55700684 0.6296154261 14.944000244 0.6940000057
 1659.7303467 19.000000000 12.253999710 12.250000954 0.0169479996 0.4683733881 2.1589999199 88.342918396 134.91299438 404.37796021 0.6674124002 13.194000244 0.6819999814
 1659.8828125 19.000000000 12.161999702 12.250000954 0.0118169999 0.4451242983 2.2060000896 75.762229919 133.59300232 391.37200928 0.7125740051 12.930999756 0.8280000091
 1660.0351563 19.000000000 12.185999870 12.250000954 0.0060169999 0.4479892552 2.2369999886 74.802864075 131.22799683 356.39199829 0.7766190171 14.550000191 0.9409999847
 1660.1876221 19.000000000 12.187000275 12.250000954 0.0087289996 0.4645286500 2.2539999485 74.632133484 131.23599243 358.24700928 0.7863330245 16.299999237 0.8040000200
 1660.3399658 19.000000000 12.180999756 12.250000954 0.0083299996 0.4428854287 2.2590000629 79.787834167 131.07800293 374.70999146 0.8256340027 15.994001389 0.8029999733
 1660.4924316 19.000000000 12.185001373 12.250000954 0.0122029996 0.4409031570 2.2420001030 78.335304260 133.32000732 357.53799438 0.7944219708 14.637999535 0.3540000021
 1660.6447754 19.000000000 12.178999901 12.250000954 0.0121809999 0.4199027121 2.2230000496 81.206443787 135.15899658 362.95700073 0.7778019905 15.644001007 0.4309999943
 1660.7972412 19.000000000 12.178001404 12.250000954 0.0313399993 0.4307776093 2.1870000362 81.759109497 134.77999878 375.43701172 0.7821189761 15.336999893 0.6510000229
 1660.9495850 19.000000000 12.180000305 12.250000954 0.0344020016 0.4417517185 2.1789999008 84.321083069 136.13299561 387.87100220 0.7548739910 14.987000465 0.3129999936
 1661.1020508 19.000000000 12.185999870 12.250000954 0.0349720009 0.4314532578 2.1770000458 83.174835205 134.13499451 374.76599121 0.7451480031 13.937999725 0.6790000200
 1661.2543945 19.000000000 12.196000099 12.250000954 0.0452749990 0.4590320587 2.2130000591 78.085021973 134.33099365 375.42401123 0.7377139926 13.281000137 0.3499999940
 1661.4068604 19.000000000 12.303000450 12.250000954 0.0537169985 0.4491935968 2.2290000916 79.359405518 136.27900696 390.91900635 0.7179939747 13.894000053 0.2890000045
 1661.5592041 19.000000000 12.385000229 12.250000954 0.0271700006 0.4744867980 2.2009999752 78.371131897 134.65899658 383.98999023 0.7057939768 18.575000763 0.6409999728
 1661.7115479 19.000000000 12.170999527 12.250000954 0.0397100002 0.4443044364 2.2219998837 83.526992798 136.49800110 421.96899414 0.6882569790 21.462999344 0.6269999743
 1661.8640137 19.000000000 12.088000298 12.250000954 0.0520539992 0.4498105943 2.2309999466 79.776512146 135.46200562 408.51199341 0.6760749817 20.937999725 0.5299999714
 1662.0163574 19.000000000 12.050000191 12.250000954 0.0464229994 0.4243721366 2.2190001011 84.169906616 137.12800598 423.06298828 0.6743310094 18.180999756 0.4379999936
 1662.1688232 19.000000000 11.880999565 12.250000954 0.0513160005 0.4320505261 2.2260000706 101.53364563 139.79499817 424.14099121 0.6746199727 14.199999809 1.9539999962
 1662.3211670 19.000000000 12.107999802 12.250000954 0.0506719984 0.4402056634 2.2599999905 111.04343414 140.23399353 421.57000732 0.6728690267 12.668999672 0.6230000257
 1662.4736328 19.000000000 12.128000259 12.250000954 0.0370969996 0.4560138881 2.2760000229 86.622451782 138.27200317 407.68103027 0.7110419869 17.174999237 0.6650000215
 1662.6259766 19.000000000 12.141000748 12.250000954 0.0355580002 0.4383938313 2.2739999294 85.938545227 138.14399719 396.29299927 0.7102879882 20.236999512 0.7170000076
 1662.7784424 19.000000000 12.125000000 12.250000954 0.0238700006 0.4294225872 2.2420001030 86.611396790 139.66999817 419.16699219 0.7157319784 20.018999100 0.6129999757
 1662.9307861 19.000000000 12.114000320 12.250000954 0.0153390002 0.4326675832 2.2100000381 87.112838745 142.05200195 404.61300659 0.6778749824 18.093999863 0.5170000196
 1663.0832520 19.000000000 11.984999657 12.250000954 0.0248799995 0.4483601749 2.2100000381 90.648574829 140.63800049 385.31201172 0.6650059819 17.087999344 0.4850000143
 1663.2355957 19.000000000 12.039999962 12.250000954 0.0338489972 0.4578073025 2.2090001106 89.134017944 140.84800720 482.38800049 0.6565539837 16.955999374 0.7279999852
 1663.3880615 19.000000000 12.045000076 12.250000954 0.0257229991 0.4482964873 2.2149999142 87.917198181 135.56900024 482.38800049 0.6775079966 17.131000519 0.7779999971
 1663.5404053 19.000000000 12.121999741 12.250000954 0.0300580002 0.4997455180 2.2330000401 93.032165527 134.61000061 448.49200439 0.6753609776 18.049999237 0.7609999776
 1663.6928711 19.000000000 12.074999809 12.250000954 0.0292980000 0.5228607655 2.2260000706 96.984542847 125.12899780 420.14602661 0.6604539752 18.881000519 0.3840000033
 1663.8452148 19.000000000 12.053999901 12.250000954 0.0177239999 0.5419741273 2.2000000477 97.944778442 119.86900330 445.35601807 0.6265959740 20.325000763 0.3560000062
 1663.9975586 19.000000000 12.124000549 12.250000954 0.0097899996 0.4673098624 2.2219998837 98.913047791 113.93000031 384.50000000 0.6155400276 21.200000763 0.6060000062
 1664.1500244 16.000000000 12.159000397 12.250000954 0.0095389998 0.3784433305 2.3190000057 95.205459595 104.91200256 398.18200684 0.8650190234 21.549999237 3.5309998989
 1664.3023682 16.000000000 12.194000244 12.250000954 0.0098130004 0.2715523541 2.4409999847 72.072563171 112.29599762 412.21398926 0.9697030187 21.506000519 6.6929998398
 1664.4548340 16.000000000 12.203000069 12.250000954 0.0101210000 0.2021258324 2.5280001163 51.567588806 114.94599915 426.43399048 1.1540000439 18.531000137 23.128000259
 1664.6071777 16.000000000 12.161001205 12.250000954 0.0077010002 0.2294137031 2.5260000229 53.551338196 120.41699982 426.43399048 2.4700000286 18.618999481 2.8050000668
 1664.7596436 16.000000000 12.097999573 12.250000954 0.0127600003 0.3227321208 2.4539999962 58.977600098 115.20200348 469.74700928 1.6900000572 18.618999481 0.6320000291
 1664.9119873 16.000000000 12.031000137 12.250000954 0.0180440005 0.4400976300 2.3369998932 78.435836792 134.08799744 467.77700806 0.8686349988 20.674999237 0.4939999878
 1665.0644531 16.000000000 11.951000214 12.250000954 0.0318370014 0.4534123540 2.2269999981 89.462104797 139.72599792 466.09695435 0.7788460255 21.812999725 0.5239999890
 1665.2167969 16.000000000 11.767000198 12.250000954 0.0435260013 0.4735772610 2.1570000648 93.264823914 140.55299377 462.15399170 0.7042300105 20.718999863 0.4839999974
 1665.3692627 16.000000000 11.965999603 12.250000954 0.0581369996 0.4627077579 2.1150000095 90.568489075 142.06799316 446.89300537 0.6048470140 20.805999756 0.2389999926
 1665.5216064 16.000000000 12.022999763 12.250000954 0.0611299984 0.4837597013 2.0989999771 102.09095001 142.28900146 453.38598633 0.6058470011 17.044000626 0.3889999986
 1665.6740723 16.000000000 11.937000275 12.250000954 0.0601480044 0.4746177197 2.1170001030 98.276794434 140.65299988 468.00399780 0.6227949858 19.493999481 0.4639999866
 1665.8264160 16.000000000 11.880999565 12.250000954 0.0546969995 0.4526087046 2.1440000534 95.036499023 137.94299316 468.00399780 0.6072610021 24.919000626 0.4090000093
 1665.9787598 16.000000000 11.793001175 12.250000954 0.0342300013 0.4484706223 2.1919999123 98.141517639 133.42999268 448.39700317 0.6643919945 24.919000626 1.4119999409
 1666.1312256 16.000000000 11.911000252 12.250000954 0.0166420005 0.4430090189 2.2500000000 80.065101624 132.11900330 371.91299438 0.7188140154 22.861999512 2.4630000591
