# LAS format log file from PETREL
# Project units are specified as depth units
#==================================================================
~Version information
VERS.   2.0:
WRAP.   NO:
#==================================================================
~Well
STRT .m      1150.0018311 :
STOP .m      2885.3808594 :
STEP .m     0.00000000 :
NULL .        -999.250000 :
COMP.           : COMPANY
WELL.  35/11-10   : WELL
FLD.            : FIELD
LOC.            : LOCATION
SRVC.           : SERVICE COMPANY
DATE.  2018-09-11 14:48:54   : Log Export Date {yyyy-MM-dd HH:mm:ss}
PROV.           : PROVINCE
UWI.   35/11-10   : UNIQUE WELL ID
API.            : API NUMBER
#==================================================================
~Curve
DEPT .m                   : DEPTH
Lithology_geolink ._      : Lithology_geolink
CALI .in                  : CALI
BS .in                    : BS
DRHO .g/cm3               : DRHO
NPHI .m3/m3               : NPHI
RHOB .g/cm3               : RHOB
GR .gAPI                  : GR
DTC .us/ft                : DTC
DTS .us/ft                : DTS
RDEP .ohm.m               : RDEP
SP .mV                    : SP
RSHA .ohm.m               : RSHA
RMIC .ohm.m               : RMIC
RMED .ohm.m               : RMED
~Parameter
#==================================================================
~Ascii
# ...
 2074.7651367 5.0000000000 8.3470001221 8.5000000000 -0.004283965 0.2888151109 2.2530431747 59.300998688 97.957000732 184.13999939 0.9854440093 -132.8750000 0.7632030249 0.6029839516 0.7628958225
 2074.9174805 5.0000000000 8.3459997177 8.5000000000 -0.001150646 0.2862920463 2.2799935341 56.857913971 98.081001282 185.84799194 0.9463940263 -131.8750000 0.7304959893 0.3930175900 0.7300528884
 2075.0698242 5.0000000000 8.3500003815 8.5000000000 -0.003426000 0.2745267451 2.2760000229 59.211215973 97.634002686 186.28300476 0.9540249705 -131.8750000 0.7379549742 0.3492067456 0.7379744053
 2075.2224121 5.0000000000 8.3450002670 8.5000000000 -0.006703943 0.2725600898 2.2609999180 56.377998352 95.961997986 184.62699890 0.9783620238 -131.6250000 0.7695159912 0.3280673027 0.7699487209
 2075.3747559 5.0000000000 8.3500003815 8.5000000000 -0.004794295 0.2734046280 2.2610287666 54.525001526 95.029998779 182.92399597 0.8952819705 -131.1880035 0.7162250280 0.3778397441 0.7160865664
 2075.5270996 5.0000000000 8.3459997177 8.5000000000 -0.001864774 0.2816008627 2.2790305614 63.964870453 96.543998718 181.82400513 0.9376710057 -131.7500000 0.7509809732 0.3660384715 0.7509438992
 2075.6794434 5.0000000000 8.3459997177 8.5000000000 -0.002972000 0.2800425291 2.2980000973 49.381435394 96.565002441 180.53302002 1.1009999514 -132.8750000 0.8718950152 0.4923903942 0.8718060851
 2075.8317871 5.0000000000 8.3450002670 8.5000000000 -0.000463000 0.2879127264 2.3050000668 63.474342346 98.154998779 180.50799561 1.2159999609 -131.3750000 0.9575870037 0.6631778479 0.9577248096
 2075.9843750 5.0000000000 8.3470001221 8.5000000000 0.0004081683 0.2898059785 2.2829568386 52.966999054 99.073997498 181.84300232 1.0509999990 -131.3750000 0.8554090261 0.3480160236 0.8551650643
 2076.1367188 5.0000000000 8.3459997177 8.5000000000 -0.000111035 0.2869525850 2.2559919357 50.834419250 99.139007568 182.28198242 0.9715359807 -132.7500000 0.8114789724 0.2971602380 0.8110705018
 2076.2890625 5.0000000000 8.3489999771 8.5000000000 -0.000757000 0.2773773372 2.2509999275 51.344177246 97.041007996 181.90400696 0.9075080156 -131.8130035 0.7752050161 0.4263759851 0.7750576735
 2076.4414063 5.0000000000 8.3479995728 8.5000000000 0.0030449999 0.2733668089 2.2669999599 57.280471802 98.916999817 181.89799500 0.8147230148 -130.8750000 0.7014309764 0.4687981009 0.7012367845
 2076.5939941 5.0000000000 8.3479995728 8.5000000000 0.0028493190 0.2790608406 2.2850096226 53.643001556 98.714996338 182.36898804 0.9018999934 -131.6250000 0.7704539895 0.3234679699 0.7698894143
 2076.7463379 5.0000000000 8.3489999771 8.5000000000 0.0030447771 0.2802960277 2.2910141945 51.618000031 96.117996216 180.72598267 0.9769679904 -132.3130035 0.8407710195 0.5652211308 0.8408862352
 2076.8986816 5.0000000000 8.3470001221 8.5000000000 0.0010422528 0.2848457098 2.3000223637 52.985805511 94.708999634 174.14700317 0.9348000288 -133.1250000 0.8246660233 0.2893343866 0.8250256181
 2077.0510254 6.0000000000 8.3479995728 8.5000000000 0.0043199998 0.2805149257 2.3139998913 61.144908905 91.575004578 172.25000000 1.0880000591 -131.2500000 0.9580839872 0.5746153593 0.9575744271
 2077.2036133 6.0000000000 8.3450002670 8.5000000000 0.0025145321 0.2728922069 2.3340272903 65.028999329 90.914001465 170.08700562 1.2130000591 -130.9380035 1.0750000477 0.7574166656 1.0748125315
 2077.3559570 6.0000000000 8.3470001221 8.5000000000 0.0034660322 0.2648838460 2.3510193825 65.496002197 89.964996338 167.09100342 1.3320000172 -133.9380035 1.1849999428 0.6762627959 1.1848236322
 2077.5083008 6.0000000000 8.3479995728 8.5000000000 0.0016162096 0.2688655853 2.3630046844 69.643356323 88.211997986 166.47702026 1.7239999771 -132.6250000 1.5479999781 0.6690224409 1.5474182367
 2077.6606445 6.0000000000 8.3450002670 8.5000000000 0.0011230001 0.2761014104 2.3659999371 72.045158386 90.275001526 160.92599487 1.8509999514 -130.5630035 1.6909999847 0.8411695957 1.6907708645
 2077.8129883 6.0000000000 8.3479995728 8.5000000000 -0.004111000 0.2828872502 2.3780000210 73.555580139 91.134002686 160.61399841 2.0109999180 -131.9380035 1.8389999866 1.0898028612 1.8385263681
 2077.9655762 6.0000000000 8.3439998627 8.5000000000 -0.002661545 0.2804439664 2.3849647045 72.295997620 90.685783386 166.50080872 1.8969999552 -132.3112030 1.7710000277 1.0002917051 1.7711089849
 2078.1179199 6.0000000000 8.3420000076 8.5000000000 -0.001133914 0.2825715840 2.3629455566 70.565773010 91.799095154 167.63836670 1.5299999714 -131.1873016 1.4889999628 0.4258461595 1.4894518852
 2078.2702637 6.0000000000 8.3439998627 8.5000000000 -0.002328000 0.2883167863 2.3289999962 66.477561951 92.487007141 169.11701965 1.4099999666 -130.7500000 1.4170000553 0.5673088431 1.4171154499
 2078.4226074 6.0000000000 8.3470001221 8.5000000000 0.0012009999 0.2823013365 2.3190000057 65.436660767 95.459999084 170.36500549 1.2089999914 -131.2500000 1.2460000515 0.5779519081 1.2465472221
 2078.5751953 6.0000000000 8.3470001221 8.5000000000 0.0066617504 0.2785599530 2.3300318718 65.796997070 91.947731018 170.87919617 1.0540000200 -131.9355011 1.1109999418 0.4065512717 1.1112163067
 2078.7275391 6.0000000000 8.3479995728 8.5000000000 0.0096179536 0.2725985646 2.3500142097 63.826999664 91.776809692 172.23576355 1.2150000334 -130.3730927 1.3009999990 0.4777692258 1.3006955385
 2078.8798828 6.0000000000 8.3500003815 8.5000000000 0.0077191154 0.2869100273 2.3590223789 65.207786560 91.036163330 170.83920288 1.2109999657 -129.1900024 1.3170000315 0.7666079998 1.3169744015
 2079.0322266 6.0000000000 8.3500003815 8.5000000000 0.0071669999 0.2859491706 2.3729999065 65.315834045 92.386001587 170.34500122 1.2710000277 -130.4380035 1.3930000067 0.6465865374 1.3927568197
 2079.1848145 6.0000000000 8.3489999771 8.5000000000 0.0054982067 0.2821610868 2.3790047169 76.203002930 90.720359802 166.37756348 1.5509999990 -131.4371948 1.6979999542 0.7117884755 1.6975111961
 2079.3371582 6.0000000000 8.3479995728 8.5000000000 0.0031339133 0.2924894094 2.3820257187 77.850997925 89.699874878 162.99813843 1.7893253565 -130.9383087 1.9643332958 1.1017467976 1.9635736942
 2079.4895020 6.0000000000 8.3439998627 8.5000000000 0.0024569281 0.3092181683 2.3980288506 79.423484802 90.868629456 164.32484436 1.9924335480 -131.1250000 2.1724607944 1.3821026087 2.1716666222
 2079.6418457 6.0000000000 8.3450002670 8.5000000000 0.0024120000 0.3188885450 2.4159998894 80.444366455 90.634002686 163.59700012 2.2630000114 -131.1250000 2.4600000381 1.2854703665 2.4595384598
 2079.7941895 6.0000000000 8.3420000076 8.5000000000 0.0018290000 0.3177138269 2.4159998894 78.125724792 90.916999817 159.19000244 2.4800000191 -131.3750000 2.7179999352 1.0342115164 2.7171742916
 2079.9467773 6.0000000000 8.3509998322 8.5000000000 0.0011120209 0.3161275387 2.4089999199 85.009002686 90.558677673 157.84269714 2.6410834789 -132.1250000 2.9010753632 1.3430031538 2.9007067680
 2080.0991211 6.0000000000 8.3459997177 8.5000000000 0.0048655150 0.3205538690 2.4090175629 88.677124023 89.110626221 157.64929199 2.6930177212 -132.1235046 2.9479982853 1.9091826677 2.9479246140
 2080.2514648 6.0000000000 8.3479995728 8.5000000000 0.0064349999 0.3208785057 2.4200000763 82.260307312 90.748001099 157.83999634 2.7039999962 -131.1880035 2.9470000267 1.2989519835 2.9470016956
 2080.4038086 6.0000000000 8.3459997177 8.5000000000 0.0061289999 0.3039323986 2.4230000973 80.490821838 89.861999512 157.86399841 2.8870000839 -130.5000000 3.1410000324 1.3616826534 3.1403791904
 2080.5563965 6.0000000000 8.3500003815 8.5000000000 0.0079197995 0.3069490790 2.4229888916 78.503997803 88.744422913 157.16842651 2.8270545006 -131.5644073 3.0790016651 1.4766314030 3.0790994167
 2080.7087402 6.0000000000 8.3459997177 8.5000000000 0.0046757772 0.2981131971 2.4160110950 81.045997620 88.381774902 156.19245911 2.8614127636 -132.4367065 3.0803599358 1.4480929375 3.0799982548
 2080.8610840 6.0000000000 8.3430004120 8.5000000000 0.0020409999 0.3098151982 2.4230000973 82.630462646 86.367996216 158.35600281 3.1189999580 -131.6250000 3.3050000668 1.6480352879 3.3046395779
