# LAS format log file from PETREL
# Project units are specified as depth units
#==================================================================
~Version information
VERS.   2.0:
WRAP.   NO:
#==================================================================
~Well
STRT .m      998.18890381 :
STOP .m      3019.4697266 :
STEP .m     0.00000000 :
NULL .        -999.250000 :
COMP.           : COMPANY
WELL.  35/12-1   : WELL
FLD.            : FIELD
LOC.            : LOCATION
SRVC.           : SERVICE COMPANY
DATE.  2018-09-11 14:48:57   : Log Export Date {yyyy-MM-dd HH:mm:ss}
PROV.           : PROVINCE
UWI.   35/12-1   : UNIQUE WELL ID
API.            : API NUMBER
#==================================================================
~Curve
DEPT .m                   : DEPTH
Lithology_geolink ._      : Lithology_geolink
CALI .in                  : CALI
BS .in                    : BS
DRHO .g/cm3               : DRHO
NPHI .m3/m3               : NPHI
RHOB .g/cm3               : RHOB
PEF .b/e                  : PEF
GR .gAPI                  : GR
DTC .us/ft                : DTC
RDEP .ohm.m               : RDEP
SP .mV                    : SP
RSHA .ohm.m               : RSHA
RMIC .ohm.m               : RMIC
RMED .ohm.m               : RMED
~Parameter
#==================================================================
~Ascii
# ...
 1266.8701172  -999.250000 20.907999039 17.500000000 -0.081000000  -999.250000 1.6490000486 14.413000107 148.55720520 131.27400208 1.8349679708 185.26600647 1.4988157749 0.1309775561 0.0399999991
 1267.0224609  -999.250000 21.291999817 17.500000000 -0.085000001  -999.250000 1.6579999924 13.569000244 143.24450684 135.06199646 1.8120921850 185.89799500 1.5089598894 0.1389871836 0.0399999991
 1267.1749268  -999.250000 20.701000214 17.500000000 -0.086000003  -999.250000 1.7189999819 11.256999969 134.05635071 139.96600342 1.7821199894 186.18876648 1.4323083162 0.1190160289 0.0399999991
 1267.3272705  -999.250000 19.868999481 17.500000000 -0.086000003  -999.250000 1.7779999971 8.9119997025 134.96026611 140.00700378 1.7740321159 186.18499756 1.4051080942 0.1729567200 0.0399999991
 1267.4797363  -999.250000 20.538999557 17.500000000 -0.088000000  -999.250000 1.8020000458 9.1859998703 138.24137878 132.15499878 1.7391400337 186.41481018 1.4139640331 0.3388670683 0.0399999991
 1267.6320801  -999.250000 21.277999878 17.500000000 -0.103000000  -999.250000 1.6870000362 11.791999817 143.99438477 127.66300201 1.7101162672 186.73373413 1.4070279598 0.3849631250 0.0410000011
 1267.7845459  -999.250000 21.829999924 17.500000000 -0.115000002  -999.250000 1.5679999590 15.107999802 145.56274414 115.13400269 1.7010359764 186.78295898 1.4169600010 0.2191329002 0.0399999991
 1267.9368896  -999.250000 21.686000824 17.500000000 -0.119000003  -999.250000 1.5269999504 18.052999496 140.13235474 106.20400238 1.7109599113 187.63230896 1.4727756977 0.1410624981 0.0399999991
 1268.0893555  -999.250000 22.044000626 17.500000000 -0.116999999  -999.250000 1.5509999990 18.468000412 134.15678406 102.91400146 1.8076890707 187.80986023 1.5547370911 0.1220152155 0.0399999991
 1268.2416992  -999.250000 22.281999588 17.500000000 -0.112999998  -999.250000 1.5709999800 18.486000061 131.50712585 115.22900391 2.0579953194 187.97985840 1.6934435368 0.1140064076 0.0399999991
 1268.3940430  -999.250000 21.879999161 17.500000000 -0.112000003  -999.250000 1.5609999895 16.420000076 136.22743225 120.07099915 2.2492346764 188.12477112 1.7926033735 0.1279775947 0.0399999991
 1268.5465088  -999.250000 20.170999527 17.500000000 -0.111000001  -999.250000 1.5299999714 16.222000122 140.92224121 128.35800171 2.0577726364 188.14898682 1.6515685320 0.1319967955 0.0399999991
 1268.6988525  -999.250000 20.438999176 17.500000000 -0.112999998  -999.250000 1.5000000000 16.059000015 145.71331787 133.02900696 1.8807091713 187.83149719 1.5723165274 0.1230144128 0.0399999991
 1268.8513184  -999.250000 20.733999252 17.500000000 -0.112000003  -999.250000 1.5030000210 16.642000198 147.30273438 128.62800598 1.8411561251 187.75006104 1.5241922140 0.1030160263 0.0399999991
 1269.0036621  -999.250000 20.506999969 17.500000000 -0.108000003  -999.250000 1.5499999523 12.373999596 143.54402161 126.69699860 1.8459799290 187.62919617 1.5220079422 0.1089903861 0.0399999991
 1269.1561279  -999.250000 20.015001297 17.500000000 -0.101999998  -999.250000 1.6109999418 10.883999825 142.77160645 126.27199554 1.8938078880 187.12141418 1.5558638573 0.1749471128 0.0399999991
 1269.3084717  -999.250000 20.785001755 17.500000000 -0.104999997  -999.250000 1.5820000172 11.720000267 144.49560547 134.76199341 1.9179037809 187.04005432 1.6117756367 0.3418661952 0.0399999991
 1269.4609375  -999.250000 21.492000580 17.500000000 -0.111000001  -999.250000 1.5080000162 15.133000374 146.17166138 143.17100525 1.8542561531 187.14891052 1.6129959822 0.4119439423 0.0399999991
 1269.6132813  -999.250000 22.091999054 17.500000000 -0.115999997  -999.250000 1.4509999752 16.437999725 145.69538879 131.53500366 1.8201363087 186.89520264 1.5890961885 0.1801858991 0.0399999991
 1269.7657471  -999.250000 22.211000443 17.500000000 -0.115000002  -999.250000 1.4730000496 14.100000381 146.46139526 136.19099426 1.8598399162 186.68617249 1.5690801144 0.1010632515 0.0399999991
 1269.9180908  -999.250000 21.586000443 17.500000000 -0.108000003  -999.250000 1.6009999514 9.0200004578 146.86468506 134.42700195 1.9297194481 186.54910278 1.5211923122 0.1069951952 0.0399999991
 1270.0705566  -999.250000 19.930000305 17.500000000 -0.090999998  -999.250000 1.8009999990 6.1900000572 145.18833923 135.47000122 1.9768493176 185.82757568 1.4970768690 0.3118358850 0.0399999991
 1270.2229004  -999.250000 18.336999893 17.500000000 -0.072999999  -999.250000 1.9709999561 5.3530001640 137.99676514 135.28999329 2.0238118172 185.71009827 1.5039719343 0.9924542904 0.0399999991
 1270.3753662  -999.250000 17.834999084 17.500000000 -0.075000003  -999.250000 1.9809999466 5.3010001183 131.47421265 134.88800049 1.9592083693 185.52415466 1.4531633854 0.8381240964 0.0399999991
 1270.5277100  -999.250000 18.197999954 17.500000000 -0.083999999  -999.250000 1.9199999571 5.4489998817 126.48699951 138.45599365 1.8693602085 185.11732483 1.4171441793 0.5562259555 0.0399999991
 1270.6800537  -999.250000 17.721000671 17.500000000 -0.089000002  -999.250000 1.8750000000 5.8429999352 127.84082794 137.45599365 1.9148156643 185.54331970 1.4658036232 0.2904259264 0.0399999991
 1270.8325195  -999.250000 18.261999130 17.500000000 -0.083999999  -999.250000 1.8819999695 6.3309998512 130.79862976 132.75799561 1.9448800087 185.97564697 1.5148038864 0.2540288568 0.0399999991
 1270.9848633  -999.250000 18.211999893 17.500000000 -0.077000000  -999.250000 1.9019999504 6.2319998741 134.34831238 129.91700745 1.9001802206 186.70883179 1.4990640879 0.6274011135 0.0399999991
 1271.1373291  -999.250000 17.822000504 17.500000000 -0.070000000  -999.250000 1.9099999666 6.5130000114 136.19451904 132.62199402 1.9288839102 187.15264893 1.5099560022 0.9557371736 0.0399999991
 1271.2896729  -999.250000 17.656000137 17.500000000 -0.064999998  -999.250000 1.8910000324 7.6770000458 135.48114014 134.25399780 1.9479237795 186.82652283 1.5070120096 0.4538054466 0.0399999991
 1271.4421387  -999.250000 17.937000275 17.500000000 -0.059999999  -999.250000 1.8600000143 9.7110004425 133.77735901 136.89399719 1.9310680628 187.16471863 1.4840919971 0.3201065660 0.0399999991
 1271.5944824  -999.250000 18.628999710 17.500000000 -0.061999999  -999.250000 1.7999999523 11.357000351 131.86752319 139.10499573 1.8483325243 187.73353577 1.4361922741 0.4199198484 0.0399999991
 1271.7469482  -999.250000 20.187000275 17.500000000 -0.068999998  -999.250000 1.7419999838 12.217000008 134.45492554 135.60699463 1.7972042561 187.87089539 1.4429719448 0.4399839938 0.0399999991
 1271.8992920  -999.250000 20.871999741 17.500000000 -0.075999998  -999.250000 1.7330000401 11.994999886 140.64103699 134.07699585 1.7591521740 188.13278198 1.4748718739 0.2631418407 0.0399999991
 1272.0517578  -999.250000 20.395999908 17.500000000 -0.077000000  -999.250000 1.8009999990 10.246999741 143.06706238 134.51800537 1.7599967718 187.68237305 1.4690191746 0.2470128089 0.0399999991
 1272.2041016  -999.250000 19.353000641 17.500000000 -0.075000003  -999.250000 1.8880000114 8.6210002899 143.13195801 136.85200500 1.7679679394 187.72994995 1.4480839968 0.3709006310 0.0399999991
 1272.3565674  -999.250000 18.325000763 17.500000000 -0.082000002  -999.250000 1.8799999952 9.3459997177 143.80445862 137.96699524 1.7929198742 187.87487793 1.4589647055 0.6497765779 0.0399999991
 1272.5089111  -999.250000 18.534000397 17.500000000 -0.090999998  -999.250000 1.8079999685 10.798999786 144.45147705 134.66400146 1.8099318743 187.99989319 1.4580039978 0.6709831953 0.0399999991
 1272.6612549  -999.250000 19.024999619 17.500000000 -0.093000002  -999.250000 1.7699999809 12.100000381 144.06462097 136.46499634 1.7512364388 188.06489563 1.4719438553 0.3565044105 0.0399999991
 1272.8137207  -999.250000 19.753000259 17.500000000 -0.085000001  -999.250000 1.7879999876 10.732999802 143.16171265 139.41000366 1.6772962809 187.89514160 1.4471001625 0.2470873296 0.0399999991
 1272.9660645  -999.250000 20.819997787 17.500000000 -0.079000004  -999.250000 1.8090000153 10.107000351 143.73408508 143.80799866 1.6212244034 187.71029663 1.4300680161 0.3079023063 0.0399999991
