# LAS format log file from PETREL
# Project units are specified as depth units
#==================================================================
~Version information
VERS.   2.0:
WRAP.   NO:
#==================================================================
~Well
STRT .m      1150.0018311 :
STOP .m      2885.3808594 :
STEP .m     0.00000000 :
NULL .        -999.250000 :
COMP.           : COMPANY
WELL.  35/11-10   : WELL
FLD.            : FIELD
LOC.            : LOCATION
SRVC.           : SERVICE COMPANY
DATE.  2018-09-11 14:48:54   : Log Export Date {yyyy-MM-dd HH:mm:ss}
PROV.           : PROVINCE
UWI.   35/11-10   : UNIQUE WELL ID
API.            : API NUMBER
#==================================================================
~Curve
DEPT .m                   : DEPTH
Lithology_geolink ._      : Lithology_geolink
CALI .in                  : CALI
BS .in                    : BS
DRHO .g/cm3               : DRHO
NPHI .m3/m3               : NPHI
RHOB .g/cm3               : RHOB
GR .gAPI                  : GR
DTC .us/ft                : DTC
DTS .us/ft                : DTS
RDEP .ohm.m               : RDEP
SP .mV                    : SP
RSHA .ohm.m               : RSHA
RMIC .ohm.m               : RMIC
RMED .ohm.m               : RMED
~Parameter
#==================================================================
~Ascii
# ...
 1843.5743408  -999.250000 12.324000359 12.250000954 0.0150473462 0.3981776237 2.3719823360 87.089218140 120.54199982 289.36499023 1.5080000162 -167.1880035 1.2819999456 0.9809486866 1.2820936441
 1843.7266846  -999.250000 12.342000961 12.250000954 0.0190006103 0.4086196125 2.3609848022 94.006454468 122.97799683 292.17199707 1.4340000153 -165.6250000 1.2200000286 1.4182345867 1.2201986313
 1843.8790283  -999.250000 12.365999222 12.250000954 0.0147737777 0.4239444435 2.3420000076 94.539154053 124.15799713 292.14498901 1.3109999895 -166.3750000 1.1210000515 1.5385233164 1.1213173866
 1844.0314941  -999.250000 12.394000053 12.250000954 0.0157502126 0.4305647314 2.3420040607 93.366935730 124.70400238 295.86099243 1.2610000372 -165.6250000 1.0789999962 1.5330239534 1.0791344643
 1844.1838379  -999.250000 12.440999031 12.250000954 0.0234940872 0.4136112034 2.3469879627 94.338439941 122.70200348 290.87298584 1.2730000019 -166.1250000 1.0900000334 1.5917636156 1.0899647474
 1844.3363037  -999.250000 12.527999878 12.250000954 0.0198606793 0.3928846121 2.3319942951 95.592994690 122.34200287 290.51199341 1.2879999876 -166.8750000 1.0989999771 1.6119198799 1.0989711285
 1844.4886475  -999.250000 12.522998810 12.250000954 0.0219608620 0.4081195295 2.3250095844 93.677078247 121.56400299 290.58499146 1.2869999409 -165.3750000 1.0980000496 1.4476610422 1.0980032682
 1844.6411133  -999.250000 12.487999916 12.250000954 0.0280344076 0.4334876835 2.3370110989 96.322875977 122.47499847 292.36801147 1.2779999971 -166.1880035 1.0900000334 1.3693121672 1.0900192261
 1844.7934570  -999.250000 12.447999001 12.250000954 0.0347662941 0.4429903924 2.3509943485 95.369766235 123.61900330 301.06298828 1.2460000515 -166.5000000 1.0620000362 1.5612268448 1.0620896816
 1844.9459229  -999.250000 12.423000336 12.250000954 0.0213974137 0.4347476065 2.3439872265 96.639984131 124.48400116 303.24301147 1.2139999866 -166.0630035 1.0369999409 1.5351080894 1.0370600224
 1845.0982666  -999.250000 12.401000023 12.250000954 0.0110505912 0.4422489703 2.3360016346 94.847442627 125.62899780 304.10000610 1.1959999800 -165.9380035 1.0210000277 1.5250400305 1.0210512877
 1845.2507324  -999.250000 12.390999794 12.250000954 0.0055518919 0.4308361411 2.3380031586 94.725097656 126.13300323 304.59301758 1.1900000572 -166.7500000 1.0190000534 1.4861561060 1.0190048218
 1845.4030762  -999.250000 12.390000343 12.250000954 0.0048582731 0.4138376117 2.3399975300 92.727600098 124.59400177 303.66101074 1.1970000267 -166.8130035 1.0240000486 1.5487476587 1.0239840746
 1845.5555420  -999.250000 12.390999794 12.250000954 0.0014566886 0.4048811495 2.3369998932 93.964004517 123.76000214 298.69699097 1.2050000429 -165.4380035 1.0319999456 1.5669423342 1.0319807529
 1845.7078857  -999.250000 12.392000198 12.250000954 0.0006394495 0.4238687754 2.3370079994 96.375068665 121.97200012 294.23199463 1.2319999933 -167.1250000 1.0590000153 1.6187918186 1.0589135885
 1845.8602295  -999.250000 12.390000343 12.250000954 0.0011995989 0.4084627330 2.3470079899 94.799530029 118.69000244 290.17999268 1.3079999685 -167.6880035 1.1180000305 1.7136193514 1.1178109646
 1846.0126953  -999.250000 12.397999763 12.250000954 0.0006972589 0.3953065276 2.3570129871 88.462081909 117.37500000 284.86599731 1.3580000401 -166.3130035 1.1619999409 1.7877037525 1.1618590355
 1846.1650391  -999.250000 12.425999641 12.250000954 -0.001474010 0.3783960938 2.3730111122 85.844184875 116.24099731 281.78698730 1.3960000277 -166.8130035 1.1959999800 1.7989559174 1.1958910227
 1846.3175049  -999.250000 12.424000740 12.250000954 -0.001486627 0.3985088468 2.3870058060 88.225082397 116.85399628 280.60900879 1.4370000362 -168.8130035 1.2319999933 1.8886398077 1.2318847179
 1846.4698486  -999.250000 12.432999611 12.250000954 -0.002269228 0.3871392608 2.3939936161 82.020957947 116.50099945 279.20098877 1.4459999800 -168.5000000 1.2410000563 1.8282443285 1.2409712076
 1846.6223145  -999.250000 12.454001427 12.250000954 -0.002551625 0.3956471682 2.3859941959 83.528778076 115.91899872 277.03900146 1.4470000267 -166.4380035 1.2410000563 1.8399519920 1.2410000563
 1846.7746582  -999.250000 12.454999924 12.250000954 -0.000832717 0.3803442717 2.3789975643 82.883522034 116.81999207 273.93899536 1.4340000153 -168.1880035 1.2309999466 1.8629078865 1.2310320139
 1846.9271240  -999.250000 12.453000069 12.250000954 0.0045127571 0.3989670575 2.3759999275 84.195945740 116.63700104 272.68099976 1.4249999523 -170.6250000 1.2220000029 1.7534403801 1.2220215797
 1847.0794678  -999.250000 12.454001427 12.250000954 0.0054575549 0.4055437148 2.3760006428 89.196983337 115.96499634 270.10400391 1.4279999733 -168.8750000 1.2269999981 1.8924391270 1.2269840240
 1847.2319336  -999.250000 12.451999664 12.250000954 0.0061516846 0.4174894392 2.3770031929 83.404647827 113.65100098 271.27600098 1.4450000525 -169.0630035 1.2369999886 1.9139159918 1.2369759083
 1847.3842773  -999.250000 12.454001427 12.250000954 0.0072020134 0.3962820172 2.3789999485 89.589035034 111.47799683 268.33801270 1.4789999723 -170.0000000 1.2680000067 1.9020479918 1.2679007053
 1847.5367432  -999.250000 12.451999664 12.250000954 0.0072140871 0.3655296266 2.3789951801 77.277870178 111.60900116 264.20700073 1.5479999781 -169.7500000 1.3279999495 2.0525159836 1.3278557062
 1847.6890869  -999.250000 12.454999924 12.250000954 0.0041505513 0.3541581035 2.3760023117 76.251815796 111.24600220 262.00201416 1.6180000305 -169.6250000 1.3880000114 2.1167438030 1.3878078461
 1847.8415527  -999.250000 12.451999664 12.250000954 0.0035932595 0.3599963188 2.3790094852 75.960235596 109.88099670 261.56698608 1.6640000343 -170.6880035 1.4299999475 2.0910835266 1.4298989773
 1847.9938965  -999.250000 12.453000069 12.250000954 0.0050001000 0.3754346371 2.3850080967 75.114677429 109.35800171 262.01800537 1.6829999685 -170.3130035 1.4479999542 2.0880119801 1.4479422569
 1848.1462402  -999.250000 12.454001427 12.250000954 0.0026334692 0.3733503819 2.3950088024 75.029136658 110.19799805 253.43899536 1.7300000191 -168.3750000 1.4910000563 2.3768382072 1.4908622503
 1848.2987061  -999.250000 12.487999916 12.250000954 0.0057155024 0.3682690859 2.4059991837 73.952865601 111.92400360 254.95599365 1.7170000076 -169.3130035 1.4819999933 2.0901567936 1.4820288420
 1848.4510498  -999.250000 12.484999657 12.250000954 0.0063409358 0.3705992401 2.4049870968 76.714569092 112.65900421 261.01501465 1.6619999409 -171.1880035 1.4390000105 1.8818334341 1.4391378164
 1848.6035156  -999.250000 12.512000084 12.250000954 0.0050114659 0.3778681755 2.3889894485 79.788536072 112.41600037 264.91500854 1.5939999819 -169.1880035 1.3839999437 1.7953442335 1.3841321468
 1848.7558594  -999.250000 12.512998581 12.250000954 0.0030989256 0.3900462389 2.3759992123 81.471649170 113.73799896 270.11801147 1.4830000401 -168.8130035 1.2940000296 1.8567515612 1.2942882776
 1848.9083252  -999.250000 12.539999008 12.250000954 0.0042530349 0.4202038348 2.3750016689 80.155052185 114.47000122 272.92700195 1.4240000248 -168.5000000 1.2450000048 1.8838918209 1.2451177835
 1849.0606689  -999.250000 12.569000244 12.250000954 0.0030518060 0.4252589643 2.3769977093 91.203140259 114.16799927 274.83200073 1.3969999552 -169.0630035 1.2220000029 1.8650761843 1.2220736742
 1849.2131348  -999.250000 12.600000381 12.250000954 0.0053087268 0.4167558253 2.3739840984 89.567321777 113.94000244 274.24200439 1.3910000324 -169.7500000 1.2159999609 1.6707805395 1.2160143852
 1849.3654785  -999.250000 12.612999916 12.250000954 0.0082563031 0.3951922953 2.3639912605 83.264053345 113.73000336 275.27999878 1.4409999847 -167.5630035 1.2580000162 1.7566514015 1.2578655481
 1849.5179443  -999.250000 12.609999657 12.250000954 0.0086369300 0.4017027617 2.3530080318 84.052368164 115.35299683 271.61599731 1.5110000372 -167.0630035 1.3150000572 1.8407307863 1.3148630857
 1849.6702881  -999.250000 12.583000183 12.250000954 0.0098396521 0.4101102650 2.3580057621 81.080383301 115.63999939 270.35000610 1.6069999933 -168.1880035 1.3949999809 1.8629119396 1.3947438002
