# LAS format log file from PETREL
# Project units are specified as depth units
#==================================================================
~Version information
VERS.   2.0:
WRAP.   NO:
#==================================================================
~Well
STRT .m      2818.0771484 :
STOP .m      3213.0979004 :
STEP .m     0.00000000 :
NULL .        -999.250000 :
COMP.           : COMPANY
WELL.  35/11-15 S   : WELL
FLD.            : FIELD
LOC.            : LOCATION
SRVC.           : SERVICE COMPANY
DATE.  2018-09-11 14:48:55   : Log Export Date {yyyy-MM-dd HH:mm:ss}
PROV.           : PROVINCE
UWI.   35/11-15 S   : UNIQUE WELL ID
API.            : API NUMBER
#==================================================================
~Curve
DEPT .m                   : DEPTH
Lithology_geolink ._      : Lithology_geolink
CALI .in                  : CALI
BS .in                    : BS
ROP .m/h                  : ROP
DRHO .g/cm3               : DRHO
THOR .ppm                 : THOR
SGR .gAPI                 : SGR
RHOB .g/cm3               : RHOB
PEF .b/e                  : PEF
GR .gAPI                  : GR
URAN .ppm                 : URAN
DTC .us/ft                : DTC
DTS .us/ft                : DTS
RDEP .ohm.m               : RDEP
RMIC .ohm.m               : RMIC
RMED .ohm.m               : RMED
~Parameter
#==================================================================
~Ascii
 2818.0771484 7.0000000000 8.5658998489 12.250000954 104814.35938  -999.250000 7.3926000595 0.0083996793  -999.250000  -999.250000 140.08160400 2.8594000340 82.363601685 149.18179321  -999.250000  -999.250000  -999.250000
 2818.2294922 7.0000000000 8.5602998734 12.250000954 91968.117188  -999.250000 8.1309003830 0.0088983998  -999.250000  -999.250000 146.61399841 2.6872999668 82.999992371 150.54539490  -999.250000  -999.250000  -999.250000
 2818.3820801 7.0000000000 8.5602998734 12.250000954 96212.875000  -999.250000 8.1784000397 0.0087003205  -999.250000  -999.250000 155.04989624 2.5383999348 83.363601685 151.54539490  -999.250000  -999.250000  -999.250000
 2818.5344238 7.0000000000 8.5574998856 12.250000954 106106.40625  -999.250000 8.5107002258 0.0085003208  -999.250000  -999.250000 149.68620300 2.5453999043 84.000000000 152.00000000  -999.250000  -999.250000  -999.250000
 2818.6867676 7.0000000000 8.5686998367 12.250000954 112708.07813  -999.250000 8.2025003433 0.0079009607  -999.250000  -999.250000 154.26199341 2.7855000496 84.181800842 152.00000000  -999.250000  -999.250000  -999.250000
 2818.8391113 7.0000000000 8.5715999603 12.250000954 105419.51563  -999.250000 8.3214998245 0.0078003197  -999.250000  -999.250000 161.34339905 2.6447999477 83.181800842 151.81820679  -999.250000  -999.250000  -999.250000
 2818.9916992 7.0000000000 8.5686998367 12.250000954 101320.91406  -999.250000 8.4351997375 0.0076003205  -999.250000  -999.250000 159.91430664 2.5060000420 83.454490662 151.81820679  -999.250000  -999.250000  -999.250000
 2819.1440430 7.0000000000 8.5771999359 12.250000954 98009.640625  -999.250000 8.4736003876 0.0072006411  -999.250000  -999.250000 146.35549927 2.5992999077 83.363601685 150.99998474  -999.250000  -999.250000  -999.250000
 2819.2963867 7.0000000000 8.6111001968 12.250000954 99653.765625  -999.250000 8.6760997772 0.0061017629  -999.250000  -999.250000 140.32499695 2.9960000515 83.181800842 149.63639832  -999.250000  -999.250000  -999.250000
 2819.4487305 7.0000000000 8.6534004211 12.250000954 102108.23438  -999.250000 8.5451002121 0.0043057604  -999.250000  -999.250000 146.15910339 3.6113998890 83.363601685 149.45449829  -999.250000  -999.250000  -999.250000
 2819.6013184 7.0000000000 8.6618995667 12.250000954 92838.242188  -999.250000 8.2622995377 0.0018040064  -999.250000  -999.250000 140.82479858 4.6963000298 82.818199158 149.63639832  -999.250000  -999.250000  -999.250000
 2819.7536621 7.0000000000 8.6590995789 12.250000954 84170.882813  -999.250000 8.1417999268 -0.001993910  -999.250000  -999.250000 140.83599854 6.2754001617 82.727302551 149.81820679  -999.250000  -999.250000  -999.250000
 2819.9060059 7.0000000000 8.6618995667 12.250000954 79441.921875  -999.250000 7.5331997871 -0.006492788  -999.250000  -999.250000 157.41789246 8.0645999908 82.000000000 149.72729492  -999.250000  -999.250000  -999.250000
 2820.0583496 7.0000000000 8.6534004211 12.250000954 80263.796875  -999.250000 7.2825999260 -0.012989583  -999.250000  -999.250000 150.36909485 10.050299644 81.818191528 148.45460510  -999.250000  -999.250000  -999.250000
 2820.2106934 7.0000000000 8.6449003220 12.250000954 86489.281250  -999.250000 6.8791999817 -0.017186560  -999.250000  -999.250000 142.75280762 11.102899551 81.818191528 144.81820679  -999.250000  -999.250000  -999.250000
 2820.3632813 7.0000000000 8.6478004456 12.250000954 92179.437500  -999.250000 7.1170997620 -0.020694392  -999.250000  -999.250000 140.69020081 11.523900032 82.636398315 140.45449829  -999.250000  -999.250000  -999.250000
 2820.5156250 7.0000000000 8.6506004333 12.250000954 93876.476563  -999.250000 6.4222002029 -0.022696795  -999.250000  -999.250000 138.91999817 11.430700302 77.727302551 137.00000000  -999.250000  -999.250000  -999.250000
 2820.6679688 7.0000000000 8.5998001099 12.250000954 97921.078125  -999.250000 5.1203999519 -0.024297435  -999.250000  -999.250000 133.49690247 11.432299614 74.000000000 128.90910339  -999.250000  -999.250000  -999.250000
 2820.8203125 4.0000000000 8.6506004333 12.250000954 100614.60156  -999.250000 3.5378999710 -0.023103841  -999.250000  -999.250000 128.06979370 10.512900352 72.000000000 121.27269745  -999.250000  -999.250000  -999.250000
 2820.9729004 4.0000000000 8.6562004089 12.250000954 91730.515625  -999.250000 2.8545000553 -0.021802083  -999.250000  -999.250000 99.747100830 9.6569004059 73.000000000 128.18179321  -999.250000  -999.250000  -999.250000
 2821.1252441 4.0000000000 9.1444997787 12.250000954 76080.593750  -999.250000 2.1449000835 -0.018305609  -999.250000  -999.250000 84.975303650 8.0130996704 77.363601685 139.36360168  -999.250000  -999.250000  -999.250000
 2821.2775879 2.0000000000 9.8923997879 12.250000954 60377.761719  -999.250000 2.1733000278 -0.017002083  -999.250000  -999.250000 80.042900085 7.4770002365 85.363601685 147.18179321  -999.250000  -999.250000  -999.250000
 2821.4299316 2.0000000000 11.391099930 12.250000954 51894.000000  -999.250000 2.6461999416 -0.015106080  -999.250000  -999.250000 68.736900330 6.8597002029 88.545501709 156.18179321  -999.250000  -999.250000  -999.250000
 2821.5825195 2.0000000000 11.740100861 12.250000954 53653.679688  -999.250000 3.3901998997 -0.011505770  -999.250000  -999.250000 53.839698792 6.0809001923 91.363601685 163.81820679  -999.250000  -999.250000  -999.250000
 2821.7348633 2.0000000000 11.980899811 12.250000954 76930.195313  -999.250000 3.7657001019 -0.005010417  -999.250000  -999.250000 50.093498230 4.3694000244 94.545501709 168.36360168  -999.250000  -999.250000  -999.250000
 2821.8872070 7.0000000000 12.012000084 12.250000954 121131.00000  -999.250000 3.9026999474 -0.001006410  -999.250000  -999.250000 62.457298279 3.3248999119 93.818199158 169.09089661  -999.250000  -999.250000  -999.250000
 2822.0395508 7.0000000000 12.023300171 12.250000954 150215.76563  -999.250000 4.4100999832 0.0013961538  -999.250000  -999.250000 127.35800171 3.1603000164 92.999992371 167.18180847  -999.250000  -999.250000  -999.250000
 2822.1918945 7.0000000000 12.093799591 12.250000954 143004.95313  -999.250000 6.2927999496 0.0055865599  -999.250000  -999.250000 126.32649994 3.7913000584 90.181800842 163.63638306  -999.250000  -999.250000  -999.250000
 2822.3444824 7.0000000000 12.203901291 12.250000954 127741.32031 0.0059000002 9.0902004242 0.0108915064 2.5213000774 2.7576000690 126.63600159 4.2852997780 87.999992371 159.45449829 4.9365000725 8.6028003693 8.1538000107
 2822.4968262 7.0000000000 12.418399811 12.250000954 112661.64063 -0.005600000 12.012399673 0.0161915068 2.5120999813 2.7962999344 130.93260193 4.4594001770 86.181800842 157.18177795 8.4106998444 10.523500443 12.966799736
 2822.6491699 7.0000000000 12.455100060 12.250000954 100639.44531 -0.005600000 13.214900017 0.0183964744 2.5113999844 2.8745999336 128.39979553 4.5837001801 85.363601685 158.72729492 10.095199585 10.038800240 14.289099693
 2822.8015137 7.0000000000 12.460699081 12.250000954 99822.960938 -0.004300000 13.255299568 0.0185993593 2.4788999557 2.7864999771 126.70929718 4.8691000938 85.363601685 164.09089661 10.774399757 10.042300224 14.505499840
 2822.9541016 7.0000000000 12.511500359 12.250000954 98695.078125 -0.003900000 13.244600296 0.0176016018 2.4995000362 2.8471999168 123.03459930 4.6877999306 85.818199158 168.54539490 11.833100319 10.673399925 15.137299538
 2823.1064453 7.0000000000 12.522801399 12.250000954 106603.19531 -0.006900000 12.811699867 0.0172006413 2.5046999454 2.9323000908 121.26080322 4.7754001617 85.363601685 168.63638306 12.656299591 9.9229001999 15.480899811
 2823.2587891 7.0000000000 12.525600433 12.250000954 108831.60156 -0.003800000 13.312999725 0.0173996799 2.4821000099 3.0406000614 124.94319916 4.9640998840 85.181800842 166.63639832 11.837100029 9.3601999283 13.714200020
 2823.4111328 7.0000000000 12.573599815 12.250000954 111154.67969 0.0007000000 13.568400383 0.0168019198 2.6579999924 3.6384000778 125.95659637 5.0363998413 86.000000000 165.36360168 10.795499802 11.121800423 11.501899719
 2823.5637207 7.0000000000 12.584899902 12.250000954 112515.11719 0.0027000001 13.102000237 0.0166003201 2.7042000294 3.9193000793 124.95559692 5.1743998528 86.818191528 165.09089661 16.363599777 12.953000069 16.235399246
