# LAS format log file from PETREL
# Project units are specified as depth units
#==================================================================
~Version information
VERS.   2.0:
WRAP.   NO:
#==================================================================
~Well
STRT .m      359.96881104 :
STOP .m      3380.8413086 :
STEP .m     0.00000000 :
NULL .        -999.250000 :
COMP.           : COMPANY
WELL.  35/11-12   : WELL
FLD.            : FIELD
LOC.            : LOCATION
SRVC.           : SERVICE COMPANY
DATE.  2018-09-11 14:48:55   : Log Export Date {yyyy-MM-dd HH:mm:ss}
PROV.           : PROVINCE
UWI.   35/11-12   : UNIQUE WELL ID
API.            : API NUMBER
#==================================================================
~Curve
DEPT .m                   : DEPTH
Lithology_geolink ._      : Lithology_geolink
CALI .in                  : CALI
BS .in                    : BS
ROP .m/h                  : ROP
DRHO .g/cm3               : DRHO
NPHI .m3/m3               : NPHI
RHOB .g/cm3               : RHOB
PEF .b/e                  : PEF
GR .gAPI                  : GR
DTC .us/ft                : DTC
RDEP .ohm.m               : RDEP
RMED .ohm.m               : RMED
~Parameter
#==================================================================
~Ascii
# ...
 2503.3220215 12.000000000  -999.250000 12.250000954 120.83334351  -999.250000  -999.250000  -999.250000  -999.250000 153.52832031 103.48500061 1.2623147964 1.4421722889
 2503.4743652 12.000000000  -999.250000 12.250000954 121.52232361  -999.250000  -999.250000  -999.250000  -999.250000 153.36691284 104.58700562 1.3509919643 1.3750777245
 2503.6269531 12.000000000  -999.250000 12.250000954 122.50655365  -999.250000  -999.250000  -999.250000  -999.250000 157.79257202 105.68200684 1.4332485199 1.3295526505
 2503.7792969 12.000000000  -999.250000 12.250000954 123.19552612  -999.250000  -999.250000  -999.250000  -999.250000 158.75350952 106.54300690 1.4619593620 1.3550405502
 2503.9316406 12.000000000  -999.250000 12.250000954 123.68765259  -999.250000  -999.250000  -999.250000  -999.250000 160.70526123 107.00199890 1.4119799137 1.3472878933
 2504.0839844 12.000000000  -999.250000 12.250000954 127.88712311  -999.250000  -999.250000  -999.250000  -999.250000 158.97650146 106.90200806 1.4034845829 1.3323431015
 2504.2365723 12.000000000  -999.250000 12.250000954 125.52491760  -999.250000  -999.250000  -999.250000  -999.250000 156.80126953 106.42900085 1.4195027351 1.3350372314
 2504.3889160 12.000000000  -999.250000 12.250000954 129.56036377  -999.250000  -999.250000  -999.250000  -999.250000 151.40881348 105.83798981 1.4263911247 1.4236545563
 2504.5412598 12.000000000  -999.250000 12.250000954 127.91993713  -999.250000  -999.250000  -999.250000  -999.250000 152.94653320 105.47500610 1.4359681606 1.3500089645
 2504.6936035 12.000000000  -999.250000 12.250000954 126.70602417  -999.250000  -999.250000  -999.250000  -999.250000 153.60379028 105.29000854 1.3970284462 1.3193833828
 2504.8459473 12.000000000  -999.250000 12.250000954 123.95011902  -999.250000  -999.250000  -999.250000  -999.250000 159.14358521 104.93200684 1.4056313038 1.3027272224
 2504.9985352 12.000000000  -999.250000 12.250000954 121.48950195  -999.250000  -999.250000  -999.250000  -999.250000 158.94589233 104.61400604 1.4077014923 1.3499968052
 2505.1508789 12.000000000  -999.250000 12.250000954 119.68503571  -999.250000  -999.250000  -999.250000  -999.250000 161.33636475 104.64601135 1.4220931530 1.3761639595
 2505.3032227 12.000000000  -999.250000 12.250000954 114.79658508  -999.250000  -999.250000  -999.250000  -999.250000 162.56402588 104.62800598 1.4112753868 1.3479523659
 2505.4555664 12.000000000  -999.250000 12.250000954 110.95800781  -999.250000  -999.250000  -999.250000  -999.250000 165.19241333 104.03399658 1.4237358570 1.3291242123
 2505.6081543 12.000000000  -999.250000 12.250000954 106.72571564  -999.250000  -999.250000  -999.250000  -999.250000 165.18536377 103.25301361 1.4576086998 1.3373532295
 2505.7604980 12.000000000  -999.250000 12.250000954 110.72834778  -999.250000  -999.250000  -999.250000  -999.250000 164.13043213 102.97599792 1.4577913284 1.4409053326
 2505.9128418 12.000000000  -999.250000 12.250000954 111.81102753  -999.250000  -999.250000  -999.250000  -999.250000 161.85632324 103.07499695 1.4870686531 1.4524998665
 2506.0651855 12.000000000  -999.250000 12.250000954 98.523628235  -999.250000  -999.250000  -999.250000  -999.250000 161.92468262 102.92099762 1.4898791313 1.4304687977
 2506.2177734 12.000000000  -999.250000 12.250000954 99.901580811  -999.250000  -999.250000  -999.250000  -999.250000 162.95590210 102.37100220 1.4950115681 1.3858778477
 2506.3701172 12.000000000  -999.250000 12.250000954 103.93701172  -999.250000  -999.250000  -999.250000  -999.250000 164.00518799 101.95401001 1.5549817085 1.4407074451
 2506.5224609 12.000000000  -999.250000 12.250000954 108.79264069  -999.250000  -999.250000  -999.250000  -999.250000 162.27456665 102.00100708 1.5323336124 1.5216581821
 2506.6748047 12.000000000  -999.250000 12.250000954 100.65616608  -999.250000  -999.250000  -999.250000  -999.250000 157.55371094 102.26801300 1.5520069599 1.5371339321
 2506.8271484 12.000000000  -999.250000 12.250000954 101.27952576  -999.250000  -999.250000  -999.250000  -999.250000 156.47427368 102.50399780 1.5686817169 1.5293216705
 2506.9797363 12.000000000  -999.250000 12.250000954 99.967193604  -999.250000  -999.250000  -999.250000  -999.250000 159.52233887 102.51400757 1.5693829060 1.5455615520
 2507.1320801 12.000000000  -999.250000 12.250000954 100.09841919  -999.250000  -999.250000  -999.250000  -999.250000 163.31143188 102.06300354 1.5831940174 1.5041694641
 2507.2844238 12.000000000  -999.250000 12.250000954 96.620735168  -999.250000  -999.250000  -999.250000  -999.250000 162.73403931 101.41900635 1.6043767929 1.5161476135
 2507.4367676 12.000000000  -999.250000 12.250000954 92.683731079  -999.250000  -999.250000  -999.250000  -999.250000 163.36703491 100.97500610 1.6301064491 1.5133218765
 2507.5893555 12.000000000  -999.250000 12.250000954 105.05248260  -999.250000  -999.250000  -999.250000  -999.250000 162.87875366 100.57800293 1.6421027184 1.5475940704
 2507.7416992 12.000000000  -999.250000 12.250000954 101.08267975  -999.250000  -999.250000  -999.250000  -999.250000 164.05908203 100.05900574 1.4021530151 1.6666688919
 2507.8940430 12.000000000  -999.250000 12.250000954 95.275596619  -999.250000  -999.250000  -999.250000  -999.250000 159.34732056 99.579010010 1.6964395046 1.6008975506
 2508.0463867 12.000000000  -999.250000 12.250000954 89.435699463  -999.250000  -999.250000  -999.250000  -999.250000 156.63552856 99.245010376 1.6935396194 1.6796746254
 2508.1989746 12.000000000  -999.250000 12.250000954 92.913383484  -999.250000  -999.250000  -999.250000  -999.250000 151.53207397 99.097000122 1.6972403526 1.6677463055
 2508.3513184 12.000000000  -999.250000 12.250000954 92.979003906  -999.250000  -999.250000  -999.250000  -999.250000 153.07006836 99.128997803 1.6982913017 1.6541073322
 2508.5036621 12.000000000  -999.250000 12.250000954 93.208663940  -999.250000  -999.250000  -999.250000  -999.250000 150.93115234 99.164001465 1.7010550499 1.6734731197
 2508.6560059 12.000000000  -999.250000 12.250000954 89.402885437  -999.250000  -999.250000  -999.250000  -999.250000 156.53494263 99.201004028 2.0205326080 1.5271544456
 2508.8083496 12.000000000  -999.250000 12.250000954 91.338584900  -999.250000  -999.250000  -999.250000  -999.250000 157.83160400 99.282005310 1.6498084068 1.6332302094
 2508.9609375 12.000000000  -999.250000 12.250000954 92.880569458  -999.250000  -999.250000  -999.250000  -999.250000 159.69686890 99.359008789 1.6130461693 1.6524236202
 2509.1132813 12.000000000  -999.250000 12.250000954 93.930435181  -999.250000  -999.250000  -999.250000  -999.250000 158.03860474 99.594009399 1.6645927429 1.6141273975
 2509.2656250 12.000000000  -999.250000 12.250000954 95.472434998  -999.250000  -999.250000  -999.250000  -999.250000 157.91183472 100.03398895 1.6488931179 1.6258478165
 2509.4179688 12.000000000  -999.250000 12.250000954 99.048553467  -999.250000  -999.250000  -999.250000  -999.250000 161.37237549 100.68499756 1.6167824268 1.5503771305
 2509.5705566 12.000000000  -999.250000 12.250000954 101.67322540  -999.250000  -999.250000  -999.250000  -999.250000 160.76806641 101.44799805 1.5988800526 1.5038158894
 2509.7229004 12.000000000  -999.250000 12.250000954 105.01966858  -999.250000  -999.250000  -999.250000  -999.250000 158.34295654 101.87800598 1.5824780464 1.4939413071
 2509.8752441 12.000000000  -999.250000 12.250000954 104.98687744  -999.250000  -999.250000  -999.250000  -999.250000 159.96783447 101.87699890 1.5536222458 1.5511739254
 2510.0275879 12.000000000  -999.250000 12.250000954 111.58134460  -999.250000  -999.250000  -999.250000  -999.250000 158.69802856 101.73300171 1.5656933784 1.4727265835
 2510.1801758 12.000000000  -999.250000 12.250000954 117.35564423  -999.250000  -999.250000  -999.250000  -999.250000 158.29867554 101.73001099 1.5447213650 1.5105597973
 2510.3325195 12.000000000  -999.250000 12.250000954 119.06169128  -999.250000  -999.250000  -999.250000  -999.250000 154.38546753 101.97200012 1.5355112553 1.4872169495
 2510.4848633 12.000000000  -999.250000 12.250000954 117.58529663  -999.250000  -999.250000  -999.250000  -999.250000 158.15505981 102.35800171 1.4828925133 1.4817049503
