# LAS format log file from PETREL
# Project units are specified as depth units
#==================================================================
~Version information
VERS.   2.0:
WRAP.   NO:
#==================================================================
~Well
STRT .m      2818.0771484 :
STOP .m      3213.0979004 :
STEP .m     0.00000000 :
NULL .        -999.250000 :
COMP.           : COMPANY
WELL.  35/11-15 S   : WELL
FLD.            : FIELD
LOC.            : LOCATION
SRVC.           : SERVICE COMPANY
DATE.  2018-09-11 14:48:55   : Log Export Date {yyyy-MM-dd HH:mm:ss}
PROV.           : PROVINCE
UWI.   35/11-15 S   : UNIQUE WELL ID
API.            : API NUMBER
#==================================================================
~Curve
DEPT .m                   : DEPTH
Lithology_geolink ._      : Lithology_geolink
CALI .in                  : CALI
BS .in                    : BS
ROP .m/h                  : ROP
DRHO .g/cm3               : DRHO
THOR .ppm                 : THOR
SGR .gAPI                 : SGR
RHOB .g/cm3               : RHOB
PEF .b/e                  : PEF
GR .gAPI                  : GR
URAN .ppm                 : URAN
DTC .us/ft                : DTC
DTS .us/ft                : DTS
RDEP .ohm.m               : RDEP
RMIC .ohm.m               : RMIC
RMED .ohm.m               : RMED
~Parameter
#==================================================================
~Ascii
# ...
 3049.2678223 2.0000000000 8.4034996033 8.5000000000 70661.617188 -0.001601763 2.9856998920 0.0219012816 2.3332881927 1.5324575901 58.313438416 0.8231999874 88.544044495 150.45451355 4.0581455231 0.7403048277 2.9165000916
 3049.4201660 2.0000000000 8.4050998688 8.5000000000 69635.929688 -0.001001920 3.0501999855 0.0214016009 2.3224349022 1.4844539165 57.939895630 0.8395000100 89.632904053 151.27270508 4.2357292175 0.7454833984 3.0546000004
 3049.5727539 2.0000000000 8.4106998444 8.5000000000 71937.257813 -0.001599038 2.9516999722 0.0207011215 2.3227992058 1.4578424692 55.646282196 0.7588999867 89.636398315 152.00000000 4.0265364647 0.7269297838 2.9100000858
 3049.7250977 2.0000000000 8.4034996033 8.5000000000 68186.421875 -0.002099199 2.9475998878 0.0210993588 2.3273925781 1.4409270287 56.274887085 0.7638000250 89.636398315 152.81822205 3.7520401478 0.6968482137 2.7156000137
 3049.8774414 2.0000000000 8.4070997238 8.5000000000 59622.894531 -0.002998558 2.8241000175 0.0212996788 2.3360862732 1.4060559273 57.317630768 0.8716999888 88.819511414 152.81822205 3.7909367085 0.7289483547 2.8155000210
 3050.0297852 2.0000000000 8.4070997238 8.5000000000 59560.359375 -0.003996800 2.7871999741 0.0206022412 2.3187561035 1.4129775763 57.361560822 1.0686000586 88.546371460 152.00000000 4.1180500984 0.7722611427 3.0464999676
 3050.1823730 2.0000000000 8.4021997452 8.5000000000 65860.171875 -0.004099840 2.9737000465 0.0203004815 2.3320784569 1.4604238272 56.451660156 0.9732000232 88.000869751 150.99998474 4.2967147827 0.7892729640 3.1556999683
 3050.3347168 2.0000000000 8.4010000229 8.5000000000 75441.000000 -0.003800481 2.7163000107 0.0187025648 2.3358938694 1.4178683758 54.225570679 1.1749999523 87.001602173 149.54551697 4.1802873611 0.7710293531 3.0060999393
 3050.4870605 2.0000000000 8.4021997452 8.5000000000 86222.164063 -0.003999680 2.8022000790 0.0185003206 2.3326053619 1.3993296623 53.588714600 1.1397000551 86.455375671 148.18179321 4.3396439552 0.7801852822 3.1449000835
 3050.6394043 2.0000000000 8.4050998688 8.5000000000 93802.054688 -0.004499198 2.7639999390 0.0179009605 2.3601555824 1.3878184557 53.274105072 1.2573000193 85.819221497 146.63639832 4.4810733795 0.8025641441 3.2170000076
 3050.7917480 2.0000000000 8.4050998688 8.5000000000 103856.92188 -0.003303840 2.8427999020 0.0177006405 2.3491356373 1.4127199650 53.377864838 1.2821999788 84.821395874 144.54539490 4.8375563622 0.8638035655 3.4386000633
 3050.9443359 2.0000000000 8.4050998688 8.5000000000 107096.29688 -0.001802404 2.8036999702 0.0175003204 2.3665719032 1.4533349276 52.775367737 1.2997000217 84.545936584 142.36360168 5.2072086334 0.9141195416 3.6888999939
 3051.0966797 2.0000000000 8.4078998566 8.5000000000 101077.86719 -0.000202564 2.7967998981 0.0176996794 2.3716919422 1.4863470793 53.518005371 1.3043999672 82.730216980 140.00000000 5.1606760025 0.9582293034 3.6259000301
 3051.2490234 2.0000000000 8.4060001373 8.5000000000 96176.445313 0.0017967948 2.7086999416 0.0175003204 2.3932654858 1.5232409239 52.733261108 1.2642999887 82.727302551 137.63639832 5.1184678078 0.9892503619 3.6949000359
 3051.4013672 2.0000000000 8.4078998566 8.5000000000 91284.679688 0.0061859200 2.5452001095 0.0169019196 2.4271912575 1.5806159973 51.695327759 1.4249999523 82.002326965 135.81820679 5.0358653069 1.1018387079 3.6805999279
 3051.5539551 2.0000000000 8.4010000229 8.5000000000 86377.257813 0.0084963143 2.5146999359 0.0163009614 2.4451713562 1.7123887539 49.426433563 1.3170000315 81.183113098 134.72729492 5.5017518997 1.3419152498 4.1255002022
 3051.7062988 16.000000000 8.4034996033 8.5000000000 79029.617188 0.0063035255 2.6888999939 0.0165995192 2.3523490429 1.8243206739 49.387657166 1.1648999453 80.818778992 134.36360168 6.5303502083 1.6856489182 4.9110999107
 3051.8586426 16.000000000 8.3993997574 8.5000000000 73649.492188 0.0024062502 2.5759000778 0.0169993602 2.2738258839 1.8153147697 50.555328369 1.2905999422 81.725845337 133.72729492 7.3197355270 1.4641563892 5.4658999443
 3052.0109863 16.000000000 8.4084997177 8.5000000000 69043.679688 -0.000989120 2.6854000092 0.0181961600 2.2258534431 1.7249898911 52.923999786 1.3149000406 82.452171326 133.90910339 5.9300651550 0.9019038081 4.3291001320
 3052.1635742 16.000000000 8.4106998444 8.5000000000 68544.062500 0.0007971154 2.6858999729 0.0192982387 2.2500607967 1.6624999046 56.056083679 1.4530999660 82.636108398 136.90910339 4.4644455910 0.5772182345 3.2479000092
 3052.3159180 16.000000000 8.4184999466 8.5000000000 66277.117188 0.0002009615 2.9760999680 0.0201985575 2.4057500362 1.6834661961 58.792118073 1.4596999884 82.545646667 142.09089661 5.4308452606 0.4471080303 3.9642000198
 3052.4682617 16.000000000 8.4078998566 8.5000000000 64014.863281 -0.000698558 3.0982999802 0.0201999992 2.4065990448 1.6653292179 58.345726013 1.4048999548 85.994461060 145.90910339 7.3158769608 0.4543879926 5.2583999634
 3052.6206055 16.000000000 8.4078998566 8.5000000000 69747.625000 -0.003894872 2.9467000961 0.0196009614 2.3324189186 1.6568136215 56.431972504 1.4023000002 85.001602173 147.00000000 10.997096062 0.6031612158 7.7578001022
 3052.7729492 16.000000000 8.3959999084 8.5000000000 78328.648438 -0.006192640 2.8533000946 0.0192012805 2.3251230717 1.6679641008 55.139938354 1.4009000063 84.003196716 145.18179321 11.571175575 0.8694459200 8.1725997925
 3052.9255371 16.000000000 8.4050998688 8.5000000000 78088.750000 -0.006898878 2.9983000755 0.0192998406 2.2907550335 1.7158231735 55.591766357 1.4230999947 83.183113098 140.90910339 10.143394470 0.9570607543 7.3407998085
 3053.0778809 16.000000000 8.4134998322 8.5000000000 74089.742188 -0.007698718 3.1914999485 0.0197991990 2.3059754372 1.7782000303 57.045570374 1.3107999563 82.455665588 138.72729492 8.1121568680 0.7354559302 6.0447001457
 3053.2302246 16.000000000 8.4219999313 8.5000000000 67162.984375 -0.007001122 3.2904000282 0.0197001603 2.3434398174 1.8105483055 57.455543518 1.3425999880 82.999114990 141.18179321 6.4642395973 0.7168292999 5.0194997787
 3053.3825684 16.000000000 8.4416999817 8.5000000000 63849.402344 -0.005704160 3.2081000805 0.0199990403 2.3542654514 1.8230599165 59.355304718 1.5494999886 84.993598938 145.45449829 6.0600891113 0.7511895895 4.8478999138
 3053.5351563 16.000000000 8.4474000931 8.5000000000 63875.460938 -0.005500320 3.3943998814 0.0205990393 2.3305380344 1.7430285215 60.990783691 1.5328999758 87.632171631 149.18179321 5.9465804100 0.8883799314 4.8656997681
 3053.6875000 16.000000000 8.4530000687 8.5000000000 67968.273438 -0.006897756 3.7393000126 0.0214985590 2.3956954479 1.6816982031 62.745086670 1.3892999887 86.456390381 151.18179321 5.8038287163 1.0297733545 4.8287000656
 3053.8398438 16.000000000 8.4361000061 8.5000000000 79877.851563 -0.007798558 3.6159000397 0.0202020817 2.3212196827 1.5247517824 60.641380310 1.4416999817 84.820823669 150.27270508 6.2721481323 1.2121076584 5.3793997765
 3053.9921875 16.000000000 8.4446001053 8.5000000000 98745.812500 -0.005906080 3.3248000145 0.0188044794 2.3003664017 1.4336915016 56.022914886 1.2726999521 83.821395874 147.72729492 7.9132342339 1.0692595243 6.8618998528
 3054.1447754 16.000000000 8.4361000061 8.5000000000 118122.07813 -0.001606891 2.8145000935 0.0173024051 2.4531545639 1.4335995913 51.943321228 1.3115999699 82.819801331 143.36360168 7.0043673515 0.7757703662 5.9808001518
 3054.2971191 16.000000000 8.4502000809 8.5000000000 123238.55469 0.0023935898 2.8940999508 0.0175995193 2.3971900940 1.4635519981 52.540931702 1.2613999844 81.002914429 137.72729492 5.1900100708 0.8147367239 4.3790001869
 3054.4494629 16.000000000 8.4530000687 8.5000000000 104700.13281 0.0060940706 3.2237999439 0.0198963135 2.5191042423 1.6098653078 59.238651276 1.4443999529 77.006408691 132.00000000 6.1691236496 1.0166759491 5.0885000229
 3054.6018066 16.000000000 8.4461002350 8.5000000000 84839.906250 0.0064993589 3.3278000355 0.0207985584 2.5313806534 1.6753952503 61.686088562 1.4880000353 73.006408691 126.36360168 7.3388252258 1.7215690613 5.8474998474
 3054.7543945 16.000000000 8.4687004089 8.5000000000 84674.015625 0.0053019198 3.1600000858 0.0201011188 2.5267076492 1.6998610497 58.234237671 1.3788000345 69.551025391 121.63639832 12.065628052 1.8640733957 9.1948003769
