# LAS format log file from PETREL
# Project units are specified as depth units
#==================================================================
~Version information
VERS.   2.0:
WRAP.   NO:
#==================================================================
~Well
STRT .m      1245.0043945 :
STOP .m      3214.9267578 :
STEP .m     0.00000000 :
NULL .        -999.250000 :
COMP.           : COMPANY
WELL.  35/11-11   : WELL
FLD.            : FIELD
LOC.            : LOCATION
SRVC.           : SERVICE COMPANY
DATE.  2018-09-11 14:48:54   : Log Export Date {yyyy-MM-dd HH:mm:ss}
PROV.           : PROVINCE
UWI.   35/11-11   : UNIQUE WELL ID
API.            : API NUMBER
#==================================================================
~Curve
DEPT .m                   : DEPTH
Lithology_geolink ._      : Lithology_geolink
CALI .in                  : CALI
BS .in                    : BS
ROP .m/h                  : ROP
DRHO .g/cm3               : DRHO
THOR .ppm                 : THOR
NPHI .m3/m3               : NPHI
RHOB .g/cm3               : RHOB
PEF .b/e                  : PEF
GR .gAPI                  : GR
URAN .ppm                 : URAN
DTC .us/ft                : DTC
DTS .us/ft                : DTS
RDEP .ohm.m               : RDEP
SP .mV                    : SP
RMIC .ohm.m               : RMIC
RMED .ohm.m               : RMED
~Parameter
#==================================================================
~Ascii
# ...
 1639.7204590 2.0000000000 12.455699921 12.250000954 214.01904297 -0.000300000  -999.250000 0.4767000079 2.0703999996 3.2114000320 101.98509979  -999.250000 137.45979309 365.22640991 0.7655000091 64.695701599 0.3702000082 0.7324000001
 1639.8728027 2.0000000000 12.432297707 12.250000954 214.01904297 -0.004800000  -999.250000 0.4406999946 2.1099998951 2.7641000748 99.956802368  -999.250000 138.83180237 367.15216064 0.7784000039 64.546096802 0.4284000099 0.7455000281
 1640.0252686 2.0000000000 12.423700333 12.250000954 218.53674316 -0.010500000  -999.250000 0.4388999939 2.1133999825 2.5732998848 98.052001953  -999.250000 143.60859680 308.62289429 0.7802000046 64.146003723 0.4451000094 0.7566000223
 1640.1776123 2.0000000000 12.369001389 12.250000954 218.53674316 -0.011700000  -999.250000 0.4325000048 2.0984001160 2.7897999287 93.479698181  -999.250000 145.36610413 307.44848633 0.6953999996 64.466201782 0.4140000045 0.6818000078
 1640.3300781 2.0000000000 12.393200874 12.250000954 218.53674316 -0.010700000  -999.250000 0.4289000034 2.0548000336 3.3554000854 96.054496765  -999.250000 148.03419495 306.50210571 0.6931999922 64.841697693 0.4221999943 0.6775000095
 1640.4824219 2.0000000000 12.392800331 12.250000954 218.53674316 -0.008300000  -999.250000 0.4571000040 1.9819999933 3.9384999275 96.235801697  -999.250000 150.53269958 304.41079712 0.7278000116 64.412902832 0.3398000002 0.6967999935
 1640.6347656 2.0000000000 12.931300163 12.250000954 218.53674316 -0.004400000  -999.250000 0.5720000267 1.9258999825 4.1933999062 100.12280273  -999.250000 153.51489258 354.43960571 0.8051999807 64.262298584 0.1922000051 0.7628999949
 1640.7872314 2.0000000000 12.814100266 12.250000954 218.53674316 0.0041999999  -999.250000 0.6251999736 1.9478000402 3.9997000694 102.08779907  -999.250000 152.29168701 345.71459961 0.7001000047 64.537399292 0.1683000028 0.6664000154
 1640.9395752 2.0000000000 12.257100105 12.250000954 226.46652222 0.0089999996  -999.250000 0.6110000014 2.0311000347 3.5775001049 106.19570160  -999.250000 148.59669495 356.04266357 0.7465000153 64.625000000 0.2049999982 0.6958000064
 1641.0920410 2.0000000000 11.987400055 12.250000954 226.46652222 0.0077999998  -999.250000 0.5762000084 2.0866000652 3.2348001003 111.33519745  -999.250000 144.83779907 362.96420288 0.8305000067 64.658302307 0.4081000090 0.7716000080
 1641.2443848 2.0000000000 11.935199738 12.250000954 226.46652222 0.0010000000  -999.250000 0.5259000063 2.0813000202 3.0841000080 108.42960358  -999.250000 141.48210144 358.46911621 0.8104000092 64.587600708 0.4763000011 0.7529000044
 1641.3968506 2.0000000000 11.899100304 12.250000954 226.46652222 -0.001400000  -999.250000 0.4756000042 2.0603001118 3.0204999447 108.95590210  -999.250000 137.41520691 360.33279419 0.7179999948 64.666496277 0.4677000046 0.6656000018
 1641.5491943 2.0000000000 11.907699585 12.250000954 226.46652222 -0.001000000  -999.250000 0.4375999868 2.0641999245 2.8759999275 106.14260101  -999.250000 133.57440186 366.85516357 0.5917000175 64.879096985 0.4711000025 0.5551000237
 1641.7016602 2.0000000000 11.911499977 12.250000954 226.46652222 -0.001100000  -999.250000 0.4217999876 2.0773999691 2.6433999538 99.614097595  -999.250000 130.10119629 353.57519531 0.6207000017 64.671096802 0.5072000027 0.5745000243
 1641.8540039 2.0000000000 12.071999550 12.250000954 226.46652222 -0.004300000  -999.250000 0.4074000120 2.0810000896 2.3817999363 90.649696350  -999.250000 127.39140320 329.89831543 0.7009000182 64.504096985 0.5339000225 0.6395000219
 1642.0064697 2.0000000000 12.199199677 12.250000954 231.92256165 -0.018200001  -999.250000 0.3939999938 2.0583999157 2.1451001167 80.516502380  -999.250000 124.75740051 314.20251465 0.6880000234 64.662399292 0.5181999803 0.6315000057
 1642.1588135 2.0000000000 12.135800362 12.250000954 231.92256165 -0.028899999  -999.250000 0.3729000092 2.0411000252 1.9724999666 75.997001648  -999.250000 121.56099701 302.35174561 0.6765000224 64.716697693 0.4756000042 0.6201999784
 1642.3112793 2.0000000000 12.073399544 12.250000954 231.92256165 -0.030600000  -999.250000 0.3635999858 2.0360999107 1.8492000103 75.869400024  -999.250000 119.17259216 281.58410645 0.6656000018 64.354499817 0.4672999978 0.6061999798
 1642.4636230 2.0000000000 12.176799774 12.250000954 231.92256165 -0.023399999  -999.250000 0.3680999875 2.0409998894 1.7709000111 77.449501038  -999.250000 119.17710114 255.67938232 0.6582000256 64.362197876 0.4444000125 0.5974000096
 1642.6159668 2.0000000000 12.162199974 12.250000954 231.92256165 -0.021100000  -999.250000 0.3738000095 2.0357000828 1.7323999405 78.200500488  -999.250000 119.75891113 252.07569885 0.6353999972 64.491798401 0.4499000013 0.5727000237
 1642.7684326 2.0000000000 12.012800217 12.250000954 231.92256165 -0.025800001  -999.250000 0.3641999960 2.0271000862 1.7393000126 79.684402466  -999.250000 120.35419464 248.52310181 0.6290000081 64.608100891 0.4149999917 0.5604000092
 1642.9207764 2.0000000000 12.073399544 12.250000954 232.33924866 -0.030300001  -999.250000 0.3544999957 2.0267999172 1.7726000547 76.795196533  -999.250000 121.05950165 243.04008484 0.6227999926 64.446197510 0.4032999873 0.5497000217
 1643.0732422 2.0000000000 12.081998825 12.250000954 232.33924866 -0.030099999  -999.250000 0.3441999853 2.0329000950 1.7919000387 75.871902466  -999.250000 119.03720093 246.94960022 0.6087999940 64.524597168 0.3899999857 0.5314000249
 1643.2255859 2.0000000000 11.926699638 12.250000954 232.33924866 -0.029800000  -999.250000 0.3562999964 2.0336999893 1.7718000412 73.569503784  -999.250000 118.15029144 244.59339905 0.6130999923 64.675201416 0.3804999888 0.5343999863
 1643.3780518 2.0000000000 11.911999702 12.250000954 232.33924866 -0.028200001  -999.250000 0.3447999954 2.0336000919 1.7180999517 74.170303345  -999.250000 115.91220093 242.88130188 0.6187999845 64.733100891 0.3499000072 0.5363000035
 1643.5303955 2.0000000000 11.946000099 12.250000954 232.33924866 -0.028000001  -999.250000 0.3619000018 2.0371000767 1.6298999786 72.937797546  -999.250000 115.90620422 241.55940247 0.6298999786 64.671096802 0.3228999972 0.5462999940
 1643.6828613 2.0000000000 12.253001213 12.250000954 232.33924866 -0.026200000  -999.250000 0.3686999977 2.0467000008 1.5202000141 74.942298889  -999.250000 115.63838959 240.65409851 0.6413999796 64.504096985 0.3267999887 0.5533999801
 1643.8352051 2.0000000000 12.376798630 12.250000954 232.33924866 -0.025000000  -999.250000 0.3670000136 2.0532999039 1.3969000578 75.884201050  -999.250000 115.27680206 234.96350098 0.6431000233 64.728996277 0.3327000141 0.5552999973
 1643.9876709 2.0000000000 12.406399727 12.250000954 206.00393677 -0.022200000  -999.250000 0.3553000093 2.0578000546 1.2733000517 75.443000793  -999.250000 115.50890350 233.69009399 0.6428999901 64.408798218 0.3352999985 0.5552999973
 1644.1400146 2.0000000000 12.428601265 12.250000954 206.00393677 -0.020900000  -999.250000 0.3407000005 2.0559000969 1.1684000492 72.893501282  -999.250000 116.45390320 232.57350159 0.6338999867 64.333000183 0.3350999951 0.5507000089
 1644.2924805 2.0000000000 12.487800598 12.250000954 206.00393677 -0.020000000  -999.250000 0.3529999852 2.0580000877 1.1101000309 72.453903198  -999.250000 117.90180206 231.25991821 0.6248000264 64.758201599 0.3375999928 0.5418999791
 1644.4448242 2.0000000000 12.492400169 12.250000954 206.00393677 -0.022800000  -999.250000 0.3519000113 2.0555000305 1.1175999641 71.860702515  -999.250000 119.30509949 232.91490173 0.6230999827 65.208000183 0.3413000107 0.5394999981
 1644.5972900 2.0000000000 12.492400169 12.250000954 206.00393677 -0.023600001  -999.250000 0.3664999902 2.0566999912 1.1907999516 74.604202271  -999.250000 117.94640350 232.54560852 0.6359000206 64.933898926 0.3415000141 0.5516999960
 1644.7496338 2.0000000000 12.512399673 12.250000954 206.00393677 -0.024300000  -999.250000 0.3639000058 2.0541999340 1.2854000330 74.430297852  -999.250000 117.10859680 230.52600098 0.6406000257 64.837097168 0.3397000134 0.5583000183
 1644.9019775 2.0000000000 12.518300056 12.250000954 206.00393677 -0.023200000  -999.250000 0.3409999907 2.0543000698 1.3607000113 77.391700745  -999.250000 118.81549835 230.66078186 0.6577000022 65.320701599 0.3257000148 0.5705000162
