# LAS format log file from PETREL
# Project units are specified as depth units
#==================================================================
~Version information
VERS.   2.0:
WRAP.   NO:
#==================================================================
~Well
STRT .m      2818.0771484 :
STOP .m      3213.0979004 :
STEP .m     0.00000000 :
NULL .        -999.250000 :
COMP.           : COMPANY
WELL.  35/11-15 S   : WELL
FLD.            : FIELD
LOC.            : LOCATION
SRVC.           : SERVICE COMPANY
DATE.  2018-09-11 14:48:55   : Log Export Date {yyyy-MM-dd HH:mm:ss}
PROV.           : PROVINCE
UWI.   35/11-15 S   : UNIQUE WELL ID
API.            : API NUMBER
#==================================================================
~Curve
DEPT .m                   : DEPTH
Lithology_geolink ._      : Lithology_geolink
CALI .in                  : CALI
BS .in                    : BS
ROP .m/h                  : ROP
DRHO .g/cm3               : DRHO
THOR .ppm                 : THOR
SGR .gAPI                 : SGR
RHOB .g/cm3               : RHOB
PEF .b/e                  : PEF
GR .gAPI                  : GR
URAN .ppm                 : URAN
DTC .us/ft                : DTC
DTS .us/ft                : DTS
RDEP .ohm.m               : RDEP
RMIC .ohm.m               : RMIC
RMED .ohm.m               : RMED
~Parameter
#==================================================================
~Ascii
# ...
 3105.6560059 2.0000000000  -999.250000 8.5000000000 15227.639648  -999.250000 7.0715999603 0.0348999985  -999.250000  -999.250000 40.969100952 1.0695999861 58.272701263 97.090896606 24.831800461  -999.250000 21.909099579
 3105.8083496 2.0000000000  -999.250000 8.5000000000 14090.400391  -999.250000 6.8583002090 0.0351000018  -999.250000  -999.250000 41.513698578 1.2286000252 57.818195343 97.090896606 26.343799591  -999.250000 23.184200287
 3105.9606934 2.0000000000  -999.250000 8.5000000000 8350.2001953  -999.250000 6.5946998596 0.0344999991  -999.250000  -999.250000 40.649799347 1.3497999907 57.181800842 96.363601685 28.105699539  -999.250000 24.983699799
 3106.1132813 2.0000000000  -999.250000 8.5000000000 6036.1201172  -999.250000 6.6273999214 0.0346000008  -999.250000  -999.250000 40.329799652 1.2883000374 56.454498291 95.636390686 32.985298157  -999.250000 28.419700623
 3106.2656250 2.0000000000  -999.250000 8.5000000000 11138.400391  -999.250000 6.6866998672 0.0340999998  -999.250000  -999.250000 40.754199982 1.2388999462 56.363601685 95.090896606 38.051601410  -999.250000 32.112701416
 3106.4179688 2.0000000000  -999.250000 8.5000000000 16807.320313  -999.250000 6.7980999947 0.0342999995  -999.250000  -999.250000 40.134899139 1.2118999958 56.545501709 94.727302551 40.719398499  -999.250000 33.623001099
 3106.5703125 2.0000000000  -999.250000 8.5000000000 18965.160156  -999.250000 6.7613000870 0.0340999998  -999.250000  -999.250000 39.536598206 1.1539000273 56.727298737 94.363601685 42.647201538  -999.250000 34.048099518
 3106.7226563 2.0000000000  -999.250000 8.5000000000 18465.480469  -999.250000 6.6916999817 0.0344000012  -999.250000  -999.250000 39.625801086 1.2108999491 56.909099579 94.000000000 46.296298981  -999.250000 35.553901672
 3106.8752441 2.0000000000  -999.250000 8.5000000000 17660.160156  -999.250000 6.4910001755 0.0344000012  -999.250000  -999.250000 40.424900055 1.2410000563 56.727298737 93.727302551 58.114299774  -999.250000 43.073001862
 3107.0275879 2.0000000000  -999.250000 8.5000000000 15917.400391  -999.250000 6.3881998062 0.0346000008  -999.250000  -999.250000 40.669399261 1.3494999409 56.181800842 93.272697449 92.126701355  -999.250000 64.929901123
 3107.1799316 2.0000000000  -999.250000 8.5000000000 11809.080078  -999.250000 6.4981999397 0.0346000008  -999.250000  -999.250000 41.029998779 1.3136999607 55.545505524 92.818199158 162.37780762  -999.250000 97.768096924
 3107.3322754 2.0000000000  -999.250000 8.5000000000 6251.7602539  -999.250000 6.3661999702 0.0344000012  -999.250000  -999.250000 41.021099091 1.3704999685 54.181800842 92.272689819 303.78201294  -999.250000 148.82719421
 3107.4848633 2.0000000000  -999.250000 8.5000000000 4773.6000977  -999.250000 6.6212000847 0.0344999991  -999.250000  -999.250000 42.209400177 1.3008999825 53.999996185 92.000000000 315.02960205  -999.250000 169.15299988
 3107.6372070 2.0000000000  -999.250000 8.5000000000 6946.5600586  -999.250000 6.6730999947 0.0344000012  -999.250000  -999.250000 43.343700409 1.2438000441 53.636398315 92.000000000 258.86859131  -999.250000 153.13839722
 3107.7895508 2.0000000000  -999.250000 8.5000000000 7649.2797852  -999.250000 6.7248997688 0.0342000015  -999.250000  -999.250000 41.873001099 1.2567000389 54.181800842 92.000000000 375.80279541  -999.250000 183.85360718
 3107.9418945 2.0000000000  -999.250000 8.5000000000 7181.2797852  -999.250000 6.5890998840 0.0340000018  -999.250000  -999.250000 41.977100372 1.2624000311 54.545501709 92.181800842 449.47241211  -999.250000 262.47869873
 3108.0944824 2.0000000000  -999.250000 8.5000000000 6662.1601563  -999.250000 6.5072999001 0.0344999991  -999.250000  -999.250000 42.696800232 1.1565999985 55.000000000 92.000000000 376.64520264  -999.250000 246.13699341
 3108.2468262 2.0000000000  -999.250000 8.5000000000 6393.9599609  -999.250000 6.5106000900 0.0346000008  -999.250000  -999.250000 42.783100128 1.0963000059 55.636398315 91.272697449 325.21630859  -999.250000 221.26930237
 3108.3991699 2.0000000000  -999.250000 8.5000000000 6828.8403320  -999.250000 6.4205999374 0.0348999985  -999.250000  -999.250000 41.342201233 1.1138000488 55.636398315 91.090904236 392.19268799  -999.250000 322.65960693
 3108.5515137 2.0000000000  -999.250000 8.5000000000 7805.1606445  -999.250000 6.5184998512 0.0348000005  -999.250000  -999.250000 43.103801727 1.0370999575 55.636398315 91.363601685 425.77758789  -999.250000 236.82310486
 3108.7041016 2.0000000000  -999.250000 8.5000000000 8426.8798828  -999.250000 6.5145998001 0.0348000005  -999.250000  -999.250000 41.132999420 0.9277999997 54.818199158 91.272697449 236.58099365  -999.250000 160.61360168
 3108.8564453 2.0000000000  -999.250000 8.5000000000 7716.6000977  -999.250000 6.3887000084 0.0344000012  -999.250000  -999.250000 37.124698639 0.9009000063 54.090900421 91.272697449 113.57070160  -999.250000 86.753700256
 3109.0087891 2.0000000000  -999.250000 8.5000000000 5805.0000000  -999.250000 6.7781000137 0.0342999995  -999.250000  -999.250000 44.507801056 0.8248999715 53.545501709 92.727302551 92.594001770  -999.250000 73.566802979
 3109.1611328 2.0000000000  -999.250000 8.5000000000 3662.2800293  -999.250000 6.7406997681 0.0346000008  -999.250000  -999.250000 42.098800659 0.8373000026 51.636394501 96.363601685 89.936302185  -999.250000 77.333702087
 3109.3134766 2.0000000000  -999.250000 8.5000000000 1635.1199951  -999.250000 6.7052998543 0.0350000001  -999.250000  -999.250000 38.877201080 0.9807999730 51.545501709 97.727203369 82.639999390  -999.250000 52.743400574
 3109.4660645 2.0000000000  -999.250000 8.5000000000 486.36001587  -999.250000 6.3829002380 0.0350000001  -999.250000  -999.250000 39.890098572 0.9282000065 51.000000000 102.36360168 54.502201080  -999.250000 49.273399353
 3109.6184082 2.0000000000  -999.250000 8.5000000000 163.80000305  -999.250000 6.1984000206 0.0346000008  -999.250000  -999.250000 37.734500885 1.0420000553 51.181800842 107.81819916 39.697299957  -999.250000 40.661998749
 3109.7707520 2.0000000000  -999.250000 8.5000000000 8589.9599609  -999.250000 5.9180998802 0.0344999991  -999.250000  -999.250000 38.565498352 1.1878999472 53.090900421 108.54550171 36.871299744  -999.250000 34.407600403
 3109.9230957 2.0000000000  -999.250000 8.5000000000 10490.040039  -999.250000 5.7637000084 0.0344000012  -999.250000  -999.250000 35.356498718 1.3740999699 55.000000000 107.36360168 31.885499954  -999.250000 23.589899063
 3110.0756836 2.0000000000  -999.250000 8.5000000000 8917.9199219  -999.250000 5.9443998337 0.0344000012  -999.250000  -999.250000 38.811798096 1.3725999594 57.363601685 104.00000000 21.017200470  -999.250000 13.626999855
 3110.2280273 2.0000000000  -999.250000 8.5000000000 6759.7197266  -999.250000 6.0120000839 0.0340999998  -999.250000  -999.250000 40.327301025 1.3744000196 59.181800842 103.36360168 14.522999763  -999.250000 7.4581999779
 3110.3803711 2.0000000000  -999.250000 8.5000000000 4372.9199219  -999.250000 6.0233998299 0.0337999985  -999.250000  -999.250000 40.802101135 1.3630000353 63.454498291 105.27269745 6.9988999367  -999.250000 4.3366999626
 3110.5327148 2.0000000000  -999.250000 8.5000000000 1958.7600098  -999.250000 5.8228998184 0.0328000002  -999.250000  -999.250000 45.960399628 1.4089000225 64.545501709 108.45449066 4.6662998199  -999.250000 3.2167000771
 3110.6853027 2.0000000000  -999.250000 8.5000000000 860.76000977  -999.250000 5.6932997704 0.0329000019  -999.250000  -999.250000 47.962898254 1.4608999491 65.636398315 112.18180084 4.1592998505  -999.250000 2.7534000874
 3110.8376465 2.0000000000  -999.250000 8.5000000000 871.55999756  -999.250000 5.4808001518 0.0326000005  -999.250000  -999.250000 61.000198364 1.5587999821 67.090896606 117.99999237 4.2860999107  -999.250000 3.1315999031
 3110.9899902 2.0000000000  -999.250000 8.5000000000 2572.9199219  -999.250000 5.7315998077 0.0333000012  -999.250000  -999.250000 89.963203430 1.5058000088 68.090896606 125.54550171 5.6556000710  -999.250000 4.0689997673
 3111.1423340 2.0000000000  -999.250000 8.5000000000 7218.3598633  -999.250000 5.7810001373 0.0328000002  -999.250000  -999.250000 109.06410217 1.5832999945 70.000000000 131.18179321 7.0836000443  -999.250000 5.5268998146
