# LAS format log file from PETREL
# Project units are specified as depth units
#==================================================================
~Version information
VERS.   2.0:
WRAP.   NO:
#==================================================================
~Well
STRT .m      963.35791016 :
STOP .m      4034.6738281 :
STEP .m     0.00000000 :
NULL .        -999.250000 :
COMP.           : COMPANY
WELL.  35/11-2   : WELL
FLD.            : FIELD
LOC.            : LOCATION
SRVC.           : SERVICE COMPANY
DATE.  2018-09-11 14:48:55   : Log Export Date {yyyy-MM-dd HH:mm:ss}
PROV.           : PROVINCE
UWI.   35/11-2   : UNIQUE WELL ID
API.            : API NUMBER
#==================================================================
~Curve
DEPT .m                   : DEPTH
Lithology_geolink ._      : Lithology_geolink
CALI .in                  : CALI
DRHO .g/cm3               : DRHO
NPHI .m3/m3               : NPHI
RHOB .g/cm3               : RHOB
GR .gAPI                  : GR
DTC .us/ft                : DTC
RDEP .ohm.m               : RDEP
SP .mV                    : SP
RSHA .ohm.m               : RSHA
RMED .ohm.m               : RMED
~Parameter
#==================================================================
~Ascii
# ...
 2611.1062012 6.0000000000 14.078000069 0.0060064001 0.2280299962 2.4920194149 51.375000000 96.250000000 2.3708541393 77.301002502 2.5079998970 2.5079998970
 2611.2587891 6.0000000000 14.027000427 0.0000096154 0.2299799919 2.4860095978 51.405998230 96.749992371 2.2797374725 74.613998413 2.4879999161 2.4879999161
 2611.4111328 6.0000000000 13.971000671 0.0029951923 0.2343799919 2.4860000610 52.280998230 97.500000000 2.1979117393 75.488998413 2.5079998970 2.5079998970
 2611.5634766 6.0000000000 13.928000450 0.0059951926 0.2495100051 2.4770143032 51.187999725 99.249992371 2.1428973675 75.863998413 2.5550000668 2.5550000668
 2611.7158203 6.0000000000 13.907999992 0.0199775640 0.2700200081 2.4819920063 53.687999725 99.625000000 2.0789663792 78.488998413 2.5099999905 2.5099999905
 2611.8681641 6.0000000000 13.977000237 0.0140192006 0.2739299834 2.4919681549 55.530998230 100.87500000 2.0580081940 77.113998413 2.3629999161 2.3629999161
 2612.0207520 6.0000000000 14.145000458 0.0070112180 0.2753899992 2.5079741478 54.905998230 101.74999237 2.0631632805 76.238998413 2.2149999142 2.2149999142
 2612.1730957 6.0000000000 14.267998695 -0.001985577 0.2690399885 2.5119936466 52.500000000 102.12500000 2.1141619682 77.051002502 2.2209999561 2.2209999561
 2612.3254395 5.0000000000 14.288999557 -0.006991988 0.2807599902 2.5060095787 48.905998230 101.50000000 2.2151665688 77.238998413 2.2300000191 2.2300000191
 2612.4777832 5.0000000000 14.277000427 -0.008993600 0.2778300047 2.4980254173 47.375000000 100.49999237 2.3192212582 76.738998413 2.2209999561 2.2209999561
 2612.6303711 5.0000000000 14.246000290 -0.010996795 0.2661100030 2.5119776726 47.594001770 107.00000000 2.4569745064 76.738998413 2.2460000515 2.2460000515
 2612.7827148 5.0000000000 14.192998886 -0.011000000 0.2509799898 2.5199871063 50.125000000 98.250000000 2.4488844872 76.676002502 2.4040000439 2.4040000439
 2612.9350586 5.0000000000 14.140999794 -0.008004808 0.2343799919 2.5409662724 49.530998230 97.250000000 2.3768303394 78.238998413 2.5680000782 2.5680000782
 2613.0874023 5.0000000000 14.107001305 -0.010990400 0.2260700017 2.5310318470 50.437999725 97.000000000 2.2708926201 76.738998413 2.6909999847 2.6909999847
 2613.2399902 5.0000000000 14.102000237 -0.016990386 0.2324200124 2.5210158825 50.312999725 97.625000000 2.2041409016 76.363998413 2.6679999828 2.6679999828
 2613.3923340 5.0000000000 14.103999138 -0.013006411 0.2387700081 2.5160081387 53.000000000 98.625000000 2.2479741573 75.488998413 2.5469999313 2.5469999313
 2613.5446777 5.0000000000 14.097999573 -0.007009616 0.2475600094 2.5100095272 54.844001770 98.625000000 2.2319118977 76.676002502 2.4019999504 2.4019999504
 2613.6970215 5.0000000000 14.074000359 -0.007998398 0.2368199974 2.5099999905 56.937999725 98.625000000 2.1770594120 78.363998413 2.3340001106 2.3340001106
 2613.8493652 6.0000000000 14.031000137 -0.014977599 0.2358399928 2.4960448742 55.437999725 99.000000000 2.2140047550 76.738998413 2.4040000439 2.4040000439
 2614.0019531 6.0000000000 13.998001099 -0.016996795 0.2314500064 2.4880127907 54.812999725 99.625000000 2.2171728611 78.301002502 2.4040000439 2.4040000439
 2614.1542969 6.0000000000 13.961000443 -0.017000001 0.2416999936 2.4939904213 54.250000000 98.750000000 2.2712178230 78.613998413 2.4059998989 2.4059998989
 2614.3066406 6.0000000000 13.899998665 -0.014004808 0.2397499979 2.4999904633 56.937999725 99.125000000 2.4068992138 77.301002502 2.2990000248 2.2990000248
 2614.4589844 6.0000000000 13.845999718 -0.018983999 0.2412099987 2.5059807301 53.437999725 98.375000000 2.3438863754 74.613998413 2.3440001011 2.3440001011
 2614.6115723 6.0000000000 13.814001083 -0.012011218 0.2314500064 2.5099935532 51.655998230 97.250000000 2.2729647160 78.988998413 2.4509999752 2.4509999752
 2614.7639160 6.0000000000 13.805000305 -0.013996796 0.2446299940 2.5060064793 51.094001770 97.875000000 2.2620177269 78.488998413 2.6189999580 2.6189999580
 2614.9162598 6.0000000000 13.815999985 -0.006012821 0.2553700209 2.5199775696 55.312999725 98.500000000 2.2730882168 79.488998413 2.5409998894 2.5409998894
 2615.0686035 5.0000000000 13.831999779 -0.009987200 0.2592799962 2.5180063248 57.844001770 97.999992371 2.3282885551 77.301002502 2.4409999847 2.4409999847
 2615.2211914 5.0000000000 13.824001312 -0.010000000 0.2480500042 2.5289824009 58.562999725 98.375000000 2.5080702305 77.426002502 2.3340001106 2.3340001106
 2615.3735352 5.0000000000 13.809000015 -0.019983973 0.2226600051 2.5250065327 54.000000000 97.625000000 2.5299856663 77.238998413 2.4379999638 2.4379999638
 2615.5258789 5.0000000000 13.805000305 -0.020998398 0.2246100008 2.5389776230 49.187999725 97.250000000 2.5209856033 77.926002502 2.5639998913 2.5639998913
 2615.6782227 5.0000000000 13.805000305 -0.015009615 0.2246100008 2.5469870567 46.062999725 96.375000000 2.5118927956 76.926002502 2.7209999561 2.7209999561
 2615.8305664 5.0000000000 13.805000305 -0.008022401 0.2387700081 2.5509872437 46.625000000 96.749992371 2.4449503422 73.738998413 2.7339999676 2.7339999676
 2615.9831543 5.0000000000 13.805000305 -0.008000000 0.2338899970 2.5430128574 48.530998230 96.250000000 2.4139711857 74.426002502 2.7249999046 2.7249999046
 2616.1354980 5.0000000000 13.805000305 -0.011993590 0.2294899970 2.5370094776 51.280998230 97.250000000 2.4049615860 76.738998413 2.6559998989 2.6559998989
 2616.2878418 6.0000000000 13.805000305 -0.016991988 0.2294899970 2.5250194073 54.030998230 97.250000000 2.3809905052 77.863998413 2.6389999390 2.6389999390
 2616.4401855 6.0000000000 13.805000305 -0.014009601 0.2372999936 2.5210127831 58.030998230 97.750000000 2.3750271797 77.613998413 2.6089999676 2.6089999676
 2616.5927734 6.0000000000 13.805000305 -0.017999999 0.2460899949 2.5120000839 55.719001770 97.625000000 2.3920030594 78.863998413 2.5409998894 2.5409998894
 2616.7451172 6.0000000000 13.805000305 -0.016000001 0.2504900098 2.5099999905 52.905998230 98.375000000 2.3929982185 78.988998413 2.5199999809 2.5199999809
 2616.8974609 6.0000000000 13.805000305 -0.020000000 0.2509799898 2.5039999485 51.937999725 97.625000000 2.3920192719 77.488998413 2.5369999409 2.5369999409
 2617.0498047 6.0000000000 13.805000305 -0.023000000 0.2402300090 2.5039999485 53.530998230 97.250000000 2.4039695263 78.363998413 2.5569999218 2.5569999218
 2617.2023926 6.0000000000 13.809000015 -0.022000000 0.2275400013 2.5079998970 54.530998230 97.750000000 2.3849136829 78.551002502 2.5569999218 2.5569999218
 2617.3547363 5.0000000000 13.812999725 -0.021000000 0.2338899970 2.5079998970 54.562999725 96.375000000 2.3579905033 76.863998413 2.5699999332 2.5699999332
 2617.5070801 5.0000000000 13.821999550 -0.013000000 0.2504900098 2.5000000000 54.687999725 97.000000000 2.3519423008 80.238998413 2.5859999657 2.5859999657
 2617.6594238 5.0000000000 13.827999115 -0.007000000 0.2680699825 2.4960000515 55.219001770 97.250000000 2.3159470558 78.551002502 2.5610001087 2.5610001087
 2617.8117676 5.0000000000 13.814001083 -0.001000000 0.2626999915 2.4939999580 52.687999725 97.875000000 2.2830257416 77.738998413 2.5179998875 2.5179998875
 2617.9643555 5.0000000000 13.809000015 -0.003000000 0.2670899928 2.5039999485 51.625000000 98.250000000 2.2989807129 78.551002502 2.4649999142 2.4649999142
 2618.1166992 5.0000000000 13.809000015 -0.004000000 0.2631800175 2.5120000839 50.719001770 99.249992371 2.2930593491 79.488998413 2.4609999657 2.4609999657
 2618.2690430 5.0000000000 13.791000366 -0.006000000 0.2597700059 2.5209999084 51.594001770 99.000000000 2.3300206661 78.801002502 2.4430000782 2.4430000782
 2618.4213867 5.0000000000 13.777000427 -0.009000000 0.2441399992 2.5179998875 50.625000000 99.125000000 2.3430030346 79.738998413 2.4409999847 2.4409999847
 2618.5739746 5.0000000000 13.791000366 -0.016000001 0.2426799983 2.5160000324 50.062999725 99.875000000 2.3450415134 76.551002502 2.4319999218 2.4319999218
 2618.7263184 5.0000000000 13.805000305 -0.017000001 0.2514599860 2.5199999809 48.812999725 99.625000000 2.3578927517 75.301002502 2.5039999485 2.5039999485
