# LAS format log file from PETREL
# Project units are specified as depth units
#==================================================================
~Version information
VERS.   2.0:
WRAP.   NO:
#==================================================================
~Well
STRT .m      1242.0020752 :
STOP .m      2811.1123047 :
STEP .m     0.00000000 :
NULL .        -999.250000 :
COMP.           : COMPANY
WELL.  35/11-9   : WELL
FLD.            : FIELD
LOC.            : LOCATION
SRVC.           : SERVICE COMPANY
DATE.  2018-09-11 14:48:57   : Log Export Date {yyyy-MM-dd HH:mm:ss}
PROV.           : PROVINCE
UWI.   35/11-9   : UNIQUE WELL ID
API.            : API NUMBER
#==================================================================
~Curve
DEPT .m                   : DEPTH
Lithology_geolink ._      : Lithology_geolink
CALI .in                  : CALI
BS .in                    : BS
DRHO .g/cm3               : DRHO
NPHI .m3/m3               : NPHI
RHOB .g/cm3               : RHOB
GR .gAPI                  : GR
DTC .us/ft                : DTC
DTS .us/ft                : DTS
RDEP .ohm.m               : RDEP
SP .mV                    : SP
RMIC .ohm.m               : RMIC
~Parameter
#==================================================================
~Ascii
# ...
 1863.7939453 16.000000000 12.121000290 12.250000954 0.0595423542 0.4219376147 2.2110464573 104.82702637 118.64700317 271.38400269 1.0310504436 25.661930084 0.4600000083
 1863.9464111 16.000000000 12.024999619 12.250000954 0.0670959502 0.4416149259 2.1610400677 107.35517120 119.18900299 297.61700439 1.0240056515 27.017911911 0.3689999878
 1864.0987549 16.000000000 11.612998962 12.250000954 0.0669031590 0.4307917058 2.1340217590 104.96775818 120.48899841 373.20401001 1.0569735765 26.494421005 0.3519999981
 1864.2512207 16.000000000 11.515000343 12.250000954 0.0499475859 0.4324615896 2.0940320492 105.91091919 119.09999847 393.61401367 1.0649936199 25.051155090 0.3089999855
 1864.4035645 16.000000000 11.291999817 12.250000954 0.0522531420 0.4214922786 2.0790119171 103.98401642 117.25000000 388.89700317 1.0570064783 24.875141144 0.2860000134
 1864.5559082 16.000000000 12.049000740 12.250000954 0.0779388025 0.4173202217 2.1049582958 99.028358459 116.00000000 373.78399658 1.0579984188 26.316688538 0.3260000050
 1864.7083740 16.000000000 12.418000221 12.250000954 0.0825563297 0.4269424081 2.0870141983 111.95297241 120.46900177 320.03399658 1.0240273476 28.548212051 0.2150000036
 1864.8607178 16.000000000 11.545999527 12.250000954 0.0894279853 0.4790336788 2.0590448380 106.93087006 119.15299988 334.38101196 0.9976252913 26.628082275 0.1759999990
 1865.0131836 16.000000000 11.234000206 12.250000954 0.1055620760 0.4794303179 2.0709905624 105.51262665 121.84799957 338.02801514 0.9552929401 25.357017517 0.3930000067
 1865.1655273 16.000000000 11.713999748 12.250000954 0.1054631770 0.4666442871 2.0999534130 98.828224182 117.63400269 401.16598511 0.9524405003 24.657121658 0.3799999952
 1865.3179932 16.000000000 12.076999664 12.250000954 0.1005709246 0.4443547130 2.1149880886 110.33877563 122.55700684 373.16198730 0.9558262825 24.088455200 0.3039999902
 1865.4703369 16.000000000 12.064000130 12.250000954 0.0933228135 0.4263960421 2.0720345974 110.06938171 123.09700012 372.59298706 0.9726145267 26.229284286 0.2210000008
 1865.6228027 16.000000000 12.793999672 12.250000954 0.0932020918 0.4363768101 2.0230393410 114.25185394 121.94000244 373.92202759 0.9871473908 27.760772705 0.2380000055
 1865.7751465 16.000000000 12.494000435 12.250000954 0.0810697302 0.4346737266 2.0230000019 92.334449768 122.37599945 352.70098877 1.0699336529 28.199649811 0.2370000035
 1865.9276123 16.000000000 11.774000168 12.250000954 0.0717024952 0.4612778127 2.0609695911 86.655685425 122.81999969 332.99499512 1.1669224501 26.757156372 0.2199999988
 1866.0799561 16.000000000 12.005000114 12.250000954 0.0696516410 0.4529128075 2.1229503155 83.959655762 119.01099396 326.22000122 1.1749935150 23.608524323 0.4900000095
 1866.2324219 16.000000000 11.989000320 12.250000954 0.0658230707 0.4595868587 2.1389870644 79.794212341 116.31700134 229.00999451 1.1999800205 24.786054611 0.2680000067
 1866.3847656 16.000000000 11.972999573 12.250000954 0.0292263459 0.4345526993 2.1439960003 79.298110962 102.10700226 238.16600037 1.3588725328 24.525209427 0.2969999909
 1866.5371094 16.000000000 11.975000381 12.250000954 0.0212767031 0.4018759429 2.2338559628 74.432258606 101.23799896 247.41900635 1.4897902012 25.442527771 0.7459999919
 1866.6895752 16.000000000 12.005000114 12.250000954 0.0473610722 0.3388181031 2.3998670578 57.292694092 103.32800293 266.49899292 1.4909992218 27.673212051 1.7029999495
 1866.8419189 16.000000000 11.991999626 12.250000954 0.0712636933 0.3121454418 2.4868607521 66.888771057 102.95200348 287.58401489 1.4061361551 29.552988052 1.2860000134
 1866.9943848 16.000000000 11.878998756 12.250000954 0.0586781204 0.3430440128 2.4060647488 70.362365723 115.46800232 330.97100830 1.2631145716 26.977067947 0.3389999866
 1867.1467285 16.000000000 12.020999908 12.250000954 0.0572882146 0.3846420646 2.2911839485 87.041259766 118.08000183 318.00500488 1.1421936750 25.446451187 0.5820000172
 1867.2991943 16.000000000 12.092000008 12.250000954 0.0678175539 0.4220542610 2.2460360527 104.84614563 117.86399841 337.09698486 1.0450776815 24.656631470 0.7680000067
 1867.4515381 16.000000000 12.053000450 12.250000954 0.0685923919 0.4229934514 2.2529942989 116.25128174 120.03299713 338.25900269 1.0909631252 24.830858231 0.8569999933
 1867.6040039 16.000000000 12.131000519 12.250000954 0.0719662979 0.4239119589 2.2799782753 111.61623383 121.52100372 323.16403198 1.0900008678 24.918930054 1.1569999456
 1867.7563477 16.000000000 12.142999649 12.250000954 0.0792791396 0.4305444360 2.2570183277 109.42624664 120.53500366 303.30801392 1.0850040913 26.099054337 0.3709999919
 1867.9088135 16.000000000 12.097999573 12.250000954 0.0705609918 0.4370740652 2.2140343189 114.71686554 122.29100037 304.63400269 1.0929936171 28.154354095 0.4569999874
 1868.0611572 16.000000000 12.119000435 12.250000954 0.0749035105 0.4462223947 2.2299871445 110.89309692 121.95500183 317.18701172 1.0680199862 25.795892715 0.6079999804
 1868.2136230 16.000000000 12.086001396 12.250000954 0.0946701691 0.4395769238 2.3029415607 111.00865173 117.51899719 297.84500122 1.0450183153 27.367738724 0.8560000062
 1868.3659668 16.000000000 12.064999580 12.250000954 0.0915704966 0.4254452288 2.3239829540 108.29457855 118.51300049 301.77600098 1.0549919605 27.805648804 0.5210000277
 1868.5184326 16.000000000 12.100999832 12.250000954 0.0735164583 0.4356062412 2.2890281677 104.04632568 119.29399872 323.17102051 1.0400120020 25.096170425 0.4539999962
 1868.6707764 16.000000000 12.154000282 12.250000954 0.0671820641 0.4527398944 2.2480328083 109.86134338 119.11100006 300.51098633 1.0160192251 23.345401764 0.4499999881
 1868.8231201 16.000000000 11.994999886 12.250000954 0.0635018945 0.4545097351 2.2400128841 111.53012085 120.53700256 298.38000488 1.0269823074 24.436248779 0.4749999940
 1868.9755859 16.000000000 11.873000145 12.250000954 0.0665955096 0.4374972582 2.2439968586 109.18975067 123.72699738 288.01699829 1.0359928608 26.404422760 0.6679999828
 1869.1279297 16.000000000 11.906999588 12.250000954 0.0667717233 0.4280832708 2.2449982166 110.12688446 123.58799744 296.15899658 1.0090432167 28.721286774 0.4099999964
 1869.2803955 16.000000000 11.812000275 12.250000954 0.0628741309 0.4437732100 2.2020344734 114.97671509 122.05899048 293.90798950 1.0259864330 28.331315994 0.5260000229
 1869.4327393 16.000000000 11.934000015 12.250000954 0.0705057606 0.4226482809 2.1710495949 117.11364746 122.15599823 299.82998657 1.0279967785 27.065031052 0.3849999905
 1869.5852051 16.000000000 11.897000313 12.250000954 0.0881738439 0.4047948122 2.1260359287 106.69092560 122.55700684 317.56997681 1.0319967270 24.964681625 0.3510000110
 1869.7375488 16.000000000 11.699000359 12.250000954 0.1011885777 0.4238941073 2.0990216732 109.08211517 125.33300018 335.26901245 1.0609767437 23.214401245 0.3190000057
 1869.8900146 16.000000000 11.710000038 12.250000954 0.1174000204 0.4707098007 2.0910065174 106.73628235 124.03500366 284.85501099 1.0609999895 25.267353058 0.2430000007
 1870.0423584 16.000000000 11.915999413 12.250000954 0.1199179888 0.4793803990 2.1029903889 110.64642334 124.24399567 272.36801147 1.0410159826 26.579948425 0.3199999928
 1870.1948242 16.000000000 11.940999985 12.250000954 0.1160181314 0.4969962239 2.1549582481 107.43549347 124.90399933 287.79901123 1.0270111561 28.592388153 0.4410000145
 1870.3471680 16.000000000 12.130000114 12.250000954 0.1093583331 0.4676050246 2.2169504166 108.37444305 123.66700745 283.94000244 1.0020200014 25.096803665 0.5429999828
 1870.4996338 16.000000000 12.255000114 12.250000954 0.1099255383 0.4706554115 2.2899415493 113.92148590 123.67000580 321.80697632 0.9901924729 24.438524246 0.6259999871
 1870.6519775 16.000000000 12.116000175 12.250000954 0.0945073664 0.4321921468 2.2969942093 119.20393372 121.93901062 323.81500244 0.9890598655 22.163824081 0.5099999905
 1870.8043213 16.000000000 12.088999748 12.250000954 0.0755154416 0.4297892451 2.2820241451 112.89201355 121.92700195 333.69601440 1.0139601231 22.380649567 0.5469999909
 1870.9567871 16.000000000 12.090999603 12.250000954 0.0677412078 0.4211920202 2.2740063667 115.40210724 123.79799652 328.32699585 1.0459743738 25.310649872 0.6809999943
