# LAS format log file from PETREL
# Project units are specified as depth units
#==================================================================
~Version information
VERS.   2.0:
WRAP.   NO:
#==================================================================
~Well
STRT .m      359.96881104 :
STOP .m      3380.8413086 :
STEP .m     0.00000000 :
NULL .        -999.250000 :
COMP.           : COMPANY
WELL.  35/11-12   : WELL
FLD.            : FIELD
LOC.            : LOCATION
SRVC.           : SERVICE COMPANY
DATE.  2018-09-11 14:48:55   : Log Export Date {yyyy-MM-dd HH:mm:ss}
PROV.           : PROVINCE
UWI.   35/11-12   : UNIQUE WELL ID
API.            : API NUMBER
#==================================================================
~Curve
DEPT .m                   : DEPTH
Lithology_geolink ._      : Lithology_geolink
CALI .in                  : CALI
BS .in                    : BS
ROP .m/h                  : ROP
DRHO .g/cm3               : DRHO
NPHI .m3/m3               : NPHI
RHOB .g/cm3               : RHOB
PEF .b/e                  : PEF
GR .gAPI                  : GR
DTC .us/ft                : DTC
RDEP .ohm.m               : RDEP
RMED .ohm.m               : RMED
~Parameter
#==================================================================
~Ascii
# ...
 1969.3127441 19.000000000  -999.250000 12.250000954 150.59056091  -999.250000  -999.250000  -999.250000  -999.250000 152.34170532 125.43299103 0.9164105654 0.8309928179
 1969.4650879 19.000000000  -999.250000 12.250000954 142.91337585  -999.250000  -999.250000  -999.250000  -999.250000 152.34170532 125.46000671 0.9385111332 0.8304383755
 1969.6175537 19.000000000  -999.250000 12.250000954 134.71127319  -999.250000  -999.250000  -999.250000  -999.250000 150.43768311 126.69500732 0.9593980312 0.8092740774
 1969.7698975 19.000000000  -999.250000 12.250000954 131.72572327  -999.250000  -999.250000  -999.250000  -999.250000 149.39407349 128.39901733 0.9345647097 0.7737592459
 1969.9223633 19.000000000  -999.250000 12.250000954 130.11811829  -999.250000  -999.250000  -999.250000  -999.250000 152.32577515 128.97900391 0.9290400743 0.7832618952
 1970.0747070 19.000000000  -999.250000 12.250000954 124.24539185  -999.250000  -999.250000  -999.250000  -999.250000 153.07464600 131.02099609 0.9683310986 0.8101038933
 1970.2271729 19.000000000  -999.250000 12.250000954 119.02886963  -999.250000  -999.250000  -999.250000  -999.250000 154.76351929 136.30999756 1.0159618855 0.8333390951
 1970.3795166 19.000000000  -999.250000 12.250000954 112.56560516  -999.250000  -999.250000  -999.250000  -999.250000 151.97521973 138.85501099 1.0525043011 0.8722679615
 1970.5319824 19.000000000  -999.250000 12.250000954 115.25590515  -999.250000  -999.250000  -999.250000  -999.250000 148.27874756 138.24700928 1.0413515568 0.9141172171
 1970.6843262 19.000000000  -999.250000 12.250000954 111.90945435  -999.250000  -999.250000  -999.250000  -999.250000 145.20364380 138.26300049 1.0169177055 0.8721354008
 1970.8366699 19.000000000  -999.250000 12.250000954 110.99082184  -999.250000  -999.250000  -999.250000  -999.250000 143.25979614 139.64700317 1.0411200523 0.8464863300
 1970.9891357 19.000000000  -999.250000 12.250000954 112.50001526  -999.250000  -999.250000  -999.250000  -999.250000 144.35119629 141.44500732 1.0497822762 0.9538675547
 1971.1414795 19.000000000  -999.250000 12.250000954 114.56692505  -999.250000  -999.250000  -999.250000  -999.250000 141.74612427 142.61099243 1.1062870026 1.2649962902
 1971.2938232 19.000000000  -999.250000 12.250000954 118.17583466  -999.250000  -999.250000  -999.250000  -999.250000 139.13308716 143.92300415 1.0868780613 1.2746872902
 1971.4461670 19.000000000  -999.250000 12.250000954 120.14433289  -999.250000  -999.250000  -999.250000  -999.250000 141.29202271 144.48300171 1.0767817497 0.9172511101
 1971.5986328 19.000000000  -999.250000 12.250000954 130.87269592  -999.250000  -999.250000  -999.250000  -999.250000 144.83715820 142.02200317 1.0070462227 0.9019838572
 1971.7509766 19.000000000  -999.250000 12.250000954 119.19291687  -999.250000  -999.250000  -999.250000  -999.250000 153.58447266 136.83300781 1.0341732502 0.9204368591
 1971.9033203 19.000000000  -999.250000 12.250000954 119.12728119  -999.250000  -999.250000  -999.250000  -999.250000 156.25326538 133.32800293 0.9800676107 0.9536405802
 1972.0557861 19.000000000  -999.250000 12.250000954 119.58660889  -999.250000  -999.250000  -999.250000  -999.250000 158.27676392 133.75601196 0.9952886105 0.9281287193
 1972.2081299 19.000000000  -999.250000 12.250000954 128.05117798  -999.250000  -999.250000  -999.250000  -999.250000 154.38909912 134.88000488 0.9479926825 0.9172867537
 1972.3605957 19.000000000  -999.250000 12.250000954 132.51312256  -999.250000  -999.250000  -999.250000  -999.250000 152.23812866 134.48501587 0.8824702501 0.7838263512
 1972.5129395 19.000000000  -999.250000 12.250000954 138.02493286  -999.250000  -999.250000  -999.250000  -999.250000 152.90731812 132.61001587 0.8416976929 0.7620124817
 1972.6654053 19.000000000  -999.250000 12.250000954 145.43963623  -999.250000  -999.250000  -999.250000  -999.250000 153.78363037 132.05200195 0.8131591082 0.6910974979
 1972.8177490 19.000000000  -999.250000 12.250000954 149.50787354  -999.250000  -999.250000  -999.250000  -999.250000 155.58407593 136.01400757 0.8119509220 0.6847540140
 1972.9702148 19.000000000  -999.250000 12.250000954 146.55511475  -999.250000  -999.250000  -999.250000  -999.250000 155.52035522 141.08502197 0.7950270176 0.6946438551
 1973.1225586 19.000000000  -999.250000 12.250000954 142.94619751  -999.250000  -999.250000  -999.250000  -999.250000 160.33215332 144.21200562 0.8086320162 0.7077691555
 1973.2750244 19.000000000  -999.250000 12.250000954 173.16271973  -999.250000  -999.250000  -999.250000  -999.250000 157.76693726 146.22000122 0.7815886736 0.7099806070
 1973.4273682 19.000000000  -999.250000 12.250000954 184.31758118  -999.250000  -999.250000  -999.250000  -999.250000 157.73504639 143.78799438 0.7745254040 0.7089587450
 1973.5798340 19.000000000  -999.250000 12.250000954 171.78477478  -999.250000  -999.250000  -999.250000  -999.250000 152.84356689 137.63400269 0.7890527248 0.7070424557
 1973.7321777 19.000000000  -999.250000 12.250000954 160.66273499  -999.250000  -999.250000  -999.250000  -999.250000 152.77984619 136.85400391 0.8100771904 0.7522001266
 1973.8845215 19.000000000  -999.250000 12.250000954 156.13517761  -999.250000  -999.250000  -999.250000  -999.250000 150.78820801 140.46701050 0.8092763424 0.7607687712
 1974.0369873 19.000000000  -999.250000 12.250000954 146.22703552  -999.250000  -999.250000  -999.250000  -999.250000 149.70477295 141.08502197 0.7623931170 0.6901859045
 1974.1893311 19.000000000  -999.250000 12.250000954 132.93962097  -999.250000  -999.250000  -999.250000  -999.250000 151.54504395 139.26901245 0.7569586039 0.6943609715
 1974.3417969 19.000000000  -999.250000 12.250000954 128.31364441  -999.250000  -999.250000  -999.250000  -999.250000 148.98776245 137.48300171 0.7607966661 0.7022258043
 1974.4941406 19.000000000  -999.250000 12.250000954 121.91600037  -999.250000  -999.250000  -999.250000  -999.250000 151.02719116 137.02001953 0.7618267536 0.7028732300
 1974.6466064 19.000000000  -999.250000 12.250000954 117.48686981  -999.250000  -999.250000  -999.250000  -999.250000 150.93957520 137.91799927 0.7615842819 0.7035934925
 1974.7989502 19.000000000  -999.250000 12.250000954 113.74671936  -999.250000  -999.250000  -999.250000  -999.250000 153.35342407 139.07000732 0.7702697515 0.6988593340
 1974.9514160 19.000000000  -999.250000 12.250000954 109.08792877  -999.250000  -999.250000  -999.250000  -999.250000 151.55297852 140.42401123 0.7545230389 0.7040742636
 1975.1037598 19.000000000  -999.250000 12.250000954 105.47901154  -999.250000  -999.250000  -999.250000  -999.250000 150.72445679 141.96701050 0.7591654062 0.7038819790
 1975.2562256 19.000000000  -999.250000 12.250000954 103.74015808  -999.250000  -999.250000  -999.250000  -999.250000 149.83221436 142.89501953 0.7509517670 0.7203217745
 1975.4085693 19.000000000  -999.250000 12.250000954 96.358268738  -999.250000  -999.250000  -999.250000  -999.250000 152.15847778 143.65301514 0.7576798201 0.7205708027
 1975.5610352 19.000000000  -999.250000 12.250000954 97.309715271  -999.250000  -999.250000  -999.250000  -999.250000 152.34963989 144.54101563 0.7518223524 0.7081331015
 1975.7133789 19.000000000  -999.250000 12.250000954 93.438316345  -999.250000  -999.250000  -999.250000  -999.250000 154.34127808 142.35400391 0.7557991743 0.7156652212
 1975.8658447 19.000000000  -999.250000 12.250000954 92.093177795  -999.250000  -999.250000  -999.250000  -999.250000 155.80712891 137.59100342 0.7623525858 0.7066794634
 1976.0181885 19.000000000  -999.250000 12.250000954 98.589233398  -999.250000  -999.250000  -999.250000  -999.250000 157.41641235 135.42599487 0.7529721260 0.7021538019
 1976.1705322 19.000000000  -999.250000 12.250000954 102.13253784  -999.250000  -999.250000  -999.250000  -999.250000 159.04956055 137.40402222 0.7352042198 0.6671018600
 1976.3229980 19.000000000  -999.250000 12.250000954 104.03543091  -999.250000  -999.250000  -999.250000  -999.250000 157.75897217 142.58901978 0.7152558565 0.6554924250
 1976.4753418 19.000000000  -999.250000 12.250000954 110.23621368  -999.250000  -999.250000  -999.250000  -999.250000 161.16067505 147.06100464 0.7216742039 0.6535078287
