# LAS format log file from PETREL
# Project units are specified as depth units
#==================================================================
~Version information
VERS.   2.0:
WRAP.   NO:
#==================================================================
~Well
STRT .m      989.00103760 :
STOP .m      3365.3732910 :
STEP .m     0.00000000 :
NULL .        -999.250000 :
COMP.           : COMPANY
WELL.  35/11-1   : WELL
FLD.            : FIELD
LOC.            : LOCATION
SRVC.           : SERVICE COMPANY
DATE.  2018-09-11 14:48:54   : Log Export Date {yyyy-MM-dd HH:mm:ss}
PROV.           : PROVINCE
UWI.   35/11-1   : UNIQUE WELL ID
API.            : API NUMBER
#==================================================================
~Curve
DEPT .m                   : DEPTH
Lithology_geolink ._      : Lithology_geolink
CALI .in                  : CALI
DRHO .g/cm3               : DRHO
NPHI .m3/m3               : NPHI
RHOB .g/cm3               : RHOB
PEF .b/e                  : PEF
GR .gAPI                  : GR
DTC .us/ft                : DTC
RDEP .ohm.m               : RDEP
SP .mV                    : SP
RSHA .ohm.m               : RSHA
RMED .ohm.m               : RMED
~Parameter
#==================================================================
~Ascii
# ...
 1779.0422363 19.000000000 18.184999466 0.0049999999  -999.250000 2.4800000191 5.3670001030 94.861175537 94.985275269 1.5911080837 52.223606110 2.0696587563 2.0696587563
 1779.1947021 19.000000000 18.153999329 -0.005000000  -999.250000 2.4939999580 4.9689998627 89.122802734 88.864990234 1.6364580393 53.724002838 2.7604403496 2.7604403496
 1779.3470459 19.000000000 18.122999191 -0.004000000  -999.250000 2.5120000839 4.7189998627 88.441307068 85.748199463 1.7794303894 54.963993073 3.5192573071 3.5192573071
 1779.4995117 19.000000000 18.403999329 -0.002000000  -999.250000 2.5309998989 4.0079998970 89.808395386 84.996795654 1.9578974247 52.477207184 3.2090239525 3.2090239525
 1779.6518555 19.000000000 18.076000214 0.0000000000  -999.250000 2.5780000687 3.5569999218 88.382659912 84.003608704 1.9255913496 54.720603943 2.5948774815 2.5948774815
 1779.8043213 19.000000000 18.170000076 -0.020000000  -999.250000 2.5590000153 3.3299999237 91.570617676 85.506805420 1.7560032606 54.972404480 2.9608397484 2.9608397484
 1779.9566650 19.000000000 18.153999329 -0.014000000  -999.250000 2.5120000839 3.8459999561 93.959815979 87.630607605 1.7565387487 55.718399048 3.5301561356 3.5301561356
 1780.1091309 19.000000000 18.184999466 -0.014000000  -999.250000 2.4979999065 4.3480000496 100.73918152 89.385826111 1.6126443148 55.220001221 2.6430511475 2.6430511475
 1780.2614746 19.000000000 18.107000351 0.0010000000  -999.250000 2.5120000839 4.1840000153 97.391815186 92.773216248 1.5019327402 55.224002838 2.0372881889 2.0372881889
 1780.4139404 19.000000000 18.153999329 0.0060000001  -999.250000 2.4860000610 3.5959999561 102.65685272 99.999198914 1.4805639982 56.465995789 2.1269552708 2.1269552708
 1780.5662842 19.000000000 18.309999466 0.0080000004  -999.250000 2.4179999828 3.4530000687 112.59622955 99.773216248 1.3445324898 55.220001221 2.1124682426 2.1124682426
 1780.7186279 19.000000000 18.170000076 0.0049999999  -999.250000 2.3889999390 3.3949999809 122.93815613 107.01863098 1.1990288496 55.218799591 1.9465168715 1.9465168715
 1780.8710938 19.000000000 18.340999603 -0.010000000  -999.250000 2.3829998970 3.3849999905 122.97397614 114.74519348 1.2109935284 54.718399048 1.7459455729 1.7459455729
 1781.0234375 19.000000000 18.357000351 -0.014000000  -999.250000 2.3870000839 3.2790000439 114.85937500 113.24939728 1.2088389397 54.217597961 1.7291321754 1.7291321754
 1781.1759033 19.000000000 18.559999466 -0.017999999  -999.250000 2.3789999485 3.2520000935 108.38861084 113.00559998 1.1418558359 53.221603394 1.7840545177 1.7840545177
 1781.3282471 19.000000000 18.482000351 -0.017999999  -999.250000 2.3650000095 3.5390000343 112.62995911 114.74970245 1.0970577002 53.722404480 1.8008966446 1.8008966446
 1781.4807129 19.000000000 18.372999191 -0.007000000  -999.250000 2.3589999676 3.5329999924 114.71402740 114.62460327 1.1209295988 54.712093353 1.7578014135 1.7578014135
 1781.6330566 19.000000000 18.372999191 0.0060000001  -999.250000 2.3570001125 3.5739998817 122.81044769 114.50120544 1.0989422798 52.254604340 1.6958845854 1.6958845854
 1781.7855225 19.000000000 18.372999191 0.0080000004  -999.250000 2.3670001030 3.3519999981 121.75521088 114.99919891 1.0750865936 53.747795105 1.6481698751 1.6481698751
 1781.9378662 19.000000000 18.372999191 -0.004000000  -999.250000 2.3750000000 3.3199999332 123.34617615 114.75119781 1.1019967794 52.756603241 1.7008270025 1.7008270025
 1782.0903320 19.000000000 18.372999191 -0.020000000  -999.250000 2.3670001030 3.2869999409 114.35656738 115.11618805 1.1009582281 54.494491577 1.6469711065 1.6469711065
 1782.2426758 19.000000000 18.372999191 -0.020000000  -999.250000 2.3750000000 3.4509999752 108.61599731 112.37580109 1.0880608559 52.474002838 1.6379776001 1.6379776001
 1782.3951416 19.000000000 18.372999191 -0.017999999  -999.250000 2.3789999485 3.6429998875 105.80558777 112.62299347 1.1070961952 53.719200134 1.6310448647 1.6310448647
 1782.5474854 19.000000000 18.372999191 -0.013000000  -999.250000 2.4040000439 3.9470000267 103.49539948 111.99039459 1.1370800734 53.466098785 1.6452817917 1.6452817917
 1782.6998291 19.000000000 18.372999191 -0.014000000  -999.250000 2.4300000668 3.6760001183 102.05413818 108.99609375 1.1620864868 52.252201080 1.7333124876 1.7333124876
 1782.8522949 19.000000000 18.372999191 -0.014000000  -999.250000 2.4470000267 3.5959999561 98.402824402 107.37779999 1.1980544329 52.750999451 1.8630608320 1.8630608320
 1783.0046387 19.000000000 18.372999191 -0.016000001  -999.250000 2.4379999638 3.2290000916 107.07923126 108.25060272 1.2149759531 52.749797821 1.8818221092 1.8818221092
 1783.1571045 19.000000000 18.372999191 -0.014000000  -999.250000 2.4260001183 3.3280000687 113.81680298 108.50279999 1.2050288916 52.251800537 1.8078110218 1.8078110218
 1783.3094482 19.000000000 18.372999191 -0.014000000  -999.250000 2.4300000668 3.3629999161 114.98812866 109.37621307 1.2139831781 52.501674652 1.7490503788 1.7490503788
 1783.4619141 19.000000000 18.372999191 -0.010000000  -999.250000 2.4389998913 3.6110000610 110.05559540 109.86939240 1.2069616318 52.781200409 1.7701216936 1.7701216936
 1783.6142578 19.000000000 18.372999191 -0.008000000  -999.250000 2.4549999237 3.4879999161 107.74534607 108.12500763 1.1950289011 52.530799866 1.8078821898 1.8078821898
 1783.7667236 19.000000000 18.357000351 -0.008000000  -999.250000 2.4630000591 3.6050000191 105.81800842 108.12380981 1.2070640326 52.035106659 1.7587982416 1.7587982416
 1783.9190674 19.000000000 18.372999191 -0.013000000  -999.250000 2.4630000591 3.6229999065 107.37094116 107.74699402 1.2270600796 52.998069763 1.6959375143 1.6959375143
 1784.0715332 19.000000000 18.372999191 -0.016000001  -999.250000 2.4590001106 3.9749999046 105.69300842 106.49038696 1.2521762848 51.788410187 1.6703044176 1.6703044176
 1784.2238770 19.000000000 18.357000351 -0.017999999  -999.250000 2.4509999752 3.9449999332 107.23098755 103.49239349 1.3072850704 53.781902313 1.7656308413 1.7656308413
 1784.3763428 19.000000000 18.309999466 -0.005000000  -999.250000 2.4649999142 4.0390000343 101.30398560 101.10897064 1.3964166641 53.753303528 1.9623461962 1.9623461962
 1784.5286865 19.000000000 18.309999466 -0.003000000  -999.250000 2.4730000496 4.0980000496 98.465972900 96.104980469 1.5265444517 54.464397430 2.0702624321 2.0702624321
 1784.6810303 19.000000000 18.278999329 -0.001000000  -999.250000 2.4939999580 4.5199999809 87.856521606 89.853363037 1.6964471340 52.726612091 2.1526346207 2.1526346207
 1784.8334961 19.000000000 18.184999466 -0.010000000  -999.250000 2.5160000324 5.2659997940 80.148368835 80.848976135 1.8827044964 55.464397430 2.4185843468 2.4185843468
 1784.9858398 12.000000000 18.170000076 -0.013000000  -999.250000 2.5290000439 5.4380002022 67.794898987 72.734977722 2.1024880409 53.725410461 3.2251033783 3.2251033783
 1785.1383057 12.000000000 18.184999466 -0.018999999  -999.250000 2.5250000954 5.7189998627 60.285102844 66.489990234 2.3046798706 55.970703125 4.0981602669 4.0981602669
 1785.2906494 12.000000000 18.232000351 -0.016000001  -999.250000 2.5209999084 4.7810001373 61.572162628 63.381607056 2.2045912743 56.185993195 4.1471414566 4.1471414566
 1785.4431152 12.000000000 18.278999329 -0.015000000  -999.250000 2.5039999485 4.3949999809 65.432449341 66.155021667 2.0343723297 54.942203522 3.7888157368 3.7888157368
 1785.5954590 12.000000000 18.295000076 -0.005000000  -999.250000 2.4860000610 3.4319999218 83.336891174 75.530639648 1.8384855986 55.933589935 3.1072859764 3.1072859764
 1785.7479248 12.000000000 18.420000076 -0.009000000  -999.250000 2.4430000782 3.1170001030 93.290435791 88.290832520 1.6243435144 53.692203522 2.3943986893 2.3943986893
 1785.9002686 12.000000000 18.451000214 -0.009000000  -999.250000 2.3980000019 3.1930000782 105.86673737 101.02343750 1.4198365211 54.685394287 1.8951898813 1.8951898813
 1786.0527344 12.000000000 18.372999191 0.0060000001  -999.250000 2.3789999485 3.4159998894 102.45442963 110.76201630 1.3515993357 53.184192657 1.5587627888 1.5587627888
 1786.2050781 12.000000000 18.278999329 0.0120000001  -999.250000 2.3629999161 3.5569999218 107.55559540 114.49759674 1.2266861200 51.693801880 1.4847053289 1.4847053289
