# LAS format log file from PETREL
# Project units are specified as depth units
#==================================================================
~Version information
VERS.   2.0:
WRAP.   NO:
#==================================================================
~Well
STRT .m      963.35791016 :
STOP .m      4034.6738281 :
STEP .m     0.00000000 :
NULL .        -999.250000 :
COMP.           : COMPANY
WELL.  35/11-2   : WELL
FLD.            : FIELD
LOC.            : LOCATION
SRVC.           : SERVICE COMPANY
DATE.  2018-09-11 14:48:55   : Log Export Date {yyyy-MM-dd HH:mm:ss}
PROV.           : PROVINCE
UWI.   35/11-2   : UNIQUE WELL ID
API.            : API NUMBER
#==================================================================
~Curve
DEPT .m                   : DEPTH
Lithology_geolink ._      : Lithology_geolink
CALI .in                  : CALI
DRHO .g/cm3               : DRHO
NPHI .m3/m3               : NPHI
RHOB .g/cm3               : RHOB
GR .gAPI                  : GR
DTC .us/ft                : DTC
RDEP .ohm.m               : RDEP
SP .mV                    : SP
RSHA .ohm.m               : RSHA
RMED .ohm.m               : RMED
~Parameter
#==================================================================
~Ascii
# ...
 3823.6000977 3.0000000000 10.187999725 -0.022000000 0.1196700037 2.4749999046 29.504999161 73.221000671 6.8386831284 186.76800537 6.2140002251 6.2140002251
 3823.7524414 3.0000000000 10.187999725 -0.028000001 0.1228199974 2.4709999561 31.124000549 72.745002747 6.5947837830 186.76899719 5.9380002022 5.9380002022
 3823.9050293 3.0000000000 10.199999809 -0.034000002 0.1254400015 2.4590001106 31.638000488 71.882003784 6.2076201439 188.36900330 5.5630002022 5.5630002022
 3824.0573730 3.0000000000 10.237000465 -0.026000001 0.1281400025 2.4670000076 32.951999664 72.907997131 6.1540846825 187.83200073 5.4250001907 5.4250001907
 3824.2097168 3.0000000000 10.270999908 -0.022000000 0.1286900043 2.4779999256 33.179000854 73.366996765 6.2937755585 186.90199280 5.5729999542 5.5729999542
 3824.3620605 3.0000000000 10.281000137 -0.012000000 0.1323300004 2.5069999695 33.520999908 73.208000183 6.3019871712 187.76400757 5.8610000610 5.8610000610
 3824.5144043 5.0000000000 10.279000282 -0.014000000 0.1319299936 2.5039999485 33.858001709 72.760002136 6.2382044792 187.60600281 5.8369998932 5.8369998932
 3824.6669922 5.0000000000 10.265000343 -0.018999999 0.1317400038 2.4790000916 34.598999023 74.568000793 6.1571297646 187.83099365 5.3899998665 5.3899998665
 3824.8193359 5.0000000000 10.229999542 -0.021000000 0.1306999922 2.4730000496 35.972999573 72.916000366 6.0841169357 187.66099548 5.3499999046 5.3499999046
 3824.9716797 5.0000000000 10.197999954 -0.017000001 0.1328600049 2.4800000191 35.391998291 73.471000671 5.9552068710 186.99000549 5.7420001030 5.7420001030
 3825.1240234 3.0000000000 10.187999725 -0.010000000 0.1307900101 2.4969999790 32.414001465 73.041999817 5.9769296646 188.14300537 6.1050000191 6.1050000191
 3825.2766113 3.0000000000 10.187999725 -0.011000000 0.1266600043 2.4830000401 29.794000626 72.880996704 6.2076301575 187.20100403 5.9939999580 5.9939999580
 3825.4289551 3.0000000000 10.187999725 -0.017999999 0.1286000013 2.4709999561 28.863000870 74.835998535 6.1610751152 187.83599854 5.4840002060 5.4840002060
 3825.5812988 3.0000000000 10.187999725 -0.023000000 0.1227499992 2.4630000591 28.913000107 75.970001221 5.8694677353 186.96000671 5.2090001106 5.2090001106
 3825.7336426 3.0000000000 10.187999725 -0.026000001 0.1205500066 2.4670000076 28.826999664 74.595001221 5.7314414978 187.71299744 5.3080000877 5.3080000877
 3825.8862305 3.0000000000 10.187999725 -0.024000000 0.1057400033 2.4649999142 29.309000015 73.320999146 5.6830768585 186.91299438 5.5199999809 5.5199999809
 3826.0385742 3.0000000000 10.187999725 -0.015000000 0.0976799950 2.4739999771 30.158000946 73.478996277 5.8137903214 188.01300049 5.7420001030 5.7420001030
 3826.1909180 3.0000000000 10.187999725 -0.009000000 0.0832000002 2.5009999275 30.562000275 73.911003113 6.1414747238 188.66799927 6.2059998512 6.2059998512
 3826.3432617 3.0000000000 10.187999725 -0.002000000 0.0889500082 2.5380001068 29.822999954 71.842002869 6.6711506844 188.04299927 6.8649997711 6.8649997711
 3826.4956055 3.0000000000 10.187999725 -0.003000000 0.0965299979 2.5559999943 31.850999832 72.291999817 7.3259010315 188.28100586 7.3309998512 7.3309998512
 3826.6481934 3.0000000000 10.187999725 -0.008000000 0.1172700003 2.5469999313 33.978000641 72.973999023 7.5666170120 188.35099792 7.4479999542 7.4479999542
 3826.8005371 3.0000000000 10.187999725 -0.017999999 0.1315400004 2.5109999180 34.911998749 74.400001526 6.8192000389 188.53100586 7.2960000038 7.2960000038
 3826.9528809 3.0000000000 10.187999725 -0.021000000 0.1453600079 2.4800000191 33.655998230 74.640998840 6.2169647217 188.69400024 6.7670001984 6.7670001984
 3827.1052246 3.0000000000 10.187999725 -0.015000000 0.1444299966 2.4649999142 33.553001404 73.389999390 5.9289216995 190.07600403 5.9809999466 5.9809999466
 3827.2578125 3.0000000000 10.187999725 -0.012000000 0.1394599974 2.4670000076 32.083000183 76.882003784 5.5715723038 189.02200317 5.4330000877 5.4330000877
 3827.4101563 3.0000000000 10.187999725 -0.012000000 0.1358899921 2.4839999676 31.378999710 74.390998840 5.2505145073 188.95199585 5.2199997902 5.2199997902
 3827.5625000 3.0000000000 10.187999725 -0.017999999 0.1325599998 2.4809999466 29.924999237 74.495002747 5.3158941269 188.78100586 5.2649998665 5.2649998665
 3827.7148438 3.0000000000 10.187999725 -0.015000000 0.1244999990 2.4969999790 33.791000366 72.447998047 5.5811486244 188.86900330 5.4359998703 5.4359998703
 3827.8674316 3.0000000000 10.187999725 -0.017000001 0.1114400029 2.5090000629 35.644001007 68.915000916 5.9004888535 189.30099487 5.7620000839 5.7620000839
 3828.0197754 3.0000000000 10.187999725 -0.011000000 0.0869699940 2.5420000553 35.293998718 65.839996338 6.6228413582 189.73800659 6.4400000572 6.4400000572
 3828.1721191 3.0000000000 10.187999725 -0.013000000 0.0571199991 2.5690000057 32.520999908 63.221996307 8.0167646408 190.94400024 8.1660003662 8.1660003662
 3828.3244629 3.0000000000 10.187999725 -0.011000000 0.0281999987 2.6159999371 28.214000702 58.123001099 11.158959389 190.59700012 11.253000259 11.253000259
 3828.4770508 3.0000000000 10.187999725 -0.017999999 0.0173700005 2.6419999599 25.972000122 54.729999542 16.584314346 189.84300232 17.611000061 17.611000061
 3828.6293945 3.0000000000 10.187999725 -0.016000001 0.0150199998 2.6689999104 25.899999619 56.233001709 25.018476486 189.96699524 33.764999390 33.764999390
 3828.7817383 3.0000000000 10.195000648 -0.020000000 0.0176700000 2.6549999714 27.500000000 56.941001892 48.332599640 190.91000366 66.477996826 66.477996826
 3828.9340820 3.0000000000 10.225000381 -0.018999999 0.0236900002 2.6540000439 29.667999268 57.950996399 85.297729492 191.01800537 72.751998901 72.751998901
 3829.0864258 3.0000000000 10.265000343 -0.021000000 0.0364100002 2.6370000839 32.212001801 59.256999969 68.035606384 190.93099976 57.687999725 57.687999725
 3829.2390137 3.0000000000 10.281000137 -0.017999999 0.0592500009 2.6240000725 35.291000366 62.925998688 46.000282288 191.28999329 40.980998993 40.980998993
 3829.3913574 3.0000000000 10.281000137 -0.013000000 0.0828699991 2.5999999046 37.080001831 64.623001099 26.230674744 190.58900452 25.313999176 25.313999176
 3829.5437012 5.0000000000 10.274000168 -0.008000000 0.1017600000 2.5690000057 35.977001190 66.589996338 15.641945839 190.57600403 14.053999901 14.053999901
 3829.6960449 5.0000000000 10.244000435 -0.011000000 0.1109099984 2.5290000439 35.590999603 69.785003662 10.190446854 190.20399475 7.9959998131 7.9959998131
 3829.8486328 3.0000000000 10.184000015 -0.011000000 0.1112800017 2.5009999275 34.589000702 72.908996582 7.1788058281 187.55499268 5.8189997673 5.8189997673
 3830.0009766 3.0000000000 10.112000465 -0.017999999 0.1157900020 2.4749999046 33.097000122 73.428001404 5.6813955307 188.74000549 5.1779999733 5.1779999733
 3830.1533203 3.0000000000 10.048999786 -0.012000000 0.1178100035 2.4820001125 31.266000748 74.211997986 5.2247290611 187.30200195 5.0850000381 5.0850000381
 3830.3056641 3.0000000000 9.9879999161 -0.017999999 0.1211499944 2.4820001125 29.924999237 74.557998657 5.1103649139 186.81399536 5.1370000839 5.1370000839
 3830.4582520 3.0000000000 9.9329986572 -0.024000000 0.1147599965 2.4920001030 29.580999374 74.508003235 5.0530915260 187.26300049 5.2020001411 5.2020001411
 3830.6105957 3.0000000000 9.9079999924 -0.033000000 0.1108199954 2.4879999161 27.245000839 74.621002197 5.1009230614 186.30000305 5.1830000877 5.1830000877
 3830.7629395 3.0000000000 9.9060001373 -0.034000002 0.1119499952 2.5020000935 27.320999146 74.541999817 5.2118220329 187.42799377 5.3480000496 5.3480000496
 3830.9152832 3.0000000000 9.9060001373 -0.027000001 0.1161300018 2.5280001163 26.353000641 74.258003235 5.2998590469 186.05999756 5.4400000572 5.4400000572
 3831.0676270 3.0000000000 9.9079999924 -0.028000001 0.1209399998 2.5369999409 26.521999359 74.425003052 5.3049836159 186.49699402 5.2189998627 5.2189998627
 3831.2202148 3.0000000000 9.9300003052 -0.032000002 0.1199999973 2.5409998894 24.052000046 75.108001709 5.1432595253 186.11000061 4.8839998245 4.8839998245
