# LAS format log file from PETREL
# Project units are specified as depth units
#==================================================================
~Version information
VERS.   2.0:
WRAP.   NO:
#==================================================================
~Well
STRT .m      963.35791016 :
STOP .m      4034.6738281 :
STEP .m     0.00000000 :
NULL .        -999.250000 :
COMP.           : COMPANY
WELL.  35/11-2   : WELL
FLD.            : FIELD
LOC.            : LOCATION
SRVC.           : SERVICE COMPANY
DATE.  2018-09-11 14:48:55   : Log Export Date {yyyy-MM-dd HH:mm:ss}
PROV.           : PROVINCE
UWI.   35/11-2   : UNIQUE WELL ID
API.            : API NUMBER
#==================================================================
~Curve
DEPT .m                   : DEPTH
Lithology_geolink ._      : Lithology_geolink
CALI .in                  : CALI
DRHO .g/cm3               : DRHO
NPHI .m3/m3               : NPHI
RHOB .g/cm3               : RHOB
GR .gAPI                  : GR
DTC .us/ft                : DTC
RDEP .ohm.m               : RDEP
SP .mV                    : SP
RSHA .ohm.m               : RSHA
RMED .ohm.m               : RMED
~Parameter
#==================================================================
~Ascii
# ...
 4025.6823730  -999.250000 7.7630000114 -0.006000000 0.1421800107 2.5069999695 0.0000000000 0.0000000000 9.3974552155 213.45860291 9.4492568970 9.4492568970
 4025.8347168  -999.250000 7.7290000916 -0.004000000 0.1440500021 2.5230000019 0.0000000000 0.0000000000 10.158780098 212.50253296 10.873716354 10.873716354
 4025.9870605  -999.250000 7.7150001526 -0.005000000 0.1475999951 2.5759999752 0.0000000000 0.0000000000 11.081043243 213.12500000 12.090102196 12.090102196
 4026.1396484  -999.250000 7.7459998131 0.0000000000 0.1482699960 2.6480000019 0.0000000000 0.0000000000 11.634117126 214.49479675 11.332222939 11.332222939
 4026.2919922  -999.250000 7.7389998436 -0.008000000 0.1467600018 2.6150000095 0.0000000000 0.0000000000 10.669549942 214.07368469 10.148898125 10.148898125
 4026.4443359  -999.250000 7.7210001945 -0.006000000 0.1478700042 2.5590000153 0.0000000000 0.0000000000 10.939563751 213.79045105 9.8065462112 9.8065462112
 4026.5966797  -999.250000 7.7259998322 -0.008000000 0.1492000073 2.5169999599 0.0000000000 0.0000000000 11.812599182 213.06515503 10.693574905 10.693574905
 4026.7490234  -999.250000 7.7560000420 -0.007000000 0.1539099962 2.5269999504 0.0000000000 0.0000000000 12.112043381 212.71911621 12.450365067 12.450365067
 4026.9016113  -999.250000 7.7989997864 -0.009000000 0.1502799988 2.5199999809 0.0000000000 0.0000000000 11.013764381 212.83880615 12.280282021 12.280282021
 4027.0539551  -999.250000 7.8200001717 -0.010000000 0.1485200077 2.4969999790 0.0000000000 0.0000000000 9.5703144073 213.67965698 11.610075951 11.610075951
 4027.2062988  -999.250000 7.8130002022 -0.014000000 0.1472499967 2.4830000401 0.0000000000 0.0000000000 9.1127309799 213.18978882 11.255567551 11.255567551
 4027.3586426  -999.250000 7.7899994850 -0.015000000 0.1432700008 2.4860000610 0.0000000000 0.0000000000 9.0472078323 212.83613586 11.120431900 11.120431900
 4027.5112305  -999.250000 7.7220001221 -0.017999999 0.1455399990 2.4879999161 0.0000000000 0.0000000000 9.0090608597 212.88092041 21.577215195 21.577215195
 4027.6635742  -999.250000 7.5870003700 -0.010000000 0.1446000040 2.5130000114 0.0000000000 0.0000000000 9.0449428558 214.27474976 227.58235168 227.58235168
 4027.8159180  -999.250000 7.4159998894 -0.006000000 0.1494299918 2.5190000534 0.0000000000 0.0000000000 9.0210380554 213.32054138 874.30444336 874.30444336
 4027.9682617  -999.250000 7.2760000229 0.0010000000 0.1512300074 2.5209999084 0.0000000000 0.0000000000 9.0319643021 212.27633667 875.34197998 875.34197998
 4028.1208496  -999.250000 7.1999998093 -0.001000000 0.1514299959 2.5060000420 0.0000000000 0.0000000000 9.0409860611 213.91137695 875.34197998 875.34197998
 4028.2731934  -999.250000 7.1439995766 0.0010000000 0.1522800028 2.5099999905 0.0000000000 0.0000000000 9.0230283737 213.33392334 875.34197998 875.34197998
 4028.4255371  -999.250000 7.0910005569 0.0010000000 0.1527799964 2.5309998989 0.0000000000 0.0000000000 9.0349807739 214.86354065 875.34197998 875.34197998
 4028.5778809  -999.250000 7.0720000267 -0.001000000 0.1528300047 2.5539999008 0.0000000000 0.0000000000 9.1078824997 212.54772949 875.34197998 875.34197998
 4028.7302246  -999.250000 7.0920000076 -0.017999999 0.1527999938 2.5529999733 0.0000000000 0.0000000000 9.8785257339 211.99575806 875.34197998 875.34197998
 4028.8828125  -999.250000 7.1449999809 -0.027000001 0.1523299962 2.5569999218 0.0000000000 0.0000000000 9.0603170395 213.22003174 875.34197998 875.34197998
 4029.0351563  -999.250000 7.1250000000 -0.020000000 0.1516499966 2.5659999847 0.0000000000 0.0000000000 9.0590000153 212.47718811 875.34197998 875.34197998
 4029.1875000  -999.250000 6.9289999008 -0.025000000 0.1541399956 2.5720000267 0.0000000000 0.0000000000 9.0590000153 212.66769409 875.34197998 875.34197998
 4029.3398438  -999.250000 6.7360000610 -0.032000002 0.1560299993 2.5650000572 0.0000000000 0.0000000000 9.0590000153 212.85440063 875.34197998 875.34197998
 4029.4924316  -999.250000 6.6889996529 -0.037999999 0.1558399945 2.5469999313 0.0000000000 0.0000000000 9.0590000153 212.30288696 875.34197998 875.34197998
 4029.6447754  -999.250000 6.6779999733 -0.022000000 0.1561999917 2.5559999943 0.0000000000 0.0000000000 9.0590000153 213.43817139 875.34197998 875.34197998
 4029.7971191  -999.250000 6.5580000877 -0.017999999 0.1565200090 2.5769999027 0.0000000000 0.0000000000 9.0590000153 212.19998169 875.34197998 875.34197998
 4029.9494629  -999.250000 6.3119997978 -0.034000002 0.1602499932 2.5859999657 0.0000000000 0.0000000000 9.0590000153 211.97770691 875.34197998 875.34197998
 4030.1020508  -999.250000 6.1090002060 -0.033000000 0.1611800045 2.6070001125 0.0000000000 0.0000000000 9.0590000153 212.09281921 875.34197998 875.34197998
 4030.2543945  -999.250000 5.6500000954 -0.033000000 0.1633200049 2.5729999542 0.0000000000 0.0000000000 9.0590000153 211.34320068 875.34197998 875.34197998
 4030.4067383  -999.250000 4.3909997940 -0.021000000 0.1760499924 2.5399999619 0.0000000000 0.0000000000 9.0590000153 212.21759033 875.34197998 875.34197998
 4030.5590820  -999.250000 3.0000000000 -0.027000001 0.1921699941 2.4749999046 0.0000000000 0.0000000000 9.0590000153 211.44024658 875.34197998 875.34197998
 4030.7114258  -999.250000 2.4690001011 -0.029999999 0.1938499957 2.4330000877 0.0000000000 0.0000000000 9.0590000153 211.97029114 875.34197998 875.34197998
 4030.8640137  -999.250000 2.4690001011 -0.037000000 0.1938499957 2.4010000229 0.0000000000 0.0000000000 9.0590000153 212.09280396 875.34197998 875.34197998
 4031.0163574  -999.250000 2.4690001011 -0.037999999 0.1938499957 2.3889999390 0.0000000000 0.0000000000 9.0590000153 212.14691162 875.34197998 875.34197998
 4031.1687012  -999.250000 2.4690001011 -0.037999999 0.1938499957 2.3919999599 0.0000000000 0.0000000000 9.0590000153 212.05615234 875.34197998 875.34197998
 4031.3210449  -999.250000 2.4690001011 -0.035000000 0.1938499957 2.3929998875 0.0000000000 0.0000000000 9.0590000153 211.66624451 875.34197998 875.34197998
 4031.4736328  -999.250000 2.4690001011 -0.034000002 0.1938499957 2.4000000954 0.0000000000 0.0000000000 9.0590000153 212.71630859 875.34197998 875.34197998
 4031.6259766  -999.250000 2.4690001011 -0.035999998 0.1938499957 2.3949999809 0.0000000000 0.0000000000 9.0590000153 212.72698975 875.34197998 875.34197998
 4031.7783203  -999.250000 2.4690001011 -0.037000000 0.1938499957 2.3949999809 0.0000000000 0.0000000000 9.0590000153 211.94525146 875.34197998 875.34197998
 4031.9306641  -999.250000 2.4690001011 -0.037999999 0.1938499957 2.3870000839 0.0000000000 0.0000000000 9.0590000153 210.80166626 875.34197998 875.34197998
 4032.0832520  -999.250000 2.4690001011 -0.035999998 0.1938499957 2.3919999599 0.0000000000 0.0000000000 9.0590000153 211.00466919 875.34197998 875.34197998
 4032.2355957  -999.250000 2.4690001011 -0.029999999 0.1938499957 2.4040000439 0.0000000000 0.0000000000  -999.250000 209.88180542 875.34197998 875.34197998
 4032.3879395  -999.250000 2.4690001011 -0.034000002 0.1938499957 2.4019999504 0.0000000000 0.0000000000  -999.250000 210.34425354 875.34197998 875.34197998
 4032.5402832  -999.250000 2.4690001011 -0.033000000 0.1938499957 2.3929998875 0.0000000000 0.0000000000  -999.250000 208.72760010 875.34197998 875.34197998
 4032.6926270  -999.250000 2.4690001011 -0.035999998 0.1938499957 2.3849999905 0.0000000000 0.0000000000  -999.250000 209.79855347 875.34197998 875.34197998
 4032.8452148  -999.250000 2.4690001011 -0.035000000 0.1938499957 2.3889999390 0.0000000000 0.0000000000  -999.250000 210.13446045 875.34197998 875.34197998
 4032.9975586  -999.250000 2.4690001011 -0.037000000 0.1938499957 2.3959999084 0.0000000000 0.0000000000  -999.250000 209.86943054 875.34197998 875.34197998
 4033.1499023  -999.250000 2.4690001011 -0.033000000 0.1938499957 2.4019999504 0.0000000000 0.0000000000  -999.250000 209.33285522 875.34197998 875.34197998
 4033.3022461  -999.250000 2.4690001011 -0.035999998 0.1938499957 2.3989999294 0.0000000000 0.0000000000  -999.250000 208.41394043 875.34197998 875.34197998
