# LAS format log file from PETREL
# Project units are specified as depth units
#==================================================================
~Version information
VERS.   2.0:
WRAP.   NO:
#==================================================================
~Well
STRT .m      2901.5925293 :
STOP .m      3271.0102539 :
STEP .m     0.00000000 :
NULL .        -999.250000 :
COMP.           : COMPANY
WELL.  35/11-13   : WELL
FLD.            : FIELD
LOC.            : LOCATION
SRVC.           : SERVICE COMPANY
DATE.  2018-09-11 14:48:55   : Log Export Date {yyyy-MM-dd HH:mm:ss}
PROV.           : PROVINCE
UWI.   35/11-13   : UNIQUE WELL ID
API.            : API NUMBER
#==================================================================
~Curve
DEPT .m                   : DEPTH
Lithology_geolink ._      : Lithology_geolink
CALI .in                  : CALI
BS .in                    : BS
ROP .m/h                  : ROP
DRHO .g/cm3               : DRHO
NPHI .m3/m3               : NPHI
RHOB .g/cm3               : RHOB
PEF .b/e                  : PEF
GR .gAPI                  : GR
DTC .us/ft                : DTC
DTS .us/ft                : DTS
RDEP .ohm.m               : RDEP
RMIC .ohm.m               : RMIC
RMED .ohm.m               : RMED
~Parameter
#==================================================================
~Ascii
# ...
 3120.2866211 2.0000000000 8.4052000046 8.5000000000  -999.250000 -0.001800000 0.2119982392 2.3513290882 2.4984669685 67.037857056 89.373023987 148.01570129 9.8451137543 1.1831735373 8.0168247223
 3120.4392090 2.0000000000 8.4229001999 8.5000000000  -999.250000 -0.002200000 0.2109099180 2.3694286346 2.4785249233 70.812133789 89.138710022 148.20489502 11.718825340 1.1666891575 9.2761325836
 3120.5915527 2.0000000000 8.4671001434 8.5000000000  -999.250000 -0.004000000 0.2140139490 2.3471884727 2.7045204639 70.367202759 88.702880859 148.30119324 10.604525566 1.1634018421 8.5693521500
 3120.7438965 2.0000000000 8.5510997772 8.5000000000  -999.250000 -0.004300000 0.2227206677 2.3401417732 2.7794997692 76.975708008 88.625358582 147.10659790 10.063911438 1.2272419930 8.2931175232
 3120.8962402 2.0000000000 8.4715003967 8.5000000000  -999.250000 -0.005000000 0.2356067300 2.4285399914 2.7794961929 77.615226746 88.473037720 146.45440674 12.571146011 1.5026423931 10.241533279
 3121.0485840 2.0000000000 8.4316997528 8.5000000000  -999.250000 -0.005100000 0.2398001701 2.4532155991 2.9014718533 83.968170166 88.376701355 146.95559692 17.761281967 1.5284818411 13.993259430
 3121.2011719 2.0000000000 8.4406003952 8.5000000000  -999.250000 -0.008500000 0.2398945391 2.2757635117 2.6967153549 72.399749756 88.499931335 147.26119995 12.193655014 1.1424679756 9.6603393555
 3121.3535156 2.0000000000 8.4715003967 8.5000000000  -999.250000 -0.011300000 0.2364983857 2.3153376579 2.7062714100 69.121818542 89.020179749 147.88529968 10.739388466 0.9357393980 8.5681581497
 3121.5058594 2.0000000000 8.4758996964 8.5000000000  -999.250000 -0.011700000 0.2354887724 2.3387074471 2.7506294250 65.585258484 89.319984436 149.14059448 15.024332047 1.0227074623 11.589423180
 3121.6582031 2.0000000000 8.4671001434 8.5000000000  -999.250000 -0.012700000 0.2284898907 2.2811989784 2.6444160938 67.548973083 90.553749084 149.98429871 10.880464554 1.0896502733 8.3091392517
 3121.8107910 2.0000000000 8.4715003967 8.5000000000  -999.250000 -0.012800000 0.2221955210 2.3427898884 2.5923655033 65.777923584 90.215759277 150.10820007 17.259729385 1.1208068132 12.620895386
 3121.9631348 2.0000000000 8.4316997528 8.5000000000  -999.250000 -0.014000000 0.2208011150 2.3396196365 2.6438291073 62.945648193 90.358818054 149.24731445 12.414826393 1.0606422424 9.1650323868
 3122.1154785 1.0000000000 8.4582996368 8.5000000000  -999.250000 -0.013000000 0.2215012759 2.2895050049 2.5995426178 59.797870636 90.055397034 148.99809265 15.542153358 1.0866463184 11.237810135
 3122.2678223 1.0000000000 8.4758996964 8.5000000000  -999.250000 -0.012200000 0.2223036736 2.2925584316 2.5012562275 58.969200134 91.174903870 149.42478943 12.976346016 0.9285623431 9.3868780136
 3122.4204102 1.0000000000 8.4229001999 8.5000000000  -999.250000 -0.011600000 0.2245766371 2.2669544220 2.3498942852 57.289127350 91.731842041 150.15580750 23.825210571 0.9054414034 16.851369858
 3122.5727539 1.0000000000 8.4052000046 8.5000000000  -999.250000 -0.011900000 0.2172889411 2.3460893631 2.4727487564 58.292884827 90.719886780 151.87489319 56.363533020 1.0123069286 37.000404358
 3122.7250977 1.0000000000 8.4052000046 8.5000000000  -999.250000 -0.012400000 0.2103929520 2.2770481110 2.5029542446 57.351322174 92.269012451 153.31269836 65.444755554 1.3280398846 39.596614838
 3122.8774414 4.0000000000 8.4229001999 8.5000000000  -999.250000 -0.012400000 0.2060237229 2.2446076870 2.4120194912 58.856346130 93.145721436 154.28649902 43.088680267 1.2900124788 25.576360703
 3123.0300293 4.0000000000 8.3787002563 8.5000000000  -999.250000 -0.011100000 0.2208339125 2.2493650913 2.3003947735 55.575023651 93.532402039 156.66819763 28.060085297 0.9234035611 17.200563431
 3123.1823730 4.0000000000 8.4052000046 8.5000000000  -999.250000 -0.009500000 0.2314217985 2.2385311127 2.5480306149 52.743556976 93.781402588 157.28649902 27.186063766 0.7375485897 16.191768646
 3123.3347168 4.0000000000 8.4582996368 8.5000000000  -999.250000 -0.009300000 0.2449857444 2.2578732967 2.5670056343 50.104537964 93.213165283 157.59750366 29.023899078 0.7054890990 15.856818199
 3123.4870605 5.0000000000 8.4052000046 8.5000000000  -999.250000 -0.011000000 0.2360929549 2.2413616180 2.5703372955 52.630413055 92.874206543 156.11601257 23.721860886 0.6987027526 13.373971939
 3123.6394043 5.0000000000 8.4052000046 8.5000000000  -999.250000 -0.012600000 0.2316940725 2.2796776295 2.4688482285 58.059616089 91.077400208 155.27821350 20.266475677 0.7004169822 12.047023773
 3123.7919922 5.0000000000 8.3521003723 8.5000000000  -999.250000 -0.013100000 0.2279939204 2.2656970024 2.3743805885 59.065692902 90.956436157 153.38130188 17.380773544 0.7110502720 11.126340866
 3123.9443359 5.0000000000 8.3919000626 8.5000000000  -999.250000 -0.012200000 0.2260905355 2.2647476196 2.3998494148 58.813354492 89.753364563 152.45300293 15.879739761 0.7267507911 10.891857147
 3124.0966797 5.0000000000 8.4316997528 8.5000000000  -999.250000 -0.011100000 0.2202062458 2.2944271564 2.6174571514 58.224006653 88.922309875 151.94970703 17.341440201 0.7584777474 12.176171303
 3124.2490234 5.0000000000 8.4139995575 8.5000000000  -999.250000 -0.009900000 0.2241014391 2.3112688065 2.5286762714 58.600185394 88.426528931 150.62489319 20.105859756 0.8069295287 13.901792526
 3124.4016113 5.0000000000 8.4184999466 8.5000000000  -999.250000 -0.009000000 0.2250012755 2.2918839455 2.6384999752 57.709365845 88.189323425 150.20170593 18.954172134 0.8253098726 13.146770477
 3124.5539551 5.0000000000 8.4184999466 8.5000000000  -999.250000 -0.007900000 0.2253727615 2.3179826736 2.6380062103 54.648723602 87.293434143 148.70669556 17.388395309 0.8284081817 12.265537262
 3124.7062988 5.0000000000 8.4316997528 8.5000000000  -999.250000 -0.007300000 0.2083860487 2.3071358204 2.3305284977 56.031581879 86.685943604 146.51960754 17.447381973 0.8335528970 12.413664818
 3124.8586426 5.0000000000 8.3964004517 8.5000000000  -999.250000 -0.007300000 0.1996804476 2.3294022083 2.4106092453 55.027351379 85.530853271 145.68150330 17.312646866 0.8665707111 12.392118454
 3125.0112305 5.0000000000 8.4052000046 8.5000000000  -999.250000 -0.007800000 0.1875108778 2.3308722973 2.4162683487 56.671939850 85.435089111 145.45590210 17.466642380 0.9106748700 12.528527260
 3125.1635742 5.0000000000 8.3610000610 8.5000000000  -999.250000 -0.007800000 0.1908961535 2.3533482552 2.3751420975 54.412281036 85.183074951 145.61749268 17.508960724 0.9339806437 12.660354614
 3125.3159180 5.0000000000 8.3787002563 8.5000000000  -999.250000 -0.008800000 0.1885064095 2.3211190701 2.2773921490 55.708053589 85.471687317 145.89419556 16.175325394 0.9218869805 11.946510315
 3125.4682617 5.0000000000 8.4582996368 8.5000000000  -999.250000 -0.009500000 0.1925084889 2.3330216408 2.6464362144 54.371669769 85.154151917 145.23390198 15.632181168 0.9138227701 11.892453194
 3125.6206055 5.0000000000 8.4316997528 8.5000000000  -999.250000 -0.008000000 0.1978129745 2.3464713097 2.6689639091 54.914737701 85.927917480 145.74850464 16.866193771 0.9280216098 12.922243118
 3125.7731934 5.0000000000 8.4052000046 8.5000000000  -999.250000 -0.005200000 0.2058824003 2.3287487030 2.6470983028 55.131389618 86.121543884 145.76249695 16.810892105 0.9416110516 12.956191063
 3125.9255371 5.0000000000 8.4316997528 8.5000000000  -999.250000 -0.003400000 0.2003807575 2.3439040184 2.8020496368 56.468658447 86.168167114 145.20219421 20.183174133 0.9762256145 15.171222687
 3126.0778809 5.0000000000 8.3919000626 8.5000000000  -999.250000 -0.004000000 0.1883948743 2.3463528156 2.6460938454 57.815822601 86.208618164 145.96699524 26.707941055 0.9921581745 18.858715057
 3126.2302246 5.0000000000 8.3919000626 8.5000000000  -999.250000 -0.006600000 0.1852210015 2.3170692921 2.6424295902 59.070537567 85.591026306 146.87269592 26.350048065 0.9659354091 17.615402222
 3126.3828125 5.0000000000 8.3964004517 8.5000000000  -999.250000 -0.009100000 0.1983265579 2.2978959084 2.7237071991 56.725215912 84.041824341 143.63580322 20.014354706 0.8632419109 13.872004509
