# LAS format log file from PETREL
# Project units are specified as depth units
#==================================================================
~Version information
VERS.   2.0:
WRAP.   NO:
#==================================================================
~Well
STRT .m      989.00103760 :
STOP .m      3365.3732910 :
STEP .m     0.00000000 :
NULL .        -999.250000 :
COMP.           : COMPANY
WELL.  35/11-1   : WELL
FLD.            : FIELD
LOC.            : LOCATION
SRVC.           : SERVICE COMPANY
DATE.  2018-09-11 14:48:54   : Log Export Date {yyyy-MM-dd HH:mm:ss}
PROV.           : PROVINCE
UWI.   35/11-1   : UNIQUE WELL ID
API.            : API NUMBER
#==================================================================
~Curve
DEPT .m                   : DEPTH
Lithology_geolink ._      : Lithology_geolink
CALI .in                  : CALI
DRHO .g/cm3               : DRHO
NPHI .m3/m3               : NPHI
RHOB .g/cm3               : RHOB
PEF .b/e                  : PEF
GR .gAPI                  : GR
DTC .us/ft                : DTC
RDEP .ohm.m               : RDEP
SP .mV                    : SP
RSHA .ohm.m               : RSHA
RMED .ohm.m               : RMED
~Parameter
#==================================================================
~Ascii
# ...
 2569.0834961 7.0000000000 8.5389995575 -0.030999999 0.2441439033 2.3159999847 3.5079998970 103.12500000 82.125000000 1.3980000019 55.422000885 1.6030000448 1.6030000448
 2569.2358398 7.0000000000 8.5389995575 -0.032000002 0.2519374788 2.3610000610 3.8589999676 101.62500000 81.250000000 1.4359999895 55.187999725 2.0759999752 2.0759999752
 2569.3881836 7.0000000000 8.5389995575 -0.028000001 0.2534176409 2.4140000343 3.9409999847 98.250000000 81.375000000 1.4889999628 55.157001495 2.2699999809 2.2699999809
 2569.5405273 7.0000000000 8.5389995575 -0.028000001 0.2670680881 2.4200000763 3.8480000496 97.438003540 81.875007629 1.6169999838 55.172000885 1.9730000496 1.9730000496
 2569.6928711 7.0000000000 8.5389995575 -0.026000001 0.2636809349 2.3949999809 3.4960000515 99.625000000 81.000000000 1.8020000458 55.172000885 1.6310000420 1.6310000420
 2569.8454590 7.0000000000 8.5389995575 -0.026000001 0.2583086193 2.3550000191 3.3789999485 100.37500000 80.125000000 1.9090000391 55.157001495 1.4090000391 1.4090000391
 2569.9978027 7.0000000000 8.5389995575 -0.023000000 0.2422158271 2.3399999142 3.3929998875 105.18800354 77.375000000 1.9160000086 55.375999451 1.3819999695 1.3819999695
 2570.1501465 7.0000000000 8.5389995575 -0.026000001 0.2353609651 2.3340001106 3.5020000935 104.18800354 75.625007629 1.8270000219 55.125999451 1.4830000401 1.4830000401
 2570.3024902 7.0000000000 8.5389995575 -0.028000001 0.2353499979 2.3380000591 3.5959999561 108.12500000 73.750000000 1.7749999762 55.125999451 1.6440000534 1.6440000534
 2570.4550781 7.0000000000 8.5389995575 -0.029999999 0.2314562500 2.3440001011 3.5590000153 113.00000000 72.500000000 1.8439999819 54.625999451 1.7660000324 1.7660000324
 2570.6074219 7.0000000000 8.5389995575 -0.028999999 0.2290039212 2.3499999046 3.5840001106 117.37500000 73.125000000 2.0610001087 55.390998840 1.7710000277 1.7710000277
 2570.7597656 7.0000000000 8.5389995575 -0.025000000 0.2368074656 2.3499999046 3.6329998970 118.06300354 72.875000000 2.4430000782 56.390998840 1.7059999704 1.7059999704
 2570.9121094 7.0000000000 8.5389995575 -0.028000001 0.2377868891 2.3359999657 3.5639998913 113.06300354 70.000000000 2.9769999981 54.640998840 1.6699999571 1.6699999571
 2571.0646973 7.0000000000 8.5389995575 -0.027000001 0.2387684435 2.3299999237 3.5369999409 108.37500000 64.875000000 3.3980000019 54.407001495 1.6419999599 1.6419999599
 2571.2170410 7.0000000000 8.5389995575 -0.030999999 0.2421845198 2.3280000687 3.5880000591 106.00000000 61.625000000 3.5369999409 53.907001495 1.7539999485 1.7539999485
 2571.3693848 7.0000000000 8.5389995575 -0.028000001 0.2504767179 2.3589999676 4.0739998817 98.250000000 61.000000000 3.3959999084 53.922000885 2.2769999504 2.2769999504
 2571.5217285 7.0000000000 8.5389995575 -0.024000000 0.2329381853 2.4200000763 4.6640000343 100.00000000 64.250000000 3.2400000095 54.140998840 3.4879999161 3.4879999161
 2571.6740723 7.0000000000 8.5389995575 -0.022000000 0.2022484392 2.4730000496 4.5430002213 105.37500000 71.625000000 3.3180000782 53.860000610 3.9059998989 3.9059998989
 2571.8266602 7.0000000000 8.5389995575 -0.023000000 0.1977570504 2.4649999142 4.4099998474 117.93800354 77.625000000 3.7790000439 53.860000610 2.6410000324 2.6410000324
 2571.9790039 7.0000000000 8.5389995575 -0.028000001 0.2255453914 2.3929998875 4.1880002022 124.18800354 78.875000000 4.0469999313 53.610000610 1.8619999886 1.8619999886
 2572.1313477 7.0000000000 8.5389995575 -0.025000000 0.2645874023 2.3420000076 4.2810001373 123.62500000 71.875000000 3.7929999828 53.610000610 1.7159999609 1.7159999609
 2572.2836914 7.0000000000 8.5389995575 -0.023000000 0.2743787766 2.3220000267 4.2150001526 119.12500000 67.875000000 3.2009999752 53.125999451 1.7549999952 1.7549999952
 2572.4362793 7.0000000000 8.5389995575 -0.023000000 0.2817282677 2.3159999847 4.1560001373 113.87500000 64.875000000 2.6349999905 53.375999451 1.7779999971 1.7779999971
 2572.5886230 7.0000000000 8.5389995575 -0.027000001 0.2700387836 2.3129999638 3.9100000858 110.00000000 64.625000000 2.3570001125 53.625999451 1.7899999619 1.7899999619
 2572.7409668 7.0000000000 8.5389995575 -0.030999999 0.2617332935 2.3050000668 3.8359999657 113.37500000 70.875000000 2.2890000343 53.375999451 1.7489999533 1.7489999533
 2572.8933105 7.0000000000 8.5389995575 -0.034000002 0.2558787465 2.3050000668 3.9079999924 110.12500000 74.375000000 2.2699999809 52.625999451 1.7100000381 1.7100000381
 2573.0458984 7.0000000000 8.5389995575 -0.030999999 0.2582961023 2.3069999218 4.0079998970 110.75000000 75.625007629 2.2400000095 52.640998840 1.6710000038 1.6710000038
 2573.1982422 7.0000000000 8.5389995575 -0.028999999 0.2622037530 2.3129999638 3.9179999828 108.68800354 77.000000000 2.2130000591 52.140998840 1.7450000048 1.7450000048
 2573.3505859 7.0000000000 8.5389995575 -0.027000001 0.2568486035 2.3259999752 3.8069999218 111.75000000 77.375000000 2.1229999065 52.140998840 1.8300000429 1.8300000429
 2573.5029297 7.0000000000 8.5389995575 -0.025000000 0.2509893775 2.3440001011 3.7290000916 115.37500000 78.125007629 2.0880000591 51.907001495 1.8489999771 1.8489999771
 2573.6552734 7.0000000000 8.5389995575 -0.024000000 0.2534121871 2.3499999046 3.8069999218 120.37500000 77.750000000 2.2090001106 51.407001495 1.8029999733 1.8029999733
 2573.8078613 7.0000000000 8.5389995575 -0.018999999 0.2553668916 2.3570001125 4.0159997940 125.81300354 79.000000000 2.3359999657 51.657001495 1.8150000572 1.8150000572
 2573.9602051 7.0000000000 8.5389995575 -0.018999999 0.2558592260 2.3710000515 4.6599998474 125.12500000 78.250000000 2.3870000839 50.172000885 1.9800000191 1.9800000191
 2574.1125488 7.0000000000 8.5389995575 -0.018999999 0.2665827870 2.4000000954 5.0590000153 118.81300354 79.500000000 2.4979999065 49.140998840 2.3750000000 2.3750000000
 2574.2648926 7.0000000000 8.5389995575 -0.022000000 0.2734181285 2.4279999733 4.6599998474 109.87500000 78.875000000 2.7400000095 48.657001495 2.7679998875 2.7679998875
 2574.4174805 7.0000000000 8.5389995575 -0.022000000 0.2797798514 2.4319999218 4.1250000000 105.81300354 79.375007629 2.9960000515 48.657001495 2.8110001087 2.8110001087
 2574.5698242 7.0000000000 8.5389995575 -0.017999999 0.2636958361 2.4360001087 3.9749999046 97.500000000 79.125000000 3.3239998817 48.172000885 2.6129999161 2.6129999161
 2574.7221680 7.0000000000 8.5389995575 -0.016000001 0.2553833127 2.4360001087 4.2540001869 97.625000000 78.500000000 3.5980000496 47.672000885 2.6840000153 2.6840000153
 2574.8745117 7.0000000000 8.5389995575 -0.014000000 0.2431990653 2.4630000591 4.6129999161 94.813003540 79.000000000 3.8069999218 46.422000885 2.6779999733 2.6779999733
 2575.0270996 7.0000000000 8.5389995575 -0.015000000 0.2392662466 2.4900000095 4.9609999657 98.688003540 79.500000000 4.1760001183 45.953998566 2.8440001011 2.8440001011
 2575.1794434 7.0000000000 8.5389995575 -0.017000001 0.2363346815 2.5269999504 5.0040001869 95.188003540 80.375000000 4.4060001373 44.922000885 3.5390000343 3.5390000343
 2575.3317871 7.0000000000 8.5469999313 -0.021000000 0.2402237654 2.5529999733 4.7699999809 96.563003540 80.375000000 4.4219999313 42.922000885 4.3550000191 4.3550000191
 2575.4841309 7.0000000000 8.5860004425 -0.026000001 0.2402300090 2.5659999847 4.4920001030 99.688003540 81.000000000 4.3359999657 41.422000885 4.8790001869 4.8790001869
 2575.6364746 7.0000000000 8.5469999313 -0.026000001 0.2465596795 2.5699999332 4.3709998131 104.56300354 81.250000000 4.1880002022 40.390998840 4.8239998817 4.8239998817
 2575.7890625 7.0000000000 8.5699996948 -0.022000000 0.2485368550 2.5680000782 4.8090000153 113.25000000 81.749992371 4.0859999657 39.140998840 4.5900001526 4.5900001526
 2575.9414063 7.0000000000 8.5629997253 -0.024000000 0.2685179412 2.5610001087 4.9609999657 119.12500000 83.875000000 4.1719999313 38.890998840 4.0079998970 4.0079998970
 2576.0937500 7.0000000000 8.5939998627 -0.028999999 0.2602632940 2.5269999504 5.0310001373 127.12500000 85.750000000 4.1989998817 37.640998840 3.6110000610 3.6110000610
 2576.2460938 7.0000000000 8.6479997635 -0.033000000 0.2743647099 2.4900000095 4.1449999809 129.87500000 86.875007629 4.0659999847 35.922000885 3.5840001106 3.5840001106
