# LAS format log file from PETREL
# Project units are specified as depth units
#==================================================================
~Version information
VERS.   2.0:
WRAP.   NO:
#==================================================================
~Well
STRT .m      359.96881104 :
STOP .m      3380.8413086 :
STEP .m     0.00000000 :
NULL .        -999.250000 :
COMP.           : COMPANY
WELL.  35/11-12   : WELL
FLD.            : FIELD
LOC.            : LOCATION
SRVC.           : SERVICE COMPANY
DATE.  2018-09-11 14:48:55   : Log Export Date {yyyy-MM-dd HH:mm:ss}
PROV.           : PROVINCE
UWI.   35/11-12   : UNIQUE WELL ID
API.            : API NUMBER
#==================================================================
~Curve
DEPT .m                   : DEPTH
Lithology_geolink ._      : Lithology_geolink
CALI .in                  : CALI
BS .in                    : BS
ROP .m/h                  : ROP
DRHO .g/cm3               : DRHO
NPHI .m3/m3               : NPHI
RHOB .g/cm3               : RHOB
PEF .b/e                  : PEF
GR .gAPI                  : GR
DTC .us/ft                : DTC
RDEP .ohm.m               : RDEP
RMED .ohm.m               : RMED
~Parameter
#==================================================================
~Ascii
# ...
 3242.1572266 16.000000000 8.9733905792 8.5000000000 36.450126648 0.0309722796 0.3028702140 2.5493364334 6.7229337692 140.85626221 89.191833496 2.4655952454 2.4605107307
 3242.3095703 16.000000000 8.9871387482 8.5000000000 56.791328430 0.0276808254 0.2974378467 2.5387873650 6.6787872314 137.03604126 87.165222168 2.4539713860 2.4467258453
 3242.4621582 16.000000000 9.0017986298 8.5000000000 61.023612976 0.0223744400 0.2981479764 2.5265645981 6.5286607742 134.08605957 87.017364502 2.3814010620 2.4192838669
 3242.6145020 16.000000000 9.0017986298 8.5000000000 58.202098846 0.0248265117 0.2965852618 2.5236167908 6.6986179352 132.12548828 86.693893433 2.4146361351 2.4445934296
 3242.7668457 16.000000000 8.9664325714 8.5000000000 78.018379211 0.0283144042 0.3008340597 2.5288066864 6.7842712402 133.84082031 86.429702759 2.3012981415 2.2353677750
 3242.9191895 16.000000000 8.9978504181 8.5000000000 75.065605164 0.0269685835 0.3001590371 2.5312328339 6.8492660522 135.58056641 86.719314575 2.0488510132 2.0784573555
 3243.0715332 16.000000000 8.9980697632 8.5000000000 73.589241028 0.0253749527 0.3005182147 2.5298833847 6.7975082397 136.54821777 87.824134827 2.2976684570 2.3240008354
 3243.2241211 16.000000000 8.9904098511 8.5000000000 77.132537842 0.0236927979 0.3027971387 2.5350861549 6.7152309418 135.95523071 87.830856323 2.4580430984 2.3918881416
 3243.3764648 16.000000000 9.0017986298 8.5000000000 75.656158447 0.0307918377 0.3063135147 2.5497183800 6.7873926163 137.34396362 88.063659668 2.3772845268 2.2653403282
 3243.5288086 16.000000000 9.0099029541 8.5000000000 69.488189697 0.0475589335 0.2871454954 2.5989589691 6.8818302155 134.35311890 86.964309692 2.4176740646 2.3697476387
 3243.6811523 16.000000000 9.0739383698 8.5000000000 67.913391113 0.0491162166 0.2707620263 2.6391282082 7.2866268158 134.65570068 84.223602295 2.6196889877 2.4940385818
 3243.8337402 16.000000000 9.0138416290 8.5000000000 61.417316437 0.0495753214 0.2472706139 2.6866497993 7.2166690826 124.09548950 82.638069153 2.8249702454 2.6749305725
 3243.9860840 16.000000000 8.9729690552 8.5000000000 43.241470337 0.0310898833 0.2419300377 2.6878714561 7.1171474457 110.81263733 80.660606384 3.0565934181 3.1439375877
 3244.1384277 16.000000000 8.8884372711 8.5000000000 31.922571182 0.0227993019 0.2362861335 2.6781425476 6.7140626907 101.40792847 80.039794922 3.4820775986 3.5122041702
 3244.2907715 16.000000000 8.9924602509 8.5000000000 20.833333969 0.0229774863 0.2542045116 2.6510159969 6.8609466553 111.02432251 79.749969482 3.8760318756 3.9095396996
 3244.4433594 16.000000000 9.0018005371 8.5000000000 19.816272736 0.0281656198 0.2733416557 2.6227340698 6.8017320633 115.58599854 80.073440552 3.6742005348 3.7076601982
 3244.5957031 16.000000000 9.0017890930 8.5000000000 19.881887436 0.0246392861 0.2891020179 2.5724315643 6.8616666794 124.16894531 80.960739136 3.6050281525 3.6661825180
 3244.7480469 16.000000000 8.9969806671 8.5000000000 19.685039520 0.0347855166 0.3028476238 2.5527424812 7.0490236282 130.47866821 83.283035278 3.5494709015 3.6587572098
 3244.9003906 16.000000000 8.9902362823 8.5000000000 20.209974289 0.0327027366 0.3116483688 2.5474128723 7.2716407776 138.08889771 85.411941528 3.3780264854 3.5520238876
 3245.0527344 16.000000000 9.0461120605 8.5000000000 15.091861725 0.0197396651 0.3296869397 2.5519900322 6.6223611832 130.09552002 87.681411743 3.4164209366 3.4266376495
 3245.2053223 16.000000000 9.0018577576 8.5000000000 15.321521759 0.0202868134 0.3225218654 2.5413794518 6.5157852173 127.75695801 89.054382324 3.4701290131 3.1427145004
 3245.3576660 16.000000000 8.9995040894 8.5000000000 17.946191788 0.0244032703 0.3230542541 2.5358738899 6.6697006226 136.27078247 88.867324829 3.1769213676 3.1876602173
 3245.5100098 16.000000000 8.9439964294 8.5000000000 23.950132370 0.0244299211 0.3220148087 2.5385370255 6.6657819748 137.23522949 89.546768188 3.0381464958 2.9834222794
 3245.6623535 16.000000000 8.9570827484 8.5000000000 27.230968475 0.0209421962 0.3259673715 2.5462722778 6.9822845459 137.23522949 93.166717529 3.1912722588 3.1593651772
 3245.8149414 16.000000000 8.9889450073 8.5000000000 27.739501953 0.0216538757 0.3272112012 2.5507352352 7.1133050919 136.08316040 94.043518066 3.1237592697 3.1078586578
 3245.9672852 16.000000000 9.0208091736 8.5000000000 28.248025894 0.0223655589 0.3284550905 2.5551991463 7.2443256378 134.93106079 93.965034485 3.0562462807 3.0563516617
 3246.1196289 16.000000000 9.0736694336 8.5000000000 22.276903152 0.0229033343 0.3305610418 2.5567407608 7.2309703827 136.19827271 92.518035889 2.9730458260 3.0451698303
 3246.2719727 16.000000000 8.9868068695 8.5000000000 20.636482239 0.0256935172 0.3253214955 2.5575213432 6.7939395905 136.19827271 92.197601318 2.9609236717 2.8285589218
 3246.4245605 16.000000000 8.9379940033 8.5000000000 19.783466339 0.0261106230 0.3233985901 2.5665259361 6.3616790771 133.34283447 91.664566040 2.8653597832 2.7713384628
 3246.5769043 16.000000000 8.9589138031 8.5000000000 20.374015808 0.0235327110 0.3230124116 2.5686640739 6.1860923767 132.17645264 90.850364685 2.7511024475 2.6213383675
 3246.7292480 16.000000000 8.9685688019 8.5000000000 24.081365585 0.0245736986 0.3220193982 2.5684728622 6.3025064468 130.50921631 90.633483887 2.7353067398 2.6605587006
 3246.8815918 16.000000000 8.9782257080 8.5000000000 27.788711548 0.0256146826 0.3210263252 2.5682821274 6.4189205170 128.84194946 89.332885742 2.7195110321 2.6997790337
 3247.0339355 16.000000000 8.9988632202 8.5000000000 31.988189697 0.0224009342 0.3184772730 2.5587382317 6.8125133514 123.57760620 89.291351318 2.9003534317 2.6169281006
 3247.1865234 16.000000000 8.9867591858 8.5000000000 31.036743164 0.0243851766 0.3077018261 2.5549020767 6.9324474335 120.87974548 88.791236877 2.8141613007 2.7915897369
 3247.3388672 16.000000000 9.0060310364 8.5000000000 25.721784592 0.0252767354 0.3083757162 2.5601620674 6.6806192398 124.21424866 87.846984863 2.8037223816 2.8171286583
 3247.4912109 16.000000000 9.0017986298 8.5000000000 23.687662125 0.0283478424 0.2950852513 2.5627946854 6.4750518799 131.28292847 86.399963379 3.0747313499 2.9860682487
 3247.6435547 16.000000000 8.9750709534 8.5000000000 24.179790497 0.0336316079 0.2860671878 2.5952000618 6.7421913147 137.35943604 86.652557373 2.8782582283 3.0934815407
 3247.7961426 16.000000000 8.9880180359 8.5000000000 26.919290543 0.0316588357 0.2842198014 2.6158761978 7.0777397156 134.69308472 83.221649170 3.0158410072 3.1202721596
 3247.9484863 16.000000000 9.0009651184 8.5000000000 29.658786774 0.0296860673 0.2823724151 2.6365523338 7.4132881165 132.02673340 81.593376160 3.1534233093 3.1470632553
 3248.1008301 16.000000000 8.9712276459 8.5000000000 33.333332062 0.0358478278 0.2652332783 2.6695461273 7.5570592880 116.14688110 81.089637756 3.3058285713 3.1677932739
 3248.2531738 16.000000000 8.9674320221 8.5000000000 28.805770874 0.0316672400 0.2555597425 2.6333627701 7.3736686707 104.94950867 81.168289185 3.2607049942 3.4519481659
 3248.4057617 16.000000000 8.9891147614 8.5000000000 23.425195694 0.0377311036 0.2527629733 2.5975470543 6.7973585129 112.10435486 81.127059937 3.1808252335 3.1211276054
 3248.5581055 16.000000000 9.0017986298 8.5000000000 16.896324158 0.0364114493 0.2809253335 2.5800275803 6.8174400330 124.53469849 81.725311279 2.8673334122 2.7607951164
 3248.7104492 16.000000000 9.0140933990 8.5000000000 15.748031616 0.0298791118 0.3067455292 2.5760993958 6.8043642044 131.62222290 85.360267639 2.5613064766 2.5269608498
 3248.8627930 16.000000000 9.0351715088 8.5000000000 15.649604797 0.0312929451 0.3100714684 2.5709834099 6.9002466202 127.83340454 88.059432983 2.4499268532 2.4966688156
 3249.0151367 16.000000000 9.0475883484 8.5000000000 17.027557373 0.0263503529 0.3116867542 2.5482211113 6.8490724564 127.83340454 87.976745605 2.0909452438 2.1657528877
 3249.1677246 16.000000000 9.0250988007 8.5000000000 17.847766876 0.0302587412 0.3030899167 2.5387735367 6.8435831070 125.86674500 88.821868896 1.7792112827 1.8148419857
 3249.3200684 16.000000000 9.0047340393 8.5000000000 17.191600800 0.0285704508 0.3047267795 2.5342707634 6.8839607239 122.95455933 88.330490112 1.6537468433 1.5603721142
