# LAS format log file from PETREL
# Project units are specified as depth units
#==================================================================
~Version information
VERS.   2.0:
WRAP.   NO:
#==================================================================
~Well
STRT .m      1245.0043945 :
STOP .m      3214.9267578 :
STEP .m     0.00000000 :
NULL .        -999.250000 :
COMP.           : COMPANY
WELL.  35/11-11   : WELL
FLD.            : FIELD
LOC.            : LOCATION
SRVC.           : SERVICE COMPANY
DATE.  2018-09-11 14:48:54   : Log Export Date {yyyy-MM-dd HH:mm:ss}
PROV.           : PROVINCE
UWI.   35/11-11   : UNIQUE WELL ID
API.            : API NUMBER
#==================================================================
~Curve
DEPT .m                   : DEPTH
Lithology_geolink ._      : Lithology_geolink
CALI .in                  : CALI
BS .in                    : BS
ROP .m/h                  : ROP
DRHO .g/cm3               : DRHO
THOR .ppm                 : THOR
NPHI .m3/m3               : NPHI
RHOB .g/cm3               : RHOB
PEF .b/e                  : PEF
GR .gAPI                  : GR
URAN .ppm                 : URAN
DTC .us/ft                : DTC
DTS .us/ft                : DTS
RDEP .ohm.m               : RDEP
SP .mV                    : SP
RMIC .ohm.m               : RMIC
RMED .ohm.m               : RMED
~Parameter
#==================================================================
~Ascii
# ...
 1506.3704834 19.000000000 12.730699539 12.250000954 166.83070374 0.0073000002  -999.250000 0.5060999990 2.2281000614 4.3790998459 67.429397583  -999.250000 123.31500244 294.38888550 1.0865000486 76.529197693 1.0240968466 1.1516000032
 1506.5228271 19.000000000 12.730099678 12.250000954 166.83070374 0.0060000001  -999.250000 0.5123000145 2.2520999908 4.4973001480 63.800998688  -999.250000 121.77339172 295.36059570 1.0859999657 76.733100891 1.1449871063 1.1553000212
 1506.6752930 19.000000000 12.761500359 12.250000954 166.83070374 -0.002400000  -999.250000 0.4841000140 2.2729001045 4.6069002151 63.382499695  -999.250000 120.30260468 296.13790894 1.2132999897 76.771003723 1.3783676624 1.2892999649
 1506.8276367 19.000000000 12.800900459 12.250000954 166.83070374 -0.004300000  -999.250000 0.5167999864 2.2681999207 4.6205000877 64.737297058  -999.250000 120.96920013 302.83511353 1.4819999933 76.325302124 1.3579773903 1.5656000376
 1506.9801025 19.000000000 12.790599823 12.250000954 166.83070374 -0.003300000  -999.250000 0.4801000059 2.2451000214 4.5197000504 73.409103394  -999.250000 122.55909729 306.44580078 1.0663000345 75.995903015 1.0804105997 1.1442999840
 1507.1324463 19.000000000 12.819999695 12.250000954 166.84722900 0.0014000000  -999.250000 0.4736000001 2.2244000435 4.3914999962 77.429702759  -999.250000 125.23970795 307.91125488 1.0259000063 75.604499817 1.0247329473 1.1039999723
 1507.2849121 19.000000000 12.827099800 12.250000954 187.46063232 0.0037000000  -999.250000 0.4612999856 2.2193000317 4.3474001884 80.458396912  -999.250000 128.47360229 315.54019165 1.2233999968 75.945198059 1.0659204721 1.3001999855
 1507.4372559 19.000000000 12.815200806 12.250000954 187.46063232 0.0037000000  -999.250000 0.4607999921 2.2228000164 4.4158630371 77.263801575  -999.250000 127.90129852 316.47381592 1.2526999712 77.099403381 1.1410458088 1.3346999884
 1507.5895996 19.000000000 12.828100204 12.250000954 187.46063232 -0.001300000  -999.250000 0.4417999983 2.2273001671 4.4945969582 75.158996582  -999.250000 125.99310303 306.80108643 1.1980999708 78.524101257 1.0734434128 1.2813999653
 1507.7420654 19.000000000 12.834400177 12.250000954 187.46063232 -0.004000000  -999.250000 0.4327999949 2.2304999828 4.4909420013 73.645500183  -999.250000 124.38591003 302.14840698 1.0895999670 79.478996277 1.1276416779 1.1764999628
 1507.8944092 19.000000000 12.828100204 12.250000954 187.46063232 -0.004800000  -999.250000 0.4338999987 2.2302000523 4.4181251526 71.923202515  -999.250000 128.46040344 303.21139526 1.2121000290 79.658302307 1.1796933413 1.3077000380
 1508.0468750 19.000000000 12.790399551 12.250000954 187.46063232 0.0020999999  -999.250000 0.4557000101 2.2270998955 4.3247485161 71.320297241  -999.250000 127.48470306 300.95300293 1.3355000019 79.521003723 1.1713697910 1.4385000467
 1508.1992188 19.000000000 12.806501389 12.250000954 187.44985962 0.0102000004  -999.250000 0.4677000046 2.2256999016 4.2606616020 74.103103638  -999.250000 127.32309723 300.10760498 1.2796000242 79.041999817 1.1336907148 1.3911000490
 1508.3516846 19.000000000 12.842900276 12.250000954 174.00590515 0.0136000002  -999.250000 0.4884999990 2.2253999710 4.2127327919 76.140403748  -999.250000 128.31779480 300.10540771 1.2238999605 78.849899292 1.1221196651 1.3339999914
 1508.5040283 19.000000000 12.839199066 12.250000954 174.00590515 0.0082999999  -999.250000 0.4900000095 2.2230000496 4.2540526390 73.744499207  -999.250000 128.58572388 303.34140015 1.2077000141 79.070793152 1.1466311216 1.3192000389
 1508.6564941 19.000000000 12.859399796 12.250000954 174.00590515 0.0044000000  -999.250000 0.4740999937 2.2184000015 4.3194222450 71.734901428  -999.250000 128.61532593 305.47738647 1.2268999815 79.187339783 1.0606969595 1.3358000517
 1508.8088379 19.000000000 12.835499763 12.250000954 174.00590515 0.0062000002  -999.250000 0.4936999977 2.2165000439 4.3956298828 70.390502930  -999.250000 128.44108582 309.65219116 1.1552000046 79.087478638 1.0588243008 1.2611000538
 1508.9613037 19.000000000 12.831999779 12.250000954 174.00590515 0.0081000002  -999.250000 0.4970000088 2.2179999352 4.4330534935 70.146797180  -999.250000 128.66441345 312.10281372 1.1584999561 78.933311462 1.0891087055 1.2690000534
 1509.1136475 19.000000000 12.851401329 12.250000954 174.00628662 0.0085000005  -999.250000 0.4982999861 2.2230999470 4.4039525986 69.111000061  -999.250000 128.79776001 312.77154541 1.2187999487 78.874572754 1.0945259333 1.3346999884
 1509.2661133 19.000000000 12.843400002 12.250000954 174.49147034 0.0109000001  -999.250000 0.4756999910 2.2297000885 4.3452687263 71.556701660  -999.250000 128.63174438 306.97488403 1.1390000582 78.341773987 1.1268639565 1.2496000528
 1509.4184570 19.000000000 12.838098526 12.250000954 174.49147034 0.0111999996  -999.250000 0.4661000073 2.2337999344 4.3256230354 74.467399597  -999.250000 128.28601074 303.28369141 1.1526000500 78.074882507 1.1044604778 1.2664999962
 1509.5708008 19.000000000 12.828100204 12.250000954 174.49147034 0.0093000000  -999.250000 0.4395000041 2.2346999645 4.3542790413 76.474098206  -999.250000 126.16915131 302.98950195 1.2292000055 78.183357239 1.1799389124 1.3543000221
 1509.7232666 19.000000000 12.850800514 12.250000954 174.49147034 0.0088999998  -999.250000 0.4515999854 2.2355999947 4.3282289505 76.112701416  -999.250000 122.49007416 302.36581421 1.3542000055 78.125000000 1.2285362482 1.4852000475
 1509.8756104 19.000000000 12.805898666 12.250000954 174.49147034 0.0088000000  -999.250000 0.4451999962 2.2356998920 4.2395153046 75.141403198  -999.250000 122.94887543 299.15161133 1.3488999605 78.124816895 1.2736965418 1.4800000191
 1510.0280762 19.000000000 12.783701897 12.250000954 174.49147034 0.0074999998  -999.250000 0.4557999969 2.2365000248 4.1333780289 76.533401489  -999.250000 120.30653381 289.99649048 1.2510999441 77.892082214 1.2694435120 1.3784999847
 1510.1804199 19.000000000 12.761500359 12.250000954 174.49372864 0.0002000000  -999.250000 0.4262999892 2.2355000973 4.1062335968 76.430496216  -999.250000 120.22302246 288.62658691 1.2043000460 78.120864868 1.3237115145 1.3298000097
 1510.3328857 19.000000000 12.812499046 12.250000954 177.30642700 -0.000700000  -999.250000 0.4286000133 2.2328000069 4.1481709480 74.705802917  -999.250000 121.24951935 294.58609009 1.3027000427 78.699989319 1.3381705284 1.4283000231
 1510.4852295 19.000000000 12.822099686 12.250000954 177.30642700 0.0027999999  -999.250000 0.4469999969 2.2284998894 4.2370791435 68.054298401  -999.250000 121.39984894 293.11331177 1.3443000317 78.941459656 1.3014328480 1.4769999981
 1510.6376953 19.000000000 12.830100060 12.250000954 177.30642700 0.0046999999  -999.250000 0.4555999935 2.2211000919 4.3358511925 67.284500122  -999.250000 122.46116638 289.71789551 1.3552999496 78.766677856 1.2176257372 1.4891999960
 1510.7900391 19.000000000 12.828100204 12.250000954 177.30642700 0.0027000001  -999.250000 0.4460000098 2.2195999622 4.3676981926 68.862098694  -999.250000 123.12548828 288.61691284 1.3493000269 78.628822327 1.1712930202 1.4765000343
 1510.9425049 19.000000000 12.841299057 12.250000954 177.30642700 0.0013000000  -999.250000 0.4217999876 2.2218000889 4.3652982712 70.164299011  -999.250000 123.48410034 288.78369141 1.1979999542 78.287178040 1.1624836922 1.3171000481
 1511.0948486 19.000000000 12.844800949 12.250000954 177.29310608 0.0041999999  -999.250000 0.4375000000 2.2270998955 4.3640313148 69.592796326  -999.250000 122.42396545 290.35000610 1.2031999826 77.837875366 1.1523294449 1.3193000555
 1511.2473145 19.000000000 12.829799652 12.250000954 160.68569946 0.0037000000  -999.250000 0.4851999879 2.2302000523 4.4031343460 69.091796875  -999.250000 122.37329865 289.66839600 1.2525999546 78.183830261 1.1890882254 1.3803000450
 1511.3996582 19.000000000 12.813300133 12.250000954 160.68569946 0.0006000000  -999.250000 0.4756999910 2.2325000763 4.4244008064 70.436203003  -999.250000 121.99830627 291.09741211 1.3380999565 78.762649536 1.2441320419 1.4667999744
 1511.5520020 19.000000000 12.776300430 12.250000954 160.68569946 -0.004700000  -999.250000 0.4580999911 2.2276999950 4.4254784584 69.100303650  -999.250000 121.51564026 289.86291504 1.4198999405 79.204193115 1.2840504646 1.5439000130
