# LAS format log file from PETREL
# Project units are specified as depth units
#==================================================================
~Version information
VERS.   2.0:
WRAP.   NO:
#==================================================================
~Well
STRT .m      2901.5925293 :
STOP .m      3271.0102539 :
STEP .m     0.00000000 :
NULL .        -999.250000 :
COMP.           : COMPANY
WELL.  35/11-13   : WELL
FLD.            : FIELD
LOC.            : LOCATION
SRVC.           : SERVICE COMPANY
DATE.  2018-09-11 14:48:55   : Log Export Date {yyyy-MM-dd HH:mm:ss}
PROV.           : PROVINCE
UWI.   35/11-13   : UNIQUE WELL ID
API.            : API NUMBER
#==================================================================
~Curve
DEPT .m                   : DEPTH
Lithology_geolink ._      : Lithology_geolink
CALI .in                  : CALI
BS .in                    : BS
ROP .m/h                  : ROP
DRHO .g/cm3               : DRHO
NPHI .m3/m3               : NPHI
RHOB .g/cm3               : RHOB
PEF .b/e                  : PEF
GR .gAPI                  : GR
DTC .us/ft                : DTC
DTS .us/ft                : DTS
RDEP .ohm.m               : RDEP
RMIC .ohm.m               : RMIC
RMED .ohm.m               : RMED
~Parameter
#==================================================================
~Ascii
# ...
 3264.0000000 6.0000000000 8.4848003387 8.5000000000 89.795120239 -0.001600000 0.3211558461 2.5944018364 3.0310161114 127.58088684 76.421806335 138.77499390 12.988725662 12.377995491 14.207903862
 3264.1523438 6.0000000000 8.4848003387 8.5000000000 79.092727661 -0.000300000 0.3074028790 2.5950279236 3.0984394550 124.79436493 76.048957825 137.02160645 14.087530136 13.252011299 15.237536430
 3264.3046875 6.0000000000 8.4848003387 8.5000000000 61.629699707 -0.001000000 0.3091947138 2.6123898029 3.1853058338 118.84933472 75.027381897 133.66419983 14.480891228 15.252264023 15.509999275
 3264.4570313 7.0000000000 8.4715003967 8.5000000000 52.885261536 -0.005400000 0.3059331775 2.6060199738 3.1887984276 115.74126434 74.200706482 137.80900574 14.784211159 15.228137016 15.693819046
 3264.6093750 7.0000000000 8.4671001434 8.5000000000 39.441333771 -0.006100000 0.3266030252 2.6185770035 3.1881611347 108.23722839 73.645088196 132.14970398 13.233255386 14.314459801 14.086196899
 3264.7619629 7.0000000000 8.4848003387 8.5000000000 32.729713440 -0.004700000 0.3285209835 2.6666307449 3.4760396481 104.88861084 73.822830200 132.13310242 13.208066940 12.730942726 14.024717331
 3264.9143066 7.0000000000 8.4406003952 8.5000000000 36.860233307 -0.002700000 0.3415648937 2.6857373714 3.5622940063 105.39193726 72.470352173 132.69790649 15.064048767 13.697975159 15.849672318
 3265.0666504 7.0000000000 8.4582996368 8.5000000000 43.008529663 -0.003400000 0.3196854293 2.6466984749 3.0601916313 106.28897095 72.127380371 130.82679749 19.711397171 17.367235184 20.386814117
 3265.2189941 7.0000000000 8.4493999481 8.5000000000 55.258689880 -0.003500000 0.3106054664 2.6457684040 3.1172578335 108.82804871 72.114784241 130.20820618 23.696563721 22.685489655 24.257320404
 3265.3715820 7.0000000000 8.4316997528 8.5000000000 46.717258453 -0.003200000 0.3139964938 2.6260352135 3.1532437801 110.41723633 72.230232239 126.88510132 23.359844208 23.110248566 23.768037796
 3265.5239258 7.0000000000 8.4406003952 8.5000000000 29.794799805 -0.002600000 0.3129256368 2.6369683743 3.1356716156 111.13551331 72.115234375 127.03179932 22.561304092 21.500289917 22.905704498
 3265.6762695 6.0000000000 8.4449996948 8.5000000000 42.999435425 -0.005400000 0.3288838267 2.6172101498 3.1179993153 105.71187592 70.950500488 126.89530182 21.123470306 18.315973282 21.468233109
 3265.8286133 16.000000000 8.4184999466 8.5000000000 49.611701965 -0.006000000 0.3187932670 2.6237688065 3.1181261539 99.316368103 69.950935364 125.55609894 16.816072464 17.497327805 17.075038910
 3265.9812012 16.000000000 8.4316997528 8.5000000000 59.126113892 -0.003200000 0.3145760000 2.7291934490 3.4480919838 83.471443176 68.416114807 124.83810425 22.629779816 22.442752838 22.930921555
 3266.1335449 16.000000000 8.4493999481 8.5000000000 63.834285736 0.0024000001 0.3071008027 2.8203897476 4.1299247742 83.318153381 68.611801147 124.14340210 34.403285980 24.637197495 34.593280792
 3266.2858887 16.000000000 8.4316997528 8.5000000000 42.748832703 0.0035999999 0.3076221049 2.6893248558 3.5215435028 96.259468079 69.858436584 125.10539246 18.071546555 23.008163452 18.818471909
 3266.4382324 7.0000000000 8.4449996948 8.5000000000 32.219013214 0.0006000000 0.3214052618 2.6424577236 3.0501942635 103.48197174 70.632965088 128.38040161 17.478870392 17.814373016 18.241624832
 3266.5905762 7.0000000000 8.4406003952 8.5000000000 37.030357361 -0.002600000 0.3246859312 2.6160843372 3.0466191769 113.49782562 72.546546936 128.87069702 18.515827179 17.732313156 19.437099457
 3266.7431641 7.0000000000 8.4316997528 8.5000000000 34.674224854 -0.003500000 0.3158867061 2.6062159538 3.0585217476 113.94679260 73.199592590 128.48460388 16.347860336 16.054796219 17.440061569
 3266.8955078 7.0000000000 8.4229001999 8.5000000000 29.976917267 -0.003400000 0.3076189160 2.6161348820 3.0721712112 113.25623322 73.316986084 129.57449341 16.194948196 15.614072800 17.474954605
 3267.0478516 7.0000000000 8.4449996948 8.5000000000 27.854093552 -0.002800000  -999.250000 2.6378285885 3.1169924736 111.71620941 72.937133789 129.68629456 14.167035103 14.165212631 15.388365746
 3267.2001953 7.0000000000 8.4449996948 8.5000000000 23.615064621 -0.001100000  -999.250000 2.6556444168 3.3612806797 107.85692596 73.022903442 128.94000244 12.890155792 14.734773636 13.944512367
 3267.3527832 7.0000000000 8.4493999481 8.5000000000 21.294282913 -0.000700000  -999.250000 2.6209273338 3.2246189117 105.80383301 72.527877808 128.40910339 18.877782822 15.484152794 20.529476166
 3267.5051270 7.0000000000 8.4384002686 8.5000000000 16.693811417 -0.002100000  -999.250000 2.5982961655 3.2305300236 101.13553619 72.209609985 127.46510315 29.575349808 21.016574860 31.597581863
 3267.6574707 7.0000000000 8.4139995575 8.5000000000 17.255741119 -0.004500000  -999.250000 2.5958235264 3.2492899895 98.289772034 72.151679993 126.34309387 21.294775009 22.619043350 22.899888992
 3267.8098145 7.0000000000 8.4184999466 8.5000000000 18.377389908 -0.007500000  -999.250000 2.5481479168 3.2432956696 96.404808044 71.954406738 125.82219696 5.5813188553 21.520570755 6.0727028847
 3267.9624023 7.0000000000 8.4139995575 8.5000000000 17.200426102 -0.009900000  -999.250000 2.5780858994 3.3653614521 96.404357910 72.018821716 125.70480347 6.6564006805 19.259819031 7.2046484947
 3268.1147461 7.0000000000 8.4118003845 8.5000000000 14.839189529 -0.010700000  -999.250000 2.6047735214 3.3845663071 94.429885864 71.807044983 125.17269135 27.332136154 19.360656738 29.358537674
 3268.2670898 7.0000000000 8.4118003845 8.5000000000 14.811157227 -0.011400000  -999.250000 2.5882973671 3.4256453514 95.428199768 71.895378113 125.19860077 22.364141464 20.332618713 23.891956329
 3268.4194336 7.0000000000 8.4118003845 8.5000000000 15.713440895 -0.009900000  -999.250000 2.5866084099 3.3292036057 101.60469055 71.884780884 125.87899780 18.394941330 21.467649460 19.433725357
 3268.5720215 7.0000000000 8.4052000046 8.5000000000 16.651769638 -0.010500000  -999.250000 2.5918414593 3.3312802315 105.04617310 73.062705994 128.03089905 13.475881577 22.435598373 14.626512527
 3268.7243652 7.0000000000 8.3985996246 8.5000000000 18.144859314 -0.009700001  -999.250000 2.6047871113 3.2629156113 111.37322998 74.029663086 130.41389465 6.0931968689 23.277259827 6.6308350563
 3268.8767090 7.0000000000 8.3919000626 8.5000000000 19.275455475 -0.010200000  -999.250000 2.5967988968 3.3350682259 118.81191254 74.129600525 131.24859619 9.5793962479 24.000209808 10.389662743
 3269.0290527 7.0000000000 8.3985996246 8.5000000000 19.600784302 -0.009700001  -999.250000 2.5961050987 3.3773515224 121.81462860 74.375968933 133.12879944 9.2072362900 24.505483627 9.8097877502
 3269.1813965 7.0000000000 8.3985996246 8.5000000000 20.254264832 -0.009200000  -999.250000 2.5991923809 3.2848229408 123.07756805 74.169883728 132.24949646 11.660120964 24.682380676 12.232662201
 3269.3339844 7.0000000000 8.3852996826 8.5000000000 21.282787323 -0.009900000  -999.250000 2.5944719315 3.2991054058 120.84336090 74.034790039 131.07119751 12.055294991 24.607372284 12.529170990
 3269.4863281 7.0000000000 8.3985996246 8.5000000000 23.320524216 -0.009700001  -999.250000 2.5857021809 3.3008077145 110.04528809 73.469108582 130.44760132 14.580677032 24.442165375 15.078181267
 3269.6386719 7.0000000000 8.3852996826 8.5000000000 23.517686844 -0.010200000  -999.250000 2.5870931149 3.3056144714 104.66777039 72.541236877 127.90599823 16.938686371 24.234149933 17.313034058
 3269.7910156 16.000000000 8.3919000626 8.5000000000 23.904687881 -0.010100000  -999.250000 2.5828003883 3.3768224716 97.672225952 71.565406799 125.86070251 19.793985367 24.015289307 19.884443283
 3269.9436035 16.000000000 8.3945999146 8.5000000000 22.154203415 -0.011000000  -999.250000 2.5830793381 3.3282842636 97.014625549 70.570785522 124.55480194 18.157236099 23.821796417 17.973215103
 3270.0959473 16.000000000 8.3893003464 8.5000000000 18.680196762 -0.012100000  -999.250000 2.5766096115 3.2611377239 100.97790527 70.068572998 124.34560394 15.953534126  -999.250000 15.794296265
