# LAS format log file from PETREL
# Project units are specified as depth units
#==================================================================
~Version information
VERS.   2.0:
WRAP.   NO:
#==================================================================
~Well
STRT .m      1150.0018311 :
STOP .m      2885.3808594 :
STEP .m     0.00000000 :
NULL .        -999.250000 :
COMP.           : COMPANY
WELL.  35/11-10   : WELL
FLD.            : FIELD
LOC.            : LOCATION
SRVC.           : SERVICE COMPANY
DATE.  2018-09-11 14:48:54   : Log Export Date {yyyy-MM-dd HH:mm:ss}
PROV.           : PROVINCE
UWI.   35/11-10   : UNIQUE WELL ID
API.            : API NUMBER
#==================================================================
~Curve
DEPT .m                   : DEPTH
Lithology_geolink ._      : Lithology_geolink
CALI .in                  : CALI
BS .in                    : BS
DRHO .g/cm3               : DRHO
NPHI .m3/m3               : NPHI
RHOB .g/cm3               : RHOB
GR .gAPI                  : GR
DTC .us/ft                : DTC
DTS .us/ft                : DTS
RDEP .ohm.m               : RDEP
SP .mV                    : SP
RSHA .ohm.m               : RSHA
RMIC .ohm.m               : RMIC
RMED .ohm.m               : RMED
~Parameter
#==================================================================
~Ascii
# ...
 1262.4731445  -999.250000 12.317999840 12.250000954 -0.007465610 0.4841879904 2.0659999847 88.212997437 153.46414185 523.08782959 1.0880000591 -185.0624542 0.8194136620 1.1321297884 0.8190023899
 1262.6254883  -999.250000 12.317999840 12.250000954 -0.008227114 0.4873700142 2.0659968853 91.320999146 154.89273071 527.84710693 1.0899984837 -184.3755951 0.8280560970 1.1908110380 0.8279711604
 1262.7779541  -999.250000 12.574999809 12.250000954 -0.008357701 0.4761900008 2.0619952679 89.557998657 154.54570007 514.30139160 1.0890008211 -185.1248016 0.8260285854 1.1740409136 0.8260048032
 1262.9302979  -999.250000 12.223999977 12.250000954 -0.001310526 0.4900290072 2.0589880943 87.193000793 154.98045349 510.81655884 1.0860023499 -185.0000000 0.8265395761 1.0494003296 0.8269968033
 1263.0827637  -999.250000 12.243000984 12.250000954 0.0017751241 0.4848459959 2.0439774990 86.275001526 154.29939270 512.75537109 1.0720112324 -184.9994049 0.8181667328 0.8494807482 0.8180216551
 1263.2351074  -999.250000 12.288999557 12.250000954 0.0024783013 0.5149350166 2.0299983025 85.166999817 154.54472351 507.39776611 1.0869879723 -184.6248474 0.8303632140 0.8988398314 0.8299615383
 1263.3875732  -999.250000 12.286999702 12.250000954 0.0053569051 0.5128859878 2.0280272961 83.252998352 154.19163513 502.10455322 1.1229711771 -184.4375000 0.8588451743 1.2421730757 0.8589302897
 1263.5399170  -999.250000 12.265999794 12.250000954 0.0109052518 0.4948779941 2.0450000763 85.079002380 152.71908569 505.58557129 1.1379879713 -184.1250458 0.8686711192 0.7376236916 0.8689680099
 1263.6922607  -999.250000 12.281000137 12.250000954 0.0062307660 0.4759730101 2.0449984074 86.961997986 152.81739807 506.32171631 1.1569695473 -184.1880035 0.8872232437 1.0499904156 0.8869423270
 1263.8447266  -999.250000 12.317999840 12.250000954 0.0059411810 0.4702590108 2.0430023670 83.196998596 153.32043457 519.68652344 1.1679911613 -184.1879578 0.8946630359 1.1965324879 0.8949743509
 1263.9970703  -999.250000 12.326999664 12.250000954 0.0086581493 0.4583530128 2.0459983349 81.171997070 153.84609985 514.11499023 1.1310592890 -184.1251984 0.8678839803 1.1312116385 0.8680865169
 1264.1495361  -999.250000 12.446000099 12.250000954 0.0050961482 0.4438340068 2.0440022945 84.198997498 152.72460938 515.29956055 1.0850368738 -184.3751068 0.8406178355 1.1469614506 0.8410649300
 1264.3018799  -999.250000 12.350999832 12.250000954 0.0002936237 0.4421409965 2.0469982624 84.802001953 154.71485901 518.51763916 1.0560464859 -184.4994507 0.8198502660 1.2486733198 0.8200672269
 1264.4543457  -999.250000 12.375999451 12.250000954 0.0010701971 0.4662939906 2.0450024605 86.943000793 154.53884888 516.87530518 1.0330184698 -183.8130035 0.8019533157 1.2370288372 0.8020432591
 1264.6066895  -999.250000 12.350999832 12.250000954 -0.001179312 0.4619109929 2.0479977131 86.030998230 154.34422302 519.73431396 1.0180120468 -183.8134613 0.7926864028 1.1981248856 0.7930288315
 1264.7591553  -999.250000 12.352999687 12.250000954 -0.002818468 0.4708130062 2.0449969769 80.852996826 154.62100220 522.66064453 1.0080000162 -184.3740997 0.7918159962 1.2159566879 0.7920023799
 1264.9114990  -999.250000 12.376999855 12.250000954 -0.004356856 0.4673849940 2.0429975986 82.195999146 154.62425232 522.43762207 1.0169999599 -183.8129578 0.7950299978 1.1611762047 0.7949904203
 1265.0639648  -999.250000 12.417000771 12.250000954 -0.004169936 0.4908829927 2.0400111675 82.288002014 154.95214844 518.26965332 1.0290000439 -183.7509003 0.8073319793 1.3216129541 0.8069711328
 1265.2163086  -999.250000 12.467000008 12.250000954 0.0008589528 0.4910680056 2.0469958782 85.411003113 155.04393005 516.83123779 1.0279999971 -184.3118439 0.8065239787 0.8814155459 0.8069999814
 1265.3687744  -999.250000 12.560999870 12.250000954 0.0020430994 0.4742119908 2.0419793129 83.016998291 154.95816040 519.66198730 1.0329999924 -182.8742065 0.8102989793 1.0515866280 0.8099927902
 1265.5211182  -999.250000 12.881999969 12.250000954 -0.000387258 0.4652110040 2.0289969444 83.366996765 155.06018066 518.42132568 1.0340000391 -182.3754578 0.8133069873 1.2214555740 0.8129904270
 1265.6734619  -999.250000 12.918999672 12.250000954 0.0017869135 0.4595089853 2.0250008106 80.480003357 155.28337097 517.59423828 1.0310000181 -182.9383087 0.8088390231 1.2080447674 0.8090128303
 1265.8259277  -999.250000 12.961999893 12.250000954 0.0041732970 0.4631449878 2.0260016918 81.973999023 155.74731445 517.90301514 1.0290000439 -183.3124084 0.8092169762 1.1980320215 0.8090000153
 1265.9782715  -999.250000 13.013999939 12.250000954 0.0020512899 0.4565730095 2.0279960632 83.511001587 156.15287781 506.69659424 1.0360000134 -182.5634003 0.8177310228 1.1601217985 0.8179711699
 1266.1307373  -999.250000 13.003001213 12.250000954 0.0036639462 0.4384030104 2.0230000019 84.139999390 155.99287415 501.18750000 1.0410000086 -183.0628510 0.8225950003 1.1570096016 0.8229839802
 1266.2830811  -999.250000 12.992999077 12.250000954 0.0073358160 0.4540860057 2.0229880810 86.559997559 155.83232117 490.57064819 1.0609999895 -182.8753967 0.8405780196 1.2656506300 0.8409423232
 1266.4355469  -999.250000 12.987000465 12.250000954 0.0046086018 0.4575679898 2.0079958439 80.707000732 154.99389648 487.65771484 1.1030000448 -183.3755493 0.8633279800 1.2919375896 0.8629471064
 1266.5878906  -999.250000 12.954999924 12.250000954 0.0028629799 0.4830659926 2.0029935837 78.638999939 154.85877991 489.79925537 1.1189999580 -184.0628052 0.8753399849 1.1763714552 0.8749615550
 1266.7403564  -999.250000 12.892000198 12.250000954 0.0003435533 0.4959999919 1.9950047731 78.169998169 154.60137939 498.85678101 1.1150000095 -183.8140106 0.8760960102 1.0562884808 0.8759976029
 1266.8927002  -999.250000 12.704000473 12.250000954 0.0000620513 0.4892080128 1.9980008602 80.804000854 154.83523560 508.07638550 1.0950000286 -184.4373474 0.8639730215 1.2424011230 0.8640384674
 1267.0451660  -999.250000 12.557999611 12.250000954 -0.003612904 0.4948439896 1.9990191460 79.722000122 156.36378479 513.55065918 1.0750000477 -183.6257935 0.8485770226 1.3258004189 0.8490360379
 1267.1973877  -999.250000 12.500000000 12.250000954 -0.002306000 0.4744323492 2.0109999180 84.902839661 156.84599304 522.07800293 1.0510191917 -184.1250000 0.8259081841 1.2034924030 0.8260920644
 1267.3497314  -999.250000 12.465999603 12.250000954 -0.001141000 0.4986950457 2.0260000229 83.645019531 156.81501770 527.75897217 1.0140593052 -184.1880035 0.8037345409 1.2010079622 0.8040881753
 1267.5021973  -999.250000 12.392999649 12.250000954 0.0013000000 0.5006114841 2.0380001068 82.000320435 156.40400696 524.56701660 1.0040079355 -184.8750000 0.7917725444 1.2009999752 0.7920480371
 1267.6545410  -999.250000 12.358999252 12.250000954 0.0005520000 0.4975534379 2.0439999104 82.139884949 156.03399658 523.59698486 1.0000032187 -183.6250000 0.7869268656 1.1751041412 0.7870200276
 1267.8070068  -999.250000 12.352001190 12.250000954 0.0017819999 0.4845694005 2.0460000038 81.938163757 155.95599365 525.99902344 1.0000000000 -184.0000000 0.7897966504 1.1969119310 0.7899880409
 1267.9593506  -999.250000 12.350999832 12.250000954 0.0019610000 0.4720640182 2.0409998894 77.115867615 155.73800659 522.11199951 1.0129896402 -183.5630035 0.7983840704 1.1999880075 0.7979679108
 1268.1118164  -999.250000 12.350999832 12.250000954 0.0016579999 0.4803453684 2.0320000648 79.279258728 155.30099487 516.61499023 1.0379799604 -182.8750000 0.8125036955 1.2497998476 0.8129400015
 1268.2641602  -999.250000 12.350999832 12.250000954 -0.000745000 0.4740101099 2.0239999294 79.762611389 154.99600220 518.38897705 1.0459935665 -183.6250000 0.8161121607 1.2390440702 0.8159879446
 1268.4166260  -999.250000 12.352001190 12.250000954 -0.003343000 0.4581526816 2.0239999294 79.305366516 154.68400574 511.92098999 1.0479984283 -183.3130035 0.8207692504 1.2350128889 0.8209839463
 1268.5689697  -999.250000 12.352999687 12.250000954 -0.004363000 0.4598346353 2.0290000439 81.699073792 154.58700562 513.58099365 1.0639871359 -182.6880035 0.8233109713 1.2210559845 0.8229920268
