# LAS format log file from PETREL
# Project units are specified as depth units
#==================================================================
~Version information
VERS.   2.0:
WRAP.   NO:
#==================================================================
~Well
STRT .m      998.18890381 :
STOP .m      3019.4697266 :
STEP .m     0.00000000 :
NULL .        -999.250000 :
COMP.           : COMPANY
WELL.  35/12-1   : WELL
FLD.            : FIELD
LOC.            : LOCATION
SRVC.           : SERVICE COMPANY
DATE.  2018-09-11 14:48:57   : Log Export Date {yyyy-MM-dd HH:mm:ss}
PROV.           : PROVINCE
UWI.   35/12-1   : UNIQUE WELL ID
API.            : API NUMBER
#==================================================================
~Curve
DEPT .m                   : DEPTH
Lithology_geolink ._      : Lithology_geolink
CALI .in                  : CALI
BS .in                    : BS
DRHO .g/cm3               : DRHO
NPHI .m3/m3               : NPHI
RHOB .g/cm3               : RHOB
PEF .b/e                  : PEF
GR .gAPI                  : GR
DTC .us/ft                : DTC
RDEP .ohm.m               : RDEP
SP .mV                    : SP
RSHA .ohm.m               : RSHA
RMIC .ohm.m               : RMIC
RMED .ohm.m               : RMED
~Parameter
#==================================================================
~Ascii
 998.18890381  -999.250000 18.395999908 25.999998093 -0.476999998  -999.250000 1.5290000439 9.8170003891 104.94646454 258.76501465 1.2908633947  -999.250000 1.1888370514  -999.250000 0.0419999994
 998.34130859  -999.250000 18.332000732 25.999998093 -0.342000008  -999.250000 1.5490000248 6.3769998550 109.24483490 256.20001221 1.2561541796 258.46224976 1.2397753000 10.580434799 0.0419999994
 998.49365234  -999.250000 18.434000015 25.999998093 -0.240999997  -999.250000 1.6230000257 6.6220002174 112.29711151 256.20001221 1.2251366377 255.83416748 1.2290484905 9.7380218506 0.0419999994
 998.64605713  -999.250000 18.392999649 25.999998093 -0.172999993  -999.250000 1.7050000429 7.1560001373 115.69855499 237.23199463 1.2080748081 253.64462280 1.2120748758 9.6710786819 0.0419999994
 998.79846191  -999.250000 18.375000000 25.999998093 -0.136999995  -999.250000 1.7630000114 6.3390002251 115.49932861 161.57098389 1.1542379856 251.90609741 1.1721762419 10.468041420 0.0419999994
 998.95086670  -999.250000 18.395000458 25.999998093 -0.115999997  -999.250000 1.8029999733 5.7350001335 112.23823547 166.79199219 1.1082026958 249.37803650 1.0754274130 10.766642570 0.0419999994
 999.10327148  -999.250000 18.517999649 25.999998093 -0.104999997  -999.250000 1.8220000267 5.7690000534 107.88298035 199.33999634 1.0522466898 246.76913452 1.0232291222 7.6187868118 0.0419999994
 999.25567627  -999.250000 18.718999863 25.999998093 -0.100000001  -999.250000 1.8170000315 5.9770002365 103.76759338 206.01899719 1.0390572548 244.40983582 0.9851674438 6.0388960838 0.0419999994
 999.40808105  -999.250000 18.878000259 25.999998093 -0.097999997  -999.250000 1.8070000410 6.0780000687 104.49781799 205.60000610 1.0270527601 241.03469849 0.9830088019 8.3091773987 0.0419999994
 999.56048584  -999.250000 19.013999939 25.999998093 -0.094999999  -999.250000 1.8040000200 6.0390000343 108.66032410 204.93901062 1.0011146069 238.56198120 0.9690616727 11.134737015 0.0419999994
 999.71289063  -999.250000 19.090999603 25.999998093 -0.092000000  -999.250000 1.8150000572 6.5260000229 110.38324738 196.93699646 0.9771057367 236.66650391 0.9431145787 10.951148987 0.0419999994
 999.86529541  -999.250000 19.201000214 25.999998093 -0.088000000  -999.250000 1.8430000544 7.3689999580 107.71720886 165.28500366 1.2109647989 235.00132751 1.1769647598 7.7235875130 0.0419999994
 1000.0177002  -999.250000 19.319999695 25.999998093 -0.085000001  -999.250000 1.8700000048 8.5050001144 109.73656464 147.47799683 2.1787226200 233.41625977 2.1805639267 5.8055353165 0.0419999994
 1000.1701050  -999.250000 19.483999252 25.999998093 -0.085000001  -999.250000 1.8849999905 8.8210000992 111.19025421 143.00700378 2.3024713993 231.92021179 2.3333437443 6.0408101082 0.0419999994
 1000.3225098  -999.250000 19.695997238 25.999998093 -0.089000002  -999.250000 1.8910000324 9.5659999847 113.94268799 146.39599609 2.1895020008 230.12643433 2.2294626236 6.7394399643 0.0419999994
 1000.4749146  -999.250000 19.820999146 25.999998093 -0.094999999  -999.250000 1.8839999437 10.777999878 108.67733765 145.55499268 2.0486211777 228.27148438 2.0497930050 7.3415179253 0.0419999994
 1000.6272583  -999.250000 19.898000717 25.999998093 -0.103000000  -999.250000 1.8580000401 12.046999931 105.02085876 139.89900208 1.9564054012 226.56306458 1.9384891987 5.6410460472 0.0419999994
 1000.7796631  -999.250000 19.944999695 25.999998093 -0.111000001  -999.250000 1.8170000315 11.651000023 100.54816437 125.67400360 1.9092071056 225.28852844 1.8752775192 6.3401565552 0.0419999994
 1000.9320679  -999.250000 19.770999908 25.999998093 -0.112999998  -999.250000 1.7790000439 9.8360004425 96.915817261 121.94599915 1.9010353088 224.81057739 1.8192466497 9.5661201477 0.0419999994
 1001.0844727  -999.250000 19.590000153 25.999998093 -0.109999999  -999.250000 1.7460000515 8.2510004044 95.691955566 120.48500061 1.8502247334 224.64920044 1.7443304062 10.926368713 0.0419999994
 1001.2368774  -999.250000 19.559000015 25.999998093 -0.103000000  -999.250000 1.7180000544 7.9499998093 97.588958740 125.61499786 1.7613921165 224.18556213 1.6553920507 8.6637239456 0.0419999994
 1001.3892822  -999.250000 19.767999649 25.999998093 -0.097000003  -999.250000 1.6979999542 9.2500000000 100.18683624 121.26499939 1.6733876467 223.79447937 1.5554404259 2.6761989594 0.0419999994
 1001.5416870  -999.250000 20.416000366 25.999998093 -0.092000000  -999.250000 1.6979999542 11.661000252 104.27444458 117.51000214 1.6411410570 223.14552307 1.5151761770 0.7945032120 0.0419999994
 1001.6940918  -999.250000 21.084999084 25.999998093 -0.092000000  -999.250000 1.7039999962 12.906000137 104.18714905 120.61000061 1.6629030704 222.56047058 1.5070352554 0.8369647861 0.0419999994
 1001.8464966  -999.250000 21.209999084 25.999998093 -0.093999997  -999.250000 1.7120000124 11.965000153 106.27764130 128.11199951 1.7237555981 222.10935974 1.5219398737 0.6741305590 0.0419999994
 1001.9989014  -999.250000 20.986999512 25.999998093 -0.097999997  -999.250000 1.7120000124 10.758000374 107.78519440 129.56100464 1.7937196493 221.38757324 1.5379358530 0.4921457767 0.0419999994
 1002.1513062  -999.250000 20.749000549 25.999998093 -0.097999997  -999.250000 1.7250000238 10.298999786 109.85551453 131.73899841 1.8946357965 221.42297363 1.5599206686 0.7417997718 0.0419999994
 1002.3037109  -999.250000 20.595001221 25.999998093 -0.093999997  -999.250000 1.7489999533 9.8970003128 109.87298584 136.25599670 1.9916503429 220.91540527 1.5719567537 0.7479951978 0.0419999994
 1002.4561157  -999.250000 20.274002075 25.999998093 -0.088000000  -999.250000 1.7829999924 8.8699998856 106.13150024 147.99800110 2.0896465778 220.31547546 1.5600432158 0.7659855485 0.0419999994
 1002.6085205  -999.250000 19.975999832 25.999998093 -0.086000003  -999.250000 1.8059999943 8.0229997635 103.37531281 151.30999756 2.1198916435 219.56161499 1.4653424025 1.3295483589 0.0419999994
 1002.7608643  -999.250000 20.080999374 25.999998093 -0.089000002  -999.250000 1.8109999895 7.3759999275 99.010993958 149.82099915 2.0522723198 219.00067139 1.3723723888 2.9021089077 0.0419999994
 1002.9132690  -999.250000 20.287002563 25.999998093 -0.093999997  -999.250000 1.7979999781 7.2800002098 97.523376465 147.92999268 1.9085767269 218.48062134 1.2694125175 4.6738710403 0.0419999994
 1003.0656738  -999.250000 20.794000626 25.999998093 -0.100000001  -999.250000 1.7790000439 7.0149998665 97.656776428 161.03500366 1.7854925394 217.85574341 1.2032642365 6.6536211967 0.0419999994
 1003.2180786  -999.250000 21.590999603 25.999998093 -0.101999998  -999.250000 1.7619999647 6.6040000916 98.182159424 168.12300110 1.7172722816 217.16581726 1.1641561985 7.5669040680 0.0419999994
 1003.3704834  -999.250000 21.888000488 25.999998093 -0.101999998  -999.250000 1.7530000210 6.1199998856 97.189598083 181.25999451 1.6482763290 216.60566711 1.1112122536 7.6009602547 0.0419999994
 1003.5228882  -999.250000 22.079000473 25.999998093 -0.100000001  -999.250000 1.7439999580 5.7589998245 93.851356506 217.06799316 1.6151322126 216.04066467 1.0681722164 8.9403896332 0.0419999994
 1003.6752930  -999.250000 22.211000443 25.999998093 -0.097999997  -999.250000 1.7380000353 5.7210001945 90.797889709 226.62901306 1.6468718052 215.64532471 1.0431001186 8.9130229950 0.0419999994
 1003.8276978  -999.250000 22.291997910 25.999998093 -0.097000003  -999.250000 1.7330000401 6.0609998703 91.195350647 229.76399231 1.6848477125 215.33525085 1.0340360403 9.3476514816 0.0419999994
 1003.9801025  -999.250000 22.336000443 25.999998093 -0.097000003  -999.250000 1.7319999933 6.6640000343 94.875091553 229.82600403 1.7158758640 214.85537720 1.0260320902 8.1389684677 0.0419999994
 1004.1325073  -999.250000 22.343999863 25.999998093 -0.098999999  -999.250000 1.7300000191 7.1149997711 97.291099548 230.38400269 1.7468758821 214.47230530 1.0279920101 6.7830862999 0.0419999994
 1004.2849121  -999.250000 22.343999863 25.999998093 -0.101999998  -999.250000 1.7250000238 7.4390001297 96.618804932 228.16600037 1.8197368383 214.95960999 1.0379639864 5.5679731369 0.0419999994
