# LAS format log file from PETREL
# Project units are specified as depth units
#==================================================================
~Version information
VERS.   2.0:
WRAP.   NO:
#==================================================================
~Well
STRT .m      359.96881104 :
STOP .m      3380.8413086 :
STEP .m     0.00000000 :
NULL .        -999.250000 :
COMP.           : COMPANY
WELL.  35/11-12   : WELL
FLD.            : FIELD
LOC.            : LOCATION
SRVC.           : SERVICE COMPANY
DATE.  2018-09-11 14:48:55   : Log Export Date {yyyy-MM-dd HH:mm:ss}
PROV.           : PROVINCE
UWI.   35/11-12   : UNIQUE WELL ID
API.            : API NUMBER
#==================================================================
~Curve
DEPT .m                   : DEPTH
Lithology_geolink ._      : Lithology_geolink
CALI .in                  : CALI
BS .in                    : BS
ROP .m/h                  : ROP
DRHO .g/cm3               : DRHO
NPHI .m3/m3               : NPHI
RHOB .g/cm3               : RHOB
PEF .b/e                  : PEF
GR .gAPI                  : GR
DTC .us/ft                : DTC
RDEP .ohm.m               : RDEP
RMED .ohm.m               : RMED
~Parameter
#==================================================================
~Ascii
# ...
 2817.8757324 12.000000000 8.8683986664 12.250000954 91.092521667  -999.250000 0.3998638391  -999.250000  -999.250000 100.98730469 100.92330933 1.3670711517 1.3570888042
 2818.0280762 12.000000000 8.8683986664 12.250000954 92.355636597  -999.250000 0.3962903023  -999.250000  -999.250000 103.24920654 100.64302063 1.4115941525 1.3862297535
 2818.1804199 12.000000000 8.8683986664 12.250000954 83.234909058  -999.250000 0.4147619605  -999.250000  -999.250000 108.95252991 101.38333130 1.5267498493 1.4710426331
 2818.3327637 12.000000000 8.8683986664 12.250000954 80.249343872  -999.250000 0.4274017811  -999.250000  -999.250000 111.60729980 98.645896912 1.6169564724 1.5523629189
 2818.4853516 12.000000000 8.8683986664 12.250000954 77.263778687  -999.250000 0.4400415421  -999.250000  -999.250000 114.26205444 96.359123230 1.7071630955 1.6336829662
 2818.6376953 12.000000000 8.8683986664 12.250000954 80.052490234  -999.250000 0.4473981261  -999.250000  -999.250000 115.24618530 95.695449829 1.8102009296 1.7755644321
 2818.7900391 12.000000000 8.8683986664 12.250000954 80.019683838  -999.250000 0.4183291793  -999.250000  -999.250000 111.50952148 94.474212646 1.8998746872 1.7727887630
 2818.9423828 12.000000000 8.8683986664 12.250000954 91.174545288  -999.250000 0.3924227953  -999.250000  -999.250000 107.18331909 91.587142944 2.0119719505 1.8544032574
 2819.0949707 12.000000000 8.8683986664 12.250000954 97.178474426  -999.250000 0.4433974028  -999.250000  -999.250000 96.366653442 88.571945190 2.0888051987 2.0884509087
 2819.2473145 12.000000000 8.8683986664 12.250000954 104.10105133  -999.250000 0.4601065516  -999.250000  -999.250000 89.483322144 85.891662598 2.0309109688 2.0791492462
 2819.3996582 12.000000000 8.8683986664 12.250000954 107.28345490  -999.250000 0.4425714612  -999.250000  -999.250000 85.549987793 85.564971924 2.1359200478 2.1088700294
 2819.5520020 12.000000000 8.8683986664 12.250000954 100.68897247  -999.250000 0.4162986279  -999.250000  -999.250000 85.352371216 89.707870483 2.1487789154 2.2014875412
 2819.7045898 12.000000000 8.8683986664 12.250000954 102.62467194  -999.250000 0.4174704552  -999.250000  -999.250000 89.285705566 86.741333008 2.0605473518 2.0435276031
 2819.8569336 12.000000000 8.8683986664 12.250000954 99.475067139  -999.250000 0.4396017194  -999.250000  -999.250000 94.203155518 91.191322327 2.0335402489 1.9077684879
 2820.0092773 12.000000000 8.8683986664 12.250000954 99.606300354  -999.250000 0.4703288674  -999.250000  -999.250000 97.350769043 91.925163269 2.0801515579 2.0147695541
 2820.1616211 12.000000000 8.8683986664 12.250000954 99.770339966  -999.250000 0.4765700698  -999.250000  -999.250000 99.317443848 102.01079559 1.9106955528 1.7732539177
 2820.3142090 12.000000000 8.8683986664 12.250000954 99.639114380  -999.250000 0.5141493082  -999.250000  -999.250000 102.26666260 108.40293121 1.7465412617 1.6984620094
 2820.4665527 12.000000000 8.8683986664 12.250000954 100.22966003  -999.250000 0.5192314386  -999.250000  -999.250000 104.62696838 109.27804565 1.2961106300 1.1866581440
 2820.6188965 12.000000000 8.8683986664 12.250000954 101.14828491  -999.250000 0.5232325792  -999.250000  -999.250000 106.79156494 107.34591675 1.1540248394 1.0103063583
 2820.7712402 12.000000000 8.8683986664 12.250000954 104.19947052  -999.250000 0.4760731459  -999.250000  -999.250000 107.77490234 107.23391724 1.9440233707 1.9577376842
 2820.9235840 12.000000000 8.8683986664 12.250000954 91.896324158  -999.250000 0.4875468016  -999.250000  -999.250000 101.67916870 109.42976379 2.0418472290 1.9987406731
 2821.0761719 12.000000000 8.8683986664 12.250000954 92.749343872  -999.250000 0.4915621877  -999.250000  -999.250000 98.334579468 95.613159180 2.0372242928 2.0358452797
 2821.2285156 12.000000000 8.8683986664 12.250000954 100.16403961  -999.250000 0.5189261436  -999.250000  -999.250000 95.386154175 90.697624207 1.9577660561 1.8043541908
 2821.3808594 12.000000000 8.8683986664 12.250000954 108.07084656  -999.250000 0.5183095932  -999.250000  -999.250000 103.84060669 89.555442810 1.6682360172 1.5581822395
 2821.5332031 12.000000000 8.8683986664 12.250000954 107.38187408  -999.250000 0.5281509161  -999.250000  -999.250000 110.92060852 91.708114624 1.6386187077 1.5186395645
 2821.6857910 12.000000000 8.8683986664 12.250000954 106.06955719  -999.250000 0.5200817585  -999.250000  -999.250000 114.65444946 96.132568359 1.8805575371 1.8439195156
 2821.8381348 12.000000000 8.8683986664 12.250000954 105.51179504  -999.250000 0.5153974295  -999.250000  -999.250000 113.86872864 97.421157837 1.8255996704 1.8101000786
 2821.9904785 12.000000000 8.8683986664 12.250000954 96.620735168  -999.250000 0.5201691389  -999.250000  -999.250000 111.90206909 102.55357361 1.8233318329 1.7903957367
 2822.1428223 12.000000000 8.8683986664 8.5000000000 89.074806213  -999.250000 0.5269430876  -999.250000  -999.250000 112.09999084 107.76612854 1.6418092251 1.5958526134
 2822.2954102 12.000000000 8.8683986664 8.5000000000 84.580047607  -999.250000 0.5144054890  -999.250000  -999.250000 112.09999084 105.72872925 1.1799397469 0.9818991423
 2822.4477539 12.000000000 8.8683986664 8.5000000000 210.49870300  -999.250000 0.5034352541  -999.250000  -999.250000 108.75555420 112.73114014 1.4239873886 1.2720594406
 2822.6000977 12.000000000 8.8683986664 8.5000000000 207.38188171  -999.250000 0.4392853975  -999.250000  -999.250000 106.78889465 111.15587616 1.7430765629 1.6930608749
 2822.7524414 12.000000000 8.8683986664 8.5000000000 204.33070374  -999.250000 0.4402223229  -999.250000  -999.250000 108.36222839 108.82926941 1.6431412697 1.6230270863
 2822.9047852 12.000000000 8.8683986664 8.5000000000 201.04986572  -999.250000 0.4462491274  -999.250000  -999.250000 112.88760376 103.61692810 1.7171041965 1.6756138802
 2823.0573730 12.000000000 8.8683986664 8.5000000000 153.67453003  -999.250000 0.5082411766  -999.250000  -999.250000 113.87173462 101.54586792 1.7008972168 1.5569469929
 2823.2097168 12.000000000 8.8683986664 8.5000000000 153.34645081  -999.250000 0.5086191893  -999.250000  -999.250000 112.29840088 100.79738617 1.6750319004 1.5281348228
 2823.3620605 12.000000000 8.8683986664 8.5000000000 153.47769165  -999.250000 0.4969828129  -999.250000  -999.250000 111.11744690 98.760757446 1.5091872215 1.4501070976
 2823.5144043 12.000000000 8.8683986664 8.5000000000 462.89370728  -999.250000 0.4802686572  -999.250000  -999.250000 112.09999084 98.759170532 1.5245490074 1.4228789806
 2823.6669922 12.000000000 8.8683967590 8.5000000000 334.74407959  -999.250000 0.4812985659  -999.250000  -999.250000 112.09999084 99.436126709 1.7242672443 1.7929465771
 2823.8193359 12.000000000 8.8683967590 8.5000000000 328.93698120  -999.250000 0.4756285548  -999.250000  -999.250000 108.95237732 100.10099792 1.6637394428 1.5607416630
 2823.9716797 12.000000000 8.8683986664 8.5000000000 334.38320923  -999.250000 0.4161811471  -999.250000  -999.250000 100.49667358 101.14758301 2.0408024788 2.1132731438
 2824.1240234 12.000000000 8.8683967590 8.5000000000 336.48294067  -999.250000 0.3964126706  -999.250000  -999.250000 103.64428711 101.79061890 2.1385946274 2.0842781067
 2824.2766113 12.000000000 8.8683986664 8.5000000000 337.79525757  -999.250000 0.3878764510  -999.250000  -999.250000 106.10261536 101.16021729 2.0892267227 2.0610513687
 2824.4289551 12.000000000 8.8683986664 8.5000000000 339.10760498  -999.250000 0.3793402314  -999.250000  -999.250000 108.56094360 100.71426392 2.0398583412 2.0378246307
 2824.5812988 12.000000000 8.8683986664 8.5000000000 270.65286255  -999.250000 0.3900343776  -999.250000  -999.250000 103.05300903 103.07089233 2.0992574692 2.0214037895
 2824.7336426 12.000000000 8.9184246063 8.5000000000 202.19815063  -999.250000 0.3849460483  -999.250000  -999.250000 101.18374634 103.06578064 2.0824089050 1.9963123798
 2824.8859863 12.000000000 8.9684486389 8.5000000000 133.74343872 0.0231130198 0.3798577189 2.4218916893 15.663463593 99.314468384 101.83659363 2.0655598640 1.9712209702
 2825.0385742 12.000000000 9.1124591827 8.5000000000 65.288703918 0.0455317199 0.3777441382 2.5095381737 10.790563583 102.06781006 100.20926666 1.9974050522 2.0520000458
