# LAS format log file from PETREL
# Project units are specified as depth units
#==================================================================
~Version information
VERS.   2.0:
WRAP.   NO:
#==================================================================
~Well
STRT .m      359.96881104 :
STOP .m      3380.8413086 :
STEP .m     0.00000000 :
NULL .        -999.250000 :
COMP.           : COMPANY
WELL.  35/11-12   : WELL
FLD.            : FIELD
LOC.            : LOCATION
SRVC.           : SERVICE COMPANY
DATE.  2018-09-11 14:48:55   : Log Export Date {yyyy-MM-dd HH:mm:ss}
PROV.           : PROVINCE
UWI.   35/11-12   : UNIQUE WELL ID
API.            : API NUMBER
#==================================================================
~Curve
DEPT .m                   : DEPTH
Lithology_geolink ._      : Lithology_geolink
CALI .in                  : CALI
BS .in                    : BS
ROP .m/h                  : ROP
DRHO .g/cm3               : DRHO
NPHI .m3/m3               : NPHI
RHOB .g/cm3               : RHOB
PEF .b/e                  : PEF
GR .gAPI                  : GR
DTC .us/ft                : DTC
RDEP .ohm.m               : RDEP
RMED .ohm.m               : RMED
~Parameter
#==================================================================
~Ascii
# ...
 3030.0166016 13.000000000 8.9287147522 8.5000000000 75.721778870 0.0283489712 0.4072217941 2.4557619095 7.1349878311 175.69519043 105.34418488 5.2358150482 4.5728168488
 3030.1689453 13.000000000 8.9017486572 8.5000000000 76.148292542 0.0303018726 0.4085804820 2.4519133568 7.0562572479 174.85684204 104.97645569 4.8634548187 4.6161022186
 3030.3212891 13.000000000 8.9017486572 8.5000000000 77.099739075 0.0272592008 0.4217451811 2.4524908066 6.8033285141 172.06079102 104.79191589 5.2433490753 4.8467445374
 3030.4738770 13.000000000 8.9017486572 8.5000000000 80.872695923 0.0210738555 0.4150943160 2.4552006721 6.4045629501 175.88064575 104.19082642 5.6796464920 5.2827520370
 3030.6262207 13.000000000 8.8955421448 8.5000000000 84.481628418 0.0204349495 0.4049445987 2.4691438675 6.1672687531 177.06246948 103.94295502 5.4068336487 4.8457012177
 3030.7785645 13.000000000 8.8687248230 8.5000000000 85.564308167 0.0210704617 0.3953759670 2.4715576172 6.1664342880 176.45928955 103.43100739 5.4410152435 5.0961017609
 3030.9309082 13.000000000 8.8863697052 8.5000000000 85.236221313 0.0290426426 0.3886102438 2.4918990135 6.4639892578 168.70605469 101.89137268 5.4036312103 5.7673501968
 3031.0834961 13.000000000 8.9289302826 8.5000000000 83.497375488 0.0243291184 0.3750727177 2.5239777565 6.9632053375 160.28790283 97.646041870 5.8972015381 5.9335508347
 3031.2358398 16.000000000 8.9350948334 8.5000000000 77.657478333 0.0287886932 0.3533234000 2.5871930122 7.3351221085 138.62475586 93.534904480 6.6797943115 6.4906177521
 3031.3881836 16.000000000 8.9350986481 8.5000000000 69.652229309 0.0232677795 0.3225682974 2.5872912407 7.4494390488 117.50201416 91.846549988 6.9884843826 7.6690435410
 3031.5405273 16.000000000 8.9318809509 8.5000000000 58.300529480 0.0230249800 0.3159696460 2.5309696198 7.3147363663 112.87530518 94.379669189 7.0175256729 6.9529724121
 3031.6931152 16.000000000 8.9177761078 8.5000000000 57.545936584 0.0235535502 0.3275746703 2.4939346313 7.2999095917 122.45649719 95.949935913 6.4871664047 6.4635400772
 3031.8454590 16.000000000 8.9036731720 8.5000000000 56.791328430 0.0240821205 0.3391796947 2.4568991661 7.2850828171 132.03768921 97.698532104 5.9568061829 5.9741077423
 3031.9978027 16.000000000 8.9303760529 8.5000000000 57.841201782 0.0286760963 0.3943218589 2.4231634140 7.3449077606 154.37069702 103.20558167 5.3014326096 5.8862285614
 3032.1501465 16.000000000 8.9351005554 8.5000000000 55.938316345 0.0289882012 0.4276576042 2.4261789322 7.3148813248 169.38851929 106.62208557 5.4662094116 5.6669206619
 3032.3027344 16.000000000 8.9351005554 8.5000000000 55.249343872 0.0268668085 0.4374909997 2.4489350319 7.1376295090 177.25518799 107.71094513 5.2659692764 5.1100511551
 3032.4550781 16.000000000 8.9350986481 8.5000000000 57.414703369 0.0226692595 0.4340863824 2.4648728371 6.9002618790 179.31225586 107.51019287 5.3011875153 4.9999332428
 3032.6074219 16.000000000 8.9351005554 8.5000000000 58.694221497 0.0214841738 0.4230904579 2.4568152428 6.9261760712 174.36730957 106.92859650 4.9196205139 4.9447717667
 3032.7597656 16.000000000 8.9345626831 8.5000000000 59.481620789 0.0204746872 0.4252196550 2.4488806725 6.9515008926 167.49340820 104.89414978 5.1552228928 4.8327159882
 3032.9121094 16.000000000 8.9056816101 8.5000000000 65.124664307 0.0184072517 0.4324178696 2.4604520798 6.7786684036 162.25942993 103.67036438 4.7960815430 5.2115793228
 3033.0646973 16.000000000 8.9011802673 8.5000000000 66.732284546 0.0174712688 0.4100359678 2.4790625572 6.5574007034 160.29275513 101.50306702 4.8940982819 5.0457458496
 3033.2170410 16.000000000 8.8742733002 8.5000000000 92.552490234 0.0170548111 0.3805615306 2.4873113632 6.4152917862 159.29998779 100.35298157 4.6940784454 4.6544818878
 3033.3693848 16.000000000 8.9022369385 8.5000000000 97.244094849 0.0181592815 0.3689576983 2.4835839272 6.3325967789 158.44903564 99.644088745 4.4986982346 4.4990196228
 3033.5217285 16.000000000 8.9206638336 8.5000000000 97.769027710 0.0182944946 0.3470248580 2.4835605621 6.3740177155 156.48236084 98.702133179 4.6829547882 4.6111907959
 3033.6743164 16.000000000 8.8923606873 8.5000000000 97.670608521 0.0189904235 0.3678873181 2.4809341431 6.5265989304 151.96282959 98.690917969 4.8782682419 4.6015958786
 3033.8266602 16.000000000 8.9144783020 8.5000000000 93.733596802 0.0222846232 0.4133552313 2.4701986313 6.6920003891 155.63854980 99.239807129 4.4258069992 4.4890165329
 3033.9790039 16.000000000 8.9351005554 8.5000000000 87.434379578 0.0274805129 0.3907979727 2.4620690346 6.9289417267 160.25894165 101.20446014 4.7619991302 4.9132452011
 3034.1313477 16.000000000 8.9351005554 8.5000000000 87.795280457 0.0263393670 0.3979070783 2.4611134529 6.9619207382 169.50793457 101.55400085 4.6384181976 4.9306182861
 3034.2839355 16.000000000 8.9350986481 8.5000000000 85.662734985 0.0254739821 0.3854929805 2.4597744942 6.8305912018 171.73220825 102.05993652 4.5070037842 4.6016607285
 3034.4362793 16.000000000 8.9350986481 8.5000000000 95.406822205 0.0302414559 0.3824459910 2.4568166733 7.1350002289 175.69934082 104.10101318 4.5156927109 4.4567108154
 3034.5886230 16.000000000 8.9351005554 8.5000000000 83.038047791 0.0233611502 0.3633214235 2.4846463203 7.2413167953 170.69158936 102.86482239 4.6575078964 4.8719930649
 3034.7409668 16.000000000 8.9358844757 8.5000000000 80.052490234 0.0207228214 0.3460690975 2.5612130165 7.2673158646 165.38220215 99.613265991 5.1056966782 4.8429708481
 3034.8933105 16.000000000 8.9440650940 8.5000000000 78.412063599 0.0164488591 0.3423010111 2.6016063690 7.1548557281 156.06411743 94.364837646 5.2141771317 5.1337957382
 3035.0458984 16.000000000 8.9522457123 8.5000000000 76.771644592 0.0121748988 0.3385329843 2.6420001984 7.0423955917 146.74600220 90.945297241 5.3226575851 5.4246206284
 3035.1982422 16.000000000 8.2450790405 8.5000000000 68.996063232 0.0244746692 0.3208240271 2.6566672325 7.0061120987 126.77145386 90.019790649 6.0368776321 6.0505285263
 3035.3505859 16.000000000 8.9370441437 8.5000000000 52.034118652 0.0241204053 0.3130723834 2.5905337334 6.8715658188 116.05847168 93.058700562 6.0086603165 6.2519979477
 3035.5029297 16.000000000 8.9177169800 8.5000000000 50.426506042 0.0315105394 0.3133934140 2.5218691826 6.7614545822 130.23355103 92.281044006 5.3431520462 5.4513320923
 3035.6555176 16.000000000 8.9017486572 8.5000000000 51.476375580 0.0282541476 0.3500699997 2.4620833397 6.9381046295 149.90020752 96.866363525 4.8841238022 4.8063888550
 3035.8078613 16.000000000 8.9119529724 8.5000000000 51.509181976 0.0294082128 0.3909434080 2.4401640892 7.2358541489 166.38754272 102.12652588 4.9052429199 5.2430248260
 3035.9602051 16.000000000 8.9350032806 8.5000000000 50.787399292 0.0251702778 0.3929755688 2.4346528053 7.2324647903 169.59829712 104.61289978 4.9896726608 4.8503389359
 3036.1125488 16.000000000 8.9342536926 8.5000000000 51.476375580 0.0170499608 0.3951043487 2.4376516342 6.8981866837 172.55145264 104.34672546 4.5898475647 4.4951076508
 3036.2651367 16.000000000 8.9086914063 8.5000000000 52.099735260 0.0161220543 0.3848086596 2.4334430695 6.8607788086 170.11981201 103.51053619 4.2645397186 3.9201135635
 3036.4174805 16.000000000 8.9213085175 8.5000000000 51.181102753 0.0148807559 0.4077582359 2.4317436218 6.8946352005 170.11981201 101.93075562 4.4340057373 3.9304280281
 3036.5698242 16.000000000 8.9350986481 8.5000000000 50.492122650 0.0182030611 0.4143375754 2.4439082146 6.9978494644 170.00952148 101.04765320 4.8907375336 4.4053468704
 3036.7221680 16.000000000 8.9267978668 8.5000000000 48.556427002 0.0167263113 0.4165348411 2.4477214813 6.9761571884 171.16305542 101.18653870 4.5396642685 4.4261522293
 3036.8745117 16.000000000 8.9184989929 8.5000000000 46.620731354 0.0152495597 0.4187321067 2.4515342712 6.9544649124 172.31655884 100.90977478 4.1885900497 4.4469575882
 3037.0270996 16.000000000 8.9189643860 8.5000000000 59.744094849 0.0170942247 0.3972564936 2.4620327950 6.6979427338 171.69882202 101.44066620 4.1589231491 4.2137651443
 3037.1794434 16.000000000 8.9158763885 8.5000000000 61.942249298 0.0203771144 0.3729906678 2.4552092552 6.6234493256 168.83084106 102.41909790 4.0067443848 3.9007787704
