# LAS format log file from PETREL
# Project units are specified as depth units
#==================================================================
~Version information
VERS.   2.0:
WRAP.   NO:
#==================================================================
~Well
STRT .m      1245.0043945 :
STOP .m      3214.9267578 :
STEP .m     0.00000000 :
NULL .        -999.250000 :
COMP.           : COMPANY
WELL.  35/11-11   : WELL
FLD.            : FIELD
LOC.            : LOCATION
SRVC.           : SERVICE COMPANY
DATE.  2018-09-11 14:48:54   : Log Export Date {yyyy-MM-dd HH:mm:ss}
PROV.           : PROVINCE
UWI.   35/11-11   : UNIQUE WELL ID
API.            : API NUMBER
#==================================================================
~Curve
DEPT .m                   : DEPTH
Lithology_geolink ._      : Lithology_geolink
CALI .in                  : CALI
BS .in                    : BS
ROP .m/h                  : ROP
DRHO .g/cm3               : DRHO
THOR .ppm                 : THOR
NPHI .m3/m3               : NPHI
RHOB .g/cm3               : RHOB
PEF .b/e                  : PEF
GR .gAPI                  : GR
URAN .ppm                 : URAN
DTC .us/ft                : DTC
DTS .us/ft                : DTS
RDEP .ohm.m               : RDEP
SP .mV                    : SP
RMIC .ohm.m               : RMIC
RMED .ohm.m               : RMED
~Parameter
#==================================================================
~Ascii
# ...
 1901.0863037 2.0000000000 12.369001389 12.250000954 162.28018188 0.0773999989  -999.250000 0.5157297850 2.0013000965 5.9405999184 112.82154083  -999.250000 130.53269958 329.12811279 1.0011802912 57.029201508 0.2122000009 0.9597871900
 1901.2387695 2.0000000000 12.747400284 12.250000954 162.28018188 0.0772999972  -999.250000 0.5258918405 2.0051000118 5.5370001793 112.76314545  -999.250000 132.15919495 353.93869019 1.0302766562 57.133201599 0.2074999958 0.9769862294
 1901.3911133 2.0000000000 13.322999954 12.250000954 162.28018188 0.0759999976  -999.250000 0.5329886079 2.0104000568 5.0040998459 117.86851501  -999.250000 131.05949402 350.78326416 1.0495691299 57.083499908 0.2188999951 0.9860854745
 1901.5435791 2.0000000000 13.265501022 12.250000954 162.28018188 0.0705000013  -999.250000 0.5133157969 2.0093998909 4.3633999825 119.86180878  -999.250000 125.70389557 348.44760132 1.0118303299 56.837600708 0.2131000012 0.9373391271
 1901.6959229 2.0000000000 13.435600281 12.250000954 162.28018188 0.0592000000  -999.250000 0.4986117780 2.0220000744 3.6257998943 116.37509918  -999.250000 118.91670227 329.36920166 0.9195739627 56.616798401 0.1718000025 0.8477718234
 1901.8483887 2.0000000000 13.846400261 12.250000954 162.28018188 0.0359999985  -999.250000 0.4162659943 2.0568997860 2.8975999355 101.30247498  -999.250000 115.25150299 190.55831909 0.8622459173 56.233600616 0.1843000054 0.7890469432
 1902.0007324 2.0000000000 13.020299911 12.250000954 153.76312256 0.0091000004  -999.250000 0.3333664238 2.1071000099 2.3506999016 81.971397400  -999.250000 107.67459869 194.53520203 1.0096817017 56.033298492 0.2578000128 0.9171971679
 1902.1531982 2.0000000000 12.338100433 12.250000954 153.76312256 -0.013700000  -999.250000 0.2853384316 2.1440000534 2.1034998894 72.169143677  -999.250000 98.199401855 194.46789551 1.3557227850 55.962600708 0.5202999711 1.2001733780
 1902.3055420 2.0000000000 12.251000404 12.250000954 153.76312256 -0.017600000  -999.250000 0.2868987322 2.1826000214 2.0538001060 70.927490234  -999.250000 98.150596619 187.98429871 1.3971669674 55.741798401 0.5697000027 1.2415670156
 1902.4580078 2.0000000000 12.256499290 12.250000954 153.76312256 -0.014400000  -999.250000 0.2672157586 2.2144999504 2.0580999851 74.164802551  -999.250000 90.032699585 179.00140381 1.4498578310 55.691600800 0.5547000170 1.2861642838
 1902.6103516 2.0000000000 12.165200233 12.250000954 153.76312256 -0.010400000  -999.250000 0.2777915001 2.2381000519 2.0589001179 73.177993774  -999.250000 81.307502747 175.09390259 1.4752795696 55.516899109 0.5429999828 1.3047851324
 1902.7626953 2.0000000000 12.140500069 12.250000954 153.76312256 -0.015799999  -999.250000 0.2676163316 2.2346999645 2.1142001152 72.978019714  -999.250000 82.650291443 173.17799377 1.4690101147 55.312500000 0.5113999844 1.2945164442
 1902.9151611 2.0000000000 12.136799812 12.250000954 150.51509094 -0.021500001  -999.250000 0.2719964981 2.2213997841 2.2632000446 71.983695984  -999.250000 84.337799072 175.60899353 1.4203389883 55.379100800 0.4781000018 1.2417423725
 1903.0675049 2.0000000000 12.197699547 12.250000954 150.51509094 -0.023399999  -999.250000 0.2609177530 2.2125000954 2.4590001106 72.639045715  -999.250000 86.997001648 176.81649780 1.4369733334 55.071201324 0.4508999884 1.2469915152
 1903.2199707 2.0000000000 12.129698753 12.250000954 150.51509094 -0.021600001  -999.250000 0.2662956715 2.2088000774 2.6382999420 73.610023499  -999.250000 83.394302368 176.25009155 1.5231310129 54.783298492 0.4347000122 1.3141461611
 1903.3723145 2.0000000000 12.127200127 12.250000954 150.51509094 -0.020400001  -999.250000 0.2570149004 2.2067999840 2.7834000587 74.419601440  -999.250000 80.513412476 175.46427917 1.5453644991 54.912399292 0.4322000146 1.3335689306
 1903.5247803 2.0000000000 12.117800713 12.250000954 150.51509094 -0.019099999  -999.250000 0.2566003203 2.2063000202 2.9054000378 74.568374634  -999.250000 79.342300415 171.97560120 1.5439012051 54.467201233 0.4366999865 1.3393954039
 1903.6771240 2.0000000000 12.078400612 12.250000954 150.51509094 -0.015900001  -999.250000 0.2485065013 2.2097001076 3.0267999172 73.405029297  -999.250000 76.540199280 168.57189941 1.5195195675 53.900100708 0.4438000023 1.3301075697
 1903.8295898 2.0000000000 12.048199654 12.250000954 150.51509094 -0.013200000  -999.250000 0.2523968816 2.2167999744 3.1628000736 73.407402039  -999.250000 73.596702576 166.89120483 1.5264943838 53.912399292 0.4381999969 1.3420903683
 1903.9819336 2.0000000000 12.075400352 12.250000954 137.10630798 -0.013100000  -999.250000 0.2592944503 2.2304000854 3.3217999935 75.208961487  -999.250000 71.809501648 163.06700134 1.5303969383 53.600399017 0.4550999999 1.3441983461
 1904.1343994 2.0000000000 11.971699715 12.250000954 137.10630798 -0.013900000  -999.250000 0.2651999891 2.2562003136 3.4893000126 78.574607849  -999.250000 70.805099487 157.77769470 1.5008237362 53.416500092 0.4947000146 1.3299114704
 1904.2867432 2.0000000000 11.982297897 12.250000954 137.10630798 -0.012400000  -999.250000 0.2649999857 2.2901000977 3.6510000229 77.867073059  -999.250000 70.840797424 152.27049255 1.4794172049 53.662399292 0.5608999729 1.3165106773
 1904.4392090 2.0000000000 11.845400810 12.250000954 137.10630798 -0.010600000  -999.250000 0.2590000033 2.3206999302 3.8055999279 79.057945251  -999.250000 70.339302063 150.04980469 1.3882731199 53.616798401 0.6288999915 1.2399612665
 1904.5915527 2.0000000000 11.977198601 12.250000954 137.10630798 -0.007800000  -999.250000 0.2492000014 2.3498001099 3.9748001099 79.092079163  -999.250000 68.415199280 150.17019653 1.3558260202 53.500000000 0.7095999718 1.2200160027
 1904.7438965 2.0000000000 12.075600624 12.250000954 137.10630798 -0.005000000  -999.250000 0.2260999978 2.3770000935 4.1448998451 80.745643616  -999.250000 68.675003052 151.55670166 1.3390269279 53.699798584 0.8463000059 1.2149082422
 1904.8963623 2.0000000000 12.086099625 12.250000954 137.10630798 -0.001200000  -999.250000 0.2136999965 2.4089999199 4.2923002243 80.127792358  -999.250000 67.123497009 129.39579773 1.3630807400 53.841701508 1.0427999496 1.2435770035
 1905.0487061 2.0000000000 12.066599846 12.250000954 113.75656128 -0.000200000  -999.250000 0.2064000070 2.4316000938 4.3958997726 77.801727295  -999.250000 61.755001068 122.28450012 1.3732836246 53.779201508 1.3136999607 1.2555807829
 1905.2011719 2.0000000000 12.083499908 12.250000954 113.75656128 -0.000600000  -999.250000 0.1999000013 2.4479999542 4.4204998016 76.530815125  -999.250000 59.803600311 125.18670654 1.3730002642 53.683399200 1.5821000338 1.2664912939
 1905.3535156 2.0000000000 12.155900002 12.250000954 113.75656128 -0.002400000  -999.250000 0.1967999935 2.4570000172 4.3516001701 76.230682373  -999.250000 58.867595673 127.09929657 1.4240182638 53.558399200 1.8460999727 1.3097306490
 1905.5059814 2.0000000000 12.173900604 12.250000954 113.75656128 -0.003200000  -999.250000 0.1928000003 2.4672999382 4.2028999329 77.722999573  -999.250000 58.043201447 120.82309723 1.4667657614 53.566600800 2.0792000294 1.3530652523
 1905.6583252 2.0000000000 12.194499969 12.250000954 113.75656128 -0.003200000  -999.250000 0.1833000034 2.4762001038 4.0563998222 78.967201233  -999.250000 56.733596802 116.39600372 1.5282508135 53.491798401 2.2686998844 1.4113532305
 1905.8107910 2.0000000000 12.191300392 12.250000954 113.75656128 -0.003000000  -999.250000 0.1766999960 2.4837999344 3.9521000385 79.056632996  -999.250000 57.074401855 113.10211182 1.5440874100 53.474899292 2.5668001175 1.4368796349
 1905.9631348 2.0000000000 12.190999985 12.250000954 113.75656128 -0.002200000  -999.250000 0.1682000011 2.4935998917 3.8826999664 78.410217285  -999.250000 56.721698761 118.23010254 1.5699793100 53.429298401 2.9474999905 1.4727712870
 1906.1156006 2.0000000000 12.178799629 12.250000954 117.73950958 -0.001400000  -999.250000 0.1613000035 2.5039000511 3.8164000511 76.163803101  -999.250000 54.529800415 129.56100464 1.6165627241 53.479000092 3.2720000744 1.5329518318
 1906.2679443 2.0000000000 12.192299843 12.250000954 117.73950958 0.0017000000  -999.250000 0.1533000022 2.5211999416 3.7439000607 70.302597046  -999.250000 54.364604950 129.36509705 1.6809483767 53.558399200 3.4774000645 1.6004458666
