# LAS format log file from PETREL
# Project units are specified as depth units
#==================================================================
~Version information
VERS.   2.0:
WRAP.   NO:
#==================================================================
~Well
STRT .m      1242.0020752 :
STOP .m      2811.1123047 :
STEP .m     0.00000000 :
NULL .        -999.250000 :
COMP.           : COMPANY
WELL.  35/11-9   : WELL
FLD.            : FIELD
LOC.            : LOCATION
SRVC.           : SERVICE COMPANY
DATE.  2018-09-11 14:48:57   : Log Export Date {yyyy-MM-dd HH:mm:ss}
PROV.           : PROVINCE
UWI.   35/11-9   : UNIQUE WELL ID
API.            : API NUMBER
#==================================================================
~Curve
DEPT .m                   : DEPTH
Lithology_geolink ._      : Lithology_geolink
CALI .in                  : CALI
BS .in                    : BS
DRHO .g/cm3               : DRHO
NPHI .m3/m3               : NPHI
RHOB .g/cm3               : RHOB
GR .gAPI                  : GR
DTC .us/ft                : DTC
DTS .us/ft                : DTS
RDEP .ohm.m               : RDEP
SP .mV                    : SP
RMIC .ohm.m               : RMIC
~Parameter
#==================================================================
~Ascii
# ...
 2068.6196289 13.000000000 12.126999855 12.250000954 0.0043449998 0.3750432730 2.4379999638 129.72416687 106.67399597 241.74299622 1.5060000420 12.274999619 1.6339999437
 2068.7719727 13.000000000 12.126000404 12.250000954 0.0026219999 0.3670532703 2.4360001087 125.47535706 106.38099670 238.60899353 1.5269999504 12.843999863 1.6660000086
 2068.9243164 13.000000000 12.126000404 12.250000954 0.0029624545 0.3777992725 2.4389951229 133.78955078 106.79000092 240.45100403 1.5439728498 12.843999863 1.6160000563
 2069.0766602 13.000000000 12.126000404 12.250000954 0.0019076939 0.3748556077 2.4399983883 129.75900269 106.91999817 240.40600586 1.5499902964 12.712211609 1.6519999504
 2069.2292480 13.000000000 12.126000404 12.250000954 0.0037980000 0.3858076036 2.4419999123 129.93225098 106.36100006 241.66299438 1.5329999924 9.4309997559 1.6690000296
 2069.3815918 13.000000000 12.126000404 12.250000954 0.0059320000 0.3769722879 2.4460000992 127.58351135 107.04000092 242.61700439 1.4780000448 10.612000465 1.6119999886
 2069.5339355 13.000000000 12.126000404 12.250000954 0.0055885506 0.3833448589 2.4420063496 118.54872131 107.36399841 245.22300720 1.4849888086 11.748179436 1.6729999781
 2069.6862793 13.000000000 12.126000404 12.250000954 0.0054402370 0.3676897883 2.4439969063 113.38099670 107.77899933 243.91200256 1.4969807863 12.535738945 1.6050000191
 2069.8386230 13.000000000 12.126999855 12.250000954 0.0072880336 0.3750095367 2.4489917755 115.36299896 107.80599976 243.29499817 1.5089807510 12.100700378 1.6269999743
 2069.9912109 13.000000000 12.126000404 12.250000954 0.0048799999 0.3604297340 2.4519999027 112.34368896 107.99299622 241.78999329 1.4830000401 10.130999565 1.6430000067
 2070.1435547 13.000000000 12.126000404 12.250000954 0.0050117886 0.3696632087 2.4490046501 120.86727142 107.91500092 246.84599304 1.5039663315 9.1705389023 1.5770000219
 2070.2958984 13.000000000 12.126000404 12.250000954 0.0064946199 0.3517431915 2.4440081120 119.16200256 107.84400177 252.34899902 1.4480897188 9.4745101929 1.5340000391
 2070.4482422 13.000000000 12.126999855 12.250000954 0.0084508639 0.3643170595 2.4370112419 122.33100128 108.28600311 245.13800049 1.4050688744 12.051863670 1.4989999533
 2070.6008301 13.000000000 12.126000404 12.250000954 0.0085039996 0.3519638479 2.4300000668 120.81555939 108.20899963 253.13600159 1.3780000210 12.668999672 1.4090000391
 2070.7531738 13.000000000 12.126000404 12.250000954 0.0108230002 0.3737284541 2.4309999943 129.88502502 108.95800018 252.65600586 1.3680000305 12.930999756 1.6069999933
 2070.9055176 13.000000000 12.126000404 12.250000954 0.0100532342 0.3790081441 2.4389870167 129.90412903 109.47399902 252.54800415 1.3769855499 11.053009987 1.5670000315
 2071.0578613 13.000000000 12.126000404 12.250000954 0.0078165885 0.3803567886 2.4439918995 129.35800171 109.69499969 259.81799316 1.3789967299 10.569770813 1.5060000420
 2071.2104492 13.000000000 12.126000404 12.250000954 0.0033980000 0.3820500076 2.4430000782 127.27034760 109.40699768 257.39300537 1.4049999714 10.350000381 1.5110000372
 2071.3627930 13.000000000 12.126000404 12.250000954 0.0016070000 0.3655467629 2.4340000153 110.67012787 109.58300018 253.44900513 1.4029999971 12.494000435 1.4450000525
 2071.5151367 13.000000000 12.126000404 12.250000954 0.0015560816 0.3685018122 2.4290080070 112.61024475 109.67199707 254.38600159 1.4010032415 13.673110962 1.4789999723
 2071.6674805 13.000000000 12.126000404 12.250000954 0.0024166186 0.3546876013 2.4309968948 108.39800262 108.87998962 248.00300598 1.4099855423 14.854106903 1.5340000391
 2071.8198242 13.000000000 12.126000404 12.250000954 0.0047163111 0.3494468331 2.4439792633 116.18399811 109.15000153 247.83000183 1.4389535189 13.108804703 1.4129999876
 2071.9724121 13.000000000 12.126000404 12.250000954 0.0089760004 0.3506110609 2.4570000172 118.10971069 107.96700287 248.75900269 1.4630000591 13.718999863 1.5460000038
 2072.1247559 13.000000000 12.126000404 12.250000954 0.0085436925 0.3571914136 2.4579982758 111.69747925 107.65600586 248.66499329 1.4590064287 13.893719673 1.4850000143
 2072.2770996 13.000000000 12.126000404 12.250000954 0.0067848219 0.3655691445 2.4450206757 112.62300110 107.77700043 247.78298950 1.4410288334 12.670963287 1.5219999552
 2072.4294434 13.000000000 12.126999855 12.250000954 0.0051915529 0.3762862384 2.4310224056 111.02500153 108.04499817 246.41700745 1.4000656605 12.450350761 1.4809999466
 2072.5820313 13.000000000 12.128000259 12.250000954 0.0042610001 0.4007550180 2.4289999008 106.13865662 109.46600342 249.16200256 1.3619999886 12.230999947 1.4930000305
 2072.7343750 13.000000000 12.126000404 12.250000954 0.0046950001 0.4032428265 2.4270000458 114.65493011 109.79399872 257.31799316 1.3600000143 13.762999535 1.5030000210
 2072.8867188 13.000000000 12.126000404 12.250000954 0.0052760686 0.3986943960 2.4270000458 118.96553802 110.14800262 253.87199402 1.3580032587 14.068511009 1.4789999723
 2073.0390625 13.000000000 12.126000404 12.250000954 0.0040050414 0.3566144109 2.4180142879 114.93299866 110.20200348 250.36900330 1.3679840565 14.505299568 1.4429999590
 2073.1916504 13.000000000 12.126000404 12.250000954 0.0070110001 0.3705634773 2.4210000038 117.14202881 110.06600189 242.50599670 1.3669999838 12.800000191 1.4839999676
 2073.3439941 13.000000000 12.126999855 12.250000954 0.0082630003 0.3688817620 2.4260001183 123.38443756 109.79299927 250.15498352 1.3919999599 12.711999893 1.4620000124
 2073.4963379 13.000000000 12.126000404 12.250000954 0.0090727024 0.3917758763 2.4329888821 121.78787231 109.01799774 249.38299561 1.4319360256 14.634918213 1.5069999695
 2073.6486816 13.000000000 12.093001366 12.250000954 0.0137185445 0.3867187500 2.4339983463 122.32900238 109.33499908 248.30900574 1.4339967966 16.602846146 1.4700000286
 2073.8010254 13.000000000 12.085000038 12.250000954 0.0257017780 0.3946672082 2.4250142574 128.55599976 108.41200256 246.41499329 1.4609566927 16.213628769 1.0900000334
 2073.9536133 13.000000000 12.088000298 12.250000954 0.0301990006 0.3929082751 2.4070000648 114.69081116 108.57398987 236.43200684 1.4609999657 13.586999893 0.9250000119
 2074.1059570 13.000000000 12.076999664 12.250000954 0.0349703506 0.3861216009 2.4060015678 115.18739319 108.54299927 244.55099487 1.4460239410 16.863748550 1.4930000305
 2074.2583008 13.000000000 12.088999748 12.250000954 0.0358266383 0.3746419847 2.4259681702 111.06300354 108.85099792 243.21000671 1.4699615240 18.397546768 1.6280000210
 2074.4106445 13.000000000 11.997999191 12.250000954 0.0286694914 0.3621728718 2.4409759045 114.50700378 108.01799774 244.73800659 1.4929631948 18.749439240 1.6360000372
 2074.5632324 13.000000000 12.166000366 12.250000954 0.0210679993 0.3621414602 2.4400000572 114.09203339 110.58799744 253.00300598 1.4939999580 17.656000137 1.6950000525
 2074.7155762 13.000000000 12.156999588 12.250000954 0.0276510008 0.3747439384 2.4240000248 110.37062836 107.26399994 251.02600098 1.4839999676 19.450000763 1.5930000544
 2074.8679199 13.000000000 12.156999588 12.250000954 0.0230733342 0.3734663725 2.4020352364 107.02241516 105.46700287 237.93499756 1.4989759922 20.978551865 0.8220000267
 2075.0202637 13.000000000 12.156999588 12.250000954 0.0215075016 0.3786811829 2.3860256672 106.65399933 105.96199799 244.29899597 1.5119791031 21.942457199 1.5199999809
 2075.1728516 13.000000000 12.189999580 12.250000954 0.0298250001 0.3738419414 2.4140000343 109.92147064 106.64399719 240.15498352 1.5140000582 23.080999374 1.5440000296
 2075.3251953 13.000000000 12.112999916 12.250000954 0.0253279991 0.3806372881 2.4300000668 113.28813171 106.93299866 234.23699951 1.5640000105 23.125000000 1.2920000553
 2075.4775391 13.000000000 12.095999718 12.250000954 0.0116449278 0.3595705330 2.4349918365 86.532981873 104.05400085 224.25701904 1.4931136370 22.731632233 0.9490000010
 2075.6298828 13.000000000 12.095999718 12.250000954 0.0090651065 0.3193570375 2.4240176678 55.945999146 97.807998657 210.05299377 1.4480720758 21.333242416 0.8009999990
 2075.7822266 13.000000000 12.064999580 12.250000954 0.0040470478 0.2838566601 2.3960447311 26.938999176 93.685997009 192.25599670 1.4390144348 24.170440674 0.7919999957
