# LAS format log file from PETREL
# Project units are specified as depth units
#==================================================================
~Version information
VERS.   2.0:
WRAP.   NO:
#==================================================================
~Well
STRT .m      989.00103760 :
STOP .m      3365.3732910 :
STEP .m     0.00000000 :
NULL .        -999.250000 :
COMP.           : COMPANY
WELL.  35/11-1   : WELL
FLD.            : FIELD
LOC.            : LOCATION
SRVC.           : SERVICE COMPANY
DATE.  2018-09-11 14:48:54   : Log Export Date {yyyy-MM-dd HH:mm:ss}
PROV.           : PROVINCE
UWI.   35/11-1   : UNIQUE WELL ID
API.            : API NUMBER
#==================================================================
~Curve
DEPT .m                   : DEPTH
Lithology_geolink ._      : Lithology_geolink
CALI .in                  : CALI
DRHO .g/cm3               : DRHO
NPHI .m3/m3               : NPHI
RHOB .g/cm3               : RHOB
PEF .b/e                  : PEF
GR .gAPI                  : GR
DTC .us/ft                : DTC
RDEP .ohm.m               : RDEP
SP .mV                    : SP
RSHA .ohm.m               : RSHA
RMED .ohm.m               : RMED
~Parameter
#==================================================================
~Ascii
# ...
 2093.5957031 6.0000000000 12.750000000 -0.020000000 0.2988276482 2.4489998817 11.508000374 100.49669647 91.874809265 3.7618205547 34.247051239 4.1129760742 4.1129760742
 2093.7480469 6.0000000000 12.758000374 -0.017999999 0.3090635836 2.4509999752 12.491999626 98.427986145 91.750190735 3.6499919891 34.278823853 4.0981616974 4.0981616974
 2093.9003906 6.0000000000 12.859000206 -0.018999999 0.2993356287 2.4430000782 9.6719999313 92.193405151 91.873008728 3.6449646950 34.168300629 4.1992621422 4.1992621422
 2094.0527344 6.0000000000 12.859000206 -0.017000001 0.3046728075 2.4470000267 7.8829998970 95.563003540 90.625007629 3.6229999065 33.731998444 4.3629999161 4.3629999161
 2094.2053223 6.0000000000 12.859000206 -0.014000000 0.3007862568 2.4489998817 6.7620000839 95.440704346 90.499794006 3.6371474266 34.216075897 4.5312070847 4.5312070847
 2094.3576660 6.0000000000 12.859000206 -0.008000000 0.3032160997 2.4570000172 7.0549998283 97.121093750 90.371192932 3.7293622494 34.263450623 4.6602449417 4.6602449417
 2094.5100098 6.0000000000 12.859000206 0.0000000000 0.3110274673 2.4690001011 7.7620000839 94.682403564 87.995788574 3.9554030895 34.544300079 4.8134002686 4.8134002686
 2094.6623535 6.0000000000 12.859000206 0.0030000000 0.3266349733 2.4939999580 7.5159997940 91.188003540 85.375000000 4.2069997787 34.731998444 5.0630002022 5.0630002022
 2094.8146973 6.0000000000 12.656000137 -0.004000000 0.3329896629 2.5199999809 6.6329998970 87.438003540 80.250000000 4.4569997787 34.935001373 5.9219999313 5.9219999313
 2094.9672852 6.0000000000 12.640999794 -0.014000000 0.2886412442 2.5469999313 6.0510001183 81.550186157 75.616996765 4.7544074059 35.279850006 8.2557468414 8.2557468414
 2095.1196289 6.0000000000 12.711000443 -0.017999999 0.2403074801 2.5759999752 5.5819997787 73.552200317 70.619598389 5.0082240105 35.810100555 11.844888687 11.844888687
 2095.2719727 6.0000000000 12.562999725 -0.017999999 0.2080616355 2.6019999981 5.4489998817 66.813003540 67.250000000 5.1479997635 35.872001648 17.391000748 17.391000748
 2095.4243164 16.000000000 12.538999557 -0.018999999 0.1977828294 2.6110000610 5.9450001717 62.187999725 66.500000000 5.4219999313 36.028999329 21.858999252 21.858999252
 2095.5769043 16.000000000 12.538999557 -0.029999999 0.1967815459 2.5859999657 5.9409999847 67.199722290 67.006813049 5.2531042099 36.280075073 20.068096161 20.068096161
 2095.7292480 16.000000000 12.538999557 -0.024000000 0.1938546896 2.5739998817 5.6250000000 74.518798828 71.257202148 4.6943440437 36.951000214 13.890812874 13.890812874
 2095.8815918 16.000000000 12.538999557 -0.020000000 0.2109126151 2.5490000248 5.7699999809 86.250000000 75.750000000 4.2849998474 36.951000214 9.4060001373 9.4060001373
 2096.0339355 6.0000000000 12.531000137 -0.013000000 0.2260215878 2.5199999809 7.2969999313 91.563003540 79.625000000 3.9920001030 37.168998718 5.1880002022 5.1880002022
 2096.1865234 6.0000000000 12.430000305 -0.017000001 0.2280268520 2.4839999676 9.3909997940 97.940803528 81.505599976 3.7471327782 37.451297760 3.2731888294 3.2731888294
 2096.3388672 6.0000000000 12.430000305 -0.021000000 0.2406996638 2.4790000916 10.281000137 98.814506531 83.248596191 3.4765367508 37.543998718 2.7092981339 2.7092981339
 2096.4912109 6.0000000000 12.430000305 -0.022000000 0.2533996403 2.5039999485 11.069999695 99.744194031 82.374397278 3.1876296997 37.544475555 2.8957355022 2.8957355022
 2096.6435547 6.0000000000 12.430000305 -0.024000000 0.2826630473 2.5309998989 12.352000237 96.122093201 82.003204346 2.9570689201 37.840747833 3.3539247513 3.3539247513
 2096.7961426 6.0000000000 12.430000305 -0.028999999 0.2958788872 2.5529999733 14.102000237 94.312004089 84.008399963 3.0003199577 37.684600830 3.3067727089 3.3067727089
 2096.9484863 6.0000000000 12.453000069 -0.028999999 0.3261214793 2.5590000153 13.359000206 94.006813049 86.629005432 3.1002371311 37.559551239 3.2359569073 3.2359569073
 2097.1008301 6.0000000000 12.538999557 -0.028999999 0.3237339258 2.5329999924 14.390999794 98.255310059 89.127807617 3.2482371330 37.278697968 3.2092692852 3.2092692852
 2097.2531738 6.0000000000 12.538999557 -0.028999999 0.3247084320 2.5039999485 12.921999931 101.56790924 90.875801086 3.3959951401 37.090850830 3.3773880005 3.3773880005
 2097.4055176 6.0000000000 12.538999557 -0.028999999 0.2950153351 2.4790000916 10.281000137 104.62379456 91.375999451 3.3929967880 36.996799469 3.6193573475 3.6193573475
 2097.5581055 6.0000000000 12.593999863 -0.017000001 0.3100357354 2.4820001125 8.8750000000 103.87640381 91.994796753 3.3912496567 36.872303009 3.8428544998 3.8428544998
 2097.7104492 6.0000000000 12.640999794 -0.014000000 0.3207827806 2.4730000496 8.6949996948 104.30839539 90.375198364 3.4691348076 36.965549469 4.1090755463 4.1090755463
 2097.8627930 6.0000000000 12.546999931 -0.012000000 0.3256722093 2.4749999046 10.336000443 101.44731903 90.502395630 3.5530431271 36.685203552 4.1555099487 4.1555099487
 2098.0151367 6.0000000000 12.538999557 -0.023000000 0.3427153230 2.4690001011 12.859000206 107.24248505 91.997398376 3.5801057816 36.809749603 3.8497018814 3.8497018814
 2098.1677246 6.0000000000 12.538999557 -0.023000000 0.3291219175 2.4769999981 13.883000374 102.55840302 90.378196716 3.6461503506 36.653797150 3.6638367176 3.6638367176
 2098.3200684 6.0000000000 12.569999695 -0.022000000 0.3271531165 2.4730000496 15.359000206 101.11588287 91.374801636 3.6929695606 36.591552734 3.6131377220 3.6131377220
 2098.4724121 6.0000000000 12.640999794 -0.020000000 0.2983861566 2.4690001011 13.078000069 95.447120667 91.251205444 3.6739118099 36.934951782 3.6993043423 3.6993043423
 2098.6247559 6.0000000000 12.640999794 -0.013000000 0.3114778399 2.4709999561 13.288999557 101.12730408 92.001403809 3.6189215183 36.904350281 3.8891777992 3.8891777992
 2098.7773438 6.0000000000 12.538999557 -0.013000000 0.3207851350 2.4709999561 14.781000137 102.56600189 92.872200012 3.5698943138 37.122505188 3.9996063709 3.9996063709
 2098.9296875 6.0000000000 12.538999557 -0.015000000 0.3242145181 2.4709999561 17.875000000 103.49459076 91.999198914 3.5369038582 37.278446198 3.8764519691 3.8764519691
 2099.0820313 6.0000000000 12.538999557 -0.023000000 0.3256776631 2.4630000591 17.406000137 100.12299347 91.499198914 3.4769904613 36.934925079 3.5345497131 3.5345497131
 2099.2343750 6.0000000000 12.538999557 -0.022000000 0.3164248466 2.4649999142 16.452999115 98.869293213 91.000999451 3.4710369110 36.888702393 3.2539279461 3.2539279461
 2099.3867188 6.0000000000 12.538999557 -0.023000000 0.3056944013 2.4630000591 15.687999725 95.306694031 91.625404358 3.4939968586 37.326702118 3.2092292309 3.2092292309
 2099.5393066 6.0000000000 12.538999557 -0.023000000 0.2978625298 2.4670000076 15.906000137 91.384201050 91.876609802 3.4918754101 37.761203766 3.3529663086 3.3529663086
 2099.6916504 6.0000000000 12.609000206 -0.023000000 0.3114981055 2.4690001011 15.288999557 94.252906799 92.375602722 3.4530720711 37.200901031 3.6543910503 3.6543910503
 2099.8439941 6.0000000000 12.546999931 -0.021000000 0.3300502598 2.4690001011 14.984000206 96.070213318 92.748794556 3.4981312752 37.138500214 3.8979969025 3.8979969025
 2099.9963379 6.0000000000 12.538999557 -0.012000000 0.3295915723 2.4769999981 12.680000305 100.56230164 92.000000000 3.5800657272 37.451225281 3.8957660198 3.8957660198
 2100.1489258 6.0000000000 12.538999557 -0.005000000 0.3188672364 2.4769999981 12.468999863 100.13719940 92.000000000 3.6212017536 37.592597961 3.7497055531 3.7497055531
 2100.3012695 6.0000000000 12.555000305 0.0000000000 0.3061703444 2.4800000191 11.352000237 103.93700409 91.999397278 3.6840593815 38.090999603 3.6580946445 3.6580946445
 2100.4536133 6.0000000000 12.640999794 0.0049999999 0.2968948483 2.4879999161 12.875000000 103.31089783 91.624397278 3.7210783958 38.090797424 3.7171442509 3.7171442509
 2100.6059570 6.0000000000 12.680000305 0.0030000000 0.3041765690 2.4920001030 14.180000305 101.99819946 91.250602722 3.7700929642 37.967075348 3.8069839478 3.8069839478
 2100.7585449 6.0000000000 12.640999794 -0.001000000 0.3129759133 2.4920001030 14.921999931 100.87259674 91.624603271 3.8283553123 38.638603210 3.7968239784 3.7968239784
