# LAS format log file from PETREL
# Project units are specified as depth units
#==================================================================
~Version information
VERS.   2.0:
WRAP.   NO:
#==================================================================
~Well
STRT .m      989.00103760 :
STOP .m      3365.3732910 :
STEP .m     0.00000000 :
NULL .        -999.250000 :
COMP.           : COMPANY
WELL.  35/11-1   : WELL
FLD.            : FIELD
LOC.            : LOCATION
SRVC.           : SERVICE COMPANY
DATE.  2018-09-11 14:48:54   : Log Export Date {yyyy-MM-dd HH:mm:ss}
PROV.           : PROVINCE
UWI.   35/11-1   : UNIQUE WELL ID
API.            : API NUMBER
#==================================================================
~Curve
DEPT .m                   : DEPTH
Lithology_geolink ._      : Lithology_geolink
CALI .in                  : CALI
DRHO .g/cm3               : DRHO
NPHI .m3/m3               : NPHI
RHOB .g/cm3               : RHOB
PEF .b/e                  : PEF
GR .gAPI                  : GR
DTC .us/ft                : DTC
RDEP .ohm.m               : RDEP
SP .mV                    : SP
RSHA .ohm.m               : RSHA
RMED .ohm.m               : RMED
~Parameter
#==================================================================
~Ascii
# ...
 2883.6369629 3.0000000000 8.4300003052 -0.045000002 0.1962900013 2.3689999580 3.6600000858 77.117088318 86.504806519 1.5740303993 60.110000610 2.8497514725 2.8497514725
 2883.7893066 3.0000000000 8.4300003052 -0.041999999 0.2172899991 2.3689999580 3.3689999580 72.190307617 89.502807617 1.5933109522 60.109199524 2.6940400600 2.6940400600
 2883.9418945 3.0000000000 8.4300003052 -0.039000001 0.2475600094 2.3280000687 2.9340000153 73.621200562 91.253196716 1.7878255844 59.606800079 2.0947134495 2.0947134495
 2884.0942383 3.0000000000 8.4300003052 -0.029999999 0.2548800111 2.3010001183 2.7460000515 72.448516846 92.247192383 2.0450994968 58.612804413 1.6936666965 1.6936666965
 2884.2465820 3.0000000000 8.4300003052 -0.028000001 0.2397499979 2.2969999313 2.7520000935 79.004203796 90.496185303 2.1069006920 60.358398438 1.4859406948 1.4859406948
 2884.3989258 3.0000000000 8.4300003052 -0.030999999 0.2128899992 2.3129999638 2.8139998913 81.636817932 88.122200012 2.0447804928 59.359226227 1.4491345882 1.4491345882
 2884.5515137 3.0000000000 8.4300003052 -0.030999999 0.2080100030 2.3280000687 3.0120000839 89.005599976 86.366203308 1.9078303576 58.876800537 1.5332431793 1.5332431793
 2884.7038574 3.0000000000 8.4300003052 -0.021000000 0.2158200145 2.3570001125 3.1719999313 90.756210327 83.619789124 1.8549743891 59.125198364 1.6095207930 1.6095207930
 2884.8562012 3.0000000000 8.4300003052 -0.018999999 0.2260700017 2.3980000019 3.2360000610 94.619094849 80.373596191 1.8390576839 58.626399994 1.9343589544 1.9343589544
 2885.0085449 3.0000000000 8.4300003052 -0.016000001 0.2211899906 2.4279999733 3.1619999409 90.934600830 79.502403259 1.8750913143 58.875598907 2.1580657959 2.1580657959
 2885.1611328 3.0000000000 8.4300003052 -0.023000000 0.2109400034 2.4300000668 3.0780000687 88.800201416 81.005996704 1.9320256710 58.625247955 2.1980526447 2.1980526447
 2885.3134766 3.0000000000 8.4300003052 -0.028000001 0.1992200017 2.4000000954 2.9100000858 84.803085327 82.876205444 1.9397612810 58.390998840 1.9030385017 1.9030385017
 2885.4658203 3.0000000000 8.4300003052 -0.028999999 0.2040999979 2.3459999561 2.7560000420 78.624702454 83.625602722 1.7908766270 58.391399384 1.9268478155 1.9268478155
 2885.6181641 3.0000000000 8.4300003052 -0.032000002 0.2216799855 2.3069999218 2.7360000610 78.440307617 84.000000000 1.7138589621 58.641426086 1.8319438696 1.8319438696
 2885.7705078 3.0000000000 8.4300003052 -0.027000001 0.2128899992 2.3110001087 2.9040000439 79.881813049 83.998397827 1.6258077621 58.907001495 1.7967259884 1.7967259884
 2885.9230957 3.0000000000 8.4300003052 -0.028999999 0.1972699910 2.3320000172 3.0429999828 84.112800598 83.000793457 1.5057471991 58.904647827 1.6258496046 1.6258496046
 2886.0754395 3.0000000000 8.4300003052 -0.023000000 0.1762700081 2.3570001125 3.0639998913 80.308197021 83.252204895 1.4270689487 58.168746948 1.5789711475 1.5789711475
 2886.2277832 3.0000000000 8.4300003052 -0.023000000 0.1855500042 2.3670001030 2.9860000610 77.312599182 84.631210327 1.4701186419 56.143802643 1.5607388020 1.5607388020
 2886.3801270 3.0000000000 8.4300003052 -0.021000000 0.1923800111 2.3689999580 2.9279999733 77.069213867 88.504203796 1.5441811085 57.893829346 1.3978990316 1.3978990316
 2886.5327148 3.0000000000 8.4300003052 -0.023000000 0.1899399906 2.3550000191 2.8910000324 80.935005188 91.112998962 1.6574991941 59.651401520 1.3352591991 1.3352591991
 2886.6850586 3.0000000000 8.4300003052 -0.022000000 0.1884799898 2.3519999981 2.9430000782 79.996192932 87.372993469 1.8133493662 57.903820038 1.4163141251 1.4163141251
 2886.8374023 3.0000000000 8.4530000687 -0.022000000 0.2002000064 2.3629999161 3.2850000858 77.629409790 86.118789673 2.0321488380 55.921199799 1.6132162809 1.6132162809
 2886.9897461 3.0000000000 8.5389995575 -0.017000001 0.2314500064 2.4800000191 4.2270002365 80.399841309 82.243988037 2.7517724037 55.419624329 2.3752884865 2.3752884865
 2887.1423340 3.0000000000 8.5389995575 -0.029999999 0.2456100136 2.6150000095 3.7249999046 95.926002502 78.503196716 5.1084098816 53.936450958 5.0753741264 5.0753741264
 2887.2946777 3.0000000000 8.5699996948 -0.022000000 0.2851600051 2.7049999237 2.9839999676 111.82411957 79.498397827 7.1088380814 53.452743530 13.914600372 13.914600372
 2887.4470215 3.0000000000 8.6479997635 -0.032000002 0.3208000064 2.6310000420 2.5079998970 118.75861359 78.497398376 9.5025548935 52.671627045 14.288023949 14.288023949
 2887.5993652 3.0000000000 8.6479997635 -0.017999999 0.3491199911 2.5820000172 2.3280000687 124.12990570 76.872001648 11.095064163 52.436748505 13.679486275 13.679486275
 2887.7517090 3.0000000000 8.6479997635 -0.028000001 0.3334999979 2.5780000687 2.4509999752 127.19691467 74.999397278 11.755094528 51.661033630 13.358812332 13.358812332
 2887.9042969 3.0000000000 8.6479997635 -0.035000000 0.3144499958 2.5840001106 2.3770000935 132.74719238 74.626998901 9.9347019196 54.167999268 13.245951653 13.245951653
 2888.0566406 3.0000000000 8.6479997635 -0.037999999 0.3256800175 2.5629999638 2.5450000763 131.87199402 75.249397278 6.7242822647 52.921627045 14.480467796 14.480467796
 2888.2089844 3.0000000000 8.6479997635 -0.041000001 0.3564499915 2.5569999218 2.5369999409 129.99488831 74.875602722 5.0302309990 52.688373566 16.626934052 16.626934052
 2888.3613281 3.0000000000 8.6479997635 -0.037000000 0.3735400140 2.5429999828 2.7109999657 126.78986359 75.252807617 4.5506811142 52.927207947 7.8575158119 7.8575158119
 2888.5139160 7.0000000000 8.5860004425 -0.035000000 0.3745099902 2.5369999409 2.7790000439 112.34339905 77.004402161 4.3518242836 56.169551849 4.4357390404 4.4357390404
 2888.6662598 7.0000000000 8.5389995575 -0.026000001 0.3525400162 2.5039999485 3.0590000153 102.48066711 78.375801086 4.2970128059 55.404197693 2.7967498302 2.7967498302
 2888.8186035 7.0000000000 8.5310001373 -0.021000000 0.3129900098 2.4769999981 3.2230000496 90.432090759 78.871597290 4.3046426773 53.657024384 2.6416506767 2.6416506767
 2888.9709473 7.0000000000 8.5389995575 -0.017000001 0.2602500021 2.4670000076 3.6289999485 86.748100281 76.748786926 4.0816679001 53.671550751 3.0484359264 3.0484359264
 2889.1235352 7.0000000000 8.5389995575 -0.014000000 0.2158200145 2.5179998875 4.1680002213 85.564399719 76.001197815 3.8752944469 53.390998840 3.9469840527 3.9469840527
 2889.2758789 7.0000000000 8.5389995575 -0.015000000 0.2045899928 2.5820000172 4.7150001526 86.014923096 76.372596741 3.9677355289 53.389797211 5.1908607483 5.1908607483
 2889.4282227 7.0000000000 8.5389995575 -0.017000001 0.2197299898 2.6129999161 4.0549998283 95.312705994 74.874801636 4.4269518852 52.641826630 6.9785146713 6.9785146713
 2889.5805664 7.0000000000 8.5389995575 -0.017999999 0.2363299876 2.6050000191 3.3139998913 95.125099182 74.750602722 5.0217084885 53.162609100 10.414725304 10.414725304
 2889.7329102 7.0000000000 8.5389995575 -0.018999999 0.2441399992 2.5799999237 3.2269999981 95.171478271 75.125404358 6.0876970291 56.653018951 10.863581657 10.863581657
 2889.8854980 7.0000000000 8.5389995575 -0.016000001 0.2543900013 2.5899999142 3.8010001183 84.875801086 75.373802185 7.1479601860 54.173652649 8.7262754440 8.7262754440
 2890.0378418 7.0000000000 8.5389995575 -0.021000000 0.2548800111 2.5940001011 4.4260001183 85.131210327 75.000000000 8.0714530945 54.687950134 6.3190612793 6.3190612793
 2890.1901855 7.0000000000 8.5389995575 -0.020000000 0.2504900098 2.5980000496 4.1760001183 89.012817383 75.000000000 8.9788141251 54.657402039 5.7349777222 5.7349777222
 2890.3425293 7.0000000000 8.5389995575 -0.018999999 0.2397499979 2.5899999142 3.5659999847 97.003509521 75.000404358 10.109639168 54.906223297 6.3469548225 6.3469548225
 2890.4951172 7.0000000000 8.6330003738 -0.013000000 0.2456100136 2.5980000496 3.3589999676 99.198600769 75.247200012 10.507148743 54.422851563 8.1959228516 8.1959228516
 2890.6474609 7.0000000000 8.6479997635 -0.012000000 0.2597700059 2.6229999065 3.3340001106 102.50270844 74.372795105 10.239545822 54.689151764 10.666416168 10.666416168
 2890.7998047 7.0000000000 8.6479997635 -0.014000000 0.2739299834 2.6480000019 3.3849999905 104.19661713 72.999000549 8.7062740326 55.408226013 12.174053192 12.174053192
