# LAS format log file from PETREL
# Project units are specified as depth units
#==================================================================
~Version information
VERS.   2.0:
WRAP.   NO:
#==================================================================
~Well
STRT .m      359.96881104 :
STOP .m      3380.8413086 :
STEP .m     0.00000000 :
NULL .        -999.250000 :
COMP.           : COMPANY
WELL.  35/11-12   : WELL
FLD.            : FIELD
LOC.            : LOCATION
SRVC.           : SERVICE COMPANY
DATE.  2018-09-11 14:48:55   : Log Export Date {yyyy-MM-dd HH:mm:ss}
PROV.           : PROVINCE
UWI.   35/11-12   : UNIQUE WELL ID
API.            : API NUMBER
#==================================================================
~Curve
DEPT .m                   : DEPTH
Lithology_geolink ._      : Lithology_geolink
CALI .in                  : CALI
BS .in                    : BS
ROP .m/h                  : ROP
DRHO .g/cm3               : DRHO
NPHI .m3/m3               : NPHI
RHOB .g/cm3               : RHOB
PEF .b/e                  : PEF
GR .gAPI                  : GR
DTC .us/ft                : DTC
RDEP .ohm.m               : RDEP
RMED .ohm.m               : RMED
~Parameter
#==================================================================
~Ascii
# ...
 2079.0405273 12.000000000  -999.250000 12.250000954 94.094490051  -999.250000  -999.250000  -999.250000  -999.250000 169.81887817 112.79600525 1.2086579800 1.1320548058
 2079.1931152 12.000000000  -999.250000 12.250000954 97.440948486  -999.250000  -999.250000  -999.250000  -999.250000 168.39764404 112.34201050 1.2129929066 1.1547763348
 2079.3454590 12.000000000  -999.250000 12.250000954 98.851707458  -999.250000  -999.250000  -999.250000  -999.250000 169.61404419 111.95201111 1.2257964611 1.1629929543
 2079.4978027 12.000000000  -999.250000 12.250000954 100.03279877  -999.250000  -999.250000  -999.250000  -999.250000 167.16900635 111.84600830 1.2704524994 1.1551218033
 2079.6501465 12.000000000  -999.250000 12.250000954 95.013122559  -999.250000  -999.250000  -999.250000  -999.250000 167.15179443 112.43800354 1.2176706791 1.1674606800
 2079.8027344 12.000000000  -999.250000 12.250000954 90.059059143  -999.250000  -999.250000  -999.250000  -999.250000 166.10736084 113.25000000 1.2574162483 1.2889540195
 2079.9550781 12.000000000  -999.250000 12.250000954 87.532806396  -999.250000  -999.250000  -999.250000  -999.250000 171.62033081 113.27101135 1.3222067356 1.2261209488
 2080.1074219 12.000000000  -999.250000 12.250000954 84.547248840  -999.250000  -999.250000  -999.250000  -999.250000 173.73818970 112.45600891 1.2589666843 1.1626486778
 2080.2597656 12.000000000  -999.250000 12.250000954 84.612861633  -999.250000  -999.250000  -999.250000  -999.250000 178.34771729 110.54400635 1.2753705978 1.1548061371
 2080.4123535 12.000000000  -999.250000 12.250000954 80.905509949  -999.250000  -999.250000  -999.250000  -999.250000 175.91708374 106.79001617 1.2962007523 1.1321179867
 2080.5646973 12.000000000  -999.250000 12.250000954 77.329399109  -999.250000  -999.250000  -999.250000  -999.250000 174.02740479 99.910003662 1.4008655548 1.1474258900
 2080.7170410 12.000000000  -999.250000 12.250000954 74.475067139  -999.250000  -999.250000  -999.250000  -999.250000 165.73260498 92.031005859 1.4874956608 1.3602714539
 2080.8693848 12.000000000  -999.250000 12.250000954 73.293952942  -999.250000  -999.250000  -999.250000  -999.250000 152.78137207 88.388000488 1.7038838863 2.3409047127
 2081.0217285 12.000000000  -999.250000 12.250000954 73.162727356  -999.250000  -999.250000  -999.250000  -999.250000 139.53466797 90.372009277 1.5591318607 2.4895195961
 2081.1743164 12.000000000  -999.250000 12.250000954 73.654861450  -999.250000  -999.250000  -999.250000  -999.250000 135.10958862 98.703002930 1.6032595634 1.6631641388
 2081.3266602 12.000000000  -999.250000 12.250000954 74.803146362  -999.250000  -999.250000  -999.250000  -999.250000 146.81167603 109.08500671 1.5802991390 1.4276323318
 2081.4790039 12.000000000  -999.250000 12.250000954 61.286087036  -999.250000  -999.250000  -999.250000  -999.250000 159.97766113 113.51400757 1.5168654919 1.3229620457
 2081.6313477 12.000000000  -999.250000 12.250000954 51.640419006  -999.250000  -999.250000  -999.250000  -999.250000 172.10702515 113.48400879 1.4326791763 1.2685585022
 2081.7839355 12.000000000  -999.250000 12.250000954 46.489501953  -999.250000  -999.250000  -999.250000  -999.250000 172.76831055 113.03100586 1.3402998447 1.2238624096
 2081.9362793 12.000000000  -999.250000 12.250000954 48.884513855  -999.250000  -999.250000  -999.250000  -999.250000 172.94216919 112.31199646 1.3336369991 1.1951735020
 2082.0886230 12.000000000  -999.250000 12.250000954 51.902885437  -999.250000  -999.250000  -999.250000  -999.250000 171.73315430 111.32299805 1.5343670845 1.1369979382
 2082.2409668 12.000000000  -999.250000 12.250000954 54.658794403  -999.250000  -999.250000  -999.250000  -999.250000 172.89947510 110.46600342 1.3194391727 1.1956205368
 2082.3935547 12.000000000  -999.250000 12.250000954 56.692905426  -999.250000  -999.250000  -999.250000  -999.250000 168.96142578 109.84899902 1.3482954502 1.2168436050
 2082.5458984 12.000000000  -999.250000 12.250000954 58.661407471  -999.250000  -999.250000  -999.250000  -999.250000 167.48678589 109.19200134 1.3626708984 1.2628917694
 2082.6982422 12.000000000  -999.250000 12.250000954 61.515747070  -999.250000  -999.250000  -999.250000  -999.250000 165.20770264 108.72799683 1.3064899445 1.3051238060
 2082.8505859 12.000000000  -999.250000 12.250000954 64.173217773  -999.250000  -999.250000  -999.250000  -999.250000 167.89083862 108.76200867 1.3828907013 1.3275339603
 2083.0029297 12.000000000  -999.250000 12.250000954 83.202102661  -999.250000  -999.250000  -999.250000  -999.250000 166.27929688 108.85400391 1.3767025471 1.3665678501
 2083.1555176 12.000000000  -999.250000 12.250000954 122.67060089  -999.250000  -999.250000  -999.250000  -999.250000 166.74850464 108.58700562 1.4096903801 1.3515126705
 2083.3078613 12.000000000  -999.250000 12.250000954 182.61155701  -999.250000  -999.250000  -999.250000  -999.250000 168.96932983 108.11199951 1.4226942062 1.3292624950
 2083.4602051 12.000000000  -999.250000 12.250000954 176.57479858  -999.250000  -999.250000  -999.250000  -999.250000 170.80761719 107.72100830 1.4186294079 1.3571660519
 2083.6125488 12.000000000  -999.250000 12.250000954 165.91207886  -999.250000  -999.250000  -999.250000  -999.250000 171.08868408 107.72500610 1.2934322357 1.3365304470
 2083.7651367 12.000000000  -999.250000 12.250000954 158.92387390  -999.250000  -999.250000  -999.250000  -999.250000 170.07229614 108.01200867 1.3318877220 1.2912573814
 2083.9174805 12.000000000  -999.250000 12.250000954 155.21652222  -999.250000  -999.250000  -999.250000  -999.250000 169.35440063 107.90600586 1.3558106422 1.2284636497
 2084.0698242 12.000000000  -999.250000 12.250000954 152.88713074  -999.250000  -999.250000  -999.250000  -999.250000 173.05191040 107.31800842 1.3373799324 1.1821825504
 2084.2221680 12.000000000  -999.250000 12.250000954 151.67321777  -999.250000  -999.250000  -999.250000  -999.250000 173.44961548 107.52500916 1.3858249187 1.2617971897
 2084.3747559 12.000000000  -999.250000 12.250000954 147.67059326  -999.250000  -999.250000  -999.250000  -999.250000 171.64239502 108.92401123 1.3556413651 1.3308522701
 2084.5270996 12.000000000  -999.250000 12.250000954 144.98030090  -999.250000  -999.250000  -999.250000  -999.250000 170.18164063 110.27000427 1.2851912975 1.3538708687
 2084.6794434 12.000000000  -999.250000 12.250000954 146.52229309  -999.250000  -999.250000  -999.250000  -999.250000 168.74905396 111.04400635 1.3906006813 1.3064153194
 2084.8317871 12.000000000  -999.250000 12.250000954 146.19421387  -999.250000  -999.250000  -999.250000  -999.250000 169.29626465 111.46200562 1.3128795624 1.2726352215
 2084.9843750 12.000000000  -999.250000 12.250000954 145.66929626  -999.250000  -999.250000  -999.250000  -999.250000 170.09460449 111.46701050 1.3148169518 1.2723112106
 2085.1367188 12.000000000  -999.250000 12.250000954 149.80313110  -999.250000  -999.250000  -999.250000  -999.250000 170.02142334 111.03399658 1.3495733738 1.2566986084
 2085.2890625 12.000000000  -999.250000 12.250000954 152.52626038  -999.250000  -999.250000  -999.250000  -999.250000 170.70056152 110.31401062 1.3447837830 1.2320654392
 2085.4414063 12.000000000  -999.250000 12.250000954 153.74015808  -999.250000  -999.250000  -999.250000  -999.250000 169.98138428 109.44400024 1.3546414375 1.2446372509
 2085.5937500 12.000000000  -999.250000 12.250000954 155.80709839  -999.250000  -999.250000  -999.250000  -999.250000 170.38076782 108.71400452 1.3557534218 1.3345379829
 2085.7463379 12.000000000  -999.250000 12.250000954 151.80445862  -999.250000  -999.250000  -999.250000  -999.250000 175.96398926 108.54800415 1.3110468388 1.3456602097
 2085.8986816 12.000000000  -999.250000 12.250000954 134.54722595  -999.250000  -999.250000  -999.250000  -999.250000 173.51562500 109.10600281 1.3226256371 1.2048053741
 2086.0510254 12.000000000  -999.250000 12.250000954 131.82414246  -999.250000  -999.250000  -999.250000  -999.250000 175.93325806 110.11000061 1.3730709553 1.3074862957
 2086.2033691 12.000000000  -999.250000 12.250000954 117.09316254  -999.250000  -999.250000  -999.250000  -999.250000 171.08422852 111.14300537 1.3628580570 1.3317074776
