# LAS format log file from PETREL
# Project units are specified as depth units
#==================================================================
~Version information
VERS.   2.0:
WRAP.   NO:
#==================================================================
~Well
STRT .m      2818.0771484 :
STOP .m      3213.0979004 :
STEP .m     0.00000000 :
NULL .        -999.250000 :
COMP.           : COMPANY
WELL.  35/11-15 S   : WELL
FLD.            : FIELD
LOC.            : LOCATION
SRVC.           : SERVICE COMPANY
DATE.  2018-09-11 14:48:55   : Log Export Date {yyyy-MM-dd HH:mm:ss}
PROV.           : PROVINCE
UWI.   35/11-15 S   : UNIQUE WELL ID
API.            : API NUMBER
#==================================================================
~Curve
DEPT .m                   : DEPTH
Lithology_geolink ._      : Lithology_geolink
CALI .in                  : CALI
BS .in                    : BS
ROP .m/h                  : ROP
DRHO .g/cm3               : DRHO
THOR .ppm                 : THOR
SGR .gAPI                 : SGR
RHOB .g/cm3               : RHOB
PEF .b/e                  : PEF
GR .gAPI                  : GR
URAN .ppm                 : URAN
DTC .us/ft                : DTC
DTS .us/ft                : DTS
RDEP .ohm.m               : RDEP
RMIC .ohm.m               : RMIC
RMED .ohm.m               : RMED
~Parameter
#==================================================================
~Ascii
# ...
 2998.5187988 2.0000000000 8.3908996582 8.5000000000 105179.39844 -0.006800000 3.8275001049 0.0218000002 2.3048000336 2.4279999733 65.935997009 1.6189999580 87.999992371 152.27270508 4.2411999702 0.7935000062 3.3836998940
 2998.6711426 2.0000000000 8.3959999084 8.5000000000 105944.40625 -0.006800000 3.7176001072 0.0218000002 2.3159000874 2.4546999931 64.559196472 1.4943000078 88.181800842 152.90910339 3.7160000801 0.7285000086 3.0274000168
 2998.8237305 2.0000000000 8.3937997818 8.5000000000 104758.92188 -0.005200000 3.5360000134 0.0223999992 2.3915998936 2.5792000294 64.658897400 1.3946000338 88.545501709 153.63638306 3.5125999451 0.8736000061 2.9365999699
 2998.9760742 2.0000000000 8.3965997696 8.5000000000 108416.51563 -0.003900000 3.6307001114 0.0226000007 2.3743000031 2.6693000793 65.933296204 1.4447000027 88.545501709 153.63638306 3.9186000824 1.0550999641 3.3580000401
 2999.1284180 2.0000000000 8.3937997818 8.5000000000 120504.59375 -0.002800000 3.6087999344 0.0227000006 2.3473999500 2.6047999859 66.325103760 1.5278999805 88.363601685 153.09091187 4.6441001892 1.1122000217 3.9098000526
 2999.2807617 2.0000000000 8.3985004425 8.5000000000 128711.52344 -0.003300000 3.8670001030 0.0230000000 2.3515999317 2.6198000908 67.315597534 1.5104999542 87.636398315 152.00000000 4.2651000023 1.0600999594 3.5899999142
 2999.4333496 2.0000000000 8.4050998688 8.5000000000 127438.92188 -0.004800000 4.0176000595 0.0225000009 2.3520998955 2.6473999023 68.124099731 1.7213000059 87.272689819 151.09089661 4.1470999718 1.1160999537 3.5304000378
 2999.5856934 2.0000000000 8.4034996033 8.5000000000 124385.76563 -0.002600000 4.2697000504 0.0219000001 2.3698000908 2.6721000671 68.874198914 1.7711999416 86.818191528 150.18179321 4.4499998093 1.2286000252 3.7918999195
 2999.7380371 2.0000000000 8.4050998688 8.5000000000 127109.88281 0.0011000000 4.6630997658 0.0223999992 2.4437003136 2.6377000809 72.317100525 1.9012000561 86.818191528 147.72729492 4.4615001678 1.4769999981 3.8394999504
 2999.8903809 2.0000000000 8.3993997574 8.5000000000 134305.20313 0.0037000000 5.0675001144 0.0237000007 2.5871999264 2.9384000301 78.130096436 2.2102000713 85.636390686 144.81820679 4.1272997856 2.3986001015 3.5288999081
 3000.0429688 2.0000000000 8.4756002426 8.5000000000 130717.80469 0.0013000000 6.0953001976 0.0271000005 2.5940999985 2.8185999393 88.158096313 2.2771000862 84.363601685 142.63639832 5.1178002357 6.8994002342 4.3494000435
 3000.1953125 2.0000000000 8.4756002426 8.5000000000 123700.31250 -0.001500000 7.0166997910 0.0296999998 2.5264999866 2.9200999737 96.938003540 2.3803999424 83.545501709 140.81820679 12.813500404 10.259200096 10.607799530
 3000.3476563 2.0000000000 8.4587001801 8.5000000000 120727.79688 -0.001800000 7.5706000328 0.0298999995 2.4482998848 2.6659998894 98.015502930 2.2490000725 80.818199158 139.18179321 20.134500504 4.4619002342 16.932600021
 3000.5000000 2.0000000000 8.4643001556 8.5000000000 108473.75781 -0.001000000 7.3204002380 0.0285000000 2.4470999241 2.5715000629 94.086898804 2.1779999733 74.181800842 137.54539490 10.100999832 3.0808000565 8.6163997650
 3000.6523438 2.0000000000 8.4511995316 8.5000000000 83434.679688 -0.001500000 7.0472998619 0.0277999993 2.5025999546 2.8959999084 90.237197876 1.9674000740 72.636398315 136.36360168 7.6409001350 3.6085000038 6.5862998962
 3000.8049316 2.0000000000 8.4756002426 8.5000000000 52028.281250 -0.003600000 7.0720000267 0.0282000005 2.4558999538 2.8942999840 90.546203613 1.9165999889 73.181800842 136.27270508 9.5459003448 4.0299000740 8.2497997284
 3000.9572754 2.0000000000 8.4474000931 8.5000000000 64851.121094 -0.006200000 6.8123998642 0.0276999995 2.3787000179 2.6428999901 88.758003235 1.8818999529 74.818199158 136.72729492 11.596799850 3.4628000259 9.9524002075
 3001.1096191 2.0000000000 8.4260997772 8.5000000000 95007.242188 -0.006300000 6.6364998817 0.0271000005 2.3759999275 2.7393000126 85.105499268 1.6227999926 76.818191528 136.90910339 8.3397998810 1.7508000135 7.1047000885
 3001.2619629 2.0000000000 8.4050998688 8.5000000000 109731.96094 -0.006400000 5.6732997894 0.0248000007 2.3085000515 2.4676001072 76.633499146 1.5859999657 79.090896606 137.90910339 4.7960000038 1.1404000521 4.1100997925
 3001.4145508 2.0000000000 8.4034996033 8.5000000000 124457.03906 -0.005700000 5.1946997643 0.0233999994 2.3064000607 2.4581000805 71.013198853 1.4278999567 80.636390686 140.36360168 3.8231000900 0.8335999846 3.2990000248
 3001.5668945 2.0000000000 8.3965997696 8.5000000000 141270.46875 -0.007500000 4.6733999252 0.0216000006 2.3357000351 2.4728999138 63.705398560 1.0714000463 82.454498291 142.90910339 3.6684999466 0.7871000171 3.2049000263
 3001.7192383 2.0000000000 8.3852996826 8.5000000000 142848.35938 -0.008100000 4.3225998878 0.0212999992 2.3182001114 2.5164999962 62.043899536 1.1004999876 86.909103394 145.00000000 3.7622001171 0.8097000122 3.2918999195
 3001.8715820 2.0000000000 8.3880996704 8.5000000000 135611.64063 -0.008700000 4.1479001045 0.0214000009 2.3306000233 2.6384999752 61.603801727 1.0865999460 88.363601685 147.45449829 3.7876000404 0.8758999705 3.3705999851
 3002.0241699 2.0000000000 8.3959999084 8.5000000000 129363.11719 -0.008600000 3.8830997944 0.0215000007 2.3196001053 2.7130999565 61.681198120 1.1986000538 87.999992371 150.45451355 3.9426000118 0.8428000212 3.5794999599
 3002.1765137 2.0000000000 8.3937997818 8.5000000000 125035.19531 -0.008500000 3.6816000938 0.0209999997 2.3143999577 2.6486001015 59.978401184 1.2080999613 88.727302551 152.72729492 3.8984999657 0.8238999844 3.5613000393
 3002.3288574 2.0000000000 8.3965997696 8.5000000000 120917.87500 -0.009000000 3.6445000172 0.0203000009 2.3468000889 2.6682999134 57.638801575 1.0687999725 89.363601685 153.81820679 3.5629999638 0.9103999734 3.2888998985
 3002.4812012 2.0000000000 8.3993997574 8.5000000000 120614.76563 -0.008300000 3.8430998325 0.0206000004 2.3691000938 2.7313001156 58.762599945 1.0592999458 88.545501709 154.00000000 3.7771000862 1.0418000221 3.4463999271
 3002.6337891 2.0000000000 8.3993997574 8.5000000000 126334.43750 -0.006900000 3.8232996464 0.0201999992 2.3513998985 2.7267999649 58.849800110 1.1789000034 87.999992371 153.27270508 4.7182002068 1.1076999903 4.0420999527
 3002.7861328 2.0000000000 8.3993997574 8.5000000000 122696.64844 -0.004500000 3.6335999966 0.0203000009 2.3357999325 2.7155001163 59.095600128 1.2165000439 87.818199158 152.36360168 4.2733998299 0.8773999810 3.5374999046
 3002.9384766 2.0000000000 8.3993997574 8.5000000000 114594.48438 -0.003500000 3.6099998951 0.0199999996 2.3777999878 2.7083001137 58.361099243 1.1661000252 87.636398315 151.63639832 3.5585000515 0.8384000063 2.9151999950
 3003.0908203 2.0000000000 8.3993997574 8.5000000000 105577.56250 -0.004100000 3.6050999165 0.0209999997 2.4713997841 2.9265999794 60.264400482 1.1362999678 87.272689819 150.90910339 3.8166000843 1.0983999968 3.1277999878
 3003.2431641 2.0000000000 8.4134998322 8.5000000000 98620.914063 -0.005300000 3.7841999531 0.0221999995 2.3656001091 2.8166999817 63.608699799 1.2335000038 87.000000000 150.27270508 4.8327999115 1.5534000397 3.8945000172
 3003.3957520 2.0000000000 8.4191999435 8.5000000000 99876.960938 -0.007100000 4.0770001411 0.0238000005 2.3798000813 2.6022000313 68.066497803 1.3414000273 86.727302551 149.18179321 5.3625998497 1.8801000118 4.1807999611
 3003.5480957 2.0000000000 8.4162998199 8.5000000000 110811.60156 -0.007900000 4.1483001709 0.0243999995 2.3666000366 2.6073999405 70.239196777 1.3967000246 86.727302551 148.18179321 4.9881000519 1.3323999643 3.8784000874
 3003.7004395 2.0000000000 8.4010000229 8.5000000000 120863.16406 -0.008900000 3.8429002762 0.0244999994 2.3721001148 2.4558999538 69.479896545 1.3949999809 86.181800842 147.81820679 4.9981999397 1.4660999775 3.8492999077
 3003.8527832 2.0000000000 8.3993997574 8.5000000000 116076.24219 -0.009900000 3.6456999779 0.0237000007 2.3547999859 2.4333000183 66.562599182 1.2553999424 85.636390686 147.45449829 5.6048002243 1.1129000187 4.2066998482
 3004.0053711 2.0000000000 8.4021997452 8.5000000000 108631.43750 -0.011200000 3.3791000843 0.0222999994 2.3134999275 2.4022998810 61.890201569 1.1232000589 86.000000000 147.63639832 4.5402998924 0.9505000114 3.4189999104
