# LAS format log file from PETREL
# Project units are specified as depth units
#==================================================================
~Version information
VERS.   2.0:
WRAP.   NO:
#==================================================================
~Well
STRT .m      989.00103760 :
STOP .m      3365.3732910 :
STEP .m     0.00000000 :
NULL .        -999.250000 :
COMP.           : COMPANY
WELL.  35/11-1   : WELL
FLD.            : FIELD
LOC.            : LOCATION
SRVC.           : SERVICE COMPANY
DATE.  2018-09-11 14:48:54   : Log Export Date {yyyy-MM-dd HH:mm:ss}
PROV.           : PROVINCE
UWI.   35/11-1   : UNIQUE WELL ID
API.            : API NUMBER
#==================================================================
~Curve
DEPT .m                   : DEPTH
Lithology_geolink ._      : Lithology_geolink
CALI .in                  : CALI
DRHO .g/cm3               : DRHO
NPHI .m3/m3               : NPHI
RHOB .g/cm3               : RHOB
PEF .b/e                  : PEF
GR .gAPI                  : GR
DTC .us/ft                : DTC
RDEP .ohm.m               : RDEP
SP .mV                    : SP
RSHA .ohm.m               : RSHA
RMED .ohm.m               : RMED
~Parameter
#==================================================================
~Ascii
# ...
 3198.1904297 6.0000000000 8.9689998627 -0.022000000 0.1967799962 2.5940001011 3.2300000191 268.25000000 76.749992371 6.4060001373 38.360000610 5.4879999161 5.4879999161
 3198.3427734 6.0000000000 8.9689998627 -0.025000000 0.2402300090 2.6370000839 3.3180000782 280.25000000 76.749992371 6.6129999161 38.110000610 6.8829998970 6.8829998970
 3198.4951172 6.0000000000 8.9689998627 -0.030999999 0.2514599860 2.6459999084 3.3689999580 280.25000000 75.499992371 6.6640000343 38.860000610 7.8750000000 7.8750000000
 3198.6474609 6.0000000000 8.9689998627 -0.032000002 0.2587899864 2.6389999390 3.4839999676 258.75000000 75.499992371 6.3550000191 39.610000610 8.2340002060 8.2340002060
 3198.8000488 6.0000000000 8.9689998627 -0.028999999 0.2500000000 2.6289999485 3.4879999161 237.87500000 74.250000000 5.6840000153 38.610000610 8.3360004425 8.3360004425
 3198.9523926 6.0000000000 9.1330003738 -0.025000000 0.2324200124 2.6170001030 3.1989998817 213.50000000 75.000000000 5.0659999847 39.110000610 8.1020002365 8.1020002365
 3199.1047363 6.0000000000 8.8830003738 -0.026000001 0.2329100072 2.6019999981 3.1480000019 189.75000000 75.250000000 4.6370000839 42.610000610 6.4689998627 6.4689998627
 3199.2570801 6.0000000000 8.7580003738 -0.022000000 0.2338899970 2.5859999657 3.3480000496 154.37500000 75.499992371 4.3670001030 41.360000610 4.5310001373 4.5310001373
 3199.4096680 6.0000000000 8.7580003738 -0.024000000 0.2280299962 2.5369999409 3.5290000439 127.37500000 77.500000000 4.1909999847 42.860000610 3.3829998970 3.3829998970
 3199.5620117 7.0000000000 8.7580003738 -0.021000000 0.2182600051 2.4900000095 3.5759999752 105.37500000 79.000000000 4.0590000153 43.860000610 2.9040000439 2.9040000439
 3199.7143555 3.0000000000 8.7580003738 -0.027000001 0.2036100030 2.4379999638 3.7269999981 98.188003540 79.249992371 3.9360001087 44.610000610 2.6559998989 2.6559998989
 3199.8666992 3.0000000000 8.7500000000 -0.021000000 0.1958000064 2.4300000668 3.9630000591 88.563003540 77.250000000 3.5820000172 45.860000610 2.6909999847 2.6909999847
 3200.0190430 3.0000000000 8.6479997635 -0.021000000 0.1914100051 2.4219999313 4.3010001183 82.375000000 76.000000000 3.2520000935 46.860000610 2.9730000496 2.9730000496
 3200.1716309 6.0000000000 8.6479997635 -0.013000000 0.1899399906 2.4360001087 4.3200001717 75.188003540 75.499992371 3.1579999924 46.360000610 3.0490000248 3.0490000248
 3200.3239746 6.0000000000 8.6479997635 -0.021000000 0.1870100051 2.4200000763 4.2540001869 71.125000000 75.499992371 3.1949999332 46.860000610 3.0120000839 3.0120000839
 3200.4763184 6.0000000000 8.6479997635 -0.023000000 0.1674799919 2.4179999828 4.0980000496 69.875000000 75.750000000 3.2620000839 46.610000610 2.8789999485 2.8789999485
 3200.6286621 6.0000000000 8.6479997635 -0.030999999 0.1577100009 2.4100000858 3.8380000591 71.563003540 74.500000000 3.4360001087 46.860000610 2.8050000668 2.8050000668
 3200.7812500 6.0000000000 8.6479997635 -0.027000001 0.1503899992 2.4240000248 3.7049999237 70.188003540 72.500000000 3.7230000496 47.375999451 2.8259999752 2.8259999752
 3200.9335938 6.0000000000 8.6479997635 -0.023000000 0.1489299983 2.4409999847 3.8010001183 70.188003540 69.250000000 3.9000000954 46.610000610 3.0450000763 3.0450000763
 3201.0859375 6.0000000000 8.6479997635 -0.020000000 0.1367200017 2.4489998817 4.0939998627 70.063003540 70.750000000 3.8420000076 45.640998840 3.7190001011 3.7190001011
 3201.2382813 6.0000000000 8.6479997635 -0.009000000 0.1225599945 2.4730000496 4.2729997635 76.313003540 74.000000000 3.7539999485 45.640998840 4.7849998474 4.7849998474
 3201.3908691 6.0000000000 8.6479997635 -0.010000000 0.1059599966 2.4730000496 4.0549998283 81.938003540 75.750000000 3.7190001011 45.390998840 3.9820001125 3.9820001125
 3201.5432129 6.0000000000 8.7030000687 -0.013000000 0.1064500064 2.4609999657 4.0739998817 86.625000000 77.250000000 3.7460000515 45.390998840 3.0209999084 3.0209999084
 3201.6955566 6.0000000000 8.8439998627 -0.026000001 0.1289100051 2.4319999218 4.0269999504 84.125000000 78.250000000 3.8359999657 45.390998840 2.7109999657 2.7109999657
 3201.8479004 6.0000000000 8.8590002060 -0.028000001 0.1625999957 2.4159998894 4.0430002213 80.813003540 76.250000000 3.8810000420 44.422000885 2.6500000954 2.6500000954
 3202.0002441 6.0000000000 8.8590002060 -0.030999999 0.1826199889 2.4159998894 3.7929999828 73.688003540 76.000000000 3.8910000324 43.672000885 2.7560000420 2.7560000420
 3202.1528320 6.0000000000 8.8750000000 -0.028000001 0.1791999936 2.4240000248 3.6989998817 69.813003540 76.000000000 4.0199999809 42.672000885 2.8789999485 2.8789999485
 3202.3051758 6.0000000000 8.9610004425 -0.030999999 0.1674799919 2.4319999218 3.5529999733 69.063003540 73.000000000 4.2769999504 41.953998566 3.0840001106 3.0840001106
 3202.4575195 6.0000000000 8.9689998627 -0.029999999 0.1567399949 2.4430000782 3.3519999981 69.500000000 71.750000000 4.7500000000 40.922000885 3.4319999218 3.4319999218
 3202.6098633 6.0000000000 9.0080003738 -0.026000001 0.1430699974 2.4730000496 3.0429999828 69.688003540 70.750000000 5.2890000343 40.422000885 4.3319997787 4.3319997787
 3202.7624512 6.0000000000 9.1479997635 -0.018999999 0.1162100062 2.5060000420 2.7209999561 69.313003540 69.250000000 5.4730000496 38.672000885 6.0700001717 6.0700001717
 3202.9147949 6.0000000000 9.2580003738 -0.020000000 0.0898400024 2.5269999504 2.6860001087 70.688003540 70.750000000 6.1760001183 36.640998840 7.8670001030 7.8670001030
 3203.0671387 6.0000000000 9.3050003052 -0.024000000 0.0795900002 2.5269999504 2.6519999504 73.375000000 72.500000000 6.8159999847 35.390998840 7.7420001030 7.7420001030
 3203.2194824 6.0000000000 9.3979997635 -0.028999999 0.0820299983 2.5079998970 3.0739998817 77.875000000 78.500000000 5.8909997940 34.890998840 7.4689998627 7.4689998627
 3203.3720703 6.0000000000 9.3979997635 -0.017999999 0.0844699964 2.4670000076 3.7679998875 86.875000000 79.000000000 6.1719999313 33.140998840 7.7659997940 7.7659997940
 3203.5244141 6.0000000000 9.5310001373 0.0170000009 0.0888700038 2.4590001106 5.0549998283 104.87500000 77.000000000 6.5980000496 33.422000885 7.7849998474 7.7849998474
 3203.6767578 6.0000000000 9.8979997635 0.0500000007 0.1259799898 2.5000000000 5.9299998283 117.75000000 79.750000000 6.0780000687 33.140998840 6.7849998474 6.7849998474
 3203.8291016 6.0000000000 9.5310001373 0.0410000011 0.1977500021 2.5629999638 5.2849998474 122.06300354 75.000000000 5.8790001869 32.640998840 6.1170001030 6.1170001030
 3203.9814453 6.0000000000 9.5080003738 -0.003000000 0.2514599860 2.6040000916 4.9689998627 119.50000000 76.250000000 6.1909999847 34.640998840 5.9260001183 5.9260001183
 3204.1340332 6.0000000000 9.5699996948 -0.021000000 0.2695299983 2.6310000420 4.3400001526 119.25000000 76.250000000 5.0310001373 31.391002655 6.1170001030 6.1170001030
 3204.2863770 6.0000000000 9.6169996262 -0.021000000 0.2587899864 2.6459999084 3.9960000515 121.75000000 74.000000000 4.8909997940 31.141000748 6.5980000496 6.5980000496
 3204.4387207 6.0000000000 9.6479997635 -0.022000000 0.2617200017 2.6559998989 3.8380000591 114.00000000 74.250000000 5.0659999847 31.172000885 6.8280000687 6.8280000687
 3204.5910645 7.0000000000 9.7270002365 -0.023000000 0.2514599860 2.6349999905 3.4409999847 100.12500000 75.000000000 4.7699999809 31.640998840 7.0510001183 7.0510001183
 3204.7436523 3.0000000000 9.7270002365 -0.027000001 0.2236300111 2.5999999046 2.7070000172 89.250000000 75.499992371 4.7579998970 30.610000610 6.9140000343 6.9140000343
 3204.8959961 3.0000000000 9.7270002365 -0.028999999 0.1747999936 2.5369999409 2.3199999332 81.938003540 77.750000000 4.9879999161 32.360000610 5.8480000496 5.8480000496
 3205.0483398 3.0000000000 9.7270002365 -0.025000000 0.1406299919 2.5120000839 2.5000000000 81.625000000 78.750000000 4.5269999504 32.110000610 4.4800000191 4.4800000191
 3205.2006836 6.0000000000 9.7270002365 -0.023000000 0.1303699911 2.4730000496 3.0020000935 77.625000000 79.000000000 4.2969999313 33.110000610 3.3959999084 3.3959999084
 3205.3532715 6.0000000000 9.7270002365 -0.023000000 0.1337900013 2.4549999237 3.7070000172 74.688003540 78.500000000 4.2069997787 33.860000610 3.0139999390 3.0139999390
