# LAS format log file from PETREL
# Project units are specified as depth units
#==================================================================
~Version information
VERS.   2.0:
WRAP.   NO:
#==================================================================
~Well
STRT .m      989.00103760 :
STOP .m      3365.3732910 :
STEP .m     0.00000000 :
NULL .        -999.250000 :
COMP.           : COMPANY
WELL.  35/11-1   : WELL
FLD.            : FIELD
LOC.            : LOCATION
SRVC.           : SERVICE COMPANY
DATE.  2018-09-11 14:48:54   : Log Export Date {yyyy-MM-dd HH:mm:ss}
PROV.           : PROVINCE
UWI.   35/11-1   : UNIQUE WELL ID
API.            : API NUMBER
#==================================================================
~Curve
DEPT .m                   : DEPTH
Lithology_geolink ._      : Lithology_geolink
CALI .in                  : CALI
DRHO .g/cm3               : DRHO
NPHI .m3/m3               : NPHI
RHOB .g/cm3               : RHOB
PEF .b/e                  : PEF
GR .gAPI                  : GR
DTC .us/ft                : DTC
RDEP .ohm.m               : RDEP
SP .mV                    : SP
RSHA .ohm.m               : RSHA
RMED .ohm.m               : RMED
~Parameter
#==================================================================
~Ascii
# ...
 2408.1491699 7.0000000000 12.430000305 -0.022000000 0.3339799941 2.5099999905 3.2190001011 102.06741333 86.999198914 4.1048941612 20.779098511 5.6718492508 5.6718492508
 2408.3015137 7.0000000000 12.430000305 -0.023000000 0.3281393647 2.5139999390 3.2520000935 104.82300568 86.499603271 4.0389938354 20.841350555 5.5781250000 5.5781250000
 2408.4538574 7.0000000000 12.430000305 -0.022000000 0.3042383492 2.5099999905 3.3050000668 111.06300354 86.250000000 4.0349998474 21.059999466 5.6560001373 5.6560001373
 2408.6062012 7.0000000000 12.430000305 -0.025000000 0.3217518628 2.5079998970 3.1949999332 110.93800354 86.625000000 4.0549998283 21.059999466 5.8709998131 5.8709998131
 2408.7587891 7.0000000000 12.437999725 -0.024000000 0.3149400055 2.5039999485 3.2290000916 112.68519592 87.001205444 4.0590367317 21.060049057 6.0469741821 6.0469741821
 2408.9111328 7.0000000000 12.477000237 -0.026000001 0.3046900034 2.5039999485 3.4379999638 110.93890381 87.754409790 4.0820126534 21.091550827 6.0308189392 6.0308189392
 2409.0634766 7.0000000000 12.538999557 -0.026000001 0.2910418808 2.4960000515 3.5959999561 111.49240112 90.500793457 4.0899810791 21.434398651 5.9176993370 5.9176993370
 2409.2158203 7.0000000000 12.538999557 -0.024000000 0.3090510666 2.4939999580 3.5590000153 106.75000000 91.000000000 4.0780000687 21.059999466 5.7300000191 5.7300000191
 2409.3684082 7.0000000000 12.430000305 -0.018999999 0.3242200017 2.4860000610 3.3159999847 104.99649811 92.250404358 4.0389342308 21.371749878 5.6370625496 5.6370625496
 2409.5207520 7.0000000000 12.430000305 -0.020000000 0.3583999872 2.4800000191 3.1540000439 102.81200409 92.497795105 3.9979116917 21.215950012 5.6761617661 5.6761617661
 2409.6730957 7.0000000000 12.430000305 -0.021000000 0.3515709341 2.4860000610 3.0309998989 102.17810059 91.122596741 3.9429824352 21.184999466 5.7769441605 5.7769441605
 2409.8254395 7.0000000000 12.430000305 -0.023000000 0.3344973624 2.4939999580 3.0569999218 96.000000000 89.625000000 3.9319999218 21.184999466 5.7420001030 5.7420001030
 2409.9777832 7.0000000000 12.430000305 -0.022000000 0.3154605031 2.5060000420 3.0720000267 98.625000000 87.875000000 3.9530000687 21.278999329 5.6449999809 5.6449999809
 2410.1303711 7.0000000000 12.430000305 -0.026000001 0.3051799834 2.5000000000 3.2070000172 103.38381195 87.002601624 4.0121746063 21.216350555 5.6451554298 5.6451554298
 2410.2827148 7.0000000000 12.430000305 -0.030999999 0.3037123680 2.4900000095 3.2699999809 108.87090302 88.628997803 4.1209740639 21.435150146 5.7419505119 5.7419505119
 2410.4350586 7.0000000000 12.430000305 -0.030999999 0.3022523522 2.4790000916 3.4590001106 106.31300354 91.125000000 4.1050000191 21.528999329 5.7109999657 5.7109999657
 2410.5874023 7.0000000000 12.430000305 -0.028999999 0.2998039424 2.4709999561 3.6229999065 103.00000000 92.500000000 4.1129999161 21.246999741 5.7150001526 5.7150001526
 2410.7399902 7.0000000000 12.430000305 -0.027000001 0.3315399885 2.4630000591 3.7009999752 99.187103271 92.999794006 4.1290307045 21.154600143 5.8592758179 5.8592758179
 2410.8923340 7.0000000000 12.430000305 -0.028000001 0.3432599902 2.4670000076 3.6500000954 98.623397827 92.874000549 4.1480445862 21.528898239 6.0310945511 6.0310945511
 2411.0446777 7.0000000000 12.430000305 -0.029999999 0.3700770438 2.4749999046 3.5269999504 97.625000000 92.250000000 4.1760001183 21.465999603 6.0900001526 6.0900001526
 2411.1970215 7.0000000000 12.430000305 -0.028999999 0.3642693758 2.4920001030 3.6970000267 97.000000000 89.750000000 4.1989998817 21.184999466 5.9770002365 5.9770002365
 2411.3496094 7.0000000000 12.430000305 -0.028000001 0.3496099710 2.5139999390 4.0000000000 96.935798645 89.746795654 4.1879940033 20.966800690 5.8127999306 5.8127999306
 2411.5019531 7.0000000000 12.430000305 -0.027000001 0.3198200166 2.5309998989 3.9379999638 95.566307068 87.750602722 4.1839613914 21.466249466 5.6880497932 5.6880497932
 2411.6542969 7.0000000000 12.430000305 -0.025000000 0.2935021818 2.5230000019 3.6779999733 97.628799438 88.123809814 4.1600189209 21.622100830 5.7191052437 5.7191052437
 2411.8066406 7.0000000000 12.430000305 -0.022000000 0.2759081423 2.5060000420 3.3870000839 100.00000000 87.375000000 4.1719999313 21.684999466 5.7849998474 5.7849998474
 2411.9592285 7.0000000000 12.430000305 -0.016000001 0.2880899906 2.5020000935 3.3980000019 105.06690979 87.999992371 4.1519503593 22.153297424 5.8589825630 5.8589825630
 2412.1115723 7.0000000000 12.477000237 -0.017999999 0.2983399928 2.5079998970 3.4609999657 107.48988342 87.999389648 4.1209435463 21.715700150 5.8479743004 5.8479743004
 2412.2639160 7.0000000000 12.538999557 -0.020000000 0.3027229607 2.5139999390 3.4920001030 101.18640137 87.622001648 4.0859441757 21.529449463 5.8320941925 5.8320941925
 2412.4162598 7.0000000000 12.538999557 -0.020000000 0.3017615676 2.5120000839 3.4019999504 100.18800354 85.750000000 4.0510001183 21.809999466 5.8909997940 5.8909997940
 2412.5686035 7.0000000000 12.538999557 -0.018999999 0.2973670661 2.5079998970 3.4340000153 95.250000000 85.750000000 4.0000000000 21.903999329 5.9180002213 5.9180002213
 2412.7211914 7.0000000000 12.538999557 -0.017999999 0.2978500128 2.5099999905 3.5999999046 97.494895935 86.375198364 3.9729247093 21.903848648 5.8470287323 5.8470287323
 2412.8735352 7.0000000000 12.508000374 -0.017000001 0.2915101647 2.5120000839 3.6229999065 94.308105469 86.499801636 3.9259872437 21.810400009 5.2415008545 5.2415008545
 2413.0258789 7.0000000000 12.430000305 -0.017999999 0.2929676473 2.5160000324 3.6150000095 91.250000000 86.375000000 3.9179999828 22.059999466 4.9299998283 4.9299998283
 2413.1782227 7.0000000000 12.430000305 -0.023000000 0.3012567163 2.5139999390 3.5590000153 90.750000000 86.375000000 3.9430000782 22.090999603 5.1719999313 5.1719999313
 2413.3308105 7.0000000000 12.500000000 -0.028999999 0.3134799898 2.5039999485 3.6819999218 93.568908691 87.126205444 4.1129136086 22.090900421 4.9424905777 4.9424905777
 2413.4831543 7.0000000000 12.538999557 -0.032000002 0.3266600072 2.5000000000 3.7909998894 97.258415222 87.876800537 4.0588431358 22.028598785 5.8709068298 5.8709068298
 2413.6354980 7.0000000000 12.437999725 -0.026000001 0.3344574869 2.5060000420 3.8069999218 102.50099945 89.001800537 3.9604256153 21.778799057 5.8128867149 5.8128867149
 2413.7878418 7.0000000000 12.430000305 -0.024000000 0.3339807689 2.5099999905 3.9000000954 103.12500000 90.125000000 3.6019999981 21.653999329 5.7420001030 5.7420001030
 2413.9404297 7.0000000000 12.430000305 -0.023000000 0.3349599838 2.5160000324 3.7539999485 102.92728424 89.997993469 3.6109905243 21.715900421 5.6560883522 5.6560883522
 2414.0927734 7.0000000000 12.430000305 -0.028000001 0.3310500085 2.5120000839 3.6329998970 96.245895386 88.746597290 3.6050000191 21.653947830 5.7109999657 5.7109999657
 2414.2451172 7.0000000000 12.430000305 -0.029999999 0.3169126511 2.5099999905 3.3670001030 93.693305969 86.623001099 3.6050000191 21.621700287 5.7110061646 5.7110061646
 2414.3974609 7.0000000000 12.430000305 -0.030999999 0.2905722260 2.5079998970 3.3280000687 97.000000000 85.375000000 3.6050000191 21.434999466 5.7150001526 5.7150001526
 2414.5498047 7.0000000000 12.430000305 -0.026000001 0.2724889815 2.5139999390 3.2730000019 101.31300354 84.125000000 3.6110000610 21.309999466 5.7189998627 5.7189998627
 2414.7023926 7.0000000000 12.430000305 -0.026000001 0.2622100115 2.5139999390 3.4489998817 100.93339539 84.249389648 3.6110031605 21.403547287 5.7150063515 5.7150063515
 2414.8547363 7.0000000000 12.430000305 -0.027000001 0.2768365443 2.5199999809 3.7539999485 98.053001404 83.868598938 3.6129999161 21.123199463 5.7190127373 5.7190127373
 2415.0070801 7.0000000000 12.430000305 -0.034000002 0.3207295835 2.5510001183 4.4530000687 91.813003540 79.875000000 3.6129999161 21.871999741 5.7270002365 5.7270002365
 2415.1594238 16.000000000 12.430000305 -0.035999998 0.3027589619 2.6129999161 5.2579998970 85.125000000 75.000000000 3.6040000916 22.246999741 5.7189998627 5.7189998627
 2415.3120117 16.000000000 12.430000305 -0.030999999 0.2475600094 2.6619999409 4.6989998817 84.262924194 74.126800537 3.5979936123 21.401195526 5.7189936638 5.7189936638
