# LAS format log file from PETREL
# Project units are specified as depth units
#==================================================================
~Version information
VERS.   2.0:
WRAP.   NO:
#==================================================================
~Well
STRT .m      2901.5925293 :
STOP .m      3271.0102539 :
STEP .m     0.00000000 :
NULL .        -999.250000 :
COMP.           : COMPANY
WELL.  35/11-13   : WELL
FLD.            : FIELD
LOC.            : LOCATION
SRVC.           : SERVICE COMPANY
DATE.  2018-09-11 14:48:55   : Log Export Date {yyyy-MM-dd HH:mm:ss}
PROV.           : PROVINCE
UWI.   35/11-13   : UNIQUE WELL ID
API.            : API NUMBER
#==================================================================
~Curve
DEPT .m                   : DEPTH
Lithology_geolink ._      : Lithology_geolink
CALI .in                  : CALI
BS .in                    : BS
ROP .m/h                  : ROP
DRHO .g/cm3               : DRHO
NPHI .m3/m3               : NPHI
RHOB .g/cm3               : RHOB
PEF .b/e                  : PEF
GR .gAPI                  : GR
DTC .us/ft                : DTC
DTS .us/ft                : DTS
RDEP .ohm.m               : RDEP
RMIC .ohm.m               : RMIC
RMED .ohm.m               : RMED
~Parameter
#==================================================================
~Ascii
# ...
 2995.3183594 16.000000000 8.4582996368 8.5000000000 72.673881531 -0.001500000 0.3438999951 2.5155000687 2.9721000195 95.907997131 80.010696411 143.53909302 28.000000000 22.571599960 29.174299240
 2995.4709473 7.0000000000 8.4780998230 8.5000000000 74.917976379 -0.004500000 0.3515999913 2.5274000168 2.9319000244 103.25859833 81.035102844 143.95649719 26.808099747 18.198799133 28.071199417
 2995.6232910 7.0000000000 8.4649000168 8.5000000000 73.372703552 -0.005600000 0.3540000021 2.5244998932 2.9156999588 108.76679993 81.819389343 144.28269958 24.821399689 17.957700729 26.425399780
 2995.7756348 7.0000000000 8.4980001450 8.5000000000 67.332679749 -0.007800000 0.3657999933 2.4609000683 2.9056999683 110.68759918 82.251403809 145.91569519 22.219499588 14.253199577 23.718900681
 2995.9279785 7.0000000000 8.4780998230 8.5000000000 62.063648224 -0.007900000 0.3790000081 2.4818000793 2.9365999699 115.86689758 83.346298218 147.48620605 10.843999863 12.843600273 11.793100357
 2996.0805664 7.0000000000 8.4980001450 8.5000000000 51.643703461 -0.006500000 0.3824999928 2.4962000847 2.9516000748 121.95059967 84.487091064 151.50250244 14.003800392 11.244899750 15.344200134
 2996.2329102 7.0000000000 8.4913997650 8.5000000000 46.492782593 -0.005300000 0.3806000054 2.5192999840 2.9839000702 132.93719482 86.111900330 154.89219666 14.240699768 13.611900330 15.592499733
 2996.3852539 7.0000000000 8.5046997070 8.5000000000 37.221130371 -0.004200000 0.3955000043 2.5322999954 3.0016000271 136.05000305 86.088203430 156.27859497 13.627099991 13.164299965 14.884599686
 2996.5375977 7.0000000000 8.4913997650 8.5000000000 33.100391388 -0.003900000 0.4244999886 2.4960000515 2.9660999775 137.20100403 87.888198853 157.44050598 12.745599747 11.924900055 13.825599670
 2996.6899414 7.0000000000 8.4935998917 8.5000000000 29.035434723 -0.002800000 0.4550000131 2.5550999641 3.1452999115 133.25480652 88.166801453 157.66052246 12.091899872 11.061400414 12.993000031
 2996.8425293 7.0000000000 8.4913997650 8.5000000000 29.091205597 -0.003600000 0.4578000009 2.5292000771 3.1505000591 133.26600647 87.622596741 157.15829468 15.239899635 11.771900177 16.041799545
 2996.9948730 7.0000000000 8.4913997650 8.5000000000 35.196849823 -0.005100000 0.4397000074 2.4978001118 3.0360999107 130.47079468 86.238296509 156.59030151 16.027999878 13.591300011 16.631299973
 2997.1472168 7.0000000000 8.4980001450 8.5000000000 41.250000000 -0.005900000 0.4169000089 2.4770998955 2.9992001057 127.51110077 84.763298035 154.27049255 15.639599800 12.802700043 16.121400833
 2997.2995605 7.0000000000 8.5113000870 8.5000000000 52.627952576 -0.005800000 0.3738000095 2.5141999722 3.1073000431 121.59190369 82.134597778 148.11070251 15.008600235 13.331199646 15.272500038
 2997.4521484 7.0000000000 8.5113000870 8.5000000000 57.956039429 -0.006300000 0.3368000090 2.5618000031 2.9769999981 113.94609833 79.136589050 144.97619629 16.953399658 14.101099968 17.089399338
 2997.6044922 7.0000000000 8.5290002823 8.5000000000 64.858924866 -0.008400000 0.3194999993 2.5348999500 3.0610001087 109.86540222 77.946502686 141.64399719 19.929899216 17.981700897 20.007099152
 2997.7568359 7.0000000000 8.5377998352 8.5000000000 66.433731079 -0.007200000 0.3221000135 2.5685999393 3.0492999554 108.22119904 75.621200562 138.81350708 20.785299301 18.301500320 20.820699692
 2997.9091797 7.0000000000 8.5312004089 8.5000000000 69.921264648 -0.004200000 0.3357999921 2.6370999813 3.2054998875 105.50820160 76.122200012 140.51849365 20.570400238 20.819900513 20.612499237
 2998.0617676 16.000000000 8.5312004089 8.5000000000 71.837272644 0.0001000000 0.3456999958 2.6749999523 3.5982000828 100.54550171 78.005302429 144.04499817 23.064500809 22.626699448 23.093000412
 2998.2141113 16.000000000 8.5179004669 8.5000000000 77.142387390 0.0007000000 0.3499000072 2.5980000496 3.2244999409 102.42520142 79.412498474 145.74060059 21.690999985 21.866399765 21.753499985
 2998.3664551 16.000000000 8.5179004669 8.5000000000 80.534782410 -0.000200000 0.3544000089 2.5813000202 3.2297999859 111.38639832 82.106498718 149.04080200 15.246000290 17.045499802 15.206500053
 2998.5187988 16.000000000 8.5290002823 8.5000000000 87.736221313 -0.001900000 0.4040000141 2.4993000031 3.0955998898 124.12930298 84.310501099 155.12030029 14.706600189 14.677000046 14.514900208
 2998.6711426 16.000000000 8.5179004669 8.5000000000 91.548553467 -0.002200000 0.4401000142 2.4995999336 3.1698999405 128.64160156 85.909599304 157.68638611 14.810899734 13.897399902 14.600500107
 2998.8237305 16.000000000 8.5024995804 8.5000000000 99.002624512 -0.001800000 0.4214999974 2.5097999573 2.9447000027 131.93380737 88.931198120 159.66490173 12.958700180 12.666199684 12.863699913
 2998.9760742 16.000000000 8.5046997070 8.5000000000 106.28281403 -0.002800000 0.3894999921 2.5157999992 2.9848001003 132.83810425 89.442398071 165.40780640 10.277400017 10.765199661 10.265299797
 2999.1284180 16.000000000 8.5024995804 8.5000000000 106.46653748 -0.005300000 0.3829999864 2.5302999020 3.0425000191 137.29820251 89.698699951 166.80722046 10.944499969 9.3550996780 11.005499840
 2999.2807617 16.000000000 8.4913997650 8.5000000000 106.83726501 -0.008300000 0.3905000091 2.4756999016 3.0840001106 138.07170105 89.547500610 167.21740723 12.098999977 9.6604995728 12.222299576
 2999.4333496 16.000000000 8.4780998230 8.5000000000 107.01115417 -0.009500000 0.4084999859 2.4560999870 3.0803000927 140.29139709 89.604598999 166.79739380 10.615599632 9.3772001266 10.727600098
 2999.5856934 16.000000000 8.4671001434 8.5000000000 107.53281403 -0.009200000 0.4007999897 2.4823999405 3.0766999722 136.18080139 89.145408630 165.75570679 10.834300041 8.9441995621 10.889200211
 2999.7380371 16.000000000 8.4780998230 8.5000000000 107.88057709 -0.009500000 0.3977000117 2.4979000092 3.1300001144 137.38409424 89.374496460 166.84031677 10.387000084 8.8538999557 10.387000084
 2999.8903809 16.000000000 8.4582996368 8.5000000000 110.84973145 -0.010000000 0.4167000055 2.4900000095 3.2269999981 132.33149719 88.942298889 167.97520447 10.740599632 8.6794004440 10.749199867
 3000.0429688 16.000000000 8.4671001434 8.5000000000 112.33267212 -0.009700001 0.4435000122 2.4621000290 3.1242001057 130.13420105 89.191001892 168.40031433 11.034700394 10.492500305 10.827699661
 3000.1953125 16.000000000 8.4582996368 8.5000000000 114.37663269 -0.007300000 0.4341999888 2.4863998890 3.0717000961 129.88000488 89.338600159 168.25367737 10.826999664 8.1071996689 10.470999718
 3000.3476563 16.000000000 8.4582996368 8.5000000000 115.40026093 -0.004000000 0.4194000065 2.5574998856 3.2713000774 126.13600159 88.956298828 167.47239685 8.4033002853 6.6430001259 7.9872999191
 3000.5000000 16.000000000 8.4649000168 8.5000000000 109.60958099 -0.001500000 0.4189000130 2.5439000130 3.3348999023 125.53430176 88.818107605 166.75889587 12.059599876 6.4107999802 11.250599861
 3000.6523438 16.000000000 8.4516000748 8.5000000000 106.71260071 -0.001500000 0.4415999949 2.5264999866 3.3894999027 124.38339996 88.974700928 161.23149109 14.687800407 7.8080000877 13.704700470
 3000.8049316 16.000000000 8.4582996368 8.5000000000 93.195541382 -0.005000000 0.4546000063 2.5107998848 3.2060999870 131.94689941 88.663299561 160.08882141 14.053600311 12.055299759 13.043800354
 3000.9572754 16.000000000 8.4516000748 8.5000000000 90.928482056 -0.008200000 0.4411999881 2.5127000809 3.0764999390 135.97900391 88.726692200 160.01960754 13.476799965 11.873000145 12.478500366
 3001.1096191 16.000000000 8.4582996368 8.5000000000 86.391082764 -0.009900000 0.4253000021 2.5230998993 3.0813000202 135.97900391 87.575401306 158.24281311 13.525400162 12.608099937 12.514900208
 3001.2619629 16.000000000 8.4649000168 8.5000000000 85.131233215 -0.008700000 0.4104999900 2.5104999542 3.1333000660 135.84820557 86.040397644 156.65159607 14.956899643 12.320599556 13.797599792
 3001.4145508 7.0000000000 8.4715003967 8.5000000000 83.641731262 -0.005700000 0.3880999982 2.4955000877 3.2560000420 126.14720154 84.834999084 150.58070374 14.146900177 11.181599617 12.819100380
