# LAS format log file from PETREL
# Project units are specified as depth units
#==================================================================
~Version information
VERS.   2.0:
WRAP.   NO:
#==================================================================
~Well
STRT .m      2901.5925293 :
STOP .m      3271.0102539 :
STEP .m     0.00000000 :
NULL .        -999.250000 :
COMP.           : COMPANY
WELL.  35/11-13   : WELL
FLD.            : FIELD
LOC.            : LOCATION
SRVC.           : SERVICE COMPANY
DATE.  2018-09-11 14:48:55   : Log Export Date {yyyy-MM-dd HH:mm:ss}
PROV.           : PROVINCE
UWI.   35/11-13   : UNIQUE WELL ID
API.            : API NUMBER
#==================================================================
~Curve
DEPT .m                   : DEPTH
Lithology_geolink ._      : Lithology_geolink
CALI .in                  : CALI
BS .in                    : BS
ROP .m/h                  : ROP
DRHO .g/cm3               : DRHO
NPHI .m3/m3               : NPHI
RHOB .g/cm3               : RHOB
PEF .b/e                  : PEF
GR .gAPI                  : GR
DTC .us/ft                : DTC
DTS .us/ft                : DTS
RDEP .ohm.m               : RDEP
RMIC .ohm.m               : RMIC
RMED .ohm.m               : RMED
~Parameter
#==================================================================
~Ascii
# ...
 3095.2929688 7.0000000000 8.3787002563 8.5000000000 43.959125519 -0.004600000 0.2309044898 2.5429964066 2.7353746891 96.737960815 76.002433777 126.25240326 25.939464569 3.7957997322 22.734863281
 3095.4455566 7.0000000000 8.4449996948 8.5000000000 43.430168152 -0.002900000 0.2337067276 2.5405671597 2.8438689709 94.099914551 75.899818420 126.44860077 18.944406509 7.2803359032 16.299690247
 3095.5979004 7.0000000000 8.4184999466 8.5000000000 43.957111359 -0.002600000 0.2358006388 2.4992032051 2.7407233715 95.628082275 75.937049866 126.37290192 20.495546341 6.0166687965 17.657640457
 3095.7502441 7.0000000000 8.3964004517 8.5000000000 44.224048615 -0.003100000 0.2361908704 2.5012323856 2.6932308674 93.564552307 75.602828979 125.70010376 34.678771973 7.4320311546 31.085386276
 3095.9025879 7.0000000000 8.4052000046 8.5000000000 47.272781372 -0.003200000 0.2305128127 2.5214750767 2.7748508453 96.843139648 78.430122375 126.52761078 41.842021942 8.7038345337 36.146793365
 3096.0551758 7.0000000000 8.3964004517 8.5000000000 48.785209656 -0.003700000 0.2384769619 2.5681159496 2.8064982891 100.79416656 81.940437317 129.50750732 13.130026817 12.690701485 11.840722084
 3096.2075195 7.0000000000 8.3964004517 8.5000000000 46.464675903 -0.003000000 0.2312714756 2.5417001247 2.8056666851 101.48786926 83.739395142 134.61869812 11.368563652 5.9576344490 10.169792175
 3096.3598633 2.0000000000 8.3610000610 8.5000000000 45.304252625 -0.004600000 0.2134458274 2.4171788692 2.5981185436 93.282455444 89.293830872 140.54919434 14.993085861 2.8627045155 12.977226257
 3096.5122070 2.0000000000 8.3388996124 8.5000000000 44.763347626 -0.006200000 0.1796860546 2.4036345482 2.6715981960 77.912284851 95.734153748 144.64250183 74.801918030 2.1169481277 57.185695648
 3096.6645508 2.0000000000 8.3521003723 8.5000000000 44.494224548 -0.008500000 0.1710112244 2.1760556698 2.4212849140 68.110115051 99.382438660 150.33270264 42.282936096 1.4610670805 31.759475708
 3096.8171387 4.0000000000 8.3255996704 8.5000000000 44.166152954 -0.009200000 0.1780307293 2.2107765675 2.4116866589 62.558380127 101.21108246 154.17070007 38.265697479 1.1281431913 29.027805328
 3096.9694824 4.0000000000 8.3255996704 8.5000000000 44.011711121 -0.009900000 0.1876107454 2.2346007824 2.3139209747 58.154869080 99.990554810 158.65109253 21.681964874 0.8300262690 17.333374023
 3097.1218262 4.0000000000 8.3345003128 8.5000000000 47.634654999 -0.010500000 0.1943083256 2.2350440025 2.2021791935 54.705307007 99.153396606 158.46661377 34.216083527 0.7841453552 27.365386963
 3097.2741699 4.0000000000 8.3432998657 8.5000000000 51.814826965 -0.011000000 0.1994967908 2.2624967098 2.0645563602 52.095619202 99.398155212 157.79649353 55.295497894 0.8125613332 38.862079620
 3097.4267578 4.0000000000 8.3432998657 8.5000000000 54.207660675 -0.011300000 0.1974942386 2.2603521347 2.0376384258 53.228805542 98.927070618 157.46699524 37.761039734 0.9133918285 26.436609268
 3097.5791016 4.0000000000 8.3432998657 8.5000000000 61.875312805 -0.013300000 0.1957011223 2.2453639507 2.1118979454 53.363441467 97.419601440 156.23449707 29.582387924 1.0042079687 21.893817902
 3097.7314453 5.0000000000 8.3432998657 8.5000000000 67.187568665 -0.016200000 0.1964286864 2.2230217457 2.1107275486 58.995765686 96.046165466 154.98718262 30.770301819 0.9470607638 23.470840454
 3097.8837891 5.0000000000 8.3521003723 8.5000000000 72.854911804 -0.017400000 0.2142955214 2.2366690636 2.1906626225 59.165443420 96.089332581 154.79910278 37.724254608 1.0477069616 28.655668259
 3098.0363770 5.0000000000 8.3255996704 8.5000000000 73.231506348 -0.018400000 0.2114756852 2.2795548439 2.4792146683 61.917758942 95.101463318 153.84069824 99.959609985 1.3640822172 60.590961456
 3098.1887207 4.0000000000 8.3345003128 8.5000000000 78.311393738 -0.020900000 0.2038972676 2.2032186985 2.6092729568 56.763412476 92.782058716 152.75559998 127.37065887 1.5139513016 59.094341278
 3098.3410645 1.0000000000 8.3521003723 8.5000000000 83.059661865 -0.020800000 0.2022107393 2.2149643898 3.1548678875 55.202373505 91.636199951 150.20458984 85.356155396 1.2964282036 46.168231964
 3098.4934082 1.0000000000 8.3345003128 8.5000000000 98.583580017 -0.017999999 0.2089161873 2.3176951408 4.2576241493 48.083599091 89.576728821 148.95210266 88.244689941 1.1271116734 51.041847229
 3098.6457520 1.0000000000 8.3345003128 8.5000000000 109.40103149 -0.010800000 0.2189932615 2.4391584396 5.0816993713 48.086223602 88.722717285 147.48289490 81.620826721 1.1344221830 48.075599670
 3098.7983398 1.0000000000 8.3388996124 8.5000000000 128.71490479 -0.007800000 0.2147948742 2.4131748676 4.4554862976 49.737148285 88.361633301 145.43980408 75.176856995 1.1482745409 45.384616852
 3098.9506836 1.0000000000 8.3521003723 8.5000000000 137.21481323 -0.006300000 0.2132115364 2.3741521835 3.5780646801 54.334430695 88.435089111 144.46749878 61.681133270 1.1714814901 41.128349304
 3099.1030273 1.0000000000 8.3255996704 8.5000000000 145.54104614 -0.006900000 0.2204136252 2.3442983627 2.9952495098 56.220077515 88.744613647 144.16819763 64.920875549 1.1599826813 44.728702545
 3099.2553711 1.0000000000 8.3432998657 8.5000000000 145.35734558 -0.007300000 0.2289092988 2.3432803154 2.9013619423 54.834793091 89.683616638 145.53410339 90.736686707 1.1492307186 56.208114624
 3099.4079590 1.0000000000 8.3521003723 8.5000000000 143.14309692 -0.008000000 0.2346689552 2.3307952881 2.8151144981 54.321567535 90.316413879 146.86149597 116.65853882 1.1684716940 65.268287659
 3099.5603027 1.0000000000 8.3388996124 8.5000000000 141.12890625 -0.009200000 0.2250012755 2.2981507778 2.7258095741 51.259307861 90.786964417 148.36950684 139.62001038 1.1907496452 70.357543945
 3099.7126465 1.0000000000 8.3521003723 8.5000000000 149.49829102 -0.011100000 0.2257886082 2.2676112652 2.4823372364 51.638519287 91.012573242 149.49749756 115.01866913 1.1592333317 60.452514648
 3099.8649902 1.0000000000 8.3255996704 8.5000000000  -999.250000 -0.012200000 0.2187003344 2.2746124268 2.3808176517 52.644924164 90.061035156 150.55880737 71.362800598 1.0552730560 43.439163208
 3100.0175781 1.0000000000 8.3521003723 8.5000000000  -999.250000 -0.011600000 0.2188731134 2.2824223042 2.3293108940 52.411418915 90.642387390 150.83509827 53.178390503 0.9761142135 34.948783875
 3100.1699219 1.0000000000 8.3255996704 8.5000000000  -999.250000 -0.010400000 0.2105081677 2.2894055843 2.2705307007 53.159564972 89.920631409 150.50410461 54.971595764 0.9495310783 37.105304718
 3100.3222656 1.0000000000 8.3432998657 8.5000000000  -999.250000 -0.009600000 0.2155889422 2.2927663326 2.3520114422 49.592086792 88.755249023 150.15969849 67.881134033 1.0313451290 44.029174805
 3100.4746094 1.0000000000 8.3388996124 8.5000000000  -999.250000 -0.006300000 0.2087099403 2.2718217373 2.3591942787 51.889076233 88.597816467 150.36459351 77.583900452 1.1217285395 47.945056915
 3100.6269531 1.0000000000 8.3521003723 8.5000000000  -999.250000 -0.006200000 0.2149083316 2.2853093147 2.4180157185 51.940414429 88.300292969 150.42329407 92.495170593 1.1393874884 52.032081604
 3100.7795410 1.0000000000 8.3345003128 8.5000000000  -999.250000 -0.006600000 0.2201076746 2.2911400795 2.4901139736 54.498245239 88.730957031 150.60740662 105.93344879 1.0692052841 53.251609802
 3100.9318848 1.0000000000 8.3432998657 8.5000000000  -999.250000 -0.009500000 0.2225004733 2.3036179543 2.5255658627 52.489341736 88.314498901 150.69769287 106.77339172 1.0396740437 49.228000641
 3101.0842285 1.0000000000 8.3432998657 8.5000000000  -999.250000 -0.009100000 0.2227804512 2.3146781921 2.5044445992 53.449810028 88.127571106 150.11210632 97.214309692 1.0234664679 43.861484528
 3101.2365723 1.0000000000 8.3432998657 8.5000000000  -999.250000 -0.008500000 0.2106048167 2.3012187481 2.5944452286 53.955020905 88.424209595 149.55390930 80.823532104 1.0025404692 38.306446075
 3101.3891602 1.0000000000 8.3255996704 8.5000000000  -999.250000 -0.008800000 0.2135747075 2.3129942417 2.6224725246 55.086894989 88.177177429 149.02850342 73.309318542 0.9654436707 37.030410767
