# LAS format log file from PETREL
# Project units are specified as depth units
#==================================================================
~Version information
VERS.   2.0:
WRAP.   NO:
#==================================================================
~Well
STRT .m      989.00103760 :
STOP .m      3365.3732910 :
STEP .m     0.00000000 :
NULL .        -999.250000 :
COMP.           : COMPANY
WELL.  35/11-1   : WELL
FLD.            : FIELD
LOC.            : LOCATION
SRVC.           : SERVICE COMPANY
DATE.  2018-09-11 14:48:54   : Log Export Date {yyyy-MM-dd HH:mm:ss}
PROV.           : PROVINCE
UWI.   35/11-1   : UNIQUE WELL ID
API.            : API NUMBER
#==================================================================
~Curve
DEPT .m                   : DEPTH
Lithology_geolink ._      : Lithology_geolink
CALI .in                  : CALI
DRHO .g/cm3               : DRHO
NPHI .m3/m3               : NPHI
RHOB .g/cm3               : RHOB
PEF .b/e                  : PEF
GR .gAPI                  : GR
DTC .us/ft                : DTC
RDEP .ohm.m               : RDEP
SP .mV                    : SP
RSHA .ohm.m               : RSHA
RMED .ohm.m               : RMED
~Parameter
#==================================================================
~Ascii
# ...
 3359.1247559  -999.250000 8.6479997635 -0.027000001 0.0068399999 2.5980000496 3.4409999847 42.030998230 65.250000000 5.3442754745 20.391401291 7.9148268700 7.9148268700
 3359.2770996  -999.250000 8.5469999313 -0.023000000 0.0073199999 2.6050000191 3.2969999313 42.030998230 65.250000000 5.5163187981 20.641401291 8.4285726547 8.4285726547
 3359.4296875  -999.250000 8.5389995575 -0.020000000 0.0073199999 2.6040000916 3.3010001183 42.030998230 65.250000000 5.7156753540 20.894302368 7.5354990959 7.5354990959
 3359.5820313  -999.250000 8.5389995575 -0.015000000 0.0073199999 2.5999999046 3.1519999504 42.030998230 65.250000000 5.9264006615 21.923400879 6.4443063736 6.4443063736
 3359.7343750  -999.250000 8.5389995575 -0.015000000 0.0073199999 2.5920000076 3.2149999142 42.030998230 65.250000000 6.1757612228 22.174600601 6.0120496750 6.0120496750
 3359.8867188  -999.250000 8.5389995575 -0.017000001 0.0073199999 2.5999999046 3.1370000839 42.030998230 65.250000000 6.0261425972 23.171550751 6.0433125496 6.0433125496
 3360.0390625  -999.250000 8.6169996262 -0.017999999 0.0068399999 2.5959999561 3.1410000324 42.030998230 65.250000000 5.4914617538 22.891752243 6.2378506660 6.2378506660
 3360.1916504  -999.250000 8.6479997635 -0.018999999 0.0068399999 2.5899999142 3.1089999676 42.030998230 65.250000000 5.1554274559 23.360898972 6.1440496445 6.1440496445
 3360.3439941  -999.250000 8.6479997635 -0.015000000 0.0068399999 2.5899999142 3.0250000954 42.030998230 65.250000000 4.9767932892 23.642202377 5.8478107452 5.8478107452
 3360.4963379  -999.250000 8.6479997635 -0.018999999 0.0068399999 2.5840001106 2.8929998875 42.030998230 65.250000000 4.8479485512 24.390199661 5.7296314240 5.7296314240
 3360.6486816  -999.250000 8.6479997635 -0.020000000 0.0068399999 2.5780000687 2.8180000782 42.030998230 65.250000000 4.8159761429 23.892553329 5.4996552467 5.4996552467
 3360.8012695  -999.250000 8.6479997635 -0.028000001 0.0068399999 2.5510001183 2.7990000248 42.030998230 65.250000000 4.8006992340 24.861600876 5.2842383385 5.2842383385
 3360.9536133  -999.250000 8.6479997635 -0.024000000 0.0068399999 2.5329999924 2.7990000248 42.030998230 65.250000000 4.7065925598 25.359600067 5.0467176437 5.0467176437
 3361.1059570  -999.250000 8.6479997635 -0.024000000 0.0068399999 2.5099999905 2.7709999084 42.030998230 65.250000000 4.4530563354 25.110801697 4.8707995415 4.8707995415
 3361.2583008  -999.250000 8.6479997635 -0.020000000 0.0068399999 2.5020000935 2.6760001183 42.030998230 65.250000000 4.4879069328 25.610000610 4.7459006310 4.7459006310
 3361.4108887  -999.250000 8.6479997635 -0.023000000 0.0068399999 2.4939999580 2.6229999065 42.030998230 65.250000000 4.4295740128 25.612400055 4.6838240623 4.6838240623
 3361.5632324  -999.250000 8.6479997635 -0.020000000 0.0068399999 2.5120000839 2.7090001106 42.030998230 65.250000000 4.2968811989 26.358398438 4.6289186478 4.6289186478
 3361.7155762  -999.250000 8.6479997635 -0.023000000 0.0068399999 2.5160000324 2.9839999676 42.030998230 65.250000000 4.2228860855 25.358047485 4.5778942108 4.5778942108
 3361.8679199  -999.250000 8.6479997635 -0.022000000 0.0068399999 2.5160000324 3.4900000095 42.030998230 65.250000000 4.1518621445 24.147411346 4.5118684769 4.5118684769
 3362.0202637  -999.250000 8.5939998627 -0.027000001 0.0068399999 2.5060000420 3.6349999905 42.030998230 65.250000000 4.0659885406 28.134140015 4.4298748970 4.4298748970
 3362.1728516  -999.250000 8.5389995575 -0.021000000 0.0073199999 2.5139999390 3.4609999657 42.030998230 65.250000000 4.0590128899 23.868000031 4.3519616127 4.3519616127
 3362.3251953  -999.250000 8.5389995575 -0.024000000 0.0073199999 2.5199999809 3.1740000248 42.030998230 65.250000000 4.0629873276 26.358798981 4.3400001526 4.3400001526
 3362.4775391  -999.250000 8.5629997253 -0.013000000 0.0073199999 2.5230000019 3.1129999161 42.030998230 65.250000000 4.0549550056 25.605192184 4.3400001526 4.3400001526
 3362.6298828  -999.250000 8.4060001373 0.0070000002 0.0078100003 2.5230000019 3.1740000248 42.030998230 65.250000000 4.0270256996 22.610401154 4.3400001526 4.3400001526
 3362.7824707  -999.250000 8.3199996948 0.0529999994 0.0082999999 2.5409998894 3.1170001030 42.030998230 65.250000000 4.0430130959 22.860799789 4.3399872780 4.3399872780
 3362.9348145  -999.250000 8.3199996948 0.0839999989 0.0082999999 2.5590000153 3.1619999409 42.030998230 65.250000000 4.0469999313 23.110000610 4.3359999657 4.3359999657
 3363.0871582  -999.250000 8.3199996948 0.0939999968 0.0082999999 2.5569999218 3.1270000935 42.030998230 65.250000000 4.0469937325 23.109600067 4.3359937668 4.3359937668
 3363.2395020  -999.250000 8.3199996948 0.1049999967 0.0082999999 2.5659999847 3.2360000610 42.030998230 65.250000000 4.0429873466 22.858749390 4.3320059776 4.3320059776
 3363.3920898  -999.250000 8.3199996948 0.1150000021 0.0082999999 2.5720000267 3.1879999638 42.030998230 65.250000000 4.0350384712 22.078201294 4.3359870911 4.3359870911
 3363.5444336  -999.250000 8.3199996948 0.1169999987 0.0082999999 2.5739998817 3.1779999733 42.030998230 65.250000000 4.0470061302 21.828599930 4.3320059776 4.3320059776
 3363.6967773  -999.250000 8.2969999313 0.1199999973 0.0082999999 2.5799999237 3.1250000000 42.030998230 65.250000000 4.0510001183 21.579000473 4.3359870911 4.3359870911
 3363.8491211  -999.250000 8.2889995575 0.1099999994 0.0082999999 2.5720000267 3.0899999142 42.030998230 65.250000000 4.0510063171 21.579401016 4.3280062675 4.3280062675
 3364.0014648  -999.250000 8.2729997635 0.1070000008 0.0087900003 2.5680000782 3.0739998817 42.030998230 65.250000000 4.0549998283 21.829401016 4.3319935799 4.3319935799
 3364.1540527  -999.250000 8.2189998627 0.1040000021 0.0087900003 2.5639998913 1.0609999895 42.030998230 65.250000000 4.0549998283 22.078901291 4.3280258179 4.3280258179
 3364.3063965  -999.250000 8.2189998627 0.1099999994 0.0087900003 2.5680000782 1.0679999590 42.030998230 65.250000000 4.0550127029 22.047199249 4.3359808922 4.3359808922
 3364.4587402  -999.250000 8.2189998627 15.453000069 0.0087900003 40.844001770 1.0709999800 42.030998230 65.250000000 4.0630116463 21.548000336 4.3240127563 4.3240127563
 3364.6110840  -999.250000 5.6909999847 33.469001770 0.0214799996 82.063003540 1.0709999800 42.030998230 65.250000000 4.0699939728 21.547199249 4.3319997787 4.3319997787
 3364.7636719  -999.250000 5.6909999847 50.812999725 0.0214799996 122.62500000 1.0709999800 42.030998230 65.250000000 4.0659999847 21.048000336 4.3319997787 4.3319997787
 3364.9160156  -999.250000 5.6909999847 48.969001770 0.0214799996 120.81300354 1.0709999800 42.030998230 65.250000000 4.0659999847 21.048749924 4.3319997787 4.3319997787
 3365.0683594  -999.250000 5.6909999847 48.969001770 0.0214799996 120.81300354 1.0709999800 42.030998230 65.250000000 4.0659999847 21.516401291 4.3319997787 4.3319997787
 3365.2207031  -999.250000 5.6909999847 48.969001770 0.0214799996 120.81300354 1.0709999800 42.030998230 65.250000000 4.0660061836 21.766401291 4.3319997787 4.3319997787
 3365.3732910  -999.250000 5.6909999847 48.969001770 0.0214799996 120.81300354 1.0709999800 42.030998230 65.250000000 4.0700001717 22.015102386 4.3319997787 4.3319997787
