# LAS format log file from PETREL
# Project units are specified as depth units
#==================================================================
~Version information
VERS.   2.0:
WRAP.   NO:
#==================================================================
~Well
STRT .m      1150.0018311 :
STOP .m      2885.3808594 :
STEP .m     0.00000000 :
NULL .        -999.250000 :
COMP.           : COMPANY
WELL.  35/11-10   : WELL
FLD.            : FIELD
LOC.            : LOCATION
SRVC.           : SERVICE COMPANY
DATE.  2018-09-11 14:48:54   : Log Export Date {yyyy-MM-dd HH:mm:ss}
PROV.           : PROVINCE
UWI.   35/11-10   : UNIQUE WELL ID
API.            : API NUMBER
#==================================================================
~Curve
DEPT .m                   : DEPTH
Lithology_geolink ._      : Lithology_geolink
CALI .in                  : CALI
BS .in                    : BS
DRHO .g/cm3               : DRHO
NPHI .m3/m3               : NPHI
RHOB .g/cm3               : RHOB
GR .gAPI                  : GR
DTC .us/ft                : DTC
DTS .us/ft                : DTS
RDEP .ohm.m               : RDEP
SP .mV                    : SP
RSHA .ohm.m               : RSHA
RMIC .ohm.m               : RMIC
RMED .ohm.m               : RMED
~Parameter
#==================================================================
~Ascii
# ...
 2537.1469727 7.0000000000 9.3310003281 8.5000000000 -0.005061123 0.3450424969 2.4849934578 116.88800049 90.637504578 161.84646606 5.9392786026 -154.0007935 6.0532493591 5.5039072037 6.0529999733
 2537.2993164 7.0000000000 9.3310003281 8.5000000000 -0.007901940 0.3419877887 2.4829919338 116.30300140 91.417243958 163.85675049 6.0266618729 -154.2501068 6.1316218376 6.1618909836 6.1310000420
 2537.4516602 7.0000000000 9.3310003281 8.5000000000 -0.007240146 0.3038841486 2.4779822826 119.30500031 90.948509216 161.83233643 6.4398045540 -154.3108978 6.5200448036 6.4536032677 6.5190000534
 2537.6040039 7.0000000000 9.3290004730 8.5000000000 -0.006704917 0.3271282017 2.4669983387 117.49700165 91.266296387 163.28880310 6.9412484169 -152.9989929 7.1712918282 7.0411682129 7.1710000038
 2537.7565918 7.0000000000 9.3310003281 8.5000000000 -0.004761136 0.3367866278 2.4660544395 120.94200134 91.449775696 165.67362976 7.0963587761 -152.3755951 7.3538899422 7.3789234161 7.3530001640
 2537.9089355 7.0000000000 9.3310003281 8.5000000000 0.0023650867 0.3421164751 2.4830176830 122.92700195 91.693046570 170.53981018 7.2080531120 -152.5630035 7.6310706139 6.4988331795 7.6310000420
 2538.0612793 7.0000000000 9.3310003281 8.5000000000 0.0049085994 0.3561584651 2.4939792156 130.74499512 91.725517273 171.03340149 7.2412662506 -152.5643005 7.6753830910 7.2455897331 7.6750001907
 2538.2136230 7.0000000000 9.3310003281 8.5000000000 0.0034096858 0.3643558919 2.4809710979 134.11799622 93.295356750 172.53352356 7.4071941376 -153.3755951 7.9142837524 7.0668735504 7.9140000343
 2538.3659668 7.0000000000 9.3310003281 8.5000000000 0.0013421330 0.3848751783 2.4629759789 139.09800720 94.135368347 174.72218323 7.5282177925 -153.7490997 8.0913648605 8.6289663315 8.0909996033
 2538.5185547 7.0000000000 9.3310003281 8.5000000000 -0.000439805 0.3584874570 2.4480288029 139.34100342 94.358589172 171.71490479 7.6643199921 -153.1851959 8.3194742203 7.0894789696 8.3190002441
 2538.6708984 7.0000000000 9.3310003281 8.5000000000 0.0008774567 0.3688562810 2.4570257664 112.28600311 92.361480713 170.43927002 7.7638812065 -152.3125000 8.4673986435 7.2627177238 8.4670000076
 2538.8232422 7.0000000000 9.3310003281 8.5000000000 0.0073933783 0.3657490015 2.4730064869 112.81900024 92.039268494 169.36534119 7.6900963783 -152.0001984 8.7156248093 7.2520174980 8.7159996033
 2538.9755859 7.0000000000 9.3290004730 8.5000000000 0.0082502151 0.3908783197 2.4770176411 116.59700012 91.582527161 168.33171082 7.7502470016 -152.1244965 8.4826431274 7.5659918785 8.4820003510
 2539.1281738 7.0000000000 9.3310003281 8.5000000000 0.0071427231 0.3778430521 2.4880254269 118.50399780 91.910728455 167.53858948 7.9041438103 -151.8146057 8.8829679489 7.4461941719 8.8830003738
 2539.2805176 7.0000000000 9.3310003281 8.5000000000 0.0086110672 0.3944492936 2.4959983826 120.05100250 91.514289856 168.34762573 7.9488987923 -152.3140106 8.8729839325 7.9451990128 8.8730001450
 2539.4328613 7.0000000000 9.3310003281 8.5000000000 0.0067776344 0.4019839466 2.4949822426 118.38999939 92.317535400 167.49180603 7.8858561516 -152.9391022 8.8629531860 7.7203621864 8.8629999161
 2539.5852051 7.0000000000 9.3310003281 8.5000000000 0.0028117052 0.4115593135 2.4840047359 121.61799622 92.033874512 169.24090576 7.7956328392 -153.6244965 8.8339052200 7.8715138435 8.8339996338
 2539.7377930 7.0000000000 9.3129997253 8.5000000000 0.0026403361 0.3824158311 2.4870479107 119.90100098 91.954864502 167.92704773 7.5661549568 -153.3130035 8.7748041153 7.5165700912 8.7749996185
 2539.8901367 7.0000000000 9.2989997864 8.5000000000 0.0064822114 0.3425978422 2.5020258427 118.62699890 90.976051331 165.13710022 7.3026700020 -153.3125000 8.7137527466 6.8890066147 8.7139997482
 2540.0424805 7.0000000000 9.2860002518 8.5000000000 0.0059899809 0.3177487850 2.5179998875 115.82599640 90.385513306 165.20504761 7.0966668129 -152.9998932 8.5594263077 6.7152771950 8.5600004196
 2540.1948242 7.0000000000 9.2749996185 8.5000000000 0.0053571444 0.2984728813 2.5179982185 111.58399963 90.076156616 163.98091125 6.8888878822 -152.9385986 8.2014513016 6.5412788391 8.2019996643
 2540.3471680 7.0000000000 9.2810001373 8.5000000000 0.0066935513 0.3347035944 2.5169839859 125.62899780 90.180053711 167.03965759 6.8191022873 -153.3130035 7.8602356911 6.5110960007 7.8600001335
 2540.4997559 7.0000000000 9.2760000229 8.5000000000 0.0070440141 0.3520693183 2.5069839954 129.03599548 91.464759827 165.58271790 6.8835663795 -153.3142090 8.0066642761 7.1290082932 8.0069999695
 2540.6520996 7.0000000000 9.2829999924 8.5000000000 0.0092280731 0.4039897025 2.5019695759 127.41799927 92.951622009 171.11288452 7.0605688095 -153.6880035 7.9021873474 7.7010836601 7.9019999504
 2540.8044434 7.0000000000 9.2580003738 8.5000000000 0.0086579751 0.3924905956 2.4829664230 129.75700378 95.834228516 179.14398193 7.4163203239 -153.6862946 8.0209569931 7.7509212494 8.0190000534
 2540.9567871 7.0000000000 9.2349996567 8.5000000000 0.0130005004 0.4023433328 2.4619326591 123.80300140 97.229255676 184.12789917 8.2405385971 -152.6260071 9.2412853241 9.2990303040 9.2399997711
 2541.1093750 7.0000000000 9.2349996567 8.5000000000 0.0114320302 0.4051904678 2.4198880196 119.92600250 99.888755798 192.80024719 9.2021236420 -153.2492065 10.044275284 15.620860100 10.041999817
 2541.2617188 7.0000000000 9.2559995651 8.5000000000 0.0080057466 0.4172866046 2.3849616051 118.76399994 100.43916321 195.35813904 10.175343513 -153.0008087 10.753273964 10.803748131 10.753000259
 2541.4140625 7.0000000000 9.2740001678 8.5000000000 0.0022474583 0.4298368692 2.3610465527 117.69899750 102.41403961 191.07685852 10.387357712 -153.4996033 10.922530174 14.795579910 10.923999786
 2541.5664063 7.0000000000 9.2989997864 8.5000000000 0.0062699150 0.4222424328 2.3900754452 122.31400299 100.55713654 189.73233032 9.3618812561 -153.2501068 10.005051613 8.1942129135 10.006999969
 2541.7189941 7.0000000000 9.3269996643 8.5000000000 0.0055944161 0.3918756843 2.4371504784 123.05899811 95.028007507 181.20404053 8.0390138626 -153.3137970 8.7886095047 6.7253236771 8.7910003662
 2541.8713379 7.0000000000 9.3459997177 8.5000000000 0.0057290592 0.3703464866 2.4840207100 120.33200073 92.532760620 177.45947266 7.1077485085 -153.5635986 8.0435428619 6.1678910255 8.0439996719
 2542.0236816 7.0000000000 9.3699998856 8.5000000000 0.0088772019 0.3184083402 2.4969968796 123.24600220 89.267631531 165.27447510 6.3273286819 -153.9376068 7.7580990791 5.8654837608 7.7589998245
 2542.1760254 7.0000000000 9.3640003204 8.5000000000 0.0065055303 0.3209138513 2.4949982166 127.78900146 88.413398743 154.98487854 5.9085974693 -153.6885986 7.1962661743 4.5041842461 7.1970000267
 2542.3283691 7.0000000000 9.3640003204 8.5000000000 0.0030982753 0.2990681529 2.4940288067 124.08699799 87.413833618 155.52449036 5.6579041481 -154.0623016 6.7380781174 4.3943457603 6.7389998436
 2542.4809570 7.0000000000 9.3610000610 8.5000000000 0.0032740145 0.3106403053 2.5120160580 118.93000031 86.684844971 149.58883667 5.5982723236 -153.6248932 6.1630897522 4.6126489639 6.1630001068
 2542.6333008 7.0000000000 9.3610000610 8.5000000000 0.0057739518 0.3069988787 2.5220000744 118.95099640 86.591125488 150.12379456 5.7685513496 -153.5631104 6.2199358940 5.2360000610 6.2189998627
 2542.7856445 7.0000000000 9.3570003510 8.5000000000 0.0051293494 0.3144250810 2.5219919682 120.60500336 87.916130066 155.60519409 6.1130928993 -153.6259003 6.8043026924 6.2363958359 6.8029999733
 2542.9379883 7.0000000000 9.3310003281 8.5000000000 0.0103413481 0.3428826928 2.5169742107 120.52999878 86.126152039 156.97599792 6.7958831787 -154.1882019 7.6182951927 7.1002321243 7.6160001755
 2543.0905762 6.0000000000 9.2829999924 8.5000000000 0.0167776737 0.3998367190 2.5010030270 108.24199677 83.114410400 157.00312805 7.9751725197 -154.3137970 9.0550403595 8.3240404129 9.0480003357
 2543.2429199 6.0000000000 9.0030002594 8.5000000000 0.0135674244 0.4141851068 2.5020353794 85.656997681 84.490638733 166.08702087 9.8999071121 -154.5635986 11.249650955 8.5746011734 11.248000145
