# LAS format log file from PETREL
# Project units are specified as depth units
#==================================================================
~Version information
VERS.   2.0:
WRAP.   NO:
#==================================================================
~Well
STRT .m      2818.0771484 :
STOP .m      3213.0979004 :
STEP .m     0.00000000 :
NULL .        -999.250000 :
COMP.           : COMPANY
WELL.  35/11-15 S   : WELL
FLD.            : FIELD
LOC.            : LOCATION
SRVC.           : SERVICE COMPANY
DATE.  2018-09-11 14:48:55   : Log Export Date {yyyy-MM-dd HH:mm:ss}
PROV.           : PROVINCE
UWI.   35/11-15 S   : UNIQUE WELL ID
API.            : API NUMBER
#==================================================================
~Curve
DEPT .m                   : DEPTH
Lithology_geolink ._      : Lithology_geolink
CALI .in                  : CALI
BS .in                    : BS
ROP .m/h                  : ROP
DRHO .g/cm3               : DRHO
THOR .ppm                 : THOR
SGR .gAPI                 : SGR
RHOB .g/cm3               : RHOB
PEF .b/e                  : PEF
GR .gAPI                  : GR
URAN .ppm                 : URAN
DTC .us/ft                : DTC
DTS .us/ft                : DTS
RDEP .ohm.m               : RDEP
RMIC .ohm.m               : RMIC
RMED .ohm.m               : RMED
~Parameter
#==================================================================
~Ascii
# ...
 3026.7126465 2.0000000000 8.3937997818 8.5000000000 88487.687500 0.0061088139 3.1840474606 0.0202003196 2.3003015518 2.4409728050 53.165500641 0.6362873912 90.455665588 159.36360168 2.8875396252 0.5510357618 2.3554885387
 3026.8649902 2.0000000000 8.3908996582 8.5000000000 80624.875000 -0.002985417 3.3123939037 0.0195011217 2.3105835915 2.3771026134 54.906208038 0.9153520465 90.817619324 157.90910339 2.7444298267 0.5974255204 2.2789230347
 3027.0173340 2.0000000000 8.3965997696 8.5000000000 75827.039063 -0.005591680 3.8913419247 0.0202974416 2.3803761005 2.5928070545 56.890636444 0.7924958467 90.818199158 155.72729492 2.6591730118 0.8186899424 2.2119147778
 3027.1699219 2.0000000000 8.3937997818 8.5000000000 75726.140625 -0.005600000 4.3939962387 0.0219972748 2.3634276390 2.6688790321 62.212265015 0.8490086198 90.545936584 153.18179321 3.0370929241 1.0559203625 2.5094223022
 3027.3222656 2.0000000000 8.3937997818 8.5000000000 79554.570313 -0.004102404 4.8024458885 0.0241964739 2.5309309959 3.1794805527 68.604652405 1.0238194466 88.548706055 150.54539490 4.3737554550 1.9476692677 3.4366126060
 3027.4746094 2.0000000000 8.4333000183 8.5000000000 76748.953125 -0.003101603 5.5878400803 0.0270953532 2.4942593575 2.9514675140 77.475479126 1.2311676741 85.096435547 148.27270508 11.867275238 2.4394130707 9.2103347778
 3027.6269531 2.0000000000 8.4333000183 8.5000000000 72617.179688 -0.001901923 6.0099244118 0.0291966349 2.4479742050 2.7735848427 84.367759705 1.4297816753 82.004951477 147.18179321 11.575687408 3.5413327217 8.8231363297
 3027.7795410 2.0000000000 8.4361000061 8.5000000000 71852.171875 0.0017940800 6.5047078133 0.0292998403 2.3878960609 2.6265351772 86.991813660 1.4939975739 80.366218567 146.27270508 9.2275619507 2.1551241875 6.9148569107
 3027.9318848 2.0000000000 8.4021997452 8.5000000000 74265.929688 0.0019996795 6.0807819366 0.0277025644 2.3492617607 2.4411971569 83.230445862 1.5885484219 81.180488586 144.81820679 6.9582362175 1.7550386190 5.2636456490
 3028.0842285 2.0000000000 8.3965997696 8.5000000000 91086.125000 0.0020998397 5.6424021721 0.0263022445 2.3832454681 2.4539790154 78.174804688 1.4386409521 82.815574646 143.18179321 6.5952768326 1.8556375504 4.9483022690
 3028.2365723 2.0000000000 8.4050998688 8.5000000000 107118.22656 -0.002492628 5.5402626991 0.0263000000 2.5173847675 2.8196132183 77.976303101 1.4658558369 83.453468323 142.18179321 7.0685396194 2.2370879650 5.3117160797
 3028.3889160 2.0000000000 8.4236001968 8.5000000000 95898.343750 -0.000107680 5.8104319572 0.0278948788 2.4036657810 2.6479527950 81.481048584 1.4249315262 83.817031860 142.09089661 7.8189935684 2.1077172756 5.8749938011
 3028.5415039 2.0000000000 8.4191999435 8.5000000000 76169.812500 -0.001797276 5.6712250710 0.0291979183 2.3761436939 2.5670289993 81.924003601 1.2802320719 84.544334412 142.90910339 6.0643205643 1.5073629618 4.5554208755
 3028.6938477 2.0000000000 8.4021997452 8.5000000000 61588.753906 -0.001999679 4.8961434364 0.0280019231 2.3058128357 2.3642251492 77.996109009 1.3871281147 84.363891602 144.36360168 4.6710319519 1.0404479504 3.5108733177
 3028.8461914 2.0000000000 8.3965997696 8.5000000000 42940.097656 -0.004196474 4.0903911591 0.0253043268 2.2978127003 2.3804733753 69.742034912 1.2662942410 84.817474365 146.27270508 4.0061635971 0.7656399012 3.1009552479
 3028.9985352 2.0000000000 8.4034996033 8.5000000000 29368.351563 -0.005296480 3.8788750172 0.0236054417 2.2879316807 2.2833120823 64.779785156 1.0682351589 85.543174744 148.54539490 3.6921045780 0.6507673264 2.8861873150
 3029.1511230 2.0000000000 8.4078998566 8.5000000000 48383.292969 -0.005899039 3.5391442776 0.0221024044 2.2947890759 2.3167459965 60.500343323 0.9668616652 86.634651184 150.18179321 3.4072556496 0.5934913754 2.6921105385
 3029.3034668 2.0000000000 8.4060001373 8.5000000000 77496.601563 -0.007996635 3.3218479156 0.0217006411 2.2844166756 2.3227903843 58.008689880 0.8953145742 87.997810364 151.54539490 3.3190410137 0.5698378682 2.6350910664
 3029.4558105 2.0000000000 8.3993997574 8.5000000000 87053.976563 -0.007800320 2.8711228371 0.0217000004 2.2890923023 2.2938466072 56.277572632 0.8987942338 89.452163696 152.63639832 3.2857532501 0.5358544588 2.6389935017
 3029.6081543 2.0000000000 8.4050998688 8.5000000000 96564.718750 -0.005906080 2.9497454166 0.0211019199 2.2965760231 2.3322765827 53.946971893 0.6630567908 89.998252869 153.72729492 3.1567142010 0.5553373098 2.5655357838
 3029.7607422 2.0000000000 8.4078998566 8.5000000000 104197.71875 -0.005500641 2.8858029842 0.0209003203 2.2920074463 2.2727956772 52.694499969 0.5749402642 91.815277100 154.90910339 3.2525455952 0.5485110879 2.6482667923
 3029.9130859 2.0000000000 8.4021997452 8.5000000000 107278.67969 -0.005699680 2.7846620083 0.0208001602 2.2917003632 2.3300080299 52.574390411 0.5917727351 91.818191528 155.63639832 3.0420379639 0.5477012992 2.5099222660
 3030.0654297 2.0000000000 8.4134998322 8.5000000000 107503.92969 -0.007497115 2.7140133381 0.0211993586 2.2968916893 2.4072759151 53.492225647 0.6685767174 90.819801331 156.18179321 3.0734488964 0.5446049571 2.4866368771
 3030.2177734 2.0000000000 8.4106998444 8.5000000000 104248.62500 -0.006900962 2.8956084251 0.0218988787 2.2993960381 2.3445007801 55.101516724 0.6649060845 90.182823181 156.36360168 3.0654127598 0.5875310898 2.4894955158
 3030.3701172 2.0000000000 8.4162998199 8.5000000000 96628.640625 -0.006501280 2.8987905979 0.0214016009 2.3364810944 2.3033318520 54.692821503 0.6764628887 89.547538757 156.18179321 3.2222962379 0.6209927797 2.6182866096
 3030.5227051 2.0000000000 8.4219999313 8.5000000000 87479.523438 -0.006799520 2.8061487675 0.0214998405 2.3105416298 2.2680563927 54.435413361 0.6945709586 88.819366455 155.45451355 3.6201622486 0.6132126451 2.9288022518
 3030.6750488 2.0000000000 8.4191999435 8.5000000000 81088.710938 -0.007399038 2.6891872883 0.0206014421 2.3038108349 2.2773849964 52.417839050 0.7552027106 88.636688232 154.90910339 3.2829422951 0.5623816252 2.7163419724
 3030.8273926 2.0000000000 8.4209995270 8.5000000000 85509.453125 -0.007400000 2.9811310768 0.0209993590 2.2992074490 2.3540768623 52.937660217 0.6273054481 87.819511414 154.72729492 3.2267892361 0.5351435542 2.7216908932
 3030.9797363 2.0000000000 8.4247999191 8.5000000000 97998.007813 -0.007300320 3.0974280834 0.0210996792 2.3047821522 2.3613767624 53.908985138 0.6388621926 87.455665588 154.00000000 3.1191451550 0.5381901264 2.6195280552
 3031.1323242 2.0000000000 8.4305000305 8.5000000000 103694.68750 -0.007699359 3.1352398396 0.0213995203 2.3045005798 2.3929493427 55.559955597 0.7767786980 87.091476440 152.54539490 2.9991919994 0.5572693348 2.5202589035
 3031.2846680 2.0000000000 8.4260997772 8.5000000000 101687.03906 -0.007899679 3.0818858147 0.0207011215 2.3240685463 2.4235508442 54.970451355 0.9945507646 87.090896606 150.45451355 2.9969034195 0.6070201993 2.4988341331
 3031.4370117 2.0000000000 8.4275999069 8.5000000000 96385.898438 -0.005404007 3.1914241314 0.0200011209 2.3380775452 2.4290912151 55.990261078 1.2170433998 86.546379089 148.00000000 2.9925072193 0.6540246606 2.4981012344
 3031.5893555 2.0000000000 8.4275999069 8.5000000000 88627.359375 0.0127417594 3.6684691906 0.0209967997 2.4106671810 2.5204069614 59.103408813 1.1845055819 86.182968140 145.36360168 3.0091466904 0.8106973171 2.4732797146
 3031.7419434 2.0000000000 8.4435997009 8.5000000000 80052.523438 0.0170931090 3.9994711876 0.0216988791 2.6163702011 3.0230937004 62.965816498 1.4144308567 85.455665588 143.63639832 3.4532871246 1.3626148701 2.8770518303
 3031.8942871 2.0000000000 8.4897003174 8.5000000000 67032.000000 0.0163012818 4.7409105301 0.0232974347 2.6305780411 3.8399901390 70.317314148 1.6336486340 82.005538940 142.63639832 4.5083079338 3.7489709854 3.7475037575
 3032.0466309 2.0000000000 8.5461997986 8.5000000000 57510.132813 0.0002258013 5.2687544823 0.0252967943 2.5029051304 2.9959568977 76.608024597 1.7913473845 80.184715271 142.00000000 13.321556091 7.8102874756 10.700941086
 3032.1989746 2.0000000000 8.4728002548 8.5000000000 43043.195313 -0.003294391 5.9616889954 0.0279956739 2.5093891621 2.7767498493 85.660591125 2.0443942547 76.732841492 142.00000000 16.690315247 4.2234678268 12.944616318
