# LAS format log file from PETREL
# Project units are specified as depth units
#==================================================================
~Version information
VERS.   2.0:
WRAP.   NO:
#==================================================================
~Well
STRT .m      1242.0020752 :
STOP .m      2811.1123047 :
STEP .m     0.00000000 :
NULL .        -999.250000 :
COMP.           : COMPANY
WELL.  35/11-9   : WELL
FLD.            : FIELD
LOC.            : LOCATION
SRVC.           : SERVICE COMPANY
DATE.  2018-09-11 14:48:57   : Log Export Date {yyyy-MM-dd HH:mm:ss}
PROV.           : PROVINCE
UWI.   35/11-9   : UNIQUE WELL ID
API.            : API NUMBER
#==================================================================
~Curve
DEPT .m                   : DEPTH
Lithology_geolink ._      : Lithology_geolink
CALI .in                  : CALI
BS .in                    : BS
DRHO .g/cm3               : DRHO
NPHI .m3/m3               : NPHI
RHOB .g/cm3               : RHOB
GR .gAPI                  : GR
DTC .us/ft                : DTC
DTS .us/ft                : DTS
RDEP .ohm.m               : RDEP
SP .mV                    : SP
RMIC .ohm.m               : RMIC
~Parameter
#==================================================================
~Ascii
# ...
 1446.8276367  -999.250000 12.250000954 12.250000954 0.0106899999 0.4732359946 2.1310000420 98.424674988 148.40199280 433.58300781 0.7672820091 18.531000137 0.8339999914
 1446.9799805  -999.250000 12.248000145 12.250000954 0.0089959996 0.4583809972 2.1280000210 103.00156403 148.50900269 438.31201172 0.7607139945 17.087999344 0.8360000253
 1447.1324463  -999.250000 12.248000145 12.250000954 0.0078360001 0.4418970048 2.1280000210 97.472328186 148.72200012 438.04400635 0.7515379786 18.356000900 0.7990000248
 1447.2847900  -999.250000 12.262000084 12.250000954 0.0043859999 0.4438650012 2.1280000210 95.391921997 148.74800110 436.95199585 0.7544329762 21.944000244 0.8259999752
 1447.4372559  -999.250000 12.279000282 12.250000954 0.0056870002 0.4521929920 2.1310000420 96.542121887 148.80799866 437.88198853 0.7544749975 25.093999863 0.8470000029
 1447.5895996  -999.250000 12.279999733 12.250000954 0.0023660001 0.4950200021 2.1310000420 94.198669434 148.99899292 439.29800415 0.7599959970 21.549999237 0.8209999800
 1447.7420654  -999.250000 12.279000282 12.250000954 0.0028899999 0.5114489794 2.1310000420 92.555252075 149.22399902 439.98800659 0.7822110057 19.143999100 0.8410000205
 1447.8944092  -999.250000 12.279999733 12.250000954 0.0044350000 0.5094090104 2.1319999695 97.083305359 149.43099976 439.87399292 0.7876939774 17.044000626 0.8240000010
 1448.0468750  -999.250000 12.279000282 12.250000954 0.0055720001 0.5089520216 2.1319999695 101.20521545 149.61500549 441.00698853 0.7755360007 20.455999374 0.7870000005
 1448.1992188  -999.250000 12.279999733 12.250000954 0.0016080000 0.5174440145 2.1289999485 103.83437347 149.70199585 441.16299438 0.7620459795 23.825000763 0.7889999747
 1448.3516846  -999.250000 12.281000137 12.250000954 0.0062600002 0.5256749988 2.1329998970 99.309806824 149.82000732 443.04901123 0.7545989752 23.475000381 0.7990000248
 1448.5040283  -999.250000 12.279000282 12.250000954 0.0065810001 0.5058519840 2.1340000629 94.828735352 149.92399597 444.35598755 0.7538179755 22.950000763 0.7860000134
 1448.6563721  -999.250000 12.279999733 12.250000954 0.0076589999 0.4664039910 2.1380000114 98.248588562 149.57600403 442.28100586 0.7493690252 20.236999512 0.8149999976
 1448.8088379  -999.250000 12.279000282 12.250000954 0.0085810004 0.4877740145 2.1410000324 103.96854401 149.12500000 439.45599365 0.7531780005 17.919000626 0.8100000024
 1448.9611816  -999.250000 12.288000107 12.250000954 0.0073819999 0.4841220081 2.1410000324 95.920463562 148.91799927 437.15301514 0.7540439963 17.218999863 0.7979999781
 1449.1136475  -999.250000 12.248000145 12.250000954 0.0051910002 0.4935869873 2.1359999180 97.751296997 148.86300659 437.14001465 0.7641980052 18.049999237 0.7969999909
 1449.2659912  -999.250000 12.248999596 12.250000954 0.0043609999 0.4846619964 2.1389999390 96.878044128 148.86599731 437.58999634 0.7847970128 21.200000763 0.8510000110
 1449.4184570  -999.250000 12.248000145 12.250000954 0.0035929999 0.4856410027 2.1370000839 103.17053223 149.01499939 438.46099854 0.7914249897 23.343999863 0.8289999962
 1449.5708008  -999.250000 12.248999596 12.250000954 0.0037150001 0.5015140176 2.1370000839 98.843162537 149.14100647 440.17498779 0.7999070287 18.968999863 0.8080000281
 1449.7232666  -999.250000 12.248999596 12.250000954 0.0045289998 0.5138019919 2.1359999180 101.52897644 149.17999268 446.41900635 0.7928490043 17.174999237 0.8240000010
 1449.8756104  -999.250000 12.237999916 12.250000954 0.0038030001 0.5708400011 2.1319999695 95.276611328 149.16998291 446.99298096 0.7753120065 13.543999672 0.7950000167
 1450.0280762  -999.250000 12.218999863 12.250000954 0.0059170001 0.5458750129 2.1429998875 94.791137695 149.13900757 447.02999878 0.7532119751 13.543999672 0.8450000286
 1450.1804199  -999.250000 12.218000412 12.250000954 0.0044880002 0.5072389841 2.1389999390 96.125862122 149.06700134 446.83300781 0.7494649887 15.688000679 0.8119999766
 1450.3328857  -999.250000 12.218999863 12.250000954 0.0037920000 0.4722459912 2.1400001049 98.443817139 149.25099182 446.68798828 0.7432579994 19.975000381 0.7990000248
 1450.4852295  -999.250000 12.218999863 12.250000954 0.0035760000 0.4912799895 2.1280000210 93.968597412 149.39300537 446.78500366 0.7454519868 21.899999619 0.8129960299
 1450.6375732  -999.250000 12.220999718 12.250000954 0.0060310001 0.4877179861 2.1310000420 94.706771851 149.37500000 446.60299683 0.7444310188 19.274999619 0.8080032468
 1450.7900391  -999.250000 12.230999947 12.250000954 0.0041780001 0.4662260115 2.1250000000 95.672973633 149.35499573 445.88696289 0.7425810099 13.894000053 0.8120055795
 1450.9423828  -999.250000 12.227000237 12.250000954 0.0058160000 0.4560930133 2.1300001144 95.645019531 149.22999573 444.84396362 0.7530109882 14.069000244 0.8189759851
 1451.0948486  -999.250000 12.248999596 12.250000954 0.0079469997 0.4574989974 2.1329998970 94.420280457 149.02000427 445.85400391 0.7550060153 16.649999619 0.7890151739
 1451.2471924  -999.250000 12.229000092 12.250000954 0.0089999996 0.4565330148 2.1349999905 96.025894165 147.81199646 445.99102783 0.7582529783 20.455999374 0.8080424666
 1451.3996582  -999.250000 12.226000786 12.250000954 0.0066069998 0.4639630020 2.1370000839 99.635513306 147.21699524 443.07000732 0.7652689815 21.549999237 0.8609967828
 1451.5520020  -999.250000 12.246000290 12.250000954 0.0071279998 0.4732989967 2.1370000839 102.76319885 147.79800415 440.18200684 0.7594130039 21.986999512 0.8570007682
 1451.7044678  -999.250000 12.243000984 12.250000954 0.0070679998 0.4677419960 2.1440000534 101.76792908 147.26199341 435.75900269 0.7715409994 22.424999237 0.8580256104
 1451.8568115  -999.250000 12.232000351 12.250000954 0.0035540001 0.4961709976 2.1429998875 102.34397125 146.47500610 435.76199341 0.7803410292 20.850000381 0.8739967942
 1452.0092773  -999.250000 12.229000092 12.250000954 -0.001748000 0.5100719929 2.1789999008 96.070556641 146.56100464 431.40301514 0.8015720248 21.419000626 0.8701985478
 1452.1616211  -999.250000 12.239000320 12.250000954 0.0035999999 0.5162280202 2.2669999599 93.301330566 146.62500000 429.77499390 0.8029909730 18.356000900 0.9941338301
 1452.3140869  -999.250000 12.248000145 12.250000954 0.0071100001 0.4822779894 2.3229999542 92.491302490 146.83700562 429.47900391 0.7931810021 20.018999100 1.1604363918
 1452.4664307  -999.250000 12.248999596 12.250000954 0.0026630000 0.4758082032 2.2760000229 107.01519012 147.22300720 429.94500732 0.7876719832 24.218999863 0.8090224266
 1452.6187744  -999.250000 12.229998589 12.250000954 -0.004054000 0.4872963727 2.1930000782 102.27964783 147.20300293 429.45700073 0.7890920043 25.881000519 0.8370104432
 1452.7712402  -999.250000 12.229000092 12.250000954 -0.000121000 0.4965074062 2.1659998894 111.82183075 147.67500305 425.59899902 0.7801929712 20.281000137 0.8500128388
 1452.9235840  -999.250000 12.220000267 12.250000954 0.0031620001 0.5231786370 2.1700000763 111.60870361 147.74400330 424.00500488 0.7813940048 15.906000137 0.8659295440
 1453.0760498  -999.250000 12.220000267 12.250000954 0.0041370001 0.5127601027 2.1619999409 107.51030731 147.82000732 427.78900146 0.8080599904 19.537000656 0.7781698704
 1453.2283936  -999.250000 12.248000145 12.250000954 0.0025690000 0.5090889335 2.1329998970 120.36936951 147.14100647 427.36499023 0.8482679725 23.562999725 0.9899640083
 1453.3808594  -999.250000 12.248000145 12.250000954 0.0024049999 0.4852739573 2.1129999161 122.08636475 147.64599609 427.25299072 0.8646199703 23.606000900 0.9449783564
 1453.5332031  -999.250000 12.248000145 12.250000954 0.0035629999 0.4839654565 2.1099998951 125.04126740 147.56500244 429.17001343 0.8746219873 22.731000900 0.9179663658
 1453.6856689  -999.250000 12.248000145 12.250000954 0.0056469999 0.4920552075 2.1210000515 130.35441589 147.83200073 431.37399292 0.8821840286 19.930999756 0.8759879470
 1453.8380127  -999.250000 12.248000145 12.250000954 0.0083980002 0.5048151016 2.1319999695 120.91168976 148.21099854 432.30398560 0.8716790080 19.319000244 0.8610248566
 1453.9904785  -999.250000 12.248000145 12.250000954 0.0065029999 0.5186768770 2.1170001030 129.23645020 148.26100159 431.90301514 0.8556920290 19.274999619 0.8919151425
