# LAS format log file from PETREL
# Project units are specified as depth units
#==================================================================
~Version information
VERS.   2.0:
WRAP.   NO:
#==================================================================
~Well
STRT .m      998.18890381 :
STOP .m      3019.4697266 :
STEP .m     0.00000000 :
NULL .        -999.250000 :
COMP.           : COMPANY
WELL.  35/12-1   : WELL
FLD.            : FIELD
LOC.            : LOCATION
SRVC.           : SERVICE COMPANY
DATE.  2018-09-11 14:48:57   : Log Export Date {yyyy-MM-dd HH:mm:ss}
PROV.           : PROVINCE
UWI.   35/12-1   : UNIQUE WELL ID
API.            : API NUMBER
#==================================================================
~Curve
DEPT .m                   : DEPTH
Lithology_geolink ._      : Lithology_geolink
CALI .in                  : CALI
BS .in                    : BS
DRHO .g/cm3               : DRHO
NPHI .m3/m3               : NPHI
RHOB .g/cm3               : RHOB
PEF .b/e                  : PEF
GR .gAPI                  : GR
DTC .us/ft                : DTC
RDEP .ohm.m               : RDEP
SP .mV                    : SP
RSHA .ohm.m               : RSHA
RMIC .ohm.m               : RMIC
RMED .ohm.m               : RMED
~Parameter
#==================================================================
~Ascii
# ...
 1804.2324219  -999.250000 17.669000626 17.500000000 -0.070000000  -999.250000 2.3429999352 3.0139999390 122.28015137 107.41600037 2.7970864773 179.38812256 2.4100193977 2.9630856514 0.0370000005
 1804.3847656  -999.250000 17.645999908 17.500000000 -0.068000004  -999.250000 2.3450000286 3.0099999905 121.45166016 107.91600037 2.7591826916 179.00921631 2.3950719833 3.0489311218 0.0370000005
 1804.5372314  -999.250000 17.593000412 17.500000000 -0.068999998  -999.250000 2.3420000076 3.0659999847 122.53212738 108.46800232 2.7191922665 179.86892700 2.3671345711 3.1738998890 0.0370000005
 1804.6895752  -999.250000 17.604000092 17.500000000 -0.070000000  -999.250000 2.3389999866 3.0360000134 123.43627167 108.78700256 2.6891441345 181.15786743 2.3480913639 3.0680849552 0.0370000005
 1804.8420410  -999.250000 17.659000397 17.500000000 -0.071000002  -999.250000 2.3389999866 3.0510001183 122.93040466 108.51999664 2.6770577431 180.76794434 2.3300864697 2.9930601120 0.0370000005
 1804.9943848  -999.250000 17.672000885 17.500000000 -0.071000002  -999.250000 2.3450000286 2.9830000401 120.42001343 107.96099854 2.6660528183 180.68127441 2.3250241280 2.9640231133 0.0370000005
 1805.1467285  -999.250000 17.672000885 17.500000000 -0.071999997  -999.250000 2.3510000706 2.9590001106 120.53381348 107.61399841 2.6669943333 181.23622131 2.3240056038 2.9630017281 0.0370000005
 1805.2991943  -999.250000 17.672000885 17.500000000 -0.075000003  -999.250000 2.3610000610 2.9389998913 122.34754181 106.01000214 2.6630194187 180.97683716 2.3190240860 2.9729919434 0.0370000005
 1805.4515381  -999.250000 17.672000885 17.500000000 -0.072999999  -999.250000 2.3989999294 3.0309998989 123.30546570 104.94799805 2.6908652782 180.89526367 2.3389039040 2.9710030556 0.0370000005
 1805.6040039  -999.250000 17.672000885 17.500000000 -0.068999998  -999.250000 2.4440000057 3.3519999981 119.50505066 104.42900085 2.7188656330 180.97972107 2.3658702374 2.9849886894 0.0370000005
 1805.7563477  -999.250000 17.672000885 17.500000000 -0.061999999  -999.250000 2.4890000820 3.6240000725 116.88320160 104.58100128 2.7249710560 180.91920471 2.3630142212 3.1487374306 0.0370000005
 1805.9088135  -999.250000 17.672000885 17.500000000 -0.066000000  -999.250000 2.4700000286 3.6119999886 116.68315887 105.34600067 2.7269904613 180.58180237 2.3639953136 3.5906460285 0.0370000005
 1806.0611572  -999.250000 17.672000885 17.500000000 -0.071000002  -999.250000 2.4309999943 3.3759999275 119.02512360 106.81600189 2.6861972809 180.39958191 2.3401153088 3.1173799038 0.0370000005
 1806.2136230  -999.250000 17.672000885 17.500000000 -0.074000001  -999.250000 2.3900001049 3.1819999218 120.86753082 108.20899963 2.6213123798 179.95706177 2.2912352085 2.8801898956 0.0370000005
 1806.3659668  -999.250000 17.672000885 17.500000000 -0.071999997  -999.250000 2.3750000000 3.1619999409 120.78807068 108.43199921 2.6020913124 179.79052734 2.2870192528 2.9689288139 0.0370000005
 1806.5184326  -999.250000 17.672000885 17.500000000 -0.071000002  -999.250000 2.3750000000 3.1040000916 121.22864532 108.27400208 2.5940384865 179.67327881 2.2760529518 2.7791521549 0.0370000005
 1806.6707764  -999.250000 17.672000885 17.500000000 -0.067000002  -999.250000 2.3959999084 3.1470000744 121.93343353 107.39299774 2.5790719986 178.83369446 2.2570912838 2.8209664822 0.0370000005
 1806.8232422  -999.250000 17.672000885 17.500000000 -0.061999999  -999.250000 2.4189999104 3.2149999142 122.20677948 106.87500763 2.5829806328 178.30827332 2.2619760036 2.8329904079 0.0370000005
 1806.9755859  -999.250000 17.672000885 17.500000000 -0.059999999  -999.250000 2.4370000362 3.3570001125 123.26315308 105.84200287 2.5730481148 178.58412170 2.2590143681 2.9778838158 0.0370000005
 1807.1279297  -999.250000 17.672000885 17.500000000 -0.063000001  -999.250000 2.4300000668 3.4030001163 123.72525787 105.74500275 2.5829439163 178.75346375 2.2659606934 3.1896605492 0.0370000005
 1807.2803955  -999.250000 17.672000885 17.500000000 -0.067000002  -999.250000 2.4170000553 3.4809999466 126.58769989 106.37099457 2.5989229679 178.45695496 2.2769470215 3.0461153984 0.0370000005
 1807.4327393  -999.250000 17.672000885 17.500000000 -0.071000002  -999.250000 2.3980000019 3.4379999638 126.90449524 106.68099976 2.6298263073 178.43505859 2.2988767624 3.0799455643 0.0370000005
 1807.5852051  -999.250000 17.672000885 17.500000000 -0.074000001  -999.250000 2.3810000420 3.3670001030 127.53249359 107.36199951 2.6578652859 178.76893616 2.3109424114 2.9021425247 0.0370000005
 1807.7375488  -999.250000 17.672000885 17.500000000 -0.077000000  -999.250000 2.3670001030 3.3250000477 125.85668182 108.67099762 2.6550142765 179.26840210 2.3060240746 2.8790366650 0.0370000005
 1807.8900146  -999.250000 17.672000885 17.500000000 -0.079000004  -999.250000 2.3559999466 3.3059999943 126.43353271 109.50299835 2.6211633682 179.81268311 2.2831103802 2.7531008720 0.0370000005
 1808.0423584  -999.250000 17.672000885 17.500000000 -0.082000002  -999.250000 2.3420000076 3.3159999847 126.58987427 109.80000305 2.5652692318 180.14395142 2.2501585484 2.8479239941 0.0370000005
 1808.1948242  -999.250000 17.672000885 17.500000000 -0.083999999  -999.250000 2.3320000172 3.2260000706 127.40035248 110.04900360 2.5371344090 180.35847473 2.2380576134 2.8380081654 0.0370000005
 1808.3471680  -999.250000 17.672000885 17.500000000 -0.085000001  -999.250000 2.3289999962 3.1559998989 130.99111938 110.37100220 2.5121202469 180.14170837 2.2290432453 2.8559856415 0.0370000005
 1808.4996338  -999.250000 17.672000885 17.500000000 -0.082999997  -999.250000 2.3329999447 3.1110000610 132.74259949 110.08699799 2.5070240498 180.33354187 2.2130768299 2.8490056992 0.0370000005
 1808.6519775  -999.250000 17.672000885 17.500000000 -0.081000000  -999.250000 2.3380000591 3.0629999638 134.31874084 109.23200226 2.5269038677 180.53933716 2.2149903774 2.8609905243 0.0370000005
 1808.8044434  -999.250000 17.672000885 17.500000000 -0.078000002  -999.250000 2.3440001011 3.0179998875 130.45109558 108.31999969 2.5598413944 180.85423279 2.2448558807 2.7830624580 0.0370000005
 1808.9567871  -999.250000 17.672000885 17.500000000 -0.075999998  -999.250000 2.3499999046 2.9849998951 128.06690979 107.37400055 2.5749280453 180.88290405 2.2559471130 2.7899942398 0.0370000005
 1809.1092529  -999.250000 17.672000885 17.500000000 -0.074000001  -999.250000 2.3529999256 2.9460000992 127.81620026 107.53199768 2.6048560143 180.07794189 2.2679421902 2.8739328384 0.0370000005
 1809.2615967  -999.250000 17.679000854 17.500000000 -0.075000003  -999.250000 2.3529999256 2.9639999866 128.44949341 108.05200958 2.6249039173 179.95637512 2.2958652973 2.8330328465 0.0370000005
 1809.4139404  -999.250000 17.718999863 17.500000000 -0.075999998  -999.250000 2.3519999981 2.9930000305 128.86235046 108.41600037 2.6190335751 180.19323730 2.2870504856 2.8020496368 0.0370000005
 1809.5664063  -999.250000 17.760999680 17.500000000 -0.078000002  -999.250000 2.3529999256 3.0220000744 127.73889923 108.70300293 2.6259663105 179.85209656 2.2830193043 2.7680270672 0.0370000005
 1809.7187500  -999.250000 17.778999329 17.500000000 -0.079999998  -999.250000 2.3499999046 2.9949998856 128.22920227 108.56799316 2.6399328709 179.60977173 2.2869806290 2.7540223598 0.0370000005
 1809.8712158  -999.250000 17.784000397 17.500000000 -0.081000000  -999.250000 2.3499999046 2.9619998932 125.69303894 108.28099823 2.6509470940 178.93661499 2.3029232025 2.7699871063 0.0370000005
 1810.0235596  -999.250000 17.797000885 17.500000000 -0.082000002  -999.250000 2.3510000706 3.0109999180 127.59095764 108.46099854 2.6450288296 178.47746277 2.3069806099 2.8049440384 0.0370000005
 1810.1760254  -999.250000 17.809999466 17.500000000 -0.082000002  -999.250000 2.3510000706 3.1119999886 128.86997986 109.23799896 2.6191248894 178.27847290 2.2900817394 2.8329775333 0.0370000005
 1810.3283691  -999.250000 17.812999725 17.500000000 -0.081000000  -999.250000 2.3510000706 3.2060000896 133.32443237 109.58100128 2.5781972408 177.67494202 2.2561635971 2.7790431976 0.0370000005
