# LAS format log file from PETREL
# Project units are specified as depth units
#==================================================================
~Version information
VERS.   2.0:
WRAP.   NO:
#==================================================================
~Well
STRT .m      998.18890381 :
STOP .m      3019.4697266 :
STEP .m     0.00000000 :
NULL .        -999.250000 :
COMP.           : COMPANY
WELL.  35/12-1   : WELL
FLD.            : FIELD
LOC.            : LOCATION
SRVC.           : SERVICE COMPANY
DATE.  2018-09-11 14:48:57   : Log Export Date {yyyy-MM-dd HH:mm:ss}
PROV.           : PROVINCE
UWI.   35/12-1   : UNIQUE WELL ID
API.            : API NUMBER
#==================================================================
~Curve
DEPT .m                   : DEPTH
Lithology_geolink ._      : Lithology_geolink
CALI .in                  : CALI
BS .in                    : BS
DRHO .g/cm3               : DRHO
NPHI .m3/m3               : NPHI
RHOB .g/cm3               : RHOB
PEF .b/e                  : PEF
GR .gAPI                  : GR
DTC .us/ft                : DTC
RDEP .ohm.m               : RDEP
SP .mV                    : SP
RSHA .ohm.m               : RSHA
RMIC .ohm.m               : RMIC
RMED .ohm.m               : RMED
~Parameter
#==================================================================
~Ascii
# ...
 2747.7404785 2.0000000000 11.883999825 12.250000954 0.0089999996 0.2189903855 2.3359999657 4.3350000381 87.969665527 81.531997681 1.2085961103 -98.42169189 1.2225255966 0.6781343818 0.0320000015
 2747.8930664 2.0000000000 11.883000374 12.250000954 0.0080000004 0.2269743532 2.3369998932 4.1180000305 86.900711060 81.800003052 1.1552547216 -99.01018524 1.1543269157 0.6779999733 0.0320000015
 2748.0454102 2.0000000000 11.883000374 12.250000954 0.0060000001 0.2309871912 2.3380000591 4.1919999123 88.075119019 82.083999634 1.1361216307 -98.40888977 1.1291599274 0.7209311128 0.0320000015
 2748.1977539 2.0000000000 11.883000374 12.250000954 0.0049999999 0.2210479975 2.3369998932 4.4039998055 89.104354858 82.203002930 1.1250705719 -98.65141296 1.1409231424 0.6860560775 0.0320000015
 2748.3500977 2.0000000000 11.885999680 12.250000954 0.0040000002 0.2329422981 2.3359999657 4.5710000992 91.170372009 81.915992737 1.1110897064 -98.37479401 1.1598781347 0.6112400293 0.0320000015
 2748.5026855 2.0000000000 11.895000458 12.250000954 0.0049999999 0.2260224372 2.3369998932 4.5460000038 88.450378418 81.665000916 1.1030385494 -98.21675873 1.1550240517 0.6249775887 0.0320000015
 2748.6550293 2.0000000000 11.890000343 12.250000954 0.0060000001 0.2279935926 2.3389999866 4.4429998398 84.458404541 81.635002136 1.1139470339 -98.63995361 1.1579855680 0.6859022379 0.0320000015
 2748.8073730 2.0000000000 11.883999825 12.250000954 0.0070000002 0.2080959976 2.3440001011 4.4349999428 81.653495789 81.431999207 1.1497695446 -98.81191254 1.1878079176 0.6650336981 0.0320000015
 2748.9597168 2.0000000000 11.883000374 12.250000954 0.0070000002 0.2099903822 2.3469998837 4.4079999924 81.705818176 81.347999573 1.1976922750 -96.59133911 1.2297308445 0.6799520254 0.0320000015
 2749.1123047 2.0000000000 11.883999825 12.250000954 0.0070000002 0.1980384588 2.3450000286 4.4800000191 84.133102417 81.387001038 1.2427836657 -98.33551025 1.2578654289 0.7159423232 0.0320000015
 2749.2646484 2.0000000000 11.888998985 12.250000954 0.0060000001 0.1950096041 2.3420000076 4.5840001106 88.746597290 80.983001709 1.2917644978 -97.98075104 1.2988028526 0.7100095749 0.0320000015
 2749.4169922 2.0000000000 11.888998985 12.250000954 0.0060000001 0.2009807676 2.3429999352 4.7699999809 93.727020264 80.431999207 1.3377056122 -97.70774841 1.3695455790 0.7149919868 0.0320000015
 2749.5693359 2.0000000000 11.883000374 12.250000954 0.0060000001 0.2049808055 2.3489999771 4.8330001831 96.071243286 80.047996521 1.3807244301 -97.19628906 1.4474999905 0.7629230618 0.0320000015
 2749.7216797 2.0000000000 11.878000259 12.250000954 0.0070000002 0.2109711468 2.3599998951 4.9239997864 96.142776489 79.884002686 1.4366410971 -97.98488617 1.5284807682 0.8257983923 0.0320000015
 2749.8742676 2.0000000000 11.882000923 12.250000954 0.0080000004 0.2040224373 2.3659999371 4.9730000496 95.814529419 79.749000549 1.5305480957 -98.00592041 1.6165769100 0.8240032196 0.0320000015
 2750.0266113 2.0000000000 11.883000374 12.250000954 0.0109999999 0.2010096163 2.3759999275 4.7729997635 95.773071289 79.736000061 1.6214175224 -97.93843842 1.6895328760 0.8719230294 0.0320000015
 2750.1789551 2.0000000000 11.883000374 12.250000954 0.0130000003 0.1880623996 2.3870000839 4.5549998283 93.283996582 79.452003479 1.6418718100 -96.62546539 1.7307370901 0.9239166975 0.0320000015
 2750.3312988 2.0000000000 11.880999565 12.250000954 0.0149999997 0.1879999936 2.3970000744 4.5359997749 91.629302979 79.093002319 1.6360385418 -95.40084076 1.7121218443 0.9299808145 0.0320000015
 2750.4838867 2.0000000000 11.878000259 12.250000954 0.0140000004 0.1909903884 2.3970000744 4.8159999847 90.276168823 79.241996765 1.6360000372 -96.93455505 1.6552740335 0.9659423232 0.0320000015
 2750.6362305 2.0000000000 11.880000114 12.250000954 0.0120000001 0.1959839761 2.3949999809 5.0830001831 88.934150696 78.741996765 1.6469470263 -98.38901520 1.5952885151 1.0239070654 0.0320000015
 2750.7885742 2.0000000000 11.876000404 12.250000954 0.0109999999 0.1910240054 2.4019999504 5.2870001793 89.644859314 78.855003357 1.6837632656 -98.70898438 1.5612175465 0.9131778479 0.0320000015
 2750.9409180 4.0000000000 11.875000954 12.250000954 0.0109999999 0.1949807554 2.4219999313 5.6420001984 88.853538513 78.567993164 1.7764037848 -99.31907654 1.6404871941 0.8302655816 0.0320000015
 2751.0935059 4.0000000000 11.875000954 12.250000954 0.0130000003 0.2009807676 2.4430000782 6.0050001144 88.416694641 77.791000366 1.8924423456 -99.13789368 1.9146778584 0.8619487286 0.0320000015
 2751.2458496 4.0000000000 11.878000259 12.250000954 0.0160000008 0.2019968033 2.4600000381 6.1510000229 87.911811829 76.148002625 1.9676394463 -99.60573578 2.1628077030 0.8779743910 0.0320000015
 2751.3981934 4.0000000000 11.890999794 12.250000954 0.0179999992 0.1970160156 2.4660000801 6.3280000687 91.730865479 74.597000122 2.0037696362 -100.1693802 2.2474622726 0.9978077412 0.0320000015
 2751.5505371 4.0000000000 11.904999733 12.250000954 0.0189999994 0.1761008054 2.4660000801 6.5720000267 97.372955322 73.855003357 1.9960513115 -101.7905655 2.2738332748 1.4053461552 0.0320000015
 2751.7028809 4.0000000000 11.909999847 12.250000954 0.0160000008 0.1799807698 2.4660000801 6.5689997673 101.21668243 74.780998230 1.9671858549 -101.5496216 2.2581024170 1.5335904360 0.0320000015
 2751.8554688 4.0000000000 11.902001381 12.250000954 0.0130000003 0.1809967905 2.4679999352 6.5850000381 100.66291046 76.463996887 1.9142547846 -100.8792267 2.1425576210 1.5250144005 0.0320000015
 2752.0078125 4.0000000000 11.906999588 12.250000954 0.0089999996 0.2009359002 2.4519999027 6.3860001564 97.633857727 78.338996887 1.8474287987 -99.40149689 1.8637919426 1.7995592356 0.0320000015
 2752.1601563 4.0000000000 11.913999557 12.250000954 0.0030000000 0.2029903978 2.4149999619 6.2059998512 95.124023438 79.552001953 1.7774486542 -99.29065704 1.6155897379 1.7770367861 0.0320000015
 2752.3125000 4.0000000000 11.918999672 12.250000954 -0.001000000 0.2029999942 2.3800001144 5.9010000229 96.794624329 80.141998291 1.7382500172 -99.67650604 1.5553781986 1.1390479803 0.0320000015
 2752.4650879 4.0000000000 11.914999962 12.250000954 -0.001000000 0.1930320561 2.3670001030 5.7709999084 101.62325287 79.906997681 1.7389951944 -99.92182159 1.6037644148 0.8364824057 0.0320000015
 2752.6174316 4.0000000000 11.913999557 12.250000954 0.0030000000 0.1860224456 2.3819999695 5.9219999313 105.00957489 80.132003784 1.7747695446 -100.2061768 1.6745455265 0.7800897360 0.0320000015
 2752.7697754 4.0000000000 11.916999817 12.250000954 0.0080000004 0.1919711977 2.4049999714 6.0789999962 107.49002838 78.397003174 1.8385897875 -99.25216675 1.8379486799 0.7889855504 0.0320000015
 2752.9221191 2.0000000000 11.939000130 12.250000954 0.0140000004 0.1910048127 2.4430000782 6.2859997749 110.69970703 76.452003479 1.9115320444 -98.63294983 2.2195446491 0.8348527551 0.0320000015
 2753.0747070 2.0000000000 11.982999802 12.250000954 0.0250000004 0.1969807595 2.4849998951 6.7439999580 113.78706360 73.722999573 2.0871539116 -98.89571381 2.8459856510 0.9767724276 0.0320000015
 2753.2270508 2.0000000000 11.997999191 12.250000954 0.0390000008 0.1750705093 2.5269999504 7.0689997673 112.15163422 68.837997437 2.5646970272 -99.21646118 3.8690721989 1.5031553507 0.0320000015
 2753.3793945 2.0000000000 12.034000397 12.250000954 0.0500000007 0.1570577025 2.5690000057 7.5199999809 105.04440308 66.319000244 3.7026848793 -99.73268127 6.8100881577 3.0565080643 0.0320000015
 2753.5317383 2.0000000000 12.100999832 12.250000954 0.0610000007 0.1410768032 2.6229999065 7.5939998627 97.547019958 64.199996948 6.4771471024 -100.8031158 13.886467934 6.4046297073 0.0320000015
 2753.6840820 2.0000000000 12.140000343 12.250000954 0.0719999969 0.1429903954 2.6819999218 7.4650001526 92.782257080 62.033004761 11.605031967 -102.2705765 23.394948959 11.492683411 0.0320000015
 2753.8366699 16.000000000 12.180999756 12.250000954 0.0810000002 0.1439967901 2.7149999142 7.0219998360 93.066520691 60.211997986 16.623914719 -103.1866226 30.144687653 12.252805710 0.0320000015
