# LAS format log file from PETREL
# Project units are specified as depth units
#==================================================================
~Version information
VERS.   2.0:
WRAP.   NO:
#==================================================================
~Well
STRT .m      998.18890381 :
STOP .m      3019.4697266 :
STEP .m     0.00000000 :
NULL .        -999.250000 :
COMP.           : COMPANY
WELL.  35/12-1   : WELL
FLD.            : FIELD
LOC.            : LOCATION
SRVC.           : SERVICE COMPANY
DATE.  2018-09-11 14:48:57   : Log Export Date {yyyy-MM-dd HH:mm:ss}
PROV.           : PROVINCE
UWI.   35/12-1   : UNIQUE WELL ID
API.            : API NUMBER
#==================================================================
~Curve
DEPT .m                   : DEPTH
Lithology_geolink ._      : Lithology_geolink
CALI .in                  : CALI
BS .in                    : BS
DRHO .g/cm3               : DRHO
NPHI .m3/m3               : NPHI
RHOB .g/cm3               : RHOB
PEF .b/e                  : PEF
GR .gAPI                  : GR
DTC .us/ft                : DTC
RDEP .ohm.m               : RDEP
SP .mV                    : SP
RSHA .ohm.m               : RSHA
RMIC .ohm.m               : RMIC
RMED .ohm.m               : RMED
~Parameter
#==================================================================
~Ascii
# ...
 1135.6536865  -999.250000 19.270000458 17.500000000 -0.085000001  -999.250000 1.8040000200 11.940999985 144.70370483 133.81599426 2.0451123714 191.18550110 1.6389520168 0.4221546352 0.0410000011
 1135.8060303  -999.250000 19.912998199 17.500000000 -0.090999998  -999.250000 1.7430000305 12.906000137 144.93263245 139.79400635 2.0380337238 191.12509155 1.6360144615 0.2831113636 0.0410000011
 1135.9584961  -999.250000 19.659000397 17.500000000 -0.090000004  -999.250000 1.7259999514 10.692000389 145.24649048 135.01699829 2.0160882473 190.94429016 1.6250441074 0.2430320233 0.0410000011
 1136.1108398  -999.250000 19.079000473 17.500000000 -0.086999997  -999.250000 1.7380000353 9.6070003510 144.16273499 135.13000488 2.0020673275 190.18222046 1.5841969252 0.3039511144 0.0410000011
 1136.2633057  -999.250000 19.370000839 17.500000000 -0.081000000  -999.250000 1.7560000420 9.0570001602 144.35585022 134.00000000 2.0268998146 189.93919373 1.5879840851 0.2610344291 0.0410000011
 1136.4156494  -999.250000 19.153999329 17.500000000 -0.072999999  -999.250000 1.7960000038 8.9820003510 142.64775085 133.65899658 2.0707886219 189.74630737 1.6138750315 0.2100408524 0.0410000011
 1136.5681152  -999.250000 18.552000046 17.500000000 -0.061999999  -999.250000 1.8400000334 8.3070001602 146.01330566 137.52099609 2.1237876415 189.89888000 1.6737596989 0.2129976004 0.0410000011
 1136.7204590  -999.250000 18.541000366 17.500000000 -0.056000002  -999.250000 1.8750000000 7.6430001259 150.82627869 132.89900208 2.1717693806 189.79016113 1.7177886963 0.2419767678 0.0410000011
 1136.8728027  -999.250000 18.365999222 17.500000000 -0.055000000  -999.250000 1.9090000391 6.7719998360 157.75588989 131.65499878 2.2028510571 189.87086487 1.7478557825 0.2679583728 0.0410000011
 1137.0252686  -999.250000 17.749000549 17.500000000 -0.052999999  -999.250000 1.9789999723 5.6960000992 159.49421692 131.70300293 2.2219238281 190.43908691 1.7609479427 0.2610056102 0.0410000011
 1137.1776123  -999.250000 17.506999969 17.500000000 -0.052999999  -999.250000 2.0539999008 4.8330001831 155.03715515 132.65400696 2.2309567928 190.83438110 1.7649807930 0.2610000074 0.0410000011
 1137.3300781  -999.250000 17.538999557 17.500000000 -0.057999998  -999.250000 2.0880000591 4.2119998932 149.83035278 132.08900452 2.2489280701 191.05963135 1.7361161709 0.4358597696 0.0410000011
 1137.4824219  -999.250000 17.584999084 17.500000000 -0.068000004  -999.250000 2.0799999237 4.1399998665 143.87255859 133.95799255 2.2828366756 191.45936584 1.7350047827 0.4679487646 0.0410000011
 1137.6348877  -999.250000 17.486999512 17.500000000 -0.075999998  -999.250000 2.0610001087 4.5159997940 143.67730713 134.87500000 2.2441561222 191.76950073 1.6991442442 0.2801506519 0.0410000011
 1137.7872314  -999.250000 17.635999680 17.500000000 -0.079999998  -999.250000 2.0499999523 5.2379999161 146.81697083 132.35699463 2.2748510838 192.10446167 1.7169135809 0.2350360602 0.0410000011
 1137.9396973  -999.250000 17.809000015 17.500000000 -0.082000002  -999.250000 2.0339999199 5.6869997978 151.77404785 130.14399719 2.2849600315 192.35459900 1.7438918352 0.1630576551 0.0410000011
 1138.0920410  -999.250000 18.153999329 17.500000000 -0.082000002  -999.250000 2.0060000420 6.2210001945 153.95449829 133.58799744 2.2621104717 192.47979736 1.7340480089 0.1380200237 0.0410000011
 1138.2445068  -999.250000 18.023000717 17.500000000 -0.086000003  -999.250000 1.9290000200 7.0359997749 148.72119141 134.00000000 2.2749481201 192.46002197 1.7061121464 0.1799663752 0.0410000011
 1138.3968506  -999.250000 18.466999054 17.500000000 -0.090000004  -999.250000 1.8309999704 8.9219999313 143.88775635 133.62199402 2.2083218098 192.19042969 1.6562402248 0.2189687490 0.0410000011
 1138.5493164  -999.250000 18.979999542 17.500000000 -0.092000000  -999.250000 1.7319999933 11.244999886 143.89099121 136.02299500 2.1034204960 191.68640137 1.5942484140 0.3059303463 0.0410000011
 1138.7016602  -999.250000 18.353000641 17.500000000 -0.090999998  -999.250000 1.6629999876 12.991000175 147.29055786 141.39799500 2.0751345158 191.31559753 1.5651394129 0.1920913458 0.0410000011
 1138.8541260  -999.250000 18.392999649 17.500000000 -0.093999997  -999.250000 1.6109999418 14.168000221 148.47605896 137.03100586 2.0252003670 190.93231201 1.5331281424 0.1630232185 0.0410000011
 1139.0064697  -999.250000 18.367000580 17.500000000 -0.100000001  -999.250000 1.5720000267 13.878999710 146.62297058 138.86700439 2.0319719315 191.14865112 1.5469439030 0.1959735453 0.0410000011
 1139.1588135  -999.250000 18.274999619 17.500000000 -0.101999998  -999.250000 1.6299999952 12.810000420 143.29333496 135.57400513 2.0688221455 191.18594360 1.5858125687 0.1640512496 0.0410000011
 1139.3112793  -999.250000 18.183000565 17.500000000 -0.092000000  -999.250000 1.7860000134 9.5959997177 140.35569763 131.17799377 2.1078438759 191.13308716 1.5899840593 0.2079647481 0.0410000011
 1139.4636230  -999.250000 17.563999176 17.500000000 -0.071999997  -999.250000 1.9780000448 8.1350002289 135.52873230 128.12399292 2.1617405415 190.32829285 1.5979616642 0.5774075389 0.0410000011
 1139.6160889  -999.250000 17.309999466 17.500000000 -0.074000001  -999.250000 1.9639999866 9.1920003891 136.66915894 132.90199280 2.2088117599 190.08538818 1.6328598261 0.7788389325 0.0410000011
 1139.7684326  -999.250000 17.451999664 17.500000000 -0.085000001  -999.250000 1.8530000448 10.685999870 139.82493591 133.26400757 2.1443123817 189.93624878 1.5971729755 0.6841521263 0.0410000011
 1139.9208984  -999.250000 17.760999680 17.500000000 -0.086000003  -999.250000 1.7860000134 12.196000099 141.55921936 137.91000366 2.1380240917 189.94000244 1.5910240412 0.3632572293 0.0410000011
 1140.0732422  -999.250000 17.937999725 17.500000000 -0.079999998  -999.250000 1.7719999552 11.850999832 143.82637024 142.09399414 2.1091392040 189.66943359 1.5691057444 0.1961338073 0.0410000011
 1140.2257080  -999.250000 17.965000153 17.500000000 -0.074000001  -999.250000 1.7840000391 10.213999748 145.72994995 142.30900574 2.0731441975 189.18278503 1.5470881462 0.2309719771 0.0410000011
 1140.3780518  -999.250000 18.726999283 17.500000000 -0.068000004  -999.250000 1.8109999895 8.9870004654 143.87399292 140.53199768 2.0729999542 189.53543091 1.5619280338 0.3549006283 0.0410000011
 1140.5305176  -999.250000 19.561000824 17.500000000 -0.063000001  -999.250000 1.8500000238 8.4440002441 141.97052002 137.01600647 2.0600519180 190.64811707 1.6068197489 0.4838967025 0.0410000011
 1140.6828613  -999.250000 19.798999786 17.500000000 -0.061000001  -999.250000 1.9060000181 8.7709999084 139.78350830 129.01100159 2.0719423294 191.37782288 1.6278991699 0.3660945594 0.0410000011
 1140.8353271  -999.250000 18.472000122 17.500000000 -0.064999998  -999.250000 1.9630000591 8.8199996948 142.09713745 128.15499878 2.2114388943 191.41897583 1.6897516251 0.4169591665 0.0410000011
 1140.9876709  -999.250000 18.094999313 17.500000000 -0.070000000  -999.250000 2.0369999409 7.3309998512 143.79627991 128.80000305 2.3424751759 191.12124634 1.7348197699 0.4419799745 0.0410000011
 1141.1400146  -999.250000 18.332000732 17.500000000 -0.077000000  -999.250000 2.0940001011 5.6989998817 144.78840637 129.67199707 2.4116685390 191.16893005 1.7459472418 0.7574940324 0.0410000011
 1141.2924805  -999.250000 17.933000565 17.500000000 -0.085000001  -999.250000 2.1259999275 4.5720000267 146.92956543 131.50399780 2.4319198132 191.02012634 1.7450040579 1.4024832249 0.0410000011
 1141.4448242  -999.250000 17.791999817 17.500000000 -0.090999998  -999.250000 2.1389999390 4.1890001297 145.17382813 130.71499634 2.3951778412 190.95610046 1.7250961065 1.4469295740 0.0410000011
 1141.5972900  -999.250000 17.443000793 17.500000000 -0.093000002  -999.250000 2.1329998970 4.1779999733 144.34931946 128.13800049 2.3730881214 191.26976013 1.7190240622 1.2461611032 0.0410000011
 1141.7496338  -999.250000 17.298999786 17.500000000 -0.090999998  -999.250000 2.1240000725 4.2379999161 142.30627441 128.95300293 2.3391633034 191.68832397 1.7140239477 1.1781088114 0.0410000011
