# LAS format log file from PETREL
# Project units are specified as depth units
#==================================================================
~Version information
VERS.   2.0:
WRAP.   NO:
#==================================================================
~Well
STRT .m      359.96881104 :
STOP .m      3380.8413086 :
STEP .m     0.00000000 :
NULL .        -999.250000 :
COMP.           : COMPANY
WELL.  35/11-12   : WELL
FLD.            : FIELD
LOC.            : LOCATION
SRVC.           : SERVICE COMPANY
DATE.  2018-09-11 14:48:55   : Log Export Date {yyyy-MM-dd HH:mm:ss}
PROV.           : PROVINCE
UWI.   35/11-12   : UNIQUE WELL ID
API.            : API NUMBER
#==================================================================
~Curve
DEPT .m                   : DEPTH
Lithology_geolink ._      : Lithology_geolink
CALI .in                  : CALI
BS .in                    : BS
ROP .m/h                  : ROP
DRHO .g/cm3               : DRHO
NPHI .m3/m3               : NPHI
RHOB .g/cm3               : RHOB
PEF .b/e                  : PEF
GR .gAPI                  : GR
DTC .us/ft                : DTC
RDEP .ohm.m               : RDEP
RMED .ohm.m               : RMED
~Parameter
#==================================================================
~Ascii
# ...
 3139.7446289 7.0000000000 8.9299259186 8.5000000000 193.01182556 0.0171413980 0.3700015545 2.4546699524 5.9902172089 174.44207764 101.14983368 2.7606048584 2.8608150482
 3139.8969727 7.0000000000 8.9173946381 8.5000000000 187.95932007 0.0174976811 0.3671997190 2.4622983932 6.1530847549 171.09906006 100.89408875 2.7993788719 2.8277735710
 3140.0493164 7.0000000000 8.9048614502 8.5000000000 182.90682983 0.0178539678 0.3643978834 2.4699263573 6.3159532547 167.75604248 100.15898132 2.8381528854 2.7947320938
 3140.2016602 7.0000000000 8.9265880585 8.5000000000 176.90287781 0.0199982971 0.3655944467 2.4821591377 6.6622524261 163.43066406 100.13203430 2.6808409691 2.7277078629
 3140.3542480 7.0000000000 8.9352626801 8.5000000000 174.34382629 0.0211610869 0.3666695356 2.4781761169 6.7291040421 158.71002197 99.515495300 2.8217344284 2.7901053429
 3140.5065918 7.0000000000 8.9676685333 8.5000000000 166.73228455 0.0197816677 0.3551895618 2.4724888802 6.5334939957 150.44940186 99.286209106 2.9323668480 2.8010702133
 3140.6589355 7.0000000000 8.9599971771 8.5000000000 161.22047424 0.0140011497 0.3588964343 2.4651036263 6.2266473770 153.20086670 99.331573486 2.5359687805 2.4182405472
 3140.8112793 7.0000000000 8.9350967407 8.5000000000 158.85826111 0.0061292890 0.3547370434 2.4531946182 6.0704431534 157.92147827 99.288330078 2.6992778778 2.5283675194
 3140.9636230 7.0000000000 8.9350948334 8.5000000000 155.08531189 0.0093160607 0.3676689863 2.4578866959 5.6942987442 161.46148682 99.500396729 2.9508652687 2.9641165733
 3141.1162109 7.0000000000 8.9350967407 8.5000000000 137.82806396 0.0118808895 0.3644767404 2.4691276550 5.5333604813 159.30160522 99.824905396 3.2780075073 3.0762319565
 3141.2685547 7.0000000000 8.9538898468 8.5000000000 138.41862488 0.0174098834 0.3662639260 2.4844069481 5.8298826218 158.12161255 99.910812378 3.3445706367 3.1318759918
 3141.4208984 7.0000000000 8.9499092102 8.5000000000 142.61811829 0.0248350762 0.3657066822 2.5013298988 6.1546993256 156.35287476 99.959571838 3.1569523811 3.2135262489
 3141.5732422 7.0000000000 8.9542217255 8.5000000000 146.22703552 0.0229680352 0.3667181730 2.5009274483 6.3771171570 156.35211182 99.747024536 3.2783713341 3.2349801064
 3141.7258301 7.0000000000 8.9585361481 8.5000000000 149.83595276 0.0211009942 0.3677296042 2.5005249977 6.5995349884 156.35131836 99.527770996 3.3997898102 3.2564339638
 3141.8781738 7.0000000000 8.9368457794 8.5000000000 149.34384155 -0.012104983 0.3720390797 2.4901280403 6.7693548203 155.56463623 99.419372559 3.2878570557 3.3954157829
 3142.0305176 7.0000000000 8.9465637207 8.5000000000 150.55773926 -0.019450165 0.3896744847 2.4813082218 6.8386468887 159.30004883 99.583023071 3.3335976601 3.2987098694
 3142.1828613 7.0000000000 8.9506607056 8.5000000000 154.42913818 -0.013792383 0.3852857947 2.4438195229 6.6771650314 167.75720215 100.18252563 2.7602219582 2.8006854057
 3142.3354492 7.0000000000 8.9453392029 8.5000000000 156.79133606 0.0167251006 0.3867697120 2.4335598946 6.3642625809 181.91656494 101.17364502 3.0849432945 3.1457767487
 3142.4877930 7.0000000000 8.9622230530 8.5000000000 159.12074280 0.0185327716 0.3700101972 2.4374456406 6.1331920624 189.78323364 102.42115784 3.1826076508 3.1998438835
 3142.6401367 7.0000000000 8.9567775726 8.5000000000 160.66273499 0.0146348868 0.3795956969 2.4560322762 6.0570507050 187.22610474 102.56852722 3.1062302589 3.0394978523
 3142.7924805 7.0000000000 8.9611816406 8.5000000000 165.15747070 0.0171963200 0.3664294481 2.4699115753 6.4265575409 171.68896484 101.56835938 3.1496372223 3.0358033180
 3142.9448242 7.0000000000 8.9453926086 8.5000000000 155.24934387 0.0162362680 0.3553783298 2.4709215164 6.8862514496 160.47784424 100.85604858 3.1921243668 3.2260060310
 3143.0974121 7.0000000000 8.9684467316 8.5000000000 150.03279114 0.0199777782 0.3407180905 2.4692015648 7.0290174484 147.88897705 99.927719116 3.4424476624 3.4105148315
 3143.2497559 7.0000000000 8.9446640015 8.5000000000 144.88189697 0.0179533139 0.3486074209 2.4575705528 6.8565959930 144.34930420 98.485458374 3.2577972412 3.3029198647
 3143.4020996 7.0000000000 8.9593887329 8.5000000000 142.97900391 0.0186158046 0.3593705893 2.4548864365 6.7956151962 141.39849854 97.793075562 3.0116581917 3.0749297142
 3143.5544434 7.0000000000 9.0017986298 8.5000000000 139.99343872 0.0173749886 0.3688565493 2.4514851570 6.7248916626 146.31863403 98.691375732 2.8665757179 2.9347662926
 3143.7070313 7.0000000000 8.9488639832 8.5000000000 138.45143127 0.0159348287 0.3667894602 2.4453129768 6.4920768738 146.51608276 98.785476685 2.5156669617 2.6074810028
 3143.8593750 7.0000000000 8.9517745972 8.5000000000 129.69160461 0.0225980170 0.3497776389 2.4333310127 6.6182956696 149.46685791 99.547012329 2.5724105835 2.5698280334
 3144.0117188 7.0000000000 8.9684486389 8.5000000000 128.54330444 0.0261946283 0.3595622778 2.4280309677 6.9546060562 148.87561035 99.157814026 2.5803728104 2.5884804726
 3144.1640625 7.0000000000 8.9708309174 8.5000000000 127.06691742 0.0375819951 0.3662493229 2.4297137260 7.6387691498 157.52893066 99.147857666 2.5965638161 2.7025356293
 3144.3166504 7.0000000000 9.0543689728 8.5000000000 128.64172363 0.0374905616 0.3965424895 2.4321718216 7.9069423676 163.03527832 99.223678589 3.3587198257 3.0400700569
 3144.4689941 7.0000000000 9.0686836243 8.5000000000 132.34907532 0.0307590440 0.3979521394 2.4363651276 7.6465644836 167.36288452 99.585929871 3.3976473808 3.0534853935
 3144.6213379 7.0000000000 9.0068702698 8.5000000000 135.00656128 0.0173934028 0.3874579668 2.4341135025 6.8047590256 159.30096436 99.525497437 3.1544919014 3.1263451576
 3144.7736816 7.0000000000 9.0135421753 8.5000000000 136.02362061 0.0173052028 0.3753712177 2.4418597221 6.5623273849 145.92764282 99.405410767 2.8729100227 2.8570237160
 3144.9260254 7.0000000000 9.0118846893 8.5000000000 129.98686218 0.0158301480 0.3684213161 2.4399189949 6.5383491516 143.17337036 100.10484314 2.5770869255 2.7126188278
 3145.0786133 7.0000000000 9.0038909912 8.5000000000 130.08531189 0.0258511864 0.3672313094 2.4423789978 6.9591808319 148.28637695 100.44435120 2.9099392891 2.8702359200
 3145.2309570 7.0000000000 8.9682273865 8.5000000000 136.58137512 0.0306815021 0.3648160696 2.4564933777 7.0270719528 152.21972656 100.44726563 3.3188529015 3.0447783470
 3145.3833008 7.0000000000 8.5672245026 8.5000000000 137.20472717 0.0268706866 0.3567929268 2.4768648148 7.2645254135 149.07305908 100.21430969 3.4520940781 3.3141207695
 3145.5356445 7.0000000000 9.0048637390 8.5000000000 140.38714600 0.0268291682 0.3508295417 2.4932866096 7.3388595581 149.86004639 99.955352783 3.6210002899 3.2876052856
 3145.6882324 7.0000000000 9.0017890930 8.5000000000 142.48687744 0.0164367445 0.3410246968 2.4737467766 7.1709918976 152.61337280 99.653137207 3.3743381500 3.2359828949
 3145.8405762 7.0000000000 8.9839439392 8.5000000000 148.39239502 -0.007255385 0.3428709507 2.4774546623 7.2521333694 159.10336304 98.692199707 3.4803423882 3.4128785133
 3145.9929199 7.0000000000 8.9948501587 8.5000000000 148.03147888 -0.002817565 0.3535455465 2.4931349754 7.2984580994 157.13668823 98.435485840 3.5230169296 3.6097126007
 3146.1452637 7.0000000000 9.0204486847 8.5000000000 140.87924194 0.0148377847 0.3730766773 2.5167384148 7.3701629639 152.41668701 96.315002441 3.7243819237 3.6073966026
 3146.2978516 7.0000000000 8.9688720703 8.5000000000 146.58790588 0.0256558768 0.3708703518 2.5066256523 6.6871109009 143.56671143 97.198272705 3.7166104317 3.5897369385
 3146.4501953 7.0000000000 8.9860019684 8.5000000000 157.15223694 0.0254297182 0.3547630906 2.4807410240 6.6019392014 139.63336182 97.963630676 3.5339536667 3.4547791481
 3146.6025391 7.0000000000 8.9892635345 8.5000000000 154.46194458 0.0323138982 0.3452774882 2.4893317223 6.7028226852 141.60003662 98.253204346 3.5804934502 3.3276343346
 3146.7548828 7.0000000000 8.9969024658 8.5000000000 144.98030090 0.0439649075 0.3587864041 2.5211653709 6.8719530106 149.46514893 97.786499023 3.4746804237 3.4842004776
 3146.9072266 7.0000000000 8.9468860626 8.5000000000 103.44487762 0.0396148637 0.3668757081 2.5313668251 6.9525918961 149.46514893 98.317047119 3.6323866844 3.3064975739
