# LAS format log file from PETREL
# Project units are specified as depth units
#==================================================================
~Version information
VERS.   2.0:
WRAP.   NO:
#==================================================================
~Well
STRT .m      2901.5925293 :
STOP .m      3271.0102539 :
STEP .m     0.00000000 :
NULL .        -999.250000 :
COMP.           : COMPANY
WELL.  35/11-13   : WELL
FLD.            : FIELD
LOC.            : LOCATION
SRVC.           : SERVICE COMPANY
DATE.  2018-09-11 14:48:55   : Log Export Date {yyyy-MM-dd HH:mm:ss}
PROV.           : PROVINCE
UWI.   35/11-13   : UNIQUE WELL ID
API.            : API NUMBER
#==================================================================
~Curve
DEPT .m                   : DEPTH
Lithology_geolink ._      : Lithology_geolink
CALI .in                  : CALI
BS .in                    : BS
ROP .m/h                  : ROP
DRHO .g/cm3               : DRHO
NPHI .m3/m3               : NPHI
RHOB .g/cm3               : RHOB
PEF .b/e                  : PEF
GR .gAPI                  : GR
DTC .us/ft                : DTC
DTS .us/ft                : DTS
RDEP .ohm.m               : RDEP
RMIC .ohm.m               : RMIC
RMED .ohm.m               : RMED
~Parameter
#==================================================================
~Ascii
# ...
 3170.2736816 1.0000000000 8.3388996124 8.5000000000 59.888450623 -0.009700001 0.2304999977 2.3022000790 2.4728999138 60.539798737 85.139900208 149.35879517 3.0322000980 0.5124999881 2.3422999382
 3170.4260254 4.0000000000 8.3432998657 8.5000000000 66.102363586 -0.009800000 0.2300000042 2.3089001179 2.4481999874 57.262298584 84.576255798 149.27540588 3.0439999104 0.5138000250 2.3473000526
 3170.5786133 4.0000000000 8.3388996124 8.5000000000 78.533462524 -0.009300000 0.2390999943 2.3201999664 2.4553999901 56.757999420 84.235748291 149.30760193 3.0350000858 0.5205000043 2.3394999504
 3170.7309570 4.0000000000 8.3432998657 8.5000000000 76.141731262 -0.009400000 0.2328000069 2.3146998882 2.4630999565 56.521701813 83.847389221 149.21980286 3.0097999573 0.5184999704 2.3099000454
 3170.8833008 4.0000000000 8.3388996124 8.5000000000 71.358268738 -0.008900000 0.2311999947 2.3078000546 2.4714000225 56.017501831 84.089607239 149.11320496 2.9990000725 0.5145999789 2.3018999100
 3171.0356445 4.0000000000 8.3388996124 8.5000000000 70.508529663 -0.009100000 0.2246000022 2.3141000271 2.4616000652 56.647800446 83.846664429 149.31829834 2.9997000694 0.5109000206 2.3048000336
 3171.1879883 4.0000000000 8.3432998657 8.5000000000 68.812339783 -0.009900000 0.2260999978 2.3185999393 2.3942000866 59.602199554 83.948646545 149.52549744 3.0206000805 0.5116999745 2.3125998974
 3171.3405762 4.0000000000 8.3345003128 8.5000000000 67.831359863 -0.009000000 0.2293000072 2.3197999001 2.3875999451 56.828998566 83.851387024 150.42559814 3.0413000584 0.5159000158 2.3138999939
 3171.4929199 4.0000000000 8.3123998642 8.5000000000 65.869422913 -0.008800000 0.2317000031 2.3132998943 2.4453999996 57.963500977 83.751365662 150.37309265 3.0589001179 0.5177999735 2.3238999844
 3171.6452637 4.0000000000 8.3255996704 8.5000000000 66.505905151 -0.007200000 0.2337999940 2.3285000324 2.5197000504 53.354499817 83.731094360 150.25051880 3.0687999725 0.5220999718 2.3252000809
 3171.7976074 4.0000000000 8.3345003128 8.5000000000 67.775596619 -0.007800000 0.2316000015 2.3178000450 2.5448999405 54.488998413 83.602424622 149.80389404 3.1231999397 0.5257999897 2.3577001095
 3171.9501953 4.0000000000 8.3255996704 8.5000000000 69.917984009 -0.007700000 0.2301000059 2.3050000668 2.5085000992 54.867198944 83.494308472 148.91299438 3.1817998886 0.5350000262 2.4003000259
 3172.1025391 5.0000000000 8.3168001175 8.5000000000 74.199470520 -0.008200000 0.2216999978 2.3096001148 2.5295999050 58.530700684 83.402938843 148.31889343 3.1635999680 0.5504000187 2.3905000687
 3172.2548828 5.0000000000 8.3521003723 8.5000000000 72.063652039 -0.008100000 0.2146999985 2.3378999233 2.5443999767 64.455497742 83.313941956 147.29220581 3.1519000530 0.5892000198 2.3965001106
 3172.4072266 5.0000000000 8.3255996704 8.5000000000 67.795272827 -0.007600000 0.2161999941 2.3355998993 2.5230000019 62.312500000 83.088249207 146.81019592 3.2128000259 0.6115000248 2.4558000565
 3172.5598145 1.0000000000 8.3388996124 8.5000000000 66.912734985 -0.008200000 0.2072000057 2.3371000290 2.4600000381 59.594398499 82.805648804 145.94630432 3.2123000622 0.6197000146 2.4623999596
 3172.7121582 1.0000000000 8.3255996704 8.5000000000 65.154197693 -0.008600000 0.2058999985 2.3331999779 2.4500999451 55.938701630 82.570663452 144.97599792 3.2328000069 0.6212999821 2.4858999252
 3172.8645020 2.0000000000 8.3388996124 8.5000000000 62.972438812 -0.008600000 0.1903000027 2.3385999203 2.4623000622 60.122200012 81.923637390 144.39990234 3.2743000984 0.6389999986 2.5209999084
 3173.0168457 2.0000000000 8.3388996124 8.5000000000 58.605651855 -0.007500000 0.1913000047 2.3478000164 2.4488999844 60.910099030 81.073738098 143.49070740 3.3455998898 0.6543999910 2.5889999866
 3173.1691895 2.0000000000 8.3345003128 8.5000000000 58.461288452 -0.007000000 0.1851000041 2.3387000561 2.4403998852 63.683399200 80.411766052 142.38450623 3.3903999329 0.6657000184 2.6352000237
 3173.3217773 2.0000000000 8.3388996124 8.5000000000 58.175853729 -0.007000000 0.1934999973 2.3520998955 2.5169999599 62.265201569 80.324310303 141.99349976 3.4354999065 0.6797999740 2.6839001179
 3173.4741211 1.0000000000 8.3255996704 8.5000000000 53.638454437 -0.006500000 0.1961999983 2.3617999554 2.5748000145 62.391300201 80.329406738 141.46980286 3.4874000549 0.6934999824 2.7330999374
 3173.6264648 1.0000000000 8.3521003723 8.5000000000 51.371391296 -0.007100000 0.1958999932 2.3627998829 2.5021998882 59.113800049 80.460594177 141.32929993 3.4539000988 0.7016999722 2.7190001011
 3173.7788086 1.0000000000 8.3388996124 8.5000000000 54.005908966 -0.008000000 0.1938000023 2.3710999489 2.3929998875 59.113800049 80.148078918 141.30039978 3.3413999081 0.6855000257 2.6463000774
 3173.9313965 1.0000000000 8.3255996704 8.5000000000 55.321521759 -0.008100000 0.1961999983 2.3585999012 2.3952000141 61.761001587 80.070564270 141.26100159 3.2797000408 0.6625999808 2.6147999763
 3174.0837402 1.0000000000 8.3255996704 8.5000000000 54.744098663 -0.006000000 0.2026000023 2.3622999191 2.4205999374 61.256801605 80.806922913 141.21240234 3.2565999031 0.6424000263 2.6124000549
 3174.2360840 2.0000000000 8.3388996124 8.5000000000 54.455379486 -0.004000000 0.2018000036 2.3578000069 2.4758000374 60.508300781 81.133598328 141.01570129 3.2583999634 0.6455000043 2.6319999695
 3174.3884277 1.0000000000 8.3432998657 8.5000000000 58.799217224 -0.004400000 0.1985999942 2.3824000359 2.5178999901 58.601699829 80.194892883 140.96069336 3.3397998810 0.6597999930 2.7144999504
 3174.5410156 1.0000000000 8.3255996704 8.5000000000 60.974411011 -0.005700000 0.1984000057 2.3836998940 2.5179998875 57.868900299 80.190910339 140.90100098 3.4330999851 0.6881999969 2.8039000034
 3174.6933594 1.0000000000 8.3432998657 8.5000000000 53.267715454 -0.004600000 0.2043000013 2.3958001137 2.5769999027 56.734401703 80.534858704 140.86950684 3.5000998974 0.7103999853 2.8780999184
 3174.8457031 1.0000000000 8.3255996704 8.5000000000 49.412731171 -0.002400000 0.2205000073 2.3921000957 2.6293001175 58.388900757 80.443618774 141.67799377 3.5030999184 0.7233999968 2.8991000652
 3174.9980469 1.0000000000 8.3521003723 8.5000000000 53.733596802 -0.000500000 0.2231999934 2.3803000450 2.6902000904 59.877998352 81.020095825 141.99859619 3.1993999481 0.6801999807 2.6656000614
 3175.1506348 1.0000000000 8.3168001175 8.5000000000 55.892387390 -0.001900000 0.2264000028 2.3629999161 2.6496999264 55.733798981 81.206283569 142.27749634 3.1754000187 0.6388999820 2.6512000561
 3175.3029785 1.0000000000 8.3388996124 8.5000000000 58.674541473 -0.003700000 0.2222999930 2.3622999191 2.6700999737 53.086601257 81.483642578 142.38450623 3.2200999260 0.6139000058 2.6937999725
 3175.4553223 4.0000000000 8.3345003128 8.5000000000 60.065624237 -0.005900000 0.2234999985 2.3612999916 2.7044999599 52.661098480 82.004043579 141.57679749 3.2739999294 0.6225000024 2.7444000244
 3175.6076660 4.0000000000 8.3432998657 8.5000000000 62.962604523 -0.006100000 0.2117000073 2.3710999489 2.7356998920 56.679298401 81.900253296 141.30979919 3.3359999657 0.6330000162 2.8180000782
 3175.7600098 4.0000000000 8.3388996124 8.5000000000 63.927165985 -0.005500000 0.2036000043 2.3806002140 2.6840000153 56.553199768 81.186447144 140.50939941 3.4082999229 0.6456000209 2.9128000736
 3175.9125977 4.0000000000 8.3255996704 8.5000000000 65.334648132 -0.003500000 0.2046000063 2.3905999660 2.6956000328 54.425998688 81.089614868 138.09700012 3.4170000553 0.6589999795 2.9372999668
 3176.0649414 4.0000000000 8.3388996124 8.5000000000 64.809707642 -0.002400000 0.2047999948 2.3901000023 2.7372000217 53.795700073 80.470565796 136.14770508 3.4168000221 0.6711999774 2.9261000156
 3176.2172852 4.0000000000 8.3345003128 8.5000000000 65.721786499 -0.001300000 0.1977999955 2.3882999420 2.7913000584 53.543498993 79.697364807 135.00140381 3.3922998905 0.6830999851 2.8835000992
 3176.3696289 4.0000000000 8.3521003723 8.5000000000 67.162078857 -0.002800000 0.1913000047 2.3970000744 2.8032000065 54.843498230 79.177360535 132.52200317 3.3661000729 0.7020999789 2.8359000683
