# LAS format log file from PETREL
# Project units are specified as depth units
#==================================================================
~Version information
VERS.   2.0:
WRAP.   NO:
#==================================================================
~Well
STRT .m      1242.0020752 :
STOP .m      2811.1123047 :
STEP .m     0.00000000 :
NULL .        -999.250000 :
COMP.           : COMPANY
WELL.  35/11-9   : WELL
FLD.            : FIELD
LOC.            : LOCATION
SRVC.           : SERVICE COMPANY
DATE.  2018-09-11 14:48:57   : Log Export Date {yyyy-MM-dd HH:mm:ss}
PROV.           : PROVINCE
UWI.   35/11-9   : UNIQUE WELL ID
API.            : API NUMBER
#==================================================================
~Curve
DEPT .m                   : DEPTH
Lithology_geolink ._      : Lithology_geolink
CALI .in                  : CALI
BS .in                    : BS
DRHO .g/cm3               : DRHO
NPHI .m3/m3               : NPHI
RHOB .g/cm3               : RHOB
GR .gAPI                  : GR
DTC .us/ft                : DTC
DTS .us/ft                : DTS
RDEP .ohm.m               : RDEP
SP .mV                    : SP
RMIC .ohm.m               : RMIC
~Parameter
#==================================================================
~Ascii
# ...
 1344.4149170  -999.250000 12.248000145 12.250000954 0.0009850000 0.4846810400 2.0680000782 76.447410583 154.33099365 526.27099609 0.6485949755 13.937999725 0.6830056310
 1344.5672607  -999.250000 12.248000145 12.250000954 0.0030010000 0.4785508811 2.0759999752 74.465164185 154.24400330 512.58599854 0.6658840179 10.744000435 0.6899855733
 1344.7197266  -999.250000 12.248000145 12.250000954 0.0006210000 0.5046596527 2.0750000477 75.927169800 154.33599854 511.54699707 0.6668909788 12.975000381 0.6720064282
 1344.8720703  -999.250000 12.248000145 12.250000954 0.0025299999 0.5391526818 2.0820000172 77.388092041 154.50900269 505.69799805 0.6741999984 15.512999535 0.6800104380
 1345.0245361  -999.250000 12.248000145 12.250000954 -0.000776000 0.5362680554 2.0769999027 87.481048584 154.62800598 510.70602417 0.6803110242 16.343999863 0.6929976344
 1345.1768799  -999.250000 12.230999947 12.250000954 0.0013930000 0.5213645697 2.0829999447 71.326423645 155.04800415 523.02899170 0.6866160035 17.044000626 0.6900079846
 1345.3293457  -999.250000 12.218000412 12.250000954 -0.000131000 0.5158709288 2.0829999447 76.845397949 155.67599487 531.59899902 0.6826410294 13.500000000 0.7000015974
 1345.4816895  -999.250000 12.218000412 12.250000954 0.0037489999 0.5320220590 2.0769999027 77.342346191 155.42399597 538.08801270 0.6882780194 12.668999672 0.7018718123
 1345.6341553  -999.250000 12.218000412 12.250000954 0.0067250002 0.5445868373 2.0680000782 77.767875671 154.52400208 537.84802246 0.6769880056 9.4309997559 0.5418350697
 1345.7864990  -999.250000 12.218000412 12.250000954 0.0101190004 0.5326414704 2.0610001087 77.693984985 152.46499634 540.38098145 0.6736170053 9.3879995346 0.4390673041
 1345.9389648  -999.250000 12.229998589 12.250000954 0.0103599997 0.5182204247 2.0810000896 78.912712097 154.74299622 539.72900391 0.6785519719 15.425000191 0.5232994556
 1346.0913086  -999.250000 12.222000122 12.250000954 0.0118150003 0.4922752976 2.1019999981 74.990280151 154.70600891 530.66497803 0.6776599884 18.268999100 0.7100031972
 1346.2437744  -999.250000 12.248000145 12.250000954 0.0081599997 0.4676869214 2.1059999466 70.351821899 153.97702026 527.40197754 0.6839179993 19.712999344 0.7139535546
 1346.3961182  -999.250000 12.248000145 12.250000954 0.0038320001 0.4576507509 2.0940001011 72.728813171 155.53100586 530.57000732 0.6799200177 16.125000000 0.6850192547
 1346.5484619  -999.250000 12.258999825 12.250000954 -0.001294000 0.4461454451 2.0759999752 67.502113342 156.24899292 547.96997070 0.6782169938 13.543999672 0.7090032101
 1346.7009277  -999.250000 12.279000282 12.250000954 0.0060740001 0.4841733277 2.0490000248 68.892181396 156.03900146 552.20202637 0.6580989957 10.786999702 0.7127203345
 1346.8532715  -999.250000 12.279000282 12.250000954 0.0125519997 0.4983077645 2.0190000534 65.387840271 156.59100342 550.09399414 0.6628019810 15.336999893 0.3641336858
 1347.0057373  -999.250000 12.279000282 12.250000954 0.0117880004 0.5179823041 2.0009999275 71.426651001 155.22999573 550.95599365 0.6701300144 16.912000656 0.5311346054
 1347.1580811  -999.250000 12.279000282 12.250000954 0.0139509998 0.5195952058 2.0220000744 79.720046997 154.89700317 542.43798828 0.6763299704 18.794000626 0.6990256310
 1347.3105469  -999.250000 12.279000282 12.250000954 0.0238819998 0.5061478615 2.0629999638 78.519721985 155.46699524 532.84899902 0.6977519989 18.575000763 0.7309663296
 1347.4628906  -999.250000 12.279000282 12.250000954 0.0115170004 0.4997375011 2.0699999332 70.697837830 156.25999451 529.39001465 0.7017430067 15.468999863 0.6889967918
 1347.6153564  -999.250000 12.279000282 12.250000954 0.0052769999 0.4604226947 2.0720000267 75.479499817 155.81898499 511.25601196 0.6958770156 14.505999565 0.6848677993
 1347.7677002  -999.250000 12.279000282 12.250000954 0.0067409999 0.4650652111 2.0650000572 67.381256104 155.51400757 512.02899170 0.6901550293 13.586999893 0.5198757648
 1347.9201660  -999.250000 12.279000282 12.250000954 0.0068500000 0.4865657687 2.0599999428 75.173011780 154.04499817 514.82501221 0.6830549836 12.319000244 0.3655204177
 1348.0725098  -999.250000 12.279000282 12.250000954 0.0022070000 0.5001170039 2.0920000076 71.441200256 153.88800049 492.66000366 0.6977319717 14.024999619 0.6901938915
 1348.2249756  -999.250000 12.279000282 12.250000954 0.0126130003 0.4851435721 2.1979999542 76.692298889 152.68200684 513.37701416 0.7191089988 18.618999481 0.9317309856
 1348.3773193  -999.250000 12.279000282 12.250000954 0.0193910003 0.4593360424 2.2569999695 82.490142822 150.51100159 490.26199341 0.7343969941 19.930999756 0.7639591098
 1348.5296631  -999.250000 12.279000282 12.250000954 0.0101570003 0.4768609107 2.2060000896 78.933830261 150.90100098 488.40899658 0.7401580215 17.787000656 0.7129880190
 1348.6821289  -999.250000 12.248999596 12.250000954 0.0024389999 0.5017240644 2.1129999161 76.226234436 153.04299927 492.34500122 0.7061269879 15.994001389 0.6980104446
 1348.8344727  -999.250000 12.258999825 12.250000954 0.0098850001 0.5205000043 2.0820000172 75.273437500 153.40602112 493.28298950 0.6936870217 14.199999809 0.7109743953
 1348.9869385  -999.250000 12.279000282 12.250000954 0.0080650002 0.5192292929 2.0729999542 74.570327759 153.43000793 496.02899170 0.7012220025 13.543999672 0.6789984107
 1349.1392822  -999.250000 12.279000282 12.250000954 0.0083129993 0.4995780587 2.0739998817 72.486579895 153.93400574 494.17001343 0.6993770003 15.031000137 0.6770616174
 1349.2917480  -999.250000 12.279000282 12.250000954 0.0089900000 0.4796690643 2.0829999447 74.452453613 154.18499756 522.05200195 0.7252889872 16.562999725 0.7539871931
 1349.4440918  -999.250000 12.279000282 12.250000954 0.0148019996 0.4460917711 2.0739998817 71.284393311 155.57800293 514.85998535 0.7248600125 18.618999481 0.7378278375
 1349.5965576  -999.250000 12.824000359 12.250000954 0.0243839994 0.4533376098 2.0009999275 78.019493103 155.19700623 526.21801758 0.7004200220 20.500000000 0.5228381157
 1349.7489014  -999.250000 12.808999062 12.250000954 0.0206700005 0.4952713847 1.9240000248 84.862312317 156.92399597 522.23999023 0.6838539839 20.500000000 0.3212364018
 1349.9013672  -999.250000 12.199999809 12.250000954 0.0142109999 0.5069998503 1.8990000486 77.770965576 156.00199890 484.23199463 0.6589360237 17.875000000 0.6160416007
 1350.0537109  -999.250000 12.218000412 12.250000954 0.0224190000 0.5143522024 1.9470000267 75.872276306 155.52499390 490.06799316 0.6607720256 14.550000191 0.6419262886
 1350.2061768  -999.250000 12.230999947 12.250000954 0.0207770001 0.4759306312 2.0030000210 71.226745605 156.03300476 475.76501465 0.6823490262 16.386999130 0.5500672460
 1350.3585205  -999.250000 12.246000290 12.250000954 0.0120080002 0.4869206250 2.0099999905 67.949066162 157.16299438 530.49401855 0.7135980129 18.881000519 0.5917291641
 1350.5109863  -999.250000 12.300000191 12.250000954 0.0115809999 0.4765267968 2.0160000324 70.525604248 156.86599731 548.84197998 0.7568330169 21.024999619 0.2546325028
 1350.6633301  -999.250000 12.218000412 12.250000954 0.0215610005 0.5175723433 1.9750000238 71.529411316 158.29400635 572.65100098 0.7550479770 25.662000656 0.6487058997
 1350.8156738  -999.250000 12.229000092 12.250000954 0.0319619998 0.5329375267 1.9379999638 77.026611328 161.31100464 571.82501221 0.7372369766 23.256000519 0.2820704579
 1350.9681396  -999.250000 12.220000267 12.250000954 0.0528360009 0.5273720622 1.9099999666 75.294242859 157.48699951 560.40301514 0.7183399796 19.450000763 0.3699447215
 1351.1204834  -999.250000 12.111000061 12.250000954 0.0645760000 0.4987433851 1.9129999876 75.603332520 154.31501770 567.37097168 0.7055320144 15.512999535 0.3009575605
 1351.2729492  -999.250000 11.822999954 12.250000954 0.0703589991 0.4880181551 1.9240000248 77.265411377 153.47300720 570.61297607 0.6369330287 13.675000191 0.2481666654
 1351.4252930  -999.250000 12.015000343 12.250000954 0.0757099986 0.5156360865 1.9370000362 77.773017883 152.64898682 524.57299805 0.6197969913 13.980999947 0.4559791982
 1351.5777588  -999.250000 12.204000473 12.250000954 0.0741029978 0.5331952572 1.9670000076 75.298530579 151.64700317 521.32598877 0.6382219791 18.180999756 0.4301089942
