# LAS format log file from PETREL
# Project units are specified as depth units
#==================================================================
~Version information
VERS.   2.0:
WRAP.   NO:
#==================================================================
~Well
STRT .m      989.00103760 :
STOP .m      3365.3732910 :
STEP .m     0.00000000 :
NULL .        -999.250000 :
COMP.           : COMPANY
WELL.  35/11-1   : WELL
FLD.            : FIELD
LOC.            : LOCATION
SRVC.           : SERVICE COMPANY
DATE.  2018-09-11 14:48:54   : Log Export Date {yyyy-MM-dd HH:mm:ss}
PROV.           : PROVINCE
UWI.   35/11-1   : UNIQUE WELL ID
API.            : API NUMBER
#==================================================================
~Curve
DEPT .m                   : DEPTH
Lithology_geolink ._      : Lithology_geolink
CALI .in                  : CALI
DRHO .g/cm3               : DRHO
NPHI .m3/m3               : NPHI
RHOB .g/cm3               : RHOB
PEF .b/e                  : PEF
GR .gAPI                  : GR
DTC .us/ft                : DTC
RDEP .ohm.m               : RDEP
SP .mV                    : SP
RSHA .ohm.m               : RSHA
RMED .ohm.m               : RMED
~Parameter
#==================================================================
~Ascii
# ...
 3044.5710449 7.0000000000 8.5389995575 -0.021000000 0.1035200059 2.5920000076 2.9409999847 98.563003540 66.250000000 5.9140000343 56.657001495 10.546999931 10.546999931
 3044.7236328 7.0000000000 8.5310001373 -0.022000000 0.0971700028 2.5880000591 3.0899999142 97.375000000 71.250000000 4.4260001183 56.172000885 7.4340000153 7.4340000153
 3044.8759766 3.0000000000 8.4379997253 -0.024000000 0.1118200049 2.5369999409 3.2070000172 89.813003540 76.500000000 3.2149999142 56.140998840 4.1989998817 4.1989998817
 3045.0283203 6.0000000000 8.4300003052 -0.027000001 0.1235399991 2.4609999657 3.1050000191 79.188003540 80.000000000 2.3629999161 57.157001495 2.0290000439 2.0290000439
 3045.1806641 6.0000000000 8.4300003052 -0.029999999 0.1401399970 2.3980000019 3.0840001106 76.375000000 81.500000000 1.9390000105 56.907001495 1.3539999723 1.3539999723
 3045.3332520 6.0000000000 8.4300003052 -0.027000001 0.1474599987 2.3750000000 3.0720000267 76.688003540 81.749992371 1.7710000277 57.172000885 1.3430000544 1.3430000544
 3045.4855957 6.0000000000 8.4300003052 -0.028000001 0.1543000042 2.3670001030 3.0659999847 78.875000000 81.749992371 1.7380000353 56.640998840 1.3880000114 1.3880000114
 3045.6379395 6.0000000000 8.4300003052 -0.027000001 0.1665000021 2.3689999580 2.9879999161 78.875000000 79.000000000 1.7960000038 55.890998840 1.4650000334 1.4650000334
 3045.7902832 6.0000000000 8.4300003052 -0.030999999 0.1723600030 2.3689999580 3.0999999046 81.125000000 75.499992371 1.9539999962 56.157001495 1.7630000114 1.7630000114
 3045.9426270 6.0000000000 8.4300003052 -0.032000002 0.1728499979 2.3870000839 3.1819999218 84.563003540 73.750000000 2.2190001011 55.625999451 2.5409998894 2.5409998894
 3046.0952148 6.0000000000 8.4300003052 -0.032000002 0.1718799919 2.4040000439 3.3710000515 87.000000000 71.750000000 2.6150000095 55.625999451 3.0780000687 3.0780000687
 3046.2475586 6.0000000000 8.4300003052 -0.028000001 0.1679700017 2.4379999638 3.2750000954 89.750000000 70.750000000 3.0179998875 56.125999451 3.2009999752 3.2009999752
 3046.3999023 6.0000000000 8.4300003052 -0.023000000 0.1621100008 2.4470000267 3.2660000324 92.125000000 71.250000000 3.3750000000 56.375999451 3.2360000610 3.2360000610
 3046.5522461 6.0000000000 8.4300003052 -0.016000001 0.1557600051 2.4690001011 3.1800000668 95.938003540 71.500000000 3.5179998875 55.890998840 3.8259999752 3.8259999752
 3046.7048340 6.0000000000 8.4300003052 -0.012000000 0.1469699889 2.4839999676 3.3280000687 93.438003540 72.250000000 3.4379999638 56.140998840 3.7730000019 3.7730000019
 3046.8571777 6.0000000000 8.4300003052 -0.009000000 0.1425800025 2.5000000000 3.2500000000 91.188003540 73.000000000 3.1579999924 56.390998840 3.0179998875 3.0179998875
 3047.0095215 6.0000000000 8.4300003052 -0.016000001 0.1450199932 2.4790000916 3.0720000267 82.125000000 75.000000000 3.0060000420 55.890998840 2.3129999638 2.3129999638
 3047.1618652 6.0000000000 8.4300003052 -0.022000000 0.1538099945 2.4449999332 2.9820001125 79.000000000 77.500000000 2.9530000687 55.407001495 2.0510001183 2.0510001183
 3047.3144531 6.0000000000 8.4300003052 -0.028000001 0.1508800089 2.4279999733 3.0369999409 73.813003540 76.000000000 2.8239998817 56.407001495 1.9029999971 1.9029999971
 3047.4667969 6.0000000000 8.4300003052 -0.028999999 0.1450199932 2.4219999313 3.1459999084 77.813003540 75.250000000 2.6410000324 55.140998840 1.8150000572 1.8150000572
 3047.6191406 6.0000000000 8.4300003052 -0.028999999 0.1367200017 2.4260001183 3.2230000496 79.625000000 76.250000000 2.6150000095 56.390998840 1.9340000153 1.9340000153
 3047.7714844 6.0000000000 8.4300003052 -0.025000000 0.1430699974 2.4319999218 3.2130000591 82.938003540 75.250000000 2.6429998875 56.390998840 2.1389999390 2.1389999390
 3047.9238281 6.0000000000 8.4300003052 -0.025000000 0.1459999979 2.4360001087 3.1189999580 82.750000000 73.500000000 2.6289999485 58.157001495 2.1840000153 2.1840000153
 3048.0764160 6.0000000000 8.4300003052 -0.028000001 0.1464799941 2.4319999218 2.8959999084 83.938003540 72.750000000 2.6329998970 56.657001495 2.2929999828 2.2929999828
 3048.2287598 6.0000000000 8.4300003052 -0.028999999 0.1401399970 2.4389998913 3.0590000153 86.313003540 73.750000000 2.6270000935 55.875999451 2.8069999218 2.8069999218
 3048.3811035 6.0000000000 8.4300003052 -0.027000001 0.1333000064 2.4670000076 3.2750000954 81.813003540 74.000000000 2.6740000248 55.640998840 3.3340001106 3.3340001106
 3048.5334473 6.0000000000 8.4300003052 -0.024000000 0.1372099966 2.4769999981 3.3159999847 77.625000000 76.000000000 2.6930000782 54.890998840 2.6600000858 2.6600000858
 3048.6860352 6.0000000000 8.4300003052 -0.027000001 0.1459999979 2.4489998817 3.1779999733 71.938003540 76.500000000 2.7579998970 54.390998840 1.9630000591 1.9630000591
 3048.8383789 6.0000000000 8.4300003052 -0.028000001 0.1533199996 2.4200000763 3.2190001011 74.750000000 76.000000000 2.6250000000 54.610000610 1.7999999523 1.7999999523
 3048.9907227 6.0000000000 8.4300003052 -0.028000001 0.1591800004 2.4179999828 3.3729999065 74.938003540 75.499992371 2.3459999561 54.860000610 1.9880000353 1.9880000353
 3049.1430664 6.0000000000 8.4300003052 -0.026000001 0.1581999958 2.4300000668 3.4319999218 76.000000000 77.250000000 2.0980000496 54.125999451 2.0759999752 2.0759999752
 3049.2956543 6.0000000000 8.4300003052 -0.021000000 0.1528300047 2.4389998913 3.3829998970 73.750000000 79.750000000 2.1050000191 55.875999451 1.8250000477 1.8250000477
 3049.4479980 6.0000000000 8.4300003052 -0.017999999 0.1386699975 2.4319999218 3.3159999847 79.688003540 83.500000000 2.2699999809 54.625999451 1.5030000210 1.5030000210
 3049.6003418 6.0000000000 8.4300003052 -0.017999999 0.1372099966 2.4119999409 3.2300000191 99.875000000 87.000000000 2.4360001087 53.625999451 1.3769999743 1.3769999743
 3049.7526855 6.0000000000 8.5080003738 -0.018999999 0.1455100030 2.4409999847 3.2990000248 122.18800354 82.000000000 2.6229999065 51.875999451 1.5740000010 1.5740000010
 3049.9050293 6.0000000000 8.6879997253 -0.011000000 0.1601600051 2.5899999142 4.6840000153 125.50000000 78.250000000 2.7009999752 50.875999451 2.3929998875 2.3929998875
 3050.0576172 6.0000000000 8.7659997940 -0.012000000 0.2084999979 2.8499999046 8.0780000687 116.81300354 75.000000000 2.6640000343 50.140998840 3.9379999638 3.9379999638
 3050.2099609 6.0000000000 9.1879997253 -0.009000000 0.2617200017 3.1459999084 8.6719999313 102.68800354 71.000000000 2.7639999390 50.640998840 5.1840000153 5.1840000153
 3050.3623047 6.0000000000 9.3199996948 -0.028000001 0.3100599945 3.0940001011 4.5430002213 96.000000000 73.750000000 2.9219999313 52.140998840 3.7909998894 3.7909998894
 3050.5146484 6.0000000000 8.5629997253 -0.028999999 0.3295899928 2.8010001183 3.5840001106 81.313003540 76.749992371 2.9389998913 53.157001495 2.4179999828 2.4179999828
 3050.6672363 3.0000000000 8.4300003052 -0.023000000 0.2851600051 2.5699999332 3.0350000858 76.750000000 78.750000000 2.9260001183 54.657001495 1.8350000381 1.8350000381
 3050.8195801 3.0000000000 8.4300003052 -0.017999999 0.2314500064 2.4489998817 2.9820001125 69.688003540 78.500000000 2.8340001106 55.422000885 1.7059999704 1.7059999704
 3050.9719238 5.0000000000 8.4300003052 -0.020000000 0.1787099987 2.4079999924 3.1579999924 75.563003540 76.000000000 2.6429998875 55.422000885 1.6929999590 1.6929999590
 3051.1242676 5.0000000000 8.4300003052 -0.017000001 0.1655299962 2.4200000763 3.1110000610 71.625000000 73.500000000 2.5369999409 55.657001495 1.7779999971 1.7779999971
 3051.2768555 5.0000000000 8.4300003052 -0.018999999 0.1611300111 2.4140000343 3.0899999142 75.188003540 70.500000000 2.4690001011 55.407001495 1.9299999475 1.9299999475
 3051.4291992 5.0000000000 8.4300003052 -0.016000001 0.1528300047 2.4319999218 3.0269999504 72.125000000 70.750000000 2.3829998970 55.125999451 2.0920000076 2.0920000076
 3051.5815430 5.0000000000 8.4300003052 -0.016000001 0.1406299919 2.4489998817 2.9939999580 71.438003540 71.250000000 2.3220000267 54.890998840 2.2379999161 2.2379999161
 3051.7338867 5.0000000000 8.4300003052 -0.016000001 0.1210900024 2.4670000076 3.0739998817 70.375000000 73.000000000 2.3959999084 55.140998840 2.3239998817 2.3239998817
