# LAS format log file from PETREL
# Project units are specified as depth units
#==================================================================
~Version information
VERS.   2.0:
WRAP.   NO:
#==================================================================
~Well
STRT .m      1245.0043945 :
STOP .m      3214.9267578 :
STEP .m     0.00000000 :
NULL .        -999.250000 :
COMP.           : COMPANY
WELL.  35/11-11   : WELL
FLD.            : FIELD
LOC.            : LOCATION
SRVC.           : SERVICE COMPANY
DATE.  2018-09-11 14:48:54   : Log Export Date {yyyy-MM-dd HH:mm:ss}
PROV.           : PROVINCE
UWI.   35/11-11   : UNIQUE WELL ID
API.            : API NUMBER
#==================================================================
~Curve
DEPT .m                   : DEPTH
Lithology_geolink ._      : Lithology_geolink
CALI .in                  : CALI
BS .in                    : BS
ROP .m/h                  : ROP
DRHO .g/cm3               : DRHO
THOR .ppm                 : THOR
NPHI .m3/m3               : NPHI
RHOB .g/cm3               : RHOB
PEF .b/e                  : PEF
GR .gAPI                  : GR
URAN .ppm                 : URAN
DTC .us/ft                : DTC
DTS .us/ft                : DTS
RDEP .ohm.m               : RDEP
SP .mV                    : SP
RMIC .ohm.m               : RMIC
RMED .ohm.m               : RMED
~Parameter
#==================================================================
~Ascii
# ...
 2685.1843262 6.0000000000 8.5319004059 8.5000000000 183.50721741 0.0119000003 4.5422000885 0.2034000009 2.3584001064 3.8573000431 74.977699280 -2.286700010 85.114601135 158.09060669 1.4580999613 49.625000000 0.5777000189 1.0723999739
 2685.3369141 2.0000000000 8.5298995972 8.5000000000 183.50721741 0.0012000001 4.8282999992 0.1955000013 2.3740999699 3.8970999718 77.101898193 -2.116499901 84.723190308 157.73500061 1.7247999907 49.958000183 0.6603000164 1.2318999767
 2685.4892578 2.0000000000 8.5258998871 8.5000000000 183.50721741 -0.005100000 5.6066999435 0.1894000024 2.3815999031 3.9388000965 79.475402832 -1.596799970 84.587791443 156.18519592 1.8846000433 50.416500092 0.7594000101 1.3278000355
 2685.6416016 2.0000000000 8.5383996964 8.5000000000 143.34974670 -0.006100000 5.4208002090 0.1939000040 2.3852999210 3.9612998962 80.011398315 -1.696900010 84.767906189 154.60040283 1.9067000151 50.329399109 0.7797999978 1.3431999683
 2685.7939453 2.0000000000 8.5357999802 8.5000000000 143.34974670 -0.006400000 5.3008999825 0.2064000070 2.3828999996 4.0299000740 78.789100647 -1.754199982 84.226196289 154.04539490 1.5142999887 49.858600616 0.7290999889 1.0762000084
 2685.9465332 1.0000000000 8.5335998535 8.5000000000 143.34974670 -0.006100000 5.2287001610 0.2150000036 2.3859000206 4.1796998978 78.892402649 -1.695199966 82.223190308 153.10510254 1.5777000189 49.625000000 0.6147000194 1.1078000069
 2686.0988770 1.0000000000 8.5419998169 8.5000000000 143.34974670 -0.005800000 4.5232000351 0.2231000066 2.4019999504 4.2621998787 75.670898438 -1.777199984 79.927101135 152.60920715 1.2898000479 49.724899292 0.5694000125 0.9237999916
 2686.2512207 1.0000000000 8.5218000412 8.5000000000 143.34974670 -0.003500000 4.5631999969 0.2108000070 2.4298000336 4.1289000511 74.080101013 -1.692700028 76.837799072 149.72288513 1.4443000555 49.845798492 0.6004999876 1.0401999950
 2686.4035645 1.0000000000 8.5230998993 8.5000000000 143.34974670 -0.002400000 4.8141999245 0.1949000061 2.4486999512 3.9407999516 72.708198547 -1.571900010 75.700897217 146.47830200 2.0013000965 49.908298492 0.7354999781 1.4335999489
 2686.5561523 1.0000000000 8.5346002579 8.5000000000 142.92323303 -0.003100000 4.5808000565 0.1791999936 2.4360001087 3.8543999195 72.464599609 -1.690799952 77.760391235 146.40530396 1.6227999926 50.037399292 0.7720999718 1.1921000481
 2686.7084961 1.0000000000 8.5218000412 8.5000000000 142.92323303 -0.004900000 4.8084001541 0.1785999984 2.4156000614 3.8715000153 74.817398071 -1.536100030 77.738105774 144.85699463 1.5418000221 50.125000000 0.7337999940 1.1671999693
 2686.8608398 1.0000000000 8.5218000412 8.5000000000 142.92323303 -0.006600000 4.8894000053 0.1876000017 2.3949999809 3.8540000916 75.897499084 -1.474699974 79.682998657 145.31030273 2.2023999691 50.025100708 0.8299999833 1.6449999809
 2687.0131836 1.0000000000 8.5257997513 8.5000000000 142.92323303 -0.003900000 4.5198001862 0.1984000057 2.3817000389 3.8231999874 75.416198730 -1.664600015 83.412200928 147.93629456 2.3120000362 49.937500000 0.7472000122 1.7264000177
 2687.1655273 1.0000000000 8.5306997299 8.5000000000 142.92323303 -0.003300000 3.5854001045 0.1983000040 2.3650999069 3.9210999012 71.831100464 -2.083199978 85.489601135 148.12010193 1.3654999733 49.904201508 0.5613999963 1.0469000340
 2687.3181152 1.0000000000 8.5394001007 8.5000000000 142.92323303 -0.003300000 3.3901000023 0.2028000057 2.3624000549 4.0652999878 66.162902832 -2.392199993 86.090797424 152.20468140 1.1714999676 49.741798401 0.4505000114 0.9053000212
 2687.4704590 1.0000000000 8.5300998688 8.5000000000 142.92323303 -0.005300000 3.7460999489 0.2082999945 2.3633999825 4.1967000961 65.869499207 -2.183900118 85.964317322 153.49549866 1.2740999460 49.791500092 0.4541000128 0.9671000242
 2687.6228027 6.0000000000 8.5340995789 8.5000000000 181.03674316 -0.005700000 3.7839999199 0.2157000005 2.3631999493 4.2196002007 72.302902222 -2.212199926 85.912200928 153.60969543 1.2562999725 50.104000092 0.4514000118 0.9593999982
 2687.7751465 2.0000000000 8.5424995422 8.5000000000 181.03674316 -0.005900000 3.9196002483 0.2085999995 2.3671998978 4.1809000969 77.052398682 -2.012000084 85.910697937 153.38529968 1.1603000164 50.283298492 0.4891000092 0.8952000141
 2687.9277344 2.0000000000 8.5396003723 8.5000000000 181.03674316 -0.006100000 3.9217998981 0.2179999948 2.3838999271 4.1319999695 77.534301758 -1.915200114 86.333297729 152.90968323 1.7216000557 50.212600708 0.6424999833 1.2919000387
 2688.0800781 2.0000000000 8.5350999832 8.5000000000 181.03674316 -0.006400000 5.0585999489 0.2188999951 2.3886001110 4.0970001221 76.635902405 -1.504999995 86.662200928 153.02619934 2.4913001060 49.858600616 0.8187000155 1.8269000053
 2688.2324219 1.0000000000 8.5306997299 8.5000000000 181.03674316 -0.005600000 3.8274002075 0.2267999947 2.3699998856 4.0171999931 76.105400085 -2.130199909 86.872009277 153.04400635 1.4579000473 49.558399200 0.6456000209 1.1015000343
 2688.3847656 1.0000000000 8.5325002670 8.5000000000 114.80643463 -0.002300000 3.8470997810 0.2193000019 2.3466000557 3.8949000835 76.741203308 -2.119800091 86.559501648 154.06127930 1.2489000559 49.699798584 0.5841000080 0.9448999763
 2688.5373535 1.0000000000 8.5271997452 8.5000000000 114.80643463 -0.000100000 4.0982999802 0.2108000070 2.3376998901 3.7987999916 74.167396545 -1.930600047 85.837799072 156.38569641 1.4742000103 50.008201599 0.5435000062 1.0979000330
 2688.6896973 1.0000000000 8.5262002945 8.5000000000 114.80643463 0.0014000000 3.6665000916 0.2009000033 2.3485000134 3.7771000862 72.712600708 -2.147000074 85.230697632 155.94380188 1.2634999752 50.324798584 0.5839999914 0.9478999972
 2688.8420410 2.0000000000 8.5306997299 8.5000000000 114.80643463 -0.001600000 3.7205998898 0.1909999996 2.3719000816 3.8236000538 75.337196350 -1.554200053 85.043197632 155.62379456 1.3104000092 50.566600800 0.6446999907 0.9890000224
 2688.9943848 2.0000000000 8.5350999832 8.5000000000 114.80643463 -0.003400000 3.8568999767 0.1894000024 2.3889000416 3.8951001167 82.732498169 -1.429299951 84.854209900 155.16690063 1.7355999947 50.258701324 0.9319999814 1.2962000370
 2689.1467285 5.0000000000 8.5366001129 8.5000000000 114.80643463 -0.005000000 3.6958000660 0.1973000020 2.3863000870 3.9365999699 85.918098450 -1.501500010 84.991104126 154.09790039 2.6628000736 49.704399109 0.8812000155 1.8739999533
 2689.2993164 5.0000000000 8.5388002396 8.5000000000 114.80643463 -0.003900000 3.8943998814 0.2125000060 2.3652000427 3.9135000706 82.695396423 -1.674000025 85.873497009 154.36849976 1.6751999855 49.566600800 0.7024000287 1.2010999918
 2689.4516602 1.0000000000 8.5439996719 8.5000000000 204.88845825 -0.003500000 3.7193000317 0.2061000019 2.3471000195 3.8661000729 74.277603149 -1.783699989 86.818496704 153.44769287 1.3099000454 49.924701691 0.6238999963 0.9494000077
 2689.6040039 1.0000000000 8.5439996719 8.5000000000 204.88845825 -0.001900000 4.4727997780 0.2028000057 2.3366999626 3.8173000813 69.404403687 -1.390400052 86.873497009 153.94569397 1.7469999790 50.054298401 0.6072999835 1.2404999733
 2689.7563477 1.0000000000 8.5439996719 8.5000000000 204.88845825 0.0018000000 3.0803999901 0.2000000030 2.3331999779 3.7966001034 68.363296509 -2.069099903 85.882408142 154.12339783 1.5374000072 49.904201508 0.5540000200 1.0845999718
 2689.9089355 1.0000000000 8.5439996719 8.5000000000 204.88845825 0.0015000000 3.3001000881 0.2100999951 2.3348000050 3.8092999458 70.933998108 -1.962599993 85.595199585 154.17950439 1.2450000048 49.875000000 0.5404000282 0.8927000165
 2690.0612793 1.0000000000 8.5439996719 8.5000000000 204.88845825 -0.000600000 3.3241999149 0.2053000033 2.3399000168 3.8461999893 73.226600647 -1.945400119 86.111602783 153.97798157 1.5894999504 49.908298492 0.5943999887 1.1362999678
 2690.2136230 1.0000000000 8.5439996719 8.5000000000 204.88845825 -0.002900000 3.2820999622 0.2107000053 2.3371000290 3.8464999199 74.053001404 -1.957299948 86.428596497 153.70469666 1.6577999592 49.970798492 0.6420999765 1.1864000559
 2690.3659668 6.0000000000 8.5551004410 8.5000000000 79.373359680 0.0037000000 3.1522998810 0.2145999968 2.3303999901 3.7876999378 76.502296448 -2.024100065 86.077400208 154.72439575 1.4615999460 49.800201416 0.5335999727 1.0472999811
