# LAS format log file from PETREL
# Project units are specified as depth units
#==================================================================
~Version information
VERS.   2.0:
WRAP.   NO:
#==================================================================
~Well
STRT .m      998.18890381 :
STOP .m      3019.4697266 :
STEP .m     0.00000000 :
NULL .        -999.250000 :
COMP.           : COMPANY
WELL.  35/12-1   : WELL
FLD.            : FIELD
LOC.            : LOCATION
SRVC.           : SERVICE COMPANY
DATE.  2018-09-11 14:48:57   : Log Export Date {yyyy-MM-dd HH:mm:ss}
PROV.           : PROVINCE
UWI.   35/12-1   : UNIQUE WELL ID
API.            : API NUMBER
#==================================================================
~Curve
DEPT .m                   : DEPTH
Lithology_geolink ._      : Lithology_geolink
CALI .in                  : CALI
BS .in                    : BS
DRHO .g/cm3               : DRHO
NPHI .m3/m3               : NPHI
RHOB .g/cm3               : RHOB
PEF .b/e                  : PEF
GR .gAPI                  : GR
DTC .us/ft                : DTC
RDEP .ohm.m               : RDEP
SP .mV                    : SP
RSHA .ohm.m               : RSHA
RMIC .ohm.m               : RMIC
RMED .ohm.m               : RMED
~Parameter
#==================================================================
~Ascii
# ...
 1535.5512695  -999.250000 17.544000626 17.500000000 -0.081000000  -999.250000 2.2999999523 3.5659999847 138.38493347 115.33899689 2.2679998875 182.91940308 1.9400192499 2.0031073093 0.0379999988
 1535.7036133  -999.250000 17.547000885 17.500000000 -0.078000002  -999.250000 2.3090000153 3.6700000763 138.20315552 114.19499969 2.2809374332 182.39625549 1.9429855347 1.5673494339 0.0379999988
 1535.8560791  -999.250000 17.544000626 17.500000000 -0.077000000  -999.250000 2.2969999313 3.8819999695 135.21240234 116.20199585 2.2222833633 181.95669556 1.8902546167 1.9117237329 0.0379999988
 1536.0084229  -999.250000 17.538999557 17.500000000 -0.083999999  -999.250000 2.2339999676 4.3979997635 133.75218201 120.09899902 2.1891584396 181.81433105 1.8700962067 1.7141586542 0.0379999988
 1536.1608887  -999.250000 17.555000305 17.500000000 -0.090000004  -999.250000 2.1849999428 4.5430002213 134.89408875 121.49500275 2.1591439247 181.50050354 1.8610432148 0.6448566914 0.0379999988
 1536.3132324  -999.250000 17.562000275 17.500000000 -0.089000002  -999.250000 2.1970000267 4.3330001831 138.43716431 119.24399567 2.1390960217 181.20669556 1.8530385494 0.7569094896 0.0379999988
 1536.4656982  -999.250000 17.620000839 17.500000000 -0.082000002  -999.250000 2.2599999905 3.8080000877 141.21977234 116.99099731 2.2554380894 181.30982971 1.9226636887 1.6033217907 0.0379999988
 1536.6180420  -999.250000 17.663999557 17.500000000 -0.077000000  -999.250000 2.3110001087 3.5859999657 141.95739746 115.61599731 2.2878463268 181.78923035 1.9628077745 1.8537997007 0.0379999988
 1536.7703857  -999.250000 17.672000885 17.500000000 -0.079000004  -999.250000 2.3129999638 3.6879999638 143.01730347 118.75599670 2.2482240200 182.51824951 1.9401289225 1.9558366537 0.0379999988
 1536.9228516  -999.250000 17.672000885 17.500000000 -0.079000004  -999.250000 2.3080000877 3.8710000515 142.49740601 117.25700378 2.1723654270 183.27279663 1.9101442099 1.9450088739 0.0379999988
 1537.0751953  -999.250000 17.672000885 17.500000000 -0.078000002  -999.250000 2.3010001183 4.0510001183 139.62760925 116.71800232 2.1560769081 183.56329346 1.8970624208 1.7523089647 0.0379999988
 1537.2276611  -999.250000 17.672000885 17.500000000 -0.072999999  -999.250000 2.3169999123 4.1669998169 136.75730896 114.46800232 2.1898367405 183.50010681 1.8999855518 1.3653100729 0.0379999988
 1537.3800049  -999.250000 17.672000885 17.500000000 -0.066000000  -999.250000 2.3489999771 4.4120001793 133.88461304 111.88800049 2.2676248550 183.37530518 1.9467740059 1.4139215946 0.0379999988
 1537.5324707  -999.250000 17.684000015 17.500000000 -0.059999999  -999.250000 2.3859999180 4.6560001373 134.68336487 111.86599731 2.2908895016 183.27017212 1.9629231691 2.0414967537 0.0379999988
 1537.6848145  -999.250000 17.763000488 17.500000000 -0.063000001  -999.250000 2.3759999275 4.7829999924 134.71098328 115.41200256 2.2074038982 183.31091309 1.9003028870 2.3937180042 0.0379999988
 1537.8372803  -999.250000 17.865999222 17.500000000 -0.071000002  -999.250000 2.3399999142 4.6469998360 137.26995850 115.84600067 2.1990382671 183.52366638 1.8990048170 1.9793322086 0.0379999988
 1537.9896240  -999.250000 17.822999954 17.500000000 -0.075999998  -999.250000 2.3080000877 4.2859997749 137.74661255 114.90200043 2.2019855976 183.41525269 1.9039759636 1.1296809912 0.0379999988
 1538.1420898  -999.250000 17.770999908 17.500000000 -0.075000003  -999.250000 2.3020000458 4.1079998016 139.79237366 116.75299072 2.1741344929 183.33512878 1.8990240097 0.9951072931 0.0379999988
 1538.2944336  -999.250000 17.700000763 17.500000000 -0.072999999  -999.250000 2.3139998913 4.0370001793 139.29039001 115.66899109 2.2376921177 183.14546204 1.9557259083 1.7194191217 0.0379999988
 1538.4468994  -999.250000 17.707000732 17.500000000 -0.068999998  -999.250000 2.3399999142 4.1869997978 141.20445251 115.19399261 2.3116445541 182.96029663 2.0226781368 1.7739567757 0.0379999988
 1538.5992432  -999.250000 17.805000305 17.500000000 -0.061999999  -999.250000 2.3629999161 4.0570001602 140.34667969 114.36699677 2.3060288429 182.72637939 2.0349423885 1.6870697737 0.0379999988
 1538.7515869  -999.250000 17.680999756 17.500000000 -0.054000001  -999.250000 2.3699998856 3.8729999065 139.36756897 115.19998932 2.3219103813 182.81378174 2.0350000858 1.9855211973 0.0379999988
 1538.9040527  -999.250000 17.656000137 17.500000000 -0.044000000  -999.250000 2.3640000820 3.6649999619 141.64317322 116.20999908 2.3419039249 182.71017456 2.0369904041 2.0859198570 0.0379999988
 1539.0563965  -999.250000 17.669000626 17.500000000 -0.032000002  -999.250000 2.3559999466 3.5940001011 142.93992615 115.48300171 2.3081905842 182.45660400 2.0330224037 2.1359198093 0.0379999988
 1539.2088623  -999.250000 17.694999695 17.500000000 -0.020000000  -999.250000 2.3280000687 3.7820000648 139.12905884 113.47599792 2.2353508472 182.46000671 1.9991633892 2.1399970055 0.0379999988
 1539.3612061  -999.250000 17.767000198 17.500000000 -0.011000000  -999.250000 2.3039999008 4.3660001755 133.86143494 115.07599640 2.2240529060 182.35525513 2.0258703232 1.7456325293 0.0379999988
 1539.5136719  -999.250000 17.711999893 17.500000000 -0.004000000  -999.250000 2.2909998894 4.9980001450 131.31402588 114.80300140 2.2906780243 182.16529846 2.0648126602 0.9376474023 0.0379999988
 1539.6660156  -999.250000 17.722999573 17.500000000 0.0040000002  -999.250000 2.3169999123 5.7090001106 129.12174988 112.86199951 2.2203414440 182.16499329 1.9823989868 1.7613389492 0.0379999988
 1539.8184814  -999.250000 17.554000854 17.500000000 0.0130000003  -999.250000 2.3550000191 6.1469998360 124.51269531 103.55200195 2.2329375744 182.51544189 1.9680672884 1.8519279957 0.0379999988
 1539.9708252  -999.250000 17.555999756 17.500000000 0.0179999992  -999.250000 2.3310000896 6.3810000420 120.04158783 103.62000275 2.4768221378 183.33702087 2.1292212009 0.8088365793 0.0379999988
 1540.1232910  -999.250000 17.919000626 17.500000000 0.0089999996  -999.250000 2.1989998817 6.6859998703 121.48683929 106.60199738 2.7397365570 183.66447449 2.3170969486 1.5713883638 0.0379999988
 1540.2756348  -999.250000 17.568000793 17.500000000 -0.001000000  -999.250000 2.0490000248 7.5689997673 124.57852173 110.23000336 2.7748365402 184.03909302 2.3379039764 2.6001756191 0.0379999988
 1540.4281006  -999.250000 17.459999084 17.500000000 -0.008000000  -999.250000 2.0030000210 8.4209995270 128.81761169 110.77999878 2.7272305489 184.52322388 2.3320288658 0.6935284138 0.0379999988
 1540.5804443  -999.250000 17.820999146 17.500000000 -0.008000000  -999.250000 2.0959999561 7.7470002174 130.85935974 111.94599915 2.5548317432 184.66476440 2.2324807644 0.6100656986 0.0379999988
 1540.7329102  -999.250000 17.826999664 17.500000000 -0.001000000  -999.250000 2.2679998875 5.9099998474 129.63397217 110.08300781 2.7261688709 184.83473206 2.3414716721 1.9589191675 0.0379999988
 1540.8852539  -999.250000 17.608999252 17.500000000 -0.002000000  -999.250000 2.3299999237 5.3829998970 128.32405090 108.99099731 2.8434376717 184.83500671 2.4395289421 2.3796634674 0.0379999988
 1541.0375977  -999.250000 17.625999451 17.500000000 -0.014000000  -999.250000 2.2100000381 6.1820001602 129.96936035 113.51399994 2.7067735195 184.62550354 2.3495099545 2.2512063980 0.0379999988
 1541.1900635  -999.250000 17.554000854 17.500000000 -0.024000000  -999.250000 2.1040000916 6.5149998665 129.14865112 114.43399811 2.5039758682 184.37539673 2.2017114162 0.8840961456 0.0379999988
 1541.3424072  -999.250000 17.534000397 17.500000000 -0.022000000  -999.250000 2.1300001144 6.2270002365 131.17875671 116.45899963 2.3605732918 184.20640564 2.1014010906 0.2619960010 0.0379999988
 1541.4948730  -999.250000 17.563999176 17.500000000 -0.011000000  -999.250000 2.2669999599 4.8569998741 132.73675537 114.47699738 2.3380880356 184.31483459 2.0870559216 0.5397764444 0.0379999988
 1541.6472168  -999.250000 17.652000427 17.500000000 0.0020000001  -999.250000 2.4030001163 4.2950000763 137.73298645 113.91899872 2.3818237782 184.25015259 2.0999479294 1.8479022980 0.0379999988
