# LAS format log file from PETREL
# Project units are specified as depth units
#==================================================================
~Version information
VERS.   2.0:
WRAP.   NO:
#==================================================================
~Well
STRT .m      998.18890381 :
STOP .m      3019.4697266 :
STEP .m     0.00000000 :
NULL .        -999.250000 :
COMP.           : COMPANY
WELL.  35/12-1   : WELL
FLD.            : FIELD
LOC.            : LOCATION
SRVC.           : SERVICE COMPANY
DATE.  2018-09-11 14:48:57   : Log Export Date {yyyy-MM-dd HH:mm:ss}
PROV.           : PROVINCE
UWI.   35/12-1   : UNIQUE WELL ID
API.            : API NUMBER
#==================================================================
~Curve
DEPT .m                   : DEPTH
Lithology_geolink ._      : Lithology_geolink
CALI .in                  : CALI
BS .in                    : BS
DRHO .g/cm3               : DRHO
NPHI .m3/m3               : NPHI
RHOB .g/cm3               : RHOB
PEF .b/e                  : PEF
GR .gAPI                  : GR
DTC .us/ft                : DTC
RDEP .ohm.m               : RDEP
SP .mV                    : SP
RSHA .ohm.m               : RSHA
RMIC .ohm.m               : RMIC
RMED .ohm.m               : RMED
~Parameter
#==================================================================
~Ascii
# ...
 2479.0593262 4.0000000000 12.734999657 12.250000954 0.0089999996 0.3000192046 2.5529999733 4.5970001221 101.84642792 78.884002686 6.2892498970 -153.0261993 5.4886283875 8.7755327225 0.0450000018
 2479.2119141 4.0000000000 12.718999863 12.250000954 0.0130000003 0.2800961435 2.5480000973 4.6129999161 102.83200073 78.900009155 6.3934950829 -152.0805664 5.2212786674 7.1216487885 0.0450000018
 2479.3642578 4.0000000000 12.718999863 12.250000954 0.0170000009 0.2909471095 2.5550000668 4.4889998436 107.35375214 78.931999207 6.5450272560 -151.9565735 4.9070162773 4.7158570290 0.0460000001
 2479.5166016 4.0000000000 12.718999863 12.250000954 0.0160000008 0.3178701699 2.5580000877 4.0199999809 113.67186737 79.052001953 6.8222179413 -152.1729431 4.8294873238 4.6491012573 0.0450000018
 2479.6689453 4.0000000000 12.718999863 12.250000954 0.0130000003 0.3548220992 2.5710000992 3.6870000362 116.76305389 79.161003113 7.1787118912 -151.3270874 5.3595767021 6.0993442535 0.0450000018
 2479.8215332 5.0000000000 12.718999863 12.250000954 0.0070000002 0.3599760234 2.5750000477 3.4560000896 116.58399963 79.867996216 7.6636681557 -149.5525513 5.8655719757 9.8390054703 0.0460000001
 2479.9738770 5.0000000000 12.718999863 12.250000954 0.0020000001 0.3450721204 2.5799999237 3.5559999943 114.44699860 80.552009583 8.5622272491 -149.8286285 6.1382589340 15.910264969 0.0450000018
 2480.1262207 5.0000000000 12.711000443 12.250000954 -0.003000000 0.3181298077 2.5720000267 3.6180000305 116.07139587 81.000000000 9.4860763550 -150.6719208 6.4768271446 16.132658005 0.0450000018
 2480.2785645 5.0000000000 12.673000336 12.250000954 -0.006000000 0.3130240440 2.5610001087 3.5510001183 117.84016418 81.384002686 10.190493584 -150.4729767 7.0999937057 13.062856674 0.0450000018
 2480.4311523 5.0000000000 12.628999710 12.250000954 -0.008000000 0.3139952123 2.5559999943 3.4360001087 120.26599884 81.539001465 10.602033615 -150.9934845 7.6881780624 16.748067856 0.0450000018
 2480.5834961 5.0000000000 12.579000473 12.250000954 -0.009000000 0.3368894458 2.5520000458 3.4289999008 118.30200195 81.097007751 10.704514503 -151.8229980 8.1069908142 19.796117783 0.0450000018
 2480.7358398 4.0000000000 12.564000130 12.250000954 -0.010000000 0.3479470909 2.5499999523 3.5350000858 116.62269592 80.931999207 10.299611092 -151.5891418 8.0245437622 17.964946747 0.0460000001
 2480.8881836 4.0000000000 12.562999725 12.250000954 -0.010000000 0.3420288563 2.5529999733 3.7679998875 112.80412292 80.952003479 10.191679001 -152.8051300 7.5540323257 17.861162186 0.0460000001
 2481.0405273 4.0000000000 12.546999931 12.250000954 -0.009000000 0.3251087964 2.5550000668 3.9119999409 110.18120575 80.816001892 10.290359497 -152.6937408 7.2996215820 14.946356773 0.0460000001
 2481.1931152 4.0000000000 12.479000092 12.250000954 -0.006000000 0.3359470963 2.5590000153 3.9370000362 109.41300201 80.748001099 10.356682777 -152.6880341 7.2124133110 9.5865879059 0.0450000018
 2481.3454590 4.0000000000 12.461001396 12.250000954 -0.004000000 0.3379903734 2.5590000153 3.7799999714 111.24307251 80.900001526 10.674952507 -149.6158447 7.2348527908 7.3196249008 0.0450000018
 2481.4978027 4.0000000000 12.527000427 12.250000954 -0.001000000 0.3459615111 2.5620000362 3.7000000477 114.97701263 81.083999634 10.999916077 -150.8897705 7.3442945480 8.8355607986 0.0450000018
 2481.6501465 4.0000000000 12.519001007 12.250000954 -0.001000000 0.3380384743 2.5610001087 3.6229999065 118.26473236 81.216003418 11.316967964 -151.3239441 7.6440706253 10.587384224 0.0450000018
 2481.8027344 5.0000000000 12.552000046 12.250000954 -0.001000000 0.3479519784 2.5620000362 3.5169999599 121.47699738 81.481002808 11.526000023 -152.0365601 8.1286678314 11.651301384 0.0450000018
 2481.9550781 5.0000000000 12.562999725 12.250000954 -0.001000000 0.3569567204 2.5559999943 3.3359999657 119.97799683 82.035011292 11.559789658 -152.9197388 9.0312013626 14.957695961 0.0450000018
 2482.1074219 5.0000000000 12.562999725 12.250000954 -0.001000000 0.3550096154 2.5590000153 3.2479999065 116.85899353 82.367996216 12.937115669 -152.8583221 9.6083145142 16.369741440 0.0450000018
 2482.2597656 5.0000000000 12.562999725 12.250000954 -0.002000000 0.3729134500 2.5580000877 3.1800000668 114.64853668 82.531997681 14.166128159 -152.4250946 9.7212953568 18.291837692 0.0450000018
 2482.4123535 5.0000000000 12.562999725 12.250000954 -0.004000000 0.3660335839 2.5620000362 3.2190001011 116.54000092 82.607002258 13.942120552 -152.7374878 9.7926588058 18.550594330 0.0450000018
 2482.5646973 5.0000000000 12.562999725 12.250000954 -0.007000000 0.3669952154 2.5590000153 3.3429999352 118.86199951 82.028999329 13.458332062 -150.8461456 9.4576206207 19.368688583 0.0450000018
 2482.7170410 5.0000000000 12.562999725 12.250000954 -0.008000000 0.3401298225 2.5599999428 3.6500000954 117.52913666 81.800003052 13.242376328 -151.6281891 9.1529521942 19.588649750 0.0460000001
 2482.8693848 5.0000000000 12.550999641 12.250000954 -0.004000000 0.3409951925 2.5420000553 4.3369998932 115.30756378 81.619003296 12.912121773 -150.1272583 8.9721536636 17.538291931 0.0450000018
 2483.0219727 5.0000000000 12.467999458 12.250000954 0.0000000000 0.3469712138 2.5050001144 4.6859998703 113.63700104 81.148002625 12.641298294 -150.6265564 8.8127651215 8.8279533386 0.0450000018
 2483.1743164 5.0000000000 12.333000183 12.250000954 0.0060000001 0.3649134636 2.4900000095 4.4780001640 114.55400085 80.913002014 12.748476028 -151.4311218 10.178399086 5.3904953003 0.0450000018
 2483.3266602 5.0000000000 12.420998573 12.250000954 0.0109999999 0.3679855764 2.5000000000 3.8810000420 116.71753693 81.070991516 12.439990044 -152.0898438 12.442459106 5.9391107559 0.0450000018
 2483.4790039 5.0000000000 12.539999008 12.250000954 0.0130000003 0.3520769179 2.5299999714 3.6949999332 117.81524658 80.929000854 11.846814156 -151.7874756 13.315462112 10.247086525 0.0450000018
 2483.6313477 5.0000000000 12.562999725 12.250000954 0.0070000002 0.3410528898 2.5350000858 3.8440001011 118.28425598 81.136001587 11.995019913 -151.7740631 12.886800766 16.451107025 0.0450000018
 2483.7839355 5.0000000000 12.562999725 12.250000954 -0.003000000 0.3489616215 2.5299999714 3.8849999905 116.15599823 81.199996948 12.510514259 -151.6416473 12.407302856 15.403713226 0.0450000018
 2483.9362793 5.0000000000 12.564000130 12.250000954 -0.010000000 0.3519855738 2.5269999504 3.6380000114 116.74505615 81.039001465 13.164801598 -152.0181885 12.059226990 15.264221191 0.0450000018
 2484.0886230 5.0000000000 12.569000244 12.250000954 -0.013000000 0.3470240533 2.5369999409 3.5069999695 118.00198364 80.377998352 14.483518600 -152.4200592 12.179211617 15.930929184 0.0450000018
 2484.2409668 5.0000000000 12.569000244 12.250000954 -0.014000000 0.3470000029 2.5490000248 3.5620000362 118.39237213 80.219001770 15.741935730 -152.2627563 13.168622017 15.505369186 0.0450000018
 2484.3935547 5.0000000000 12.564000130 12.250000954 -0.014000000 0.3440144062 2.5490000248 3.6970000267 116.58599854 80.125999451 16.220726013 -153.0770569 14.161235809 15.923326492 0.0450000018
 2484.5458984 5.0000000000 12.562999725 12.250000954 -0.015000000 0.3648990393 2.5390000343 3.6719999313 112.43800354 80.819000244 15.602000237 -154.2722473 14.841735840 15.183189392 0.0450000018
 2484.6982422 5.0000000000 12.562999725 12.250000954 -0.014000000 0.3470865488 2.5360000134 3.5120000839 113.06998444 81.303001404 14.896525383 -154.4820099 15.833632469 17.190776825 0.0450000018
 2484.8505859 5.0000000000 12.562999725 12.250000954 -0.013000000 0.3599375188 2.5409998894 3.5150001049 112.65666199 81.460998535 14.765814781 -154.1585693 16.085416794 16.678653717 0.0450000018
 2485.0031738 5.0000000000 12.562999725 12.250000954 -0.012000000 0.3600000143 2.5460000038 3.5799999237 116.01799774 81.796997070 15.598970413 -154.5909119 15.907864571 17.197164536 0.0450000018
 2485.1555176 5.0000000000 12.562999725 12.250000954 -0.012000000 0.3918461502 2.5529999733 3.7000000477 114.22499847 80.858009338 19.124986649 -154.3272858 16.759880066 17.134103775 0.0450000018
