# LAS format log file from PETREL
# Project units are specified as depth units
#==================================================================
~Version information
VERS.   2.0:
WRAP.   NO:
#==================================================================
~Well
STRT .m      359.96881104 :
STOP .m      3380.8413086 :
STEP .m     0.00000000 :
NULL .        -999.250000 :
COMP.           : COMPANY
WELL.  35/11-12   : WELL
FLD.            : FIELD
LOC.            : LOCATION
SRVC.           : SERVICE COMPANY
DATE.  2018-09-11 14:48:55   : Log Export Date {yyyy-MM-dd HH:mm:ss}
PROV.           : PROVINCE
UWI.   35/11-12   : UNIQUE WELL ID
API.            : API NUMBER
#==================================================================
~Curve
DEPT .m                   : DEPTH
Lithology_geolink ._      : Lithology_geolink
CALI .in                  : CALI
BS .in                    : BS
ROP .m/h                  : ROP
DRHO .g/cm3               : DRHO
NPHI .m3/m3               : NPHI
RHOB .g/cm3               : RHOB
PEF .b/e                  : PEF
GR .gAPI                  : GR
DTC .us/ft                : DTC
RDEP .ohm.m               : RDEP
RMED .ohm.m               : RMED
~Parameter
#==================================================================
~Ascii
# ...
 1757.1719971 19.000000000  -999.250000 17.500000000 29.330703735  -999.250000  -999.250000  -999.250000  -999.250000 153.47296143 117.07200623 0.9235198498 1.2418627739
 1757.3243408 19.000000000  -999.250000 17.500000000 28.674541473  -999.250000  -999.250000  -999.250000  -999.250000 155.63949585 111.27799225 1.0064821243 2.4527020454
 1757.4766846 19.000000000  -999.250000 17.500000000 28.543304443  -999.250000  -999.250000  -999.250000  -999.250000 159.58801270 111.57299805 0.8041887283 3.9367423058
 1757.6291504 19.000000000  -999.250000 17.500000000 27.755903244  -999.250000  -999.250000  -999.250000  -999.250000 157.63619995 113.68400574 0.9143050909 1.5770058632
 1757.7814941 19.000000000  -999.250000 17.500000000 27.526245117  -999.250000  -999.250000  -999.250000  -999.250000 156.67260742 115.78800201 0.8716435432 1.1528272629
 1757.9339600 19.000000000  -999.250000 17.500000000 35.203411102  -999.250000  -999.250000  -999.250000  -999.250000 158.78726196 116.86799622 0.9042357206 1.7957973480
 1758.0863037 19.000000000  -999.250000 17.500000000 46.948822021  -999.250000  -999.250000  -999.250000  -999.250000 165.67834473 119.17099762 0.9222722054 0.7222276926
 1758.2387695 19.000000000  -999.250000 17.500000000 58.628604889  -999.250000  -999.250000  -999.250000  -999.250000 164.12759399 124.62800598 0.9002590179 0.5313557386
 1758.3911133 19.000000000  -999.250000 17.500000000 61.253276825  -999.250000  -999.250000  -999.250000  -999.250000 159.10910034 130.11999512 0.8287787437 1.6725091934
 1758.5435791 19.000000000  -999.250000 17.500000000 57.119422913  -999.250000  -999.250000  -999.250000  -999.250000 156.51339722 131.66799927 0.8296970129 0.6454930305
 1758.6958008 19.000000000  -999.250000 17.500000000 58.923881531  -999.250000  -999.250000  -999.250000  -999.250000 158.02429199 130.27401733 0.9541484118 2.0279078484
 1758.8481445 19.000000000  -999.250000 17.500000000 63.418624878  -999.250000  -999.250000  -999.250000  -999.250000 159.86312866 124.49501038 0.9073821306 0.9493529797
 1759.0006104 19.000000000  -999.250000 17.500000000 60.892379761  -999.250000  -999.250000  -999.250000  -999.250000 160.21188354 118.72300720 0.8437829018 0.7934861183
 1759.1529541 19.000000000  -999.250000 17.500000000 65.387138367  -999.250000  -999.250000  -999.250000  -999.250000 163.74905396 122.59899902 0.8276689053 1.0529723167
 1759.3054199 19.000000000  -999.250000 17.500000000 65.813644409  -999.250000  -999.250000  -999.250000  -999.250000 168.99142456 129.96701050 0.9001990557 1.3793275356
 1759.4577637 19.000000000  -999.250000 17.500000000 65.124664307  -999.250000  -999.250000  -999.250000  -999.250000 168.56469727 133.22100830 0.8366248608 1.1218872070
 1759.6102295 19.000000000  -999.250000 17.500000000 63.943561554  -999.250000  -999.250000  -999.250000  -999.250000 167.90350342 133.77001953 0.8874304295 0.9710879326
 1759.7625732 19.000000000  -999.250000 17.500000000 59.842517853  -999.250000  -999.250000  -999.250000  -999.250000 165.96789551 133.69000244 0.9097428322 0.8026221991
 1759.9150391 19.000000000  -999.250000 17.500000000 60.072166443  -999.250000  -999.250000  -999.250000  -999.250000 170.65710449 132.47500610 0.8726624250 1.0732297897
 1760.0673828 19.000000000  -999.250000 12.250000954 62.434383392  -999.250000  -999.250000  -999.250000  -999.250000 175.27770996 133.09802246 0.9104650021 1.3595788479
 1760.2198486 19.000000000  -999.250000 12.250000954 63.648288727  -999.250000  -999.250000  -999.250000  -999.250000 176.29754639 134.36700439 0.9099781513 2.0460133553
 1760.3721924 19.000000000  -999.250000 12.250000954 271.97070313  -999.250000  -999.250000  -999.250000  -999.250000 171.24011230 128.41101074 0.7638324499 1.2780203819
 1760.5246582 19.000000000  -999.250000 12.250000954 480.29302979  -999.250000  -999.250000  -999.250000  -999.250000 167.56784058 123.85501099 0.7507580519 0.9446910620
 1760.6770020 19.000000000  -999.250000 12.250000954 688.61541748  -999.250000  -999.250000  -999.250000  -999.250000 162.78790283 129.26699829 0.7601716518 0.7094937563
 1760.8293457 19.000000000  -999.250000 12.250000954 727.69024658  -999.250000  -999.250000  -999.250000  -999.250000 164.94445801 135.93801880 1.1001148224 0.7277615070
 1760.9818115 19.000000000  -999.250000 12.250000954 817.19158936  -999.250000  -999.250000  -999.250000  -999.250000 160.33148193 135.83200073 1.1147077084 0.9076776505
 1761.1341553 19.000000000  -999.250000 12.250000954 927.06689453  -999.250000  -999.250000  -999.250000  -999.250000 159.05682373 129.31701660 1.0892925262 1.2120687962
 1761.2866211 19.000000000  -999.250000 12.250000954 898.45794678  -999.250000  -999.250000  -999.250000  -999.250000 158.32495117 121.57000732 1.0570657253 1.3012993336
 1761.4389648 19.000000000  -999.250000 12.250000954 751.77160645  -999.250000  -999.250000  -999.250000  -999.250000 158.89089966 117.38700867 1.1490032673 1.3051426411
 1761.5914307 19.000000000  -999.250000 12.250000954 46.620731354  -999.250000  -999.250000  -999.250000  -999.250000 158.73306274 116.70100403 1.1209850311 1.4108498096
 1761.7437744 19.000000000  -999.250000 12.250000954 17.946191788  -999.250000  -999.250000  -999.250000  -999.250000 156.07223511 123.81100464 1.2270352840 1.5772571564
 1761.8962402 19.000000000  -999.250000 12.250000954 16.469814301  -999.250000  -999.250000  -999.250000  -999.250000 155.11758423 137.00100708 1.2608692646 1.4107279778
 1762.0485840 19.000000000  -999.250000 12.250000954 41.732280731  -999.250000  -999.250000  -999.250000  -999.250000 150.65478516 143.19000244 1.1693620682 1.1834180355
 1762.2010498 19.000000000  -999.250000 12.250000954 37.762466431  -999.250000  -999.250000  -999.250000  -999.250000 150.95260620 143.68402100 1.1360349655 1.0697863102
 1762.3533936 19.000000000  -999.250000 12.250000954 34.678478241  -999.250000  -999.250000  -999.250000  -999.250000 147.19073486 145.71099854 1.1594741344 1.1010024548
 1762.5058594 19.000000000  -999.250000 12.250000954 32.972438812  -999.250000  -999.250000  -999.250000  -999.250000 149.37277222 149.01300049 1.0763506889 1.1311266422
 1762.6582031 19.000000000  -999.250000 12.250000954 27.001310349  -999.250000  -999.250000  -999.250000  -999.250000 145.00408936 152.15600586 0.9416640997 0.8533366919
 1762.8105469 19.000000000  -999.250000 12.250000954 26.312337875  -999.250000  -999.250000  -999.250000  -999.250000 146.74081421 150.65301514 0.8775225878 0.8117923737
 1762.9630127 19.000000000  -999.250000 12.250000954 25.492124557  -999.250000  -999.250000  -999.250000  -999.250000 151.09136963 144.29901123 0.8958390951 0.8136999607
 1763.1153564 19.000000000  -999.250000 12.250000954 26.476377487  -999.250000  -999.250000  -999.250000  -999.250000 156.34909058 140.96600342 0.9038915634 0.8080906868
 1763.2678223 19.000000000  -999.250000 12.250000954 30.118108749  -999.250000  -999.250000  -999.250000  -999.250000 153.31381226 140.40600586 0.8944981098 0.8304405212
 1763.4201660 19.000000000  -999.250000 12.250000954 32.644351959  -999.250000  -999.250000  -999.250000  -999.250000 144.23269653 137.67001343 0.9223631620 0.9055459499
 1763.5726318 19.000000000  -999.250000 12.250000954 43.985122681  -999.250000  -999.250000  -999.250000  -999.250000 136.47430420 134.82699585 1.0042896271 0.9754215479
 1763.7249756 19.000000000  -999.250000 12.250000954 55.325889587  -999.250000  -999.250000  -999.250000  -999.250000 134.72958374 133.73599243 1.0406236649 0.9778523445
 1763.8774414 19.000000000  -999.250000 12.250000954 66.666664124  -999.250000  -999.250000  -999.250000  -999.250000 134.82461548 133.14300537 1.0362765789 1.0091459751
 1764.0297852 19.000000000  -999.250000 12.250000954 78.510498047  -999.250000  -999.250000  -999.250000  -999.250000 135.23797607 132.92300415 1.0135488510 0.9630203247
 1764.1822510 19.000000000  -999.250000 12.250000954 69.389755249  -999.250000  -999.250000  -999.250000  -999.250000 135.58053589 132.77999878 1.0217185020 0.9969015121
 1764.3345947 19.000000000  -999.250000 12.250000954 44.717849731  -999.250000  -999.250000  -999.250000  -999.250000 137.04623413 131.43801880 0.9985265732 0.9569989443
