# LAS format log file from PETREL
# Project units are specified as depth units
#==================================================================
~Version information
VERS.   2.0:
WRAP.   NO:
#==================================================================
~Well
STRT .m      963.35791016 :
STOP .m      4034.6738281 :
STEP .m     0.00000000 :
NULL .        -999.250000 :
COMP.           : COMPANY
WELL.  35/11-2   : WELL
FLD.            : FIELD
LOC.            : LOCATION
SRVC.           : SERVICE COMPANY
DATE.  2018-09-11 14:48:55   : Log Export Date {yyyy-MM-dd HH:mm:ss}
PROV.           : PROVINCE
UWI.   35/11-2   : UNIQUE WELL ID
API.            : API NUMBER
#==================================================================
~Curve
DEPT .m                   : DEPTH
Lithology_geolink ._      : Lithology_geolink
CALI .in                  : CALI
DRHO .g/cm3               : DRHO
NPHI .m3/m3               : NPHI
RHOB .g/cm3               : RHOB
GR .gAPI                  : GR
DTC .us/ft                : DTC
RDEP .ohm.m               : RDEP
SP .mV                    : SP
RSHA .ohm.m               : RSHA
RMED .ohm.m               : RMED
~Parameter
#==================================================================
~Ascii
# ...
 3015.2707520 5.0000000000 12.477000237 -0.011000000 0.3530245423 2.5640223026 61.650890350 90.747398376 22.739000320 104.17590332 23.952848434 23.952848434
 3015.4230957 5.0000000000 12.477000237 -0.011998397 0.3335312903 2.5719871521 64.620239258 90.750000000 22.125000000 103.30240631 23.314025879 23.314025879
 3015.5754395 5.0000000000 12.477000237 -0.012998397 0.3183842599 2.5779905319 63.720455170 90.999595642 21.749000549 103.11429596 23.141277313 23.141277313
 3015.7277832 5.0000000000 12.477000237 -0.014993600 0.3018131256 2.5899615288 63.157798767 89.255592346 21.575000763 105.66780090 22.953599930 22.953599930
 3015.8803711 5.0000000000 12.494000435 -0.013003205 0.3100467026 2.5880031586 63.655197144 87.627601624 21.597999573 103.49250031 22.952999115 22.952999115
 3016.0327148 5.0000000000 12.531000137 -0.014996795 0.3032309711 2.5800127983 62.252254486 87.125801086 21.253000259 104.73699188 22.438825607 22.438825607
 3016.1850586 5.0000000000 12.557000160 -0.015000000 0.3056561053 2.5760064125 60.752403259 86.376205444 20.523000717 104.42650604 22.687599182 22.687599182
 3016.3374023 5.0000000000 12.562999725 -0.017990399 0.2959312201 2.5660319328 57.946998596 88.244003296 20.114000320 102.55699921 22.594301224 22.594301224
 3016.4899902 5.0000000000 12.557000160 -0.015004807 0.3114949763 2.5739870071 58.592948914 88.250000000 19.440999985 106.54459381 22.266527176 22.266527176
 3016.6423340 6.0000000000 12.553001404 -0.018993590 0.3310187161 2.5739998817 62.681438446 88.374801636 18.909000397 104.05500793 21.018003464 21.018003464
 3016.7946777 6.0000000000 12.559000015 -0.018001601 0.3427512348 2.5819871426 65.683197021 89.123794556 19.288999557 101.74270630 19.907779694 19.907779694
 3016.9470215 6.0000000000 12.562999725 -0.017003201 0.3554293513 2.5839936733 68.491004944 89.498802185 19.392000198 103.42060089 19.517248154 19.517248154
 3017.0996094 6.0000000000 12.564000130 -0.007016026 0.3442580104 2.5859968662 65.879203796 88.751205444 19.291000366 104.73689270 19.640800476 19.640800476
 3017.2519531 6.0000000000 12.560999870 -0.005003205 0.3520374894 2.5800094604 67.122993469 88.999595642 19.155000687 104.48940277 19.968473434 19.968473434
 3017.4042969 6.0000000000 12.531000137 -0.008993589 0.3535176516 2.5780031681 67.249801636 89.000000000 19.482000351 106.23619080 20.171674728 20.171674728
 3017.5566406 6.0000000000 12.492000580 -0.015988782 0.3588813841 2.5760030746 69.184898376 87.876800537 19.754999161 104.24220276 20.233900070 20.233900070
 3017.7089844 6.0000000000 12.477000237 -0.016996801 0.3311390877 2.5819807053 65.325401306 87.999595642 20.266000748 101.74700165 19.907049179 19.907049179
 3017.8615723 6.0000000000 12.477000237 -0.017998397 0.3066791296 2.5820000172 62.379707336 87.001602173 20.565000534 103.17369843 20.233472824 20.233472824
 3018.0139160 6.0000000000 12.477000237 -0.017001603 0.2944495976 2.5820000172 57.258213043 87.499198914 20.697000504 102.86450195 20.936870575 20.936870575
 3018.1662598 5.0000000000 12.477000237 -0.015003204 0.3193000853 2.5760095119 56.251602173 87.500000000 21.204999924 101.67790985 21.951372147 21.951372147
 3018.3186035 5.0000000000 12.477000237 -0.014003200 0.3232275248 2.5759999752 59.084899902 87.001602173 22.805999756 105.91239929 21.952999115 21.952999115
 3018.4711914 5.0000000000 12.458999634 -0.008009615 0.3222715557 2.5859839916 59.530296326 87.499198914 23.218999863 105.86409760 22.187623978 22.187623978
 3018.6235352 5.0000000000 12.416000366 -0.008998397 0.2822941542 2.6019742489 58.221103668 86.127204895 23.381999969 105.11520386 22.530450821 22.530450821
 3018.7758789 5.0000000000 12.382999420 -0.007003205 0.2788154781 2.6019999981 54.661708832 86.998596191 23.270999908 105.05110168 24.247245789 24.247245789
 3018.9282227 5.0000000000 12.375000000 -0.008993600 0.2851396799 2.5920319557 56.961601257 85.753997803 21.879999161 103.86779785 25.698348999 25.698348999
 3019.0808105 5.0000000000 12.375000000 -0.009998397 0.2963719964 2.5760257244 56.469802856 85.874801636 21.391000748 103.55150604 25.484350204 25.484350204
 3019.2331543 5.0000000000 12.375000000 -0.009001602 0.3007729650 2.5720064640 62.022083282 86.374198914 21.625000000 104.79899597 23.861602783 23.861602783
 3019.3854980 6.0000000000 12.375000000 -0.009000000 0.2988331318 2.5759935379 65.806945801 86.499801636 21.594999313 104.05220795 23.484600067 23.484600067
 3019.5378418 6.0000000000 12.375000000 -0.006004808 0.3290514946 2.5819904804 70.242889404 86.500000000 21.521999359 103.55180359 23.219425201 23.219425201
 3019.6901855 6.0000000000 12.375000000 -0.010984000 0.3320206106 2.5820000172 65.827201843 86.998397827 21.150999069 106.04299927 23.218999863 23.218999863
 3019.8427734 6.0000000000 12.375000000 -0.015991988 0.3325192034 2.5720160007 61.445011139 88.996795654 21.158000946 105.61470032 23.047277451 23.047277451
 3019.9951172 6.0000000000 12.375000000 -0.016998399 0.3052237928 2.5660095215 62.248699188 89.998397827 21.565000534 105.48919678 22.781425476 22.781425476
 3020.1474609 6.0000000000 12.375000000 -0.017000001 0.2983509600 2.5659999847 66.431289673 89.376007080 21.625999451 105.86339569 22.266826630 22.266826630
 3020.2998047 6.0000000000 12.375000000 -0.016003201 0.2852021754 2.5759680271 67.745803833 87.381401062 21.941999435 104.86719513 22.016799927 22.016799927
 3020.4523926 6.0000000000 12.375000000 -0.014003205 0.3158707023 2.5939712524 62.196914673 86.501403809 21.659000397 104.48960114 22.857648849 22.857648849
 3020.6047363 6.0000000000 12.375000000 -0.014998397 0.3295680881 2.5920031071 62.374698639 86.000801086 21.097000122 102.99140167 24.138946533 24.138946533
 3020.7570801 6.0000000000 12.375000000 -0.014001603 0.3300792277 2.5840129852 59.972858429 86.624000549 21.006000519 101.80290985 23.781576157 23.781576157
 3020.9094238 6.0000000000 12.375000000 -0.012006400 0.3106124997 2.5780193806 64.111701965 88.369400024 20.989000320 102.79780579 22.597797394 22.597797394
 3021.0620117 6.0000000000 12.375000000 -0.012000000 0.3061570525 2.5859870911 60.568706512 88.749397278 20.518999100 104.11189270 22.266527176 22.266527176
 3021.2143555 6.0000000000 12.375000000 -0.011001603 0.3183404207 2.6039712429 67.863281250 88.250801086 20.569000244 103.61479950 22.266000748 22.266000748
 3021.3666992 6.0000000000 12.375000000 -0.019985577 0.3266467154 2.6000063419 66.252601624 88.125205994 20.763999939 102.80230713 22.109251022 22.109251022
 3021.5190430 6.0000000000 12.375000000 -0.016006410 0.3281276524 2.6089856625 66.624397278 87.750602722 20.792999268 107.41859436 21.953248978 21.953248978
 3021.6713867 6.0000000000 12.375000000 -0.017993599 0.3115731478 2.5980353355 64.755996704 87.126998901 20.707000732 102.94039917 21.859300613 21.859300613
 3021.8239746 6.0000000000 12.375000000 -0.016003206 0.2983611226 2.5960030556 64.313705444 87.873794556 20.478000641 92.942031860 22.108598709 22.108598709
 3021.9763184 5.0000000000 12.375000000 -0.020991987 0.2876172364 2.5800256729 62.284255981 88.623794556 20.209999084 94.423599243 22.593223572 22.593223572
 3022.1286621 5.0000000000 12.375000000 -0.021998398 0.2988120019 2.5720129013 58.693756104 88.500198364 20.252000809 101.97687531 22.266527176 22.266527176
 3022.2810059 5.0000000000 12.375000000 -0.020006400 0.3080803156 2.5759871006 62.114002228 89.496803284 20.507999420 103.73339844 21.860301971 21.860301971
 3022.4335938 5.0000000000 12.371000290 -0.015008013 0.3271194696 2.5819904804 64.371391296 89.874397278 21.784999847 101.74220276 21.235000610 21.235000610
 3022.5859375 5.0000000000 12.358999252 -0.010008013 0.3261715770 2.5820000172 65.935501099 89.375808716 23.976999283 104.42169952 21.702247620 21.702247620
 3022.7382813 5.0000000000 12.347999573 -0.001014423 0.3086181581 2.6149470806 59.042068481 87.752601624 24.474000931 105.42440033 22.592571259 22.592571259
 3022.8906250 5.0000000000 12.350000381 -0.004987200 0.2837696970 2.6478943825 57.286598206 85.258003235 24.158000946 102.80940247 23.948650360 23.948650360
