# LAS format log file from PETREL
# Project units are specified as depth units
#==================================================================
~Version information
VERS.   2.0:
WRAP.   NO:
#==================================================================
~Well
STRT .m      2901.5925293 :
STOP .m      3271.0102539 :
STEP .m     0.00000000 :
NULL .        -999.250000 :
COMP.           : COMPANY
WELL.  35/11-13   : WELL
FLD.            : FIELD
LOC.            : LOCATION
SRVC.           : SERVICE COMPANY
DATE.  2018-09-11 14:48:55   : Log Export Date {yyyy-MM-dd HH:mm:ss}
PROV.           : PROVINCE
UWI.   35/11-13   : UNIQUE WELL ID
API.            : API NUMBER
#==================================================================
~Curve
DEPT .m                   : DEPTH
Lithology_geolink ._      : Lithology_geolink
CALI .in                  : CALI
BS .in                    : BS
ROP .m/h                  : ROP
DRHO .g/cm3               : DRHO
NPHI .m3/m3               : NPHI
RHOB .g/cm3               : RHOB
PEF .b/e                  : PEF
GR .gAPI                  : GR
DTC .us/ft                : DTC
DTS .us/ft                : DTS
RDEP .ohm.m               : RDEP
RMIC .ohm.m               : RMIC
RMED .ohm.m               : RMED
~Parameter
#==================================================================
~Ascii
# ...
 3239.0063477 7.0000000000 8.4758996964 8.5000000000 28.468202591 -0.004900000 0.3256313503 2.6167402267 3.2206807137 134.52270508 80.592102051 145.94320679 10.889456749 9.1647262573 9.3368034363
 3239.1586914 7.0000000000 8.4671001434 8.5000000000 24.487522125 -0.005300000 0.3353911638 2.5981123447 3.2146558762 131.01100159 80.497337341 145.50390625 14.144523621 10.420779228 11.454025269
 3239.3110352 7.0000000000 8.4671001434 8.5000000000 22.028783798 -0.003700000 0.3299230635 2.6057913303 3.1871669292 128.78700256 80.263885498 145.79460144 12.660616875 11.464592934 10.158146858
 3239.4633789 7.0000000000 8.4671001434 8.5000000000 22.795669556 -0.003400000 0.3442735672 2.6005320549 3.1665616035 123.65460205 80.316589355 146.22419739 10.552428246 9.9002618790 8.3794040680
 3239.6157227 7.0000000000 8.4715003967 8.5000000000 25.088735580 -0.002900000 0.3278126419 2.6204147339 3.2050676346 127.30130005 80.061470032 145.81770325 9.8843812943 8.3796262741 7.8828787804
 3239.7683105 7.0000000000 8.4582996368 8.5000000000 27.237850189 -0.003300000 0.3356655538 2.6296916008 3.3097555637 123.71218872 79.916015625 145.07919312 9.7508440018 7.3981471062 7.7471594810
 3239.9206543 7.0000000000 8.4582996368 8.5000000000 31.516527176 -0.004300000 0.3142027259 2.6245019436 3.4065222740 120.32724762 79.549766541 144.58079529 11.529823303 7.8041419983 9.1607084274
 3240.0729980 7.0000000000 8.4758996964 8.5000000000 27.910495758 -0.003600000 0.3159184158 2.6256909370 3.3582241535 111.69385529 78.659881592 144.77749634 15.971278191 9.6413593292 12.845040321
 3240.2253418 7.0000000000 8.4671001434 8.5000000000 26.106069565 -0.004100000 0.3274232447 2.6201612949 3.4362015724 109.73215485 78.779884338 141.85910034 18.322042465 12.352832794 15.236015320
 3240.3779297 7.0000000000 8.4758996964 8.5000000000 24.324583054 -0.002200000 0.3419947028 2.6580772400 3.8102915287 108.54237366 79.079971313 141.84269714 16.318637848 9.6766662598 14.093419075
 3240.5302734 7.0000000000 8.4848003387 8.5000000000 23.435958862 -0.001800000 0.3714772165 2.5887291431 3.5895533562 115.95750427 79.819549561 141.53790283 4.9292135239 4.0263690948 4.5362119675
 3240.6826172 7.0000000000 8.4671001434 8.5000000000 21.962858200 -0.001700000 0.3573330343 2.6068353653 3.5601701736 122.50967407 80.034484863 144.76480103 4.8750343323 3.1353516579 4.4188947678
 3240.8349609 7.0000000000 8.4715003967 8.5000000000 20.484960556 -0.003500000 0.3778671622 2.5666098595 3.3545122147 127.23016357 80.402336121 145.38549805 4.5882897377 3.3557875156 4.2948150635
 3240.9875488 7.0000000000 8.4715003967 8.5000000000 18.061248779 -0.005300000 0.3573926389 2.5727560520 3.2376599312 127.77071381 81.112838745 144.28190613 6.6814818382 4.1537756920 6.5287337303
 3241.1398926 7.0000000000 8.4671001434 8.5000000000 17.124172211 -0.006100000 0.3550640941 2.5900702477 3.3182678223 128.14836121 81.032867432 145.71310425 0.8196930885 2.8663320541 0.8389224410
 3241.2922363 7.0000000000 8.4671001434 8.5000000000 26.230026245 -0.007100000 0.3327339888 2.5093059540 3.1117911339 128.54495239 81.947402954 145.38839722 0.8793308735 1.1416296959 0.9169123173
 3241.4445801 7.0000000000 8.4715003967 8.5000000000 36.269336700 -0.005900000 0.3539211452 2.5752391815 3.3550345898 123.58917236 81.016860962 145.36610413 1.8950352669 0.9735147357 1.9833154678
 3241.5971680 7.0000000000 8.4582996368 8.5000000000 36.016998291 -0.006600000 0.3670683205 2.5373594761 3.0030159950 122.08235931 80.679824829 144.86129761 1.6659451723 1.1078097820 1.7417733669
 3241.7495117 7.0000000000 8.4582996368 8.5000000000 25.761096954 -0.004400000 0.3571767509 2.5247447491 3.1014955044 123.16304016 80.372299194 144.71989441 1.0903674364 1.2666131258 1.1440412998
 3241.9018555 7.0000000000 8.4671001434 8.5000000000 15.517440796 -0.004000000 0.3426855803 2.5527560711 3.1613242626 125.42577362 79.872352600 144.01060486 2.4476335049 1.2755854130 2.6722161770
 3242.0541992 7.0000000000 8.4582996368 8.5000000000 23.137903214 -0.001800000 0.3337016106 2.5876133442 3.3635926247 123.72650146 79.846305847 144.26159668 6.7596011162 1.7685277462 7.1597843170
 3242.2065430 7.0000000000 8.4582996368 8.5000000000 38.324821472 -0.003100000 0.3346921504 2.5958728790 3.5456163883 123.59799194 80.036575317 143.89309692 2.0251832008 4.0291881561 2.1034572124
 3242.3591309 7.0000000000 8.4848003387 8.5000000000 35.044723511 -0.005500000 0.3297907412 2.5790221691 3.3682658672 121.96787262 79.769371033 143.40609741 1.9135802984 4.3997612000 2.0392367840
 3242.5114746 7.0000000000 8.4582996368 8.5000000000 28.537023544 -0.008000000 0.3269171417 2.5858943462 3.1705069542 121.02701569 79.292236328 142.95530701 9.2351579666 5.7413091660 9.7514810562
 3242.6638184 7.0000000000 8.4715003967 8.5000000000 28.711185455 -0.008500000 0.3376033604 2.5822355747 3.0501027107 122.03865814 79.316802979 141.64089966 13.862187386 14.581781387 13.894583702
 3242.8161621 7.0000000000 8.4715003967 8.5000000000 29.055727005 -0.008300000 0.3397051394 2.5422222614 2.9894311428 125.01055145 78.944526672 141.90800476 1.9561413527 7.0871047974 1.9234853983
 3242.9687500 7.0000000000 8.4671001434 8.5000000000 29.437696457 -0.008800000 0.3428897560 2.5561075211 2.9468526840 128.28401184 79.278686523 142.92500305 2.6695489883 2.4778282642 2.5397214890
 3243.1210938 7.0000000000 8.4582996368 8.5000000000 30.575529099 -0.006800000 0.3397213221 2.5895433426 3.0565786362 128.65127563 79.399314880 142.40260315 3.4009916782 1.8329041004 3.2627408504
 3243.2734375 7.0000000000 8.4671001434 8.5000000000 33.484428406 -0.004600000 0.3530161679 2.5541980267 2.9810738564 122.65115356 79.408966064 142.71969604 3.2704854012 2.0849058628 3.1628682613
 3243.4257813 7.0000000000 8.4582996368 8.5000000000 35.642612457 -0.001500000 0.3630756438 2.5530095100 3.0272831917 120.12938690 79.392150879 141.14019775 2.8853042126 2.2145378590 2.7670295238
 3243.5783691 7.0000000000 8.4582996368 8.5000000000 39.464008331 -0.000800000 0.3478996754 2.5590767860 3.1414368153 117.25753784 79.425956726 143.58590698 1.4742259979 3.1120295525 1.4330908060
 3243.7307129 7.0000000000 8.4715003967 8.5000000000 41.126510620 -0.000700000 0.3477627933 2.5830142498 3.1529307365 118.77166748 78.447731018 141.10020447 7.4673638344 3.6594018936 7.1666164398
 3243.8830566 7.0000000000 8.4758996964 8.5000000000 39.814781189 -0.001900000 0.3246189356 2.5919635296 3.1719253063 122.67176056 78.093185425 139.39810181 10.116177559 9.0161914825 10.159707069
 3244.0354004 7.0000000000 8.4715003967 8.5000000000 36.831878662 -0.000700000 0.3363822103 2.5693044662 3.0630259514 121.77522278 77.899353027 140.50599670 5.3016233444 7.6355743408 5.3638734818
 3244.1877441 7.0000000000 8.4715003967 8.5000000000 31.425216675 -0.001000000 0.3252945542 2.5721278191 3.0167396069 123.27842712 78.058174133 138.13529968 3.4568207264 4.7536373138 3.4251542091
 3244.3403320 7.0000000000 8.4758996964 8.5000000000 30.204305649 0.0007000000 0.3218865693 2.5895411968 2.9794299603 118.87258911 78.163848877 135.43870544 9.3719625473 4.6548261642 9.1127929688
 3244.4926758 7.0000000000 8.4848003387 8.5000000000 28.436903000 -0.000100000 0.3177152276 2.6024003029 3.0821449757 118.61968231 77.992286682 138.80400085 4.3129639626 5.4362435341 4.2810621262
 3244.6450195 7.0000000000 8.4671001434 8.5000000000 27.561740875 0.0017000000 0.3271813989 2.6025905609 3.0477137566 117.61315155 77.232536316 133.09410095 3.6639730930 2.0366220474 3.5068080425
 3244.7973633 7.0000000000 8.4582996368 8.5000000000 33.328113556 -0.001200000 0.3155741990 2.5966801643 2.9942777157 117.82961273 74.946952820 133.66979980 1.6013629436 1.8636299372 1.5277593136
 3244.9499512 7.0000000000 8.4582996368 8.5000000000 36.242259979 0.0015000000 0.2994071841 2.6465625763 3.1683835983 115.44081879 72.600524902 127.09490204 7.9014329910 2.0365355015 7.5141515732
 3245.1022949 5.0000000000 8.4671001434 8.5000000000 47.124881744 0.0002000000 0.2704421580 2.6349730492 3.5061314106 104.97932434 68.924217224 124.50789642 17.532867432 11.275824547 17.181116104
