# LAS format log file from PETREL
# Project units are specified as depth units
#==================================================================
~Version information
VERS.   2.0:
WRAP.   NO:
#==================================================================
~Well
STRT .m      1150.0018311 :
STOP .m      2885.3808594 :
STEP .m     0.00000000 :
NULL .        -999.250000 :
COMP.           : COMPANY
WELL.  35/11-10   : WELL
FLD.            : FIELD
LOC.            : LOCATION
SRVC.           : SERVICE COMPANY
DATE.  2018-09-11 14:48:54   : Log Export Date {yyyy-MM-dd HH:mm:ss}
PROV.           : PROVINCE
UWI.   35/11-10   : UNIQUE WELL ID
API.            : API NUMBER
#==================================================================
~Curve
DEPT .m                   : DEPTH
Lithology_geolink ._      : Lithology_geolink
CALI .in                  : CALI
BS .in                    : BS
DRHO .g/cm3               : DRHO
NPHI .m3/m3               : NPHI
RHOB .g/cm3               : RHOB
GR .gAPI                  : GR
DTC .us/ft                : DTC
DTS .us/ft                : DTS
RDEP .ohm.m               : RDEP
SP .mV                    : SP
RSHA .ohm.m               : RSHA
RMIC .ohm.m               : RMIC
RMED .ohm.m               : RMED
~Parameter
#==================================================================
~Ascii
# ...
 1724.8547363  -999.250000 12.512998581 12.250000954 0.0040885741 0.3641667366 2.1569807529 86.776000977 121.68161774 364.98110962 0.7907620072 -129.1259003 0.5054180026 0.4022786319 0.5049487352
 1725.0072021  -999.250000 12.534000397 12.250000954 0.0085613811 0.3645726740 2.1330111027 86.170997620 124.94738007 337.66632080 0.8878099918 -130.2494049 0.5806329846 0.3960144222 0.5808782578
 1725.1595459  -999.250000 12.343999863 12.250000954 0.0187910441 0.3965733349 2.1400225163 103.76499939 125.81233215 330.99609375 0.9328330159 -129.8748932 0.6149380207 0.5744267106 0.6149455309
 1725.3118896  -999.250000 12.385000229 12.250000954 0.0388139486 0.4322228730 2.1680192947 113.57800293 129.98652649 328.67852783 0.9935950041 -129.7503052 0.6603810191 0.6208525300 0.6598919630
 1725.4643555  -999.250000 12.194000244 12.250000954 0.0587293096 0.4356582761 2.1920094490 116.20600128 135.63569641 341.80679321 1.0800000429 -130.1269531 0.7235260010 0.6558879018 0.7238973975
 1725.6166992  -999.250000 12.465999603 12.250000954 0.0728249252 0.4377287030 2.2039942741 118.93800354 136.50616455 340.29684448 1.1250000000 -132.5633545 0.8157230020 0.6719487309 0.8157790303
 1725.7691650  -999.250000 12.432999611 12.250000954 0.0652571470 0.4265559614 2.1969943047 117.00399780 136.71157837 341.38638306 1.0770000219 -132.9990540 0.8059020042 0.6460625529 0.8060160279
 1725.9215088  -999.250000 12.371000290 12.250000954 0.0691757202 0.4315389693 2.1899905205 114.66600037 134.93688965 351.84719849 1.0549999475 -131.8136597 0.8059009910 0.5812081099 0.8059999943
 1726.0739746  -999.250000 12.385999680 12.250000954 0.0675664470 0.4452969730 2.1779894829 112.97399902 137.29588318 342.09631348 1.0390000343 -132.6265564 0.8073109984 0.5061802864 0.8069983721
 1726.2263184  -999.250000 12.086999893 12.250000954 0.0544154458 0.4509134889 2.1650135517 114.66400146 137.13771057 343.74975586 1.0349999666 -134.5639038 0.8174610138 0.8837862015 0.8169759512
 1726.3787842  -999.250000 12.026000023 12.250000954 0.0649695694 0.4479064047 2.1820254326 114.55699921 134.28683472 343.44549561 1.0190000534 -135.6858978 0.8243280053 0.8231490254 0.8239887953
 1726.5311279  -999.250000 12.161999702 12.250000954 0.0802818984 0.4348414540 2.1979670525 111.48100281 134.18568420 336.88137817 1.0099999905 -134.3751984 0.8207679987 0.5169831514 0.8210071921
 1726.6835938  -999.250000 11.975000381 12.250000954 0.0701558217 0.4451217353 2.1569888592 112.26699829 135.04899597 336.15451050 0.9899100065 -134.6260986 0.8129500151 0.2666009665 0.8130128384
 1726.8359375  -999.250000 12.012999535 12.250000954 0.0619365498 0.4715957940 2.1500160694 108.23000336 134.42167664 368.84887695 0.9520540237 -135.3135071 0.7911239862 0.5311481357 0.7910528779
 1726.9884033  -999.250000 11.895000458 12.250000954 0.0625916272 0.4468818307 2.1700224876 109.08999634 136.51625061 318.85900879 0.9490090013 -135.9385071 0.7893339992 0.7624447346 0.7890031934
 1727.1407471  -999.250000 12.045998573 12.250000954 0.0436471403 0.4328952134 2.1839880943 109.16400146 136.04791260 341.96051025 0.9307590127 -136.2515564 0.7771310210 0.5307461619 0.7770192623
 1727.2930908  -999.250000 12.220999718 12.250000954 0.0388227701 0.4016531110 2.1689598560 109.32900238 137.19241333 366.27639771 0.9166589975 -138.1901550 0.7665789723 0.6127339602 0.7670240402
 1727.4455566  -999.250000 11.772000313 12.250000954 0.0235679932 0.4052880406 2.1189758778 110.33499908 138.96669006 366.73391724 0.8963590264 -140.8776550 0.7511410117 0.4216148853 0.7510256171
 1727.5979004  -999.250000 11.717000008 12.250000954 0.0335459337 0.4171399772 2.0890119076 111.72299957 138.57604980 374.14846802 0.8859980106 -144.1898041 0.7398610115 0.5545704961 0.7400264144
 1727.7503662  -999.250000 11.989999771 12.250000954 0.0472025350 0.4236727953 2.1040289402 113.34500122 134.90365601 423.35629272 0.8906059861 -146.4382477 0.7410650253 0.5181185007 0.7409983873
 1727.9027100  -999.250000 12.449999809 12.250000954 0.0615892671 0.4253762960 2.1400401592 115.51799774 136.98091125 381.33038330 0.9328749776 -146.7519531 0.7687280178 0.5877756476 0.7689327598
 1728.0551758  -999.250000 12.697999954 12.250000954 0.0694089085 0.4506077766 2.1900105476 115.81999969 136.87414551 389.27600098 0.9695109725 -149.1893616 0.7921079993 0.6917499900 0.7919631600
 1728.2075195  -999.250000 12.329000473 12.250000954 0.0705309883 0.4539803267 2.2029953003 116.05400085 135.80746460 389.28735352 0.9862099886 -150.8749542 0.8015840054 0.6640896201 0.8019759655
 1728.3599854  -999.250000 12.508000374 12.250000954 0.0555436872 0.4531216919 2.1970095634 114.26399994 135.14558411 403.45462036 1.0119999647 -150.8153992 0.8125230074 0.6829543710 0.8129823804
 1728.5123291  -999.250000 12.213999748 12.250000954 0.0472502634 0.4137235880 2.2030057907 113.72599792 134.88601685 411.35388184 1.0119999647 -152.3141022 0.7956759930 0.7757021785 0.7960408330
 1728.6647949  -999.250000 12.418000221 12.250000954 0.0575389937 0.4111190438 2.2099728584 114.53800201 134.90177917 436.05691528 1.0169999599 -153.6889038 0.7896400094 0.6772379875 0.7900096178
 1728.8171387  -999.250000 12.444999695 12.250000954 0.0488020107 0.4313277900 2.1929681301 111.17099762 136.01744080 423.53726196 1.0279999971 -154.2490540 0.7805740237 0.4048743248 0.7810216546
 1728.9696045  -999.250000 12.298999786 12.250000954 0.0450657755 0.4621773064 2.1529953480 111.86000061 136.56546021 432.59317017 1.0290000439 -153.0668030 0.7639979720 0.5037596226 0.7640272379
 1729.1219482  -999.250000 12.095999718 12.250000954 0.0405571237 0.4778534472 2.1499943733 109.08300018 134.98196411 422.64651489 1.0499999523 -155.4391022 0.7482579947 0.5079872012 0.7480256557
 1729.2742920  -999.250000 11.744000435 12.250000954 0.0344577767 0.4735359550 2.1429886818 111.25099945 133.68736267 322.30035400 1.0039999485 -156.8112488 0.6933109760 0.6914102435 0.6931321025
 1729.4267578  -999.250000 12.034999847 12.250000954 0.0117050530 0.4224239886 2.1289839745 89.391998291 130.38789368 312.72485352 0.9096590281 -154.6246490 0.6250349879 0.5335091949 0.6251089573
 1729.5791016  -999.250000 12.013999939 12.250000954 0.0017859128 0.3895905912 2.1089863777 76.693000793 126.49290466 280.14334106 0.8392329812 -154.1895599 0.5782039762 0.4014230669 0.5781129003
 1729.7315674  -999.250000 12.000000000 12.250000954 -0.009559032 0.3485418856 2.0919969082 75.654998779 121.37532806 269.30749512 0.7836830020 -156.1242981 0.5419239998 0.3621248901 0.5420576930
 1729.8839111  -999.250000 12.041000366 12.250000954 -0.014591599 0.3587625623 2.0880017281 73.346000671 116.79733276 256.22927856 0.7296950221 -155.2482452 0.5020480156 0.3370801508 0.5020960569
 1730.0363770  -999.250000 12.149999619 12.250000954 -0.021580096 0.3532404304 2.0900104046 72.875999451 114.70333862 251.59620667 0.7215890288 -153.0642548 0.4836980104 0.3250288367 0.4840288460
 1730.1887207  -999.250000 12.206000328 12.250000954 -0.022948137 0.3701204658 2.1030142307 74.244003296 113.87722778 251.85650635 0.7250450253 -154.6248016 0.4797039926 0.3120416403 0.4800095856
 1730.3411865  -999.250000 12.329999924 12.250000954 -0.023119787 0.3887440860 2.1210064888 75.933998108 114.16887665 252.46333313 0.7337660193 -154.3739471 0.4788880050 0.3808341324 0.4790016115
 1730.4935303  -999.250000 12.520000458 12.250000954 -0.025346972 0.3859132826 2.1289968491 72.833000183 112.77209473 247.89013672 0.7568609715 -153.0623016 0.4891940057 0.3839904070 0.4889759719
 1730.6459961  -999.250000 12.633000374 12.250000954 -0.024055699 0.3717433512 2.1249918938 72.938003540 111.63925171 240.58537292 0.8013470173 -152.1872101 0.5000039935 0.2932187617 0.4999823570
 1730.7983398  -999.250000 12.699000359 12.250000954 -0.018870847 0.3489402831 2.1199958324 73.777999878 110.55063629 237.69749451 0.8128809929 -151.6872559 0.5011240244 0.2999776006 0.5009976029
 1730.9508057  -999.250000 12.744999886 12.250000954 -0.007447930 0.3556246459 2.1150081158 76.679000854 108.83718872 227.10577393 0.8092769980 -150.7471924 0.4980019927 0.3219470978 0.4980047941
