# LAS format log file from PETREL
# Project units are specified as depth units
#==================================================================
~Version information
VERS.   2.0:
WRAP.   NO:
#==================================================================
~Well
STRT .m      2818.0771484 :
STOP .m      3213.0979004 :
STEP .m     0.00000000 :
NULL .        -999.250000 :
COMP.           : COMPANY
WELL.  35/11-15 S   : WELL
FLD.            : FIELD
LOC.            : LOCATION
SRVC.           : SERVICE COMPANY
DATE.  2018-09-11 14:48:55   : Log Export Date {yyyy-MM-dd HH:mm:ss}
PROV.           : PROVINCE
UWI.   35/11-15 S   : UNIQUE WELL ID
API.            : API NUMBER
#==================================================================
~Curve
DEPT .m                   : DEPTH
Lithology_geolink ._      : Lithology_geolink
CALI .in                  : CALI
BS .in                    : BS
ROP .m/h                  : ROP
DRHO .g/cm3               : DRHO
THOR .ppm                 : THOR
SGR .gAPI                 : SGR
RHOB .g/cm3               : RHOB
PEF .b/e                  : PEF
GR .gAPI                  : GR
URAN .ppm                 : URAN
DTC .us/ft                : DTC
DTS .us/ft                : DTS
RDEP .ohm.m               : RDEP
RMIC .ohm.m               : RMIC
RMED .ohm.m               : RMED
~Parameter
#==================================================================
~Ascii
# ...
 2897.0202637 6.0000000000 8.7069997787 8.5000000000 133492.54688 -0.005098878 10.879199982 0.0212980770 2.5095992088 2.9101378918 97.449310303 2.6500000954 80.182090759 141.09089661 16.822422028 18.596570969 15.129500389
 2897.1726074 6.0000000000 8.7041997910 8.5000000000 144788.28125 -0.006198237 11.397800446 0.0212001596 2.5135936737 2.9799876213 100.69759369 2.8557999134 79.637275696 141.09089661 17.655429840 18.288488388 16.187400818
 2897.3249512 6.0000000000 8.6985998154 8.5000000000 146820.25000 -0.005302880 11.936100006 0.0214990415 2.5050275326 2.9086294174 101.01669312 2.6721000671 79.636398315 140.36360168 26.428340912 19.322776794 24.410800934
 2897.4775391 6.0000000000 8.7041997910 8.5000000000 131590.06250 -0.003003686 11.525899887 0.0207012817 2.5192770958 2.7731173038 98.587196350 2.7209000587 79.182525635 139.63639832 29.174438477 23.769567490 27.148099899
 2897.6298828 6.0000000000 8.7013998032 8.5000000000 130347.15625 -0.003099840 11.127300262 0.0204004813 2.5385689735 2.8327038288 95.545974731 2.5510001183 78.637275696 139.27270508 31.136556625 24.182548523 29.364500046
 2897.7822266 6.0000000000 8.6985998154 8.5000000000 130179.85938 -0.004597596 10.706700325 0.0202003196 2.5256206989 2.7835788727 93.760757446 2.5474998951 78.817909241 138.45449829 23.332033157 19.991329193 22.195699692
 2897.9345703 6.0000000000 8.6985998154 8.5000000000 121203.36719 -0.007590400 10.720199585 0.0206984002 2.5207157135 2.9030163288 94.376319885 2.5587999821 78.999420166 137.81820679 16.404600143 16.235635757 15.748200417
 2898.0871582 6.0000000000 8.6815996170 8.5000000000 119695.89063 -0.008398717 11.075400352 0.0211991984 2.5485551357 3.1067736149 96.149650574 2.5401000977 79.000000000 137.63639832 17.629098892 15.992172241 17.100500107
 2898.2395020 6.0000000000 8.6957998276 8.5000000000 126431.61719 -0.008799359 10.622099876 0.0213996805 2.5340232849 3.0832383633 96.869544983 2.7634000778 79.090751648 137.63639832 20.338054657 14.156845093 19.871200562
 2898.3918457 6.0000000000 8.6900997162 8.5000000000 138092.06250 -0.008400640 10.639100075 0.0212003198 2.4991559982 2.8036487103 96.775451660 2.7969999313 79.272407532 137.54539490 9.5580101013 14.000446320 9.5045003891
 2898.5441895 6.0000000000 8.6872997284 8.5000000000 151509.78125 -0.008898400 10.097399712 0.0215987209 2.4898297787 2.8953044415 96.568367004 2.8810000420 79.635231018 137.45449829 15.613903046 14.189492226 15.898900032
 2898.6967773 6.0000000000 8.6703996658 8.5000000000 161313.65625 -0.009399199 10.157699585 0.0216000006 2.5181543827 2.8949012756 97.231628418 2.9372000694 79.817909241 137.45460510 26.767028809 22.622962952 27.612400055
 2898.8491211 6.0000000000 8.6759996414 8.5000000000 159273.42188 -0.007602885 10.196200371 0.0217996798 2.5163030624 2.7916657925 96.542106628 2.8099000454 79.999710083 137.27270508 27.532400131 20.109357834 28.281700134
 2899.0014648 6.0000000000 8.6569004059 8.5000000000 150260.46875 -0.005802885 9.7302999496 0.0210012812 2.5287799835 2.9063158035 92.478126526 2.6570999622 80.000000000 137.09089661 19.416528702 11.887790680 19.878799438
 2899.1538086 6.0000000000 8.6534004211 8.5000000000 146884.31250 -0.002305609 9.5253000259 0.0203011222 2.6284399033 3.4875674248 89.459037781 2.5190000534 80.000000000 137.09089661 12.109807014 11.666934013 12.429300308
 2899.3061523 6.0000000000 8.6393003464 8.5000000000 142324.06250 -0.000705120 9.5906000137 0.0204993598 2.5275244713 3.0097367764 89.731803894 2.5188999176 80.362434387 136.18179321 20.720420837 14.517248154 21.313400269
 2899.4587402 6.0000000000 8.6195001602 8.5000000000 136609.00000 -0.001997917 9.9393997192 0.0211988781 2.5045363903 2.7191638947 92.690650940 2.5209999084 79.455955505 134.81820679 29.180166245 22.216556549 29.606300354
 2899.6110840 6.0000000000 8.6111001968 8.5000000000 132522.90625 -0.004595833 10.042499542 0.0209004804 2.4912211895 2.6706769466 93.927322388 2.6568999290 78.546958923 134.18179321 29.685911179 23.621965408 29.553699493
 2899.7634277 6.0000000000 8.5992002487 8.5000000000 130563.96875 -0.007595193 9.5612001419 0.0201012809 2.4514639378 2.5993144512 90.898468018 2.6875000000 77.819366455 133.72729492 29.873899460 23.537239075 29.303100586
 2899.9157715 6.0000000000 8.5998001099 8.5000000000 130957.71875 -0.005207680 9.1614999771 0.0190035198 2.4975519180 2.6807382107 84.325485229 2.2283000946 77.183837891 132.90910339 30.439186096 27.400299072 29.840200424
 2900.0683594 6.0000000000 8.6026000977 8.5000000000 130014.07813 -0.004201602 8.4430999756 0.0176022444 2.5336422920 2.8758871555 77.929229736 2.0889999866 76.728027344 132.81820679 47.102256775 32.607761383 45.925800323
 2900.2207031 16.000000000 8.5799999237 8.5000000000 131121.01563 -0.004100160 8.2948999405 0.0171008017 2.6210598946 3.3216850758 73.974632263 1.7447999716 76.727302551 133.63639832 47.450885773 36.777118683 45.792900085
 2900.3730469 16.000000000 8.5840997696 8.5000000000 138211.34375 -0.006096795 8.2173004150 0.0174993593 2.5487163067 3.2634947300 74.080116272 1.6653000116 77.181076050 134.54539490 38.970809937 26.060811996 37.143501282
 2900.5253906 16.000000000 8.5966997147 8.5000000000 149050.95313 -0.005501920 8.3893003464 0.0185964797 2.6080095768 3.4289686680 77.379707336 1.7151999474 78.178604126 134.90910339 31.653247833 22.559385300 29.889299393
 2900.6779785 16.000000000 8.5998001099 8.5000000000 151878.07813 -0.001206891 8.7377004623 0.0193987191 2.6266703606 3.5420193672 82.608924866 2.0295999050 78.454055786 134.36360168 29.750316620 19.179807663 28.475299835
 2900.8303223 5.0000000000 8.6026000977 8.5000000000 154674.90625 -0.000700801 8.8143997192 0.0204982385 2.5648992062 2.8344361782 86.011550903 2.1951999664 78.545356750 133.72729492 30.833856583 18.568273544 29.942499161
 2900.9826660 5.0000000000 8.5940999985 8.5000000000 148533.26563 -0.003994712 8.9649000168 0.0207995195 2.5602073669 2.8432841301 87.305130005 2.2269999981 78.545501709 133.27270508 26.453134537 18.021974564 25.875400543
 2901.1350098 5.0000000000 8.5799999237 8.5000000000 140043.17188 -0.009491186 8.7781000137 0.0203008018 2.5045890808 2.8144462109 86.631683350 2.3317000866 78.545501709 132.72729492 29.433704376 18.931739807 29.027299881
 2901.2873535 5.0000000000 8.5743999481 8.5000000000 130331.68750 -0.009998400 8.5284004211 0.0204993598 2.4916412830 2.8299500942 86.276039124 2.3512001038 78.364181519 132.36360168 32.978935242 20.944643021 32.619998932
 2901.4399414 5.0000000000 8.5816001892 8.5000000000 124848.46875 -0.007304327 8.3025999069 0.0204001609 2.4942955971 2.7252681255 84.880332947 2.2744998932 78.182090759 132.54539490 32.544315338 16.609569550 32.255798340
 2901.5922852 5.0000000000 8.5771999359 8.5000000000 121289.68750 -0.004105128 8.1597003937 0.0199008007 2.5346350670 2.8021762371 82.828285217 2.1923999786 78.363601685 133.00000000 23.879405975 14.804286957 24.025999069
 2901.7446289 5.0000000000 8.5913000107 8.5000000000 126522.94531 -0.003001763 8.2313995361 0.0203991998 2.5414891243 2.7878232002 83.909057617 2.2067000866 78.363601685 132.63639832 24.328355789 14.550103188 24.306900024
 2901.8969727 5.0000000000 8.5816001892 8.5000000000 131558.81250 -0.005292640 7.9800000191 0.0202006400 2.5253517628 2.6924061775 84.263168335 2.4354000092 78.181800842 130.81820679 25.626035690 16.514890671 25.489599228
 2902.0495605 5.0000000000 8.5743999481 8.5000000000 127328.37500 -0.007496474 8.3541002274 0.0201999992 2.4914543629 2.7063770294 85.827392578 2.5014998913 77.636398315 128.36360168 27.439895630 16.595382690 27.056999207
 2902.2019043 5.0000000000 8.5743999481 8.5000000000 123242.82813 -0.008198878 8.1318998337 0.0192016028 2.5064759254 2.9105722904 82.495056152 2.4000000954 75.000000000 125.90910339 28.474842072 16.722496033 27.890399933
 2902.3542480 5.0000000000 8.5771999359 8.5000000000 126873.64844 -0.007700801 7.9190993309 0.0191001594 2.5087964535 3.0629558563 79.549819946 2.1329998970 72.000000000 124.18179321 27.067562103 17.168884277 26.340499878
 2902.5065918 5.0000000000 8.5715999603 8.5000000000 140560.92188 -0.007600320 7.8267002106 0.0179038402 2.4884653091 3.0195400715 74.963706970 1.8734999895 70.181800842 123.54550171 29.884449005 23.060886383 29.091100693
