# LAS format log file from PETREL
# Project units are specified as depth units
#==================================================================
~Version information
VERS.   2.0:
WRAP.   NO:
#==================================================================
~Well
STRT .m      2901.5925293 :
STOP .m      3271.0102539 :
STEP .m     0.00000000 :
NULL .        -999.250000 :
COMP.           : COMPANY
WELL.  35/11-13   : WELL
FLD.            : FIELD
LOC.            : LOCATION
SRVC.           : SERVICE COMPANY
DATE.  2018-09-11 14:48:55   : Log Export Date {yyyy-MM-dd HH:mm:ss}
PROV.           : PROVINCE
UWI.   35/11-13   : UNIQUE WELL ID
API.            : API NUMBER
#==================================================================
~Curve
DEPT .m                   : DEPTH
Lithology_geolink ._      : Lithology_geolink
CALI .in                  : CALI
BS .in                    : BS
ROP .m/h                  : ROP
DRHO .g/cm3               : DRHO
NPHI .m3/m3               : NPHI
RHOB .g/cm3               : RHOB
PEF .b/e                  : PEF
GR .gAPI                  : GR
DTC .us/ft                : DTC
DTS .us/ft                : DTS
RDEP .ohm.m               : RDEP
RMIC .ohm.m               : RMIC
RMED .ohm.m               : RMED
~Parameter
#==================================================================
~Ascii
# ...
 2951.5798340 16.000000000 8.6085996628 8.5000000000  -999.250000 -0.003500000 0.4174445570 2.4882547855 3.2026107311 162.86698914 109.48136139 203.84892273 3.6732120514 4.1120924950 3.7378804684
 2951.7321777 16.000000000 8.6085996628 8.5000000000  -999.250000 0.0038000001 0.4452246726 2.4599492550 3.0846276283 158.74964905 108.52383423 204.01420593 3.4312095642 3.9161927700 3.4760739803
 2951.8847656 16.000000000 8.6107997894 8.5000000000  -999.250000 0.0077999998 0.4606537521 2.3663477898 3.1019535065 159.78839111 106.85960388 205.19909668 3.2505207062 1.1705827713 3.2731964588
 2952.0371094 16.000000000 8.6262998581 8.5000000000 9.9196510315 0.0057000001 0.4773911834 2.4435274601 3.1496398449 162.59236145 105.98475647 201.87930298 3.3197112083 1.1654156446 3.3348054886
 2952.1894531 16.000000000 8.6438999176 8.5000000000 31.418159485 -0.001500000 0.4718573689 2.4604816437 3.0496883392 164.31300354 102.77568054 202.28120422 3.5765204430 1.3050805330 3.5881094933
 2952.3417969 16.000000000 8.5996999741 8.5000000000 42.207775116 -0.008100000 0.4452908635 2.3867626190 2.9802880287 167.05795288 102.58743286 202.66850281 3.9633595943 4.5953292847 3.9680352211
 2952.4943848 16.000000000 8.5819997787 8.5000000000 72.771987915 -0.007500000 0.4396380782 2.3635582924 3.0353844166 166.40586853 104.74610138 199.54370117 4.1880440712 4.9263005257 4.1776084900
 2952.6467285 16.000000000 8.5577001572 8.5000000000 88.040031433 -0.006400000 0.4515492022 2.4127702713 3.1236484051 167.86872864 110.56844330 199.83869934 4.4201211929 5.3315844536 4.3986101151
 2952.7990723 16.000000000 8.5775995255 8.5000000000 111.77428436 -0.007500000 0.4821684361 2.3319861889 2.9044735432 171.81640625 109.65852356 201.79640198 4.6199941635 5.4471955299 4.5913963318
 2952.9514160 16.000000000 8.5643997192 8.5000000000 123.65691376 -0.010100000 0.4624373317 2.3235399723 2.8880834579 172.05784607 108.11337280 195.08290100 4.4290165901 5.8173131943 4.4015069008
 2953.1037598 16.000000000 8.5577001572 8.5000000000 139.25166321 -0.010400000 0.4233993590 2.4107787609 2.9399573803 164.34368896 107.96910095 200.96391296 4.0649065971 5.2637281418 4.0312142372
 2953.2563477 16.000000000 8.5643997192 8.5000000000 143.13566589 -0.008200000 0.4229840040 2.4598803520 2.9132997990 155.93722534 107.90890503 208.47447205 3.6313464642 4.5318279266 3.6022710800
 2953.4086914 16.000000000 8.5113000870 8.5000000000 138.77940369 -0.006800000 0.4180336595 2.4848666191 2.8821485043 156.91741943 107.90965271 206.63029480 3.0852997303 4.0414981842 3.0638964176
 2953.5610352 16.000000000 8.4848003387 8.5000000000 130.49777222 -0.006800000 0.4390001595 2.4639582634 2.9124014378 159.55892944 107.94342804 200.30679321 3.2101781368 3.6667866707 3.1866915226
 2953.7133789 16.000000000 8.3985996246 8.5000000000 111.51823425 -0.007700000 0.4391102493 2.4378993511 2.9755969048 161.87339783 108.01951599 199.64030457 3.4460012913 3.7209188938 3.4308149815
 2953.8659668 16.000000000 8.4780998230 8.5000000000 100.74623871 -0.007700000 0.4454913437 2.4374718666 2.9735105038 160.31709290 108.15007782 200.59179688 3.5709919930 3.7338812351 3.5644285679
 2954.0183105 16.000000000 8.5024995804 8.5000000000 82.800041199 -0.007500000 0.4427517354 2.4598114491 2.9145886898 161.34469604 107.89361572 204.40180969 3.4440772533 4.1016149521 3.4489436150
 2954.1706543 16.000000000 8.4913997650 8.5000000000 75.534912109 -0.007600000 0.4127017558 2.4670026302 2.9700517654 161.02384949 107.34268188 203.67070007 3.5546195507 3.9864044189 3.6009809971
 2954.3229980 16.000000000 8.4980001450 8.5000000000 65.390998840 -0.007600000 0.4138203561 2.4686634541 3.0646536350 158.68870544 106.71206665 205.84379578 3.6913633347 4.0512704849 3.7760906219
 2954.4755859 16.000000000 8.4935998917 8.5000000000 59.614219666 -0.008500000 0.4265620708 2.4458146095 3.0978870392 158.95069885 106.25759125 208.02110291 3.6692347527 3.9721591473 3.7710890770
 2954.6279297 16.000000000 8.5046997070 8.5000000000 56.963275909 -0.009400000 0.4458549619 2.4191174507 3.0316715240 160.38235474 106.34915924 208.30589294 3.8982279301 4.4581036568 4.0170526505
 2954.7802734 16.000000000 8.4980001450 8.5000000000 51.662128448 -0.009800000 0.4177846313 2.3678572178 3.0761833191 161.16130066 106.69263458 206.94340515 3.9773850441 4.5853643417 4.1114792824
 2954.9326172 16.000000000 8.5046997070 8.5000000000 50.876747131 -0.009800000 0.4081961513 2.4657855034 3.0036566257 162.95692444 106.71537018 207.78329468 3.5942385197 4.8117065430 3.7246439457
 2955.0849609 16.000000000 8.5290002823 8.5000000000 49.310089111 -0.007800000 0.4058166742 2.5190503597 3.0389714241 158.97929382 106.82661438 207.14970398 3.5556917191 4.3794393539 3.6895105839
 2955.2375488 16.000000000 8.5113000870 8.5000000000 50.780353546 -0.006600000 0.4161785841 2.4880533218 3.0207421780 158.70957947 106.71133423 207.49681091 3.4257621765 4.2167296410 3.5714962482
 2955.3898926 16.000000000 8.5113000870 8.5000000000 53.693946838 -0.006400000 0.4095357358 2.4734685421 2.9094593525 156.02407837 107.06795502 201.97529602 3.3832545280 4.1636600494 3.5396997929
 2955.5422363 16.000000000 8.5046997070 8.5000000000 53.519779205 -0.008100000 0.4318208396 2.4537675381 3.0085630417 156.13693237 107.29131317 208.01139832 3.6664986610 4.1391115189 3.8512160778
 2955.6945801 16.000000000 8.4913997650 8.5000000000 53.168251038 -0.009300000 0.4447939098 2.4335234165 2.9233098030 154.42309570 108.23252869 208.86949158 3.7278232574 4.3330097198 3.9233047962
 2955.8471680 16.000000000 8.4582996368 8.5000000000 52.518821716 -0.009400000 0.4409053028 2.4481365681 2.9295890331 155.91816711 108.43740082 209.08180237 3.6176965237 4.2759890556 3.8016207218
 2955.9995117 16.000000000 8.4758996964 8.5000000000 51.228061676 -0.006900000 0.4114014208 2.4594464302 2.9885296822 157.93035889 108.75165558 208.82341003 3.5851294994 3.9920639992 3.7765119076
 2956.1518555 16.000000000 8.4406003952 8.5000000000 51.868839264 -0.004800000 0.4123139381 2.4262053967 3.0071804523 156.03892517 108.53849030 209.85459900 3.3544108868 3.8449845314 3.5348169804
 2956.3041992 16.000000000 8.4516000748 8.5000000000 53.144382477 -0.005100000 0.4210294783 2.4917161465 3.1817371845 153.80918884 108.33806610 209.52128601 3.4239583015 3.8361115456 3.6082866192
 2956.4567871 16.000000000 8.4582996368 8.5000000000 56.038780212 -0.008200000 0.4393458962 2.4394457340 3.0806488991 152.32485962 108.88696289 207.51647949 3.7109744549 4.2806634903 3.9130177498
 2956.6091309 16.000000000 8.4449996948 8.5000000000 61.788795471 -0.010000000 0.4224940836 2.4225039482 3.1891899109 158.32499695 109.31211853 207.42019653 4.2013006210 4.6748504639 4.4167962074
 2956.7614746 16.000000000 8.4493999481 8.5000000000 66.353179932 -0.009700001 0.4188147485 2.4249954224 3.1205663681 160.13429260 109.38640594 207.39668274 4.1393976212 5.0178785324 4.3517932892
 2956.9138184 16.000000000 8.4406003952 8.5000000000 75.456542969 -0.008300000 0.4280169904 2.4222023487 3.1620483398 162.36389160 109.44970703 208.19020081 4.0134949684 5.1907167435 4.2230262756
 2957.0661621 16.000000000 8.4449996948 8.5000000000 79.873054504 -0.006900000 0.4386240542 2.4236752987 3.2541792393 161.42729187 108.64402771 208.63409424 4.0099787712 4.7649970055 4.2392129898
 2957.2187500 16.000000000 8.4406003952 8.5000000000 88.678558350 -0.007900000 0.4534998238 2.4082524776 3.0542960167 165.96626282 108.84788513 208.96569824 3.9344787598 4.7620940208 4.1849999428
 2957.3710938 16.000000000 8.4449996948 8.5000000000 89.935119629 -0.010100000 0.4223041832 2.4246578217 3.0222160816 165.48542786 109.37545013 208.17700195 3.9280049801 4.3868436813 4.1851239204
 2957.5234375 16.000000000 8.4449996948 8.5000000000 92.440086365 -0.012700000 0.4248661697 2.4606158733 3.2186186314 165.30848694 108.97348785 205.97140503 3.9936940670 4.6632919312 4.2627210617
 2957.6757813 16.000000000 8.4406003952 8.5000000000 93.951347351 -0.011800000 0.4038234055 2.4081919193 2.9187867641 162.00039673 108.77789307 205.77540588 4.1770553589 4.7211880684 4.4627866745
