# LAS format log file from PETREL
# Project units are specified as depth units
#==================================================================
~Version information
VERS.   2.0:
WRAP.   NO:
#==================================================================
~Well
STRT .m      2901.5925293 :
STOP .m      3271.0102539 :
STEP .m     0.00000000 :
NULL .        -999.250000 :
COMP.           : COMPANY
WELL.  35/11-13   : WELL
FLD.            : FIELD
LOC.            : LOCATION
SRVC.           : SERVICE COMPANY
DATE.  2018-09-11 14:48:55   : Log Export Date {yyyy-MM-dd HH:mm:ss}
PROV.           : PROVINCE
UWI.   35/11-13   : UNIQUE WELL ID
API.            : API NUMBER
#==================================================================
~Curve
DEPT .m                   : DEPTH
Lithology_geolink ._      : Lithology_geolink
CALI .in                  : CALI
BS .in                    : BS
ROP .m/h                  : ROP
DRHO .g/cm3               : DRHO
NPHI .m3/m3               : NPHI
RHOB .g/cm3               : RHOB
PEF .b/e                  : PEF
GR .gAPI                  : GR
DTC .us/ft                : DTC
DTS .us/ft                : DTS
RDEP .ohm.m               : RDEP
RMIC .ohm.m               : RMIC
RMED .ohm.m               : RMED
~Parameter
#==================================================================
~Ascii
# ...
 3189.0190430 6.0000000000 8.4052000046 8.5000000000 50.157482147 -0.005900000 0.2131000012 2.5130000114 2.4992001057 88.186096191 80.055213928 137.01849365 16.416000366 3.1974999905 12.532199860
 3189.1713867 6.0000000000 8.4139995575 8.5000000000 50.416664124 -0.005200000 0.2421000004 2.4943997860 2.7102000713 89.013298035 80.245750427 138.67500305 27.735799789 5.5845999718 22.268699646
 3189.3237305 6.0000000000 8.4052000046 8.5000000000 50.941604614 -0.003500000 0.2490999997 2.4921998978 2.9909000397 85.129096985 80.216018677 138.99650574 7.7955999374 2.4440000057 6.7939000130
 3189.4760742 6.0000000000 8.3919000626 8.5000000000 58.257873535 -0.003000000 0.2328000069 2.4168999195 2.6238000393 76.123802185 80.915489197 139.38670349 6.2567000389 1.7736999989 5.5013999939
 3189.6286621 6.0000000000 8.3787002563 8.5000000000 61.916011810 -0.004100000 0.2169000059 2.4433000088 2.6902999878 71.160202026 81.158287048 138.32620239 6.7909002304 1.4673999548 6.1849999428
 3189.7810059 6.0000000000 8.4052000046 8.5000000000 49.888454437 -0.006700000 0.2185000032 2.4769001007 2.6498999596 76.454696655 80.622383118 138.74659729 6.6417999268 2.1440000534 6.2480998039
 3189.9333496 6.0000000000 8.3964004517 8.5000000000 43.877952576 -0.008200000 0.2175000012 2.4342999458 2.6702001095 78.936500549 80.491134644 139.56239319 10.814800262 2.0518999100 10.190199852
 3190.0856934 6.0000000000 8.3787002563 8.5000000000 43.763122559 -0.008200000 0.2099000067 2.4086999893 2.6810998917 81.843696594 80.384544373 139.08399963 6.7221999168 2.2676000595 6.4506998062
 3190.2380371 6.0000000000 8.3919000626 8.5000000000 43.707347870 -0.005100000 0.2099999934 2.4658999443 2.6584000587 80.906196594 80.293464661 138.46189880 6.7251000404 1.6001000404 6.7062997818
 3190.3906250 6.0000000000 8.3787002563 8.5000000000 52.437664032 -0.002900000 0.2225999981 2.4314999580 2.5755999088 84.026100159 80.216064453 136.81109619 9.6663999557 1.9832999706 9.8143997192
 3190.5429688 6.0000000000 8.3964004517 8.5000000000 56.801181793 -0.001300000 0.2588000000 2.5165998936 2.8062000275 87.973297119 80.553016663 137.29859924 8.3887996674 2.1472001076 8.0819997787
 3190.6953125 6.0000000000 8.3874998093 8.5000000000 57.253936768 -0.003100000 0.2463999987 2.4456000328 2.7479999065 85.759399414 80.438667297 140.36140442 4.9158000946 1.7951999903 4.7414999008
 3190.8476563 6.0000000000 8.3521003723 8.5000000000 57.480316162 -0.004200000 0.2137999982 2.4047000408 2.4560999870 79.094100952 80.540573120 138.35879517 6.1761999130 1.3744000196 5.9264001846
 3191.0002441 6.0000000000 8.3654003143 8.5000000000 52.191600800 -0.003700000 0.2034000009 2.4316000938 2.5938000679 72.357803345 80.522010803 138.01489258 10.290900230 1.4049999714 9.7173995972
 3191.1525879 6.0000000000 8.3919000626 8.5000000000 49.550525665 -0.005400000 0.2180999964 2.4779999256 2.6695001125 76.935302734 80.398742676 139.03030396 10.925299644 1.8437999487 9.8133001328
 3191.3049316 6.0000000000 8.3874998093 8.5000000000 56.289367676 -0.007200000 0.2337999940 2.4728000164 2.6268000603 73.011703491 80.175994873 139.74940491 6.1342000961 1.6181999445 5.4584999084
 3191.4572754 16.000000000 8.3521003723 8.5000000000 59.658794403 -0.004400000 0.2405000031 2.4556000233 2.7105000019 72.523300171 79.923057556 137.08889771 5.9414000511 1.6753000021 5.3927998543
 3191.6098633 16.000000000 8.4052000046 8.5000000000 55.324806213 0.0104999999 0.2465000004 2.6860001087 3.9925000668 65.077903748 79.956710815 135.11970520 16.867099762 2.4465000629 14.720199585
 3191.7622070 2.0000000000 8.3919000626 8.5000000000 53.156166077 0.0198999997 0.2508000135 2.7414000034 4.2832999229 67.599098206 80.267539978 135.51679993 10.181300163 2.4440999031 8.1162004471
 3191.9145508 2.0000000000 8.3787002563 8.5000000000 54.824478149 0.0164000001 0.2276999950 2.4516000748 2.8013999462 68.560302734 80.417877197 137.52389526 4.4393000603 1.3789000511 3.6960999966
 3192.0668945 4.0000000000 8.3610000610 8.5000000000 55.380573273 0.0041000000 0.1977999955 2.4121999741 2.3738999367 68.087600708 81.465713501 137.51100159 4.2133002281 0.9678999782 3.6359999180
 3192.2192383 1.0000000000 8.3610000610 8.5000000000 54.265094757 -0.004300000 0.1938000023 2.4316999912 2.4695999622 65.062103271 82.847152710 139.62530518 5.4777002335 1.0018999577 4.7743000984
 3192.3718262 1.0000000000 8.3521003723 8.5000000000 52.037403107 -0.005200000 0.2013999969 2.3854999542 2.4389998913 58.562198639 83.255996704 142.06579590 4.1300997734 0.8780999780 3.6493999958
 3192.5241699 1.0000000000 8.3521003723 8.5000000000 53.083992004 -0.007100000 0.2136999965 2.3433001041 2.3317999840 56.860401154 83.570358276 143.44509888 3.8371999264 0.7574999928 3.4711999893
 3192.6765137 1.0000000000 8.3388996124 8.5000000000 59.629261017 -0.007500000 0.2017000020 2.3582999706 2.2804000378 55.379299164 84.040321350 143.83250427 4.5413999557 0.7161999941 4.1428999901
 3192.8288574 1.0000000000 8.3654003143 8.5000000000 63.664699554 -0.008800000 0.1949999928 2.3817999363 2.3185000420 56.442901611 84.048347473 142.02499390 5.4324998856 0.8177000284 4.9815001488
 3192.9814453 1.0000000000 8.3521003723 8.5000000000 71.735565186 -0.008000000 0.1858000010 2.3896999359 2.3980998993 57.829498291 83.704216003 141.90780640 4.6982040405 0.8580999970 4.3105845451
 3193.1337891 1.0000000000 8.3521003723 8.5000000000 71.817581177 -0.008200000 0.1894000024 2.3775000572 2.3812999725 58.656799316 82.867340088 141.66349792 4.5127353668 0.8016999960 4.0565838814
 3193.2861328 1.0000000000 8.3388996124 8.5000000000 71.984909058 -0.008200000 0.2037999928 2.3703000546 2.4105000496 58.065898895 82.517898560 141.10060120 4.6597690582 0.7473000288 4.0464725494
 3193.4384766 1.0000000000 8.3432998657 8.5000000000 75.019683838 -0.008600000 0.2102999985 2.3499000072 2.4282999039 54.158100128 82.396728516 141.37260437 4.8275704384 0.7401000261 4.0916852951
 3193.5910645 1.0000000000 8.3521003723 8.5000000000 81.092514038 -0.008600000 0.2125000060 2.3559999466 2.4725999832 55.576198578 82.409606934 140.45429993 4.9981431961 0.8370000124 4.1465325356
 3193.7434082 5.0000000000 8.3610000610 8.5000000000 78.930450439 -0.003400000 0.1949000061 2.4249999523 2.4690001011 62.785198212 80.697883606 139.04620361 5.6363558769 0.9521999955 4.6253066063
 3193.8957520 5.0000000000 8.3787002563 8.5000000000 74.603019714 0.0018000000 0.1837999970 2.4405999184 2.5297999382 67.244499207 79.871734619 136.96270752 6.7284708023 1.2525999546 5.5004072189
 3194.0480957 2.0000000000 8.3654003143 8.5000000000 71.587928772 0.0060999999 0.1791999936 2.4932000637 2.8410999775 71.396598816 78.515838623 135.24119568 5.7227220535 1.3593000174 4.7644767761
 3194.2004395 2.0000000000 8.3697996140 8.5000000000 65.557746887 0.0052999998 0.1754000038 2.4935998917 2.5125000477 71.987503052 78.037826538 132.35899353 11.586524963 1.8839000463 9.2310457230
 3194.3530273 2.0000000000 8.4052000046 8.5000000000 64.694885254 0.0018000000 0.1717000008 2.4993999004 2.5416998863 74.114700317 77.560104370 131.45629883 7.8589072227 2.1802999973 6.3886952400
 3194.5053711 2.0000000000 8.3874998093 8.5000000000 62.965877533 -0.001200000 0.1710000038 2.4674000740 2.4356999397 71.845703125 76.908401489 131.30700684 6.1470789909 2.0480000973 4.9534711838
 3194.6577148 2.0000000000 8.3610000610 8.5000000000 67.414703369 -0.004800000 0.1846999973 2.4321999550 2.4684998989 71.845703125 77.341529846 130.79780579 5.5748167038 1.8733999729 4.4381217957
 3194.8100586 2.0000000000 8.3919000626 8.5000000000 76.309059143 -0.006100000 0.2020999938 2.4865999222 2.6958999634 73.145599365 76.110946655 129.21350098 6.3999776840 2.6705999374 5.0785036087
 3194.9626465 2.0000000000 8.3787002563 8.5000000000 69.330711365 -0.004800000 0.1823000014 2.5169999599 3.3668999672 72.680801392 73.826858521 127.67709351 9.5589017868 2.9419000149 7.5073485374
 3195.1149902 16.000000000 8.3874998093 8.5000000000 58.863189697 -0.002900000 0.1427000016 2.4932999611 3.2860999107 63.644001007 72.159393311 122.54699707 8.1129732132 2.9960000515 6.5714783669
