# LAS format log file from PETREL
# Project units are specified as depth units
#==================================================================
~Version information
VERS.   2.0:
WRAP.   NO:
#==================================================================
~Well
STRT .m      2818.0771484 :
STOP .m      3213.0979004 :
STEP .m     0.00000000 :
NULL .        -999.250000 :
COMP.           : COMPANY
WELL.  35/11-15 S   : WELL
FLD.            : FIELD
LOC.            : LOCATION
SRVC.           : SERVICE COMPANY
DATE.  2018-09-11 14:48:55   : Log Export Date {yyyy-MM-dd HH:mm:ss}
PROV.           : PROVINCE
UWI.   35/11-15 S   : UNIQUE WELL ID
API.            : API NUMBER
#==================================================================
~Curve
DEPT .m                   : DEPTH
Lithology_geolink ._      : Lithology_geolink
CALI .in                  : CALI
BS .in                    : BS
ROP .m/h                  : ROP
DRHO .g/cm3               : DRHO
THOR .ppm                 : THOR
SGR .gAPI                 : SGR
RHOB .g/cm3               : RHOB
PEF .b/e                  : PEF
GR .gAPI                  : GR
URAN .ppm                 : URAN
DTC .us/ft                : DTC
DTS .us/ft                : DTS
RDEP .ohm.m               : RDEP
RMIC .ohm.m               : RMIC
RMED .ohm.m               : RMED
~Parameter
#==================================================================
~Ascii
# ...
 2868.8261719 6.0000000000 8.6167001724 8.5000000000 31336.041016 -0.003700000 11.982466698 0.0199990384 2.5582978725 2.9539291859 103.86848450 3.3833892345 79.361419678 136.63537598 48.664916992 37.146995544 47.946624756
 2868.9785156 6.0000000000 8.6141996384 8.5000000000 32420.708984 -0.004597120 11.968845367 0.0197009593 2.5226144791 3.0279626846 103.34269714 3.4163937569 79.997962952 136.90823364 47.128452301 35.727947235 46.412044525
 2869.1311035 6.0000000000 8.6066999435 8.5000000000 27782.890625 -0.006197436 11.899610519 0.0200993586 2.5063259602 3.1674764156 101.68934631 3.1919605732 80.453773499 137.09060669 45.387783051 6.7673783302 44.431468964
 2869.2834473 6.0000000000 8.6224002838 8.5000000000 24582.683594 -0.005600961 11.852176666 0.0195009615 2.4954173565 3.0465943813 100.21755981 3.2051782608 80.000724792 137.27241516 9.7424106598 6.8143496513 9.9409570694
 2869.4357910 6.0000000000 8.6393003464 8.5000000000 19086.294922 -0.006199039 11.722507477 0.0191006400 2.4951004982 2.9146115780 99.438644409 3.2969527245 79.636978149 137.09118652 14.978902817 6.8783974648 15.513766289
 2869.5881348 6.0000000000 8.6534004211 8.5000000000 12658.902344 -0.006499520 11.559561729 0.0187006406 2.5153675079 3.0173346996 95.543350220 2.9666304588 79.545646667 136.90939331 54.364093781 41.271995544 55.630222321
 2869.7407227 6.0000000000 8.5771999359 8.5000000000 13077.033203 -0.007598240 11.048918724 0.0183006413 2.5214903355 3.0737099648 92.304977417 2.8047585487 79.727012634 136.90910339 63.505352020 41.685825348 64.715141296
 2869.8930664 6.0000000000 8.5686998367 8.5000000000 13506.511719 -0.008099199 11.397338867 0.0187991988 2.5281891823 3.0642154217 93.550994873 2.7815370560 79.999565125 137.45362854 64.908973694 44.663921356 66.608688354
 2870.0454102 6.0000000000 8.5574998856 8.5000000000 19682.087891 -0.008299679 12.327607155 0.0212959927 2.4801769257 2.9854264259 100.70881653 2.8046627045 80.635368347 138.63450623 64.908409119 42.948760986 67.301490784
 2870.1977539 6.0000000000 8.5432996750 8.5000000000 22466.025391 -0.006203366 12.970970154 0.0231969543 2.4701159000 2.8919496536 106.85086060 2.7787418365 80.817909241 140.63319397 49.149795532 33.743469238 51.969612122
 2870.3500977 6.0000000000 8.5235996246 8.5000000000 20392.031250 -0.002910560 12.278824806 0.0239974409 2.4270381927 3.0362362862 105.94722748 2.7452075481 83.989814758 143.62680054 37.449279785 10.889918327 38.949619293
 2870.5026855 6.0000000000 8.5263996124 8.5000000000 19050.103516 -0.000404006 11.241560936 0.0230016019 2.4733254910 3.2451655865 98.301467896 2.4182248116 86.359817505 146.63159180 24.245332718 9.2732772827 24.265304565
 2870.6550293 1.0000000000 8.5038003922 8.5000000000 24879.597656 -0.000100481 9.0594997406 0.0194057692 2.3673701286 2.6107189655 82.008232117 1.9842957258 89.903419495 148.63319397 19.248088837 4.7764139175 18.727552414
 2870.8073730 1.0000000000 8.4784002304 8.5000000000 59511.109375 0.0005988783 6.6461682320 0.0149072111 2.2035627365 2.3348410130 62.267147064 1.5454033613 93.539672852 149.81631470 39.384067535 3.8633542061 37.589111328
 2870.9597168 1.0000000000 8.4671001434 8.5000000000 74085.671875 -0.004782720 4.6519894600 0.0113115208 2.1401028633 2.0649650097 44.731788635 1.0225762129 96.354583740 151.90240479 97.990554810 3.1045312881 93.152122498
 2871.1123047 1.0000000000 8.4446001053 8.5000000000 88674.179688 -0.011289584 3.6501977444 0.0093032047 2.0956709385 1.9327108860 35.440723419 0.7247753739 97.361999512 154.54115295 191.16224670 3.8983218670 172.03106689
 2871.2646484 1.0000000000 8.4388999939 8.5000000000 111263.53906 -0.018488461 2.9927525520 0.0089006405 2.0972974300 1.9811218977 31.641775131 0.6067886353 96.637565613 155.99765015 602.61010742 3.8177313805 447.89660645
 2871.4169922 1.0000000000 8.4446001053 8.5000000000 127942.85156 -0.013208494 2.4192187786 0.0088999998 2.1013932228 1.8837563992 29.417860031 0.5340165496 95.184135437 155.81849670 1321.8085938 3.5854725838 729.35375977
 2871.5693359 1.0000000000 8.4530000687 8.5000000000 128845.87500 -0.005424960 2.1542475224 0.0090993606 2.1149563789 1.8461202383 28.319913864 0.3944476843 95.000579834 154.18702698 694.22271729 3.1505949497 427.09210205
 2871.7219238 1.0000000000 8.4559001923 8.5000000000 134124.29688 -0.000408013 2.0228095055 0.0087006409 2.1291773319 1.8065632582 27.871913910 0.4463160038 95.181510925 152.09425354 317.61856079 3.1579859257 230.22203064
 2871.8742676 1.0000000000 8.4446001053 8.5000000000 132710.51563 -0.006190705 1.9144734144 0.0080011226 2.1345913410 1.7939201593 27.876791000 0.7054841518 93.457260132 148.73268127 337.52777100 3.0760316849 251.43583679
 2872.0266113 1.0000000000 8.4474000931 8.5000000000 121437.09375 -0.009095353 2.2158160210 0.0078003202 2.1194241047 1.7746309042 28.658344269 0.7430403829 90.277793884 145.00596619 393.42163086 3.0747020245 289.59512329
 2872.1789551 1.0000000000 8.4784002304 8.5000000000 104323.39844 -0.013393109 2.8382017612 0.0086985575 2.1129105091 1.7960655689 34.195911407 1.0055787563 87.005241394 141.64178467 217.90747070 2.7404365540 179.14389038
 2872.3312988 1.0000000000 8.4841003418 8.5000000000 94222.734375 -0.009412800 3.8879332542 0.0112916799 2.1472895145 1.8447438478 45.886695862 1.4842646122 83.194015503 138.19284058 51.860054016 1.9955893755 47.910427094
 2872.4838867 1.0000000000 8.4988002777 8.5000000000 84100.671875 -0.008002244 5.7315459251 0.0152935898 2.4477179050 2.2636280060 63.116405487 1.9579420090 80.005096436 136.00349426 14.757799149 2.5644829273 14.465607643
 2872.6362305 6.0000000000 8.5339002609 8.5000000000 81419.000000 -0.003407372 7.7140226364 0.0186945517 2.5459430218 2.6573691368 79.208511353 2.3659462929 77.640182495 135.27386475 48.559349060 4.0065870285 47.180202484
 2872.7885742 6.0000000000 8.6026000977 8.5000000000 92851.921875 -0.003000641 9.2145967484 0.0212958325 2.5595784187 2.7452600002 93.128700256 2.9339892864 76.728759766 135.00044250 45.009784698 26.107828140 44.448272705
 2872.9409180 6.0000000000 8.6280002594 8.5000000000 91268.742188 -0.004993600 9.8152790070 0.0219977591 2.5722594261 2.8611285686 98.948982239 3.2565674782 76.364768982 133.82199097 43.140380859 27.732995987 43.342037201
 2873.0935059 6.0000000000 8.6365003586 8.5000000000 72990.164063 -0.005798718 10.616217613 0.0219999999 2.5601196289 2.8820672035 101.53897095 3.2907469273 76.182090759 132.63829041 44.128204346 30.969314575 45.218181610
 2873.2458496 6.0000000000 8.6224002838 8.5000000000 59742.699219 -0.004801603 10.418219566 0.0211014412 2.5648922920 2.9536850452 100.00347137 3.3866462708 76.363311768 132.63639832 43.758396149 33.180160522 45.390628815
 2873.3981934 6.0000000000 8.6252002716 8.5000000000 53768.351563 -0.003302404 10.832734108 0.0202014409 2.5504231453 2.9150621891 98.714866638 3.1994009018 76.726722717 133.27168274 42.021690369 34.054103851 43.514808655
 2873.5505371 6.0000000000 8.6393003464 8.5000000000 52701.996094 -0.002502560 11.007840157 0.0202996805 2.5662491322 3.0267412663 97.635757446 2.9143142700 76.999130249 133.81646729 42.041427612 34.523696899 42.220546722
 2873.7031250 6.0000000000 8.6506004333 8.5000000000 55446.750000 -0.002400160 10.951890945 0.0203000009 2.5601100922 2.9582107067 98.215164185 3.0588665009 77.272254944 133.99971008 41.873371124 34.505531311 39.749160767
 2873.8554688 6.0000000000 8.6644001007 8.5000000000 58199.671875 -0.002999038 11.189418793 0.0202001594 2.5500161648 2.8375933170 96.803169250 2.8207824230 77.817321777 134.18150330 40.589958191 34.774070740 38.082771301
 2874.0078125 6.0000000000 8.6759996414 8.5000000000 67004.914063 -0.005296314 11.230899811 0.0201001596 2.5751597881 2.9495201111 95.065788269 2.6103000641 77.999702454 134.54481506 40.530193329 35.521903992 37.792160034
 2874.1601563 6.0000000000 8.7211999893 8.5000000000 68976.453125 -0.006498077 11.244299889 0.0197006408 2.5701081753 3.0184895992 95.353332520 2.7158000469 78.363021851 135.18077087 39.192146301 34.062545776 36.813869476
 2874.3125000 6.0000000000 8.7154998779 8.5000000000 68547.195313 -0.006500000 11.241800308 0.0197000001 2.5494663715 2.9874999523 95.102310181 2.6686999798 78.635528564 135.45362854 37.732280731 33.819770813 35.252407074
