# LAS format log file from PETREL
# Project units are specified as depth units
#==================================================================
~Version information
VERS.   2.0:
WRAP.   NO:
#==================================================================
~Well
STRT .m      359.96881104 :
STOP .m      3380.8413086 :
STEP .m     0.00000000 :
NULL .        -999.250000 :
COMP.           : COMPANY
WELL.  35/11-12   : WELL
FLD.            : FIELD
LOC.            : LOCATION
SRVC.           : SERVICE COMPANY
DATE.  2018-09-11 14:48:55   : Log Export Date {yyyy-MM-dd HH:mm:ss}
PROV.           : PROVINCE
UWI.   35/11-12   : UNIQUE WELL ID
API.            : API NUMBER
#==================================================================
~Curve
DEPT .m                   : DEPTH
Lithology_geolink ._      : Lithology_geolink
CALI .in                  : CALI
BS .in                    : BS
ROP .m/h                  : ROP
DRHO .g/cm3               : DRHO
NPHI .m3/m3               : NPHI
RHOB .g/cm3               : RHOB
PEF .b/e                  : PEF
GR .gAPI                  : GR
DTC .us/ft                : DTC
RDEP .ohm.m               : RDEP
RMED .ohm.m               : RMED
~Parameter
#==================================================================
~Ascii
# ...
 2605.7351074 12.000000000  -999.250000 12.250000954 115.38713074  -999.250000  -999.250000  -999.250000  -999.250000 157.47607422 105.08000946 1.2709171772 1.1303753853
 2605.8874512 12.000000000  -999.250000 12.250000954 113.05773926  -999.250000  -999.250000  -999.250000  -999.250000 160.13348389 105.00300598 1.2100219727 1.1317856312
 2606.0397949 12.000000000  -999.250000 12.250000954 103.24802399  -999.250000  -999.250000  -999.250000  -999.250000 160.29275513 104.88799286 1.2176394463 1.1465563774
 2606.1921387 12.000000000  -999.250000 12.250000954 103.64173126  -999.250000  -999.250000  -999.250000  -999.250000 159.23712158 104.92601013 1.2467129230 1.1914215088
 2606.3447266 12.000000000  -999.250000 12.250000954 97.112854004  -999.250000  -999.250000  -999.250000  -999.250000 162.27984619 105.35000610 1.2553908825 1.1650083065
 2606.4970703 12.000000000  -999.250000 12.250000954 95.308395386  -999.250000  -999.250000  -999.250000  -999.250000 158.91448975 105.92700195 1.2603902817 1.1397111416
 2606.6494141 12.000000000  -999.250000 12.250000954 94.061683655  -999.250000  -999.250000  -999.250000  -999.250000 159.14395142 106.16900635 1.2341537476 1.1320068836
 2606.8017578 12.000000000  -999.250000 12.250000954 84.940940857  -999.250000  -999.250000  -999.250000  -999.250000 156.64505005 106.02999878 1.2067427635 1.1555001736
 2606.9543457 12.000000000  -999.250000 12.250000954 83.562980652  -999.250000  -999.250000  -999.250000  -999.250000 159.63571167 105.89299774 1.2143952847 1.1611762047
 2607.1066895 12.000000000  -999.250000 12.250000954 79.035430908  -999.250000  -999.250000  -999.250000  -999.250000 162.95852661 105.93499756 1.2196850777 1.1405248642
 2607.2590332 12.000000000  -999.250000 12.250000954 78.018379211  -999.250000  -999.250000  -999.250000  -999.250000 162.63162231 105.86900330 1.1987965107 1.1326501369
 2607.4113770 12.000000000  -999.250000 12.250000954 78.182418823  -999.250000  -999.250000  -999.250000  -999.250000 160.99578857 105.55500793 1.2057218552 1.1400449276
 2607.5639648 12.000000000  -999.250000 12.250000954 79.166656494  -999.250000  -999.250000  -999.250000  -999.250000 161.17965698 105.32400513 1.1992676258 1.1314747334
 2607.7163086 12.000000000  -999.250000 12.250000954 77.296577454  -999.250000  -999.250000  -999.250000  -999.250000 161.55291748 105.34600830 1.2075355053 1.1561062336
 2607.8686523 12.000000000  -999.250000 12.250000954 76.738845825  -999.250000  -999.250000  -999.250000  -999.250000 165.57592773 105.44000244 1.2049920559 1.1307160854
 2608.0209961 12.000000000  -999.250000 12.250000954 78.937004089  -999.250000  -999.250000  -999.250000  -999.250000 163.41229248 105.47000122 1.2077217102 1.1299054623
 2608.1733398 12.000000000  -999.250000 12.250000954 81.332023621  -999.250000  -999.250000  -999.250000  -999.250000 166.72058105 105.49501038 1.1879756451 1.1297166348
 2608.3259277 12.000000000  -999.250000 12.250000954 90.583992004  -999.250000  -999.250000  -999.250000  -999.250000 168.78454590 105.61700439 1.1800413132 1.1286056042
 2608.4782715 12.000000000  -999.250000 12.250000954 94.750648499  -999.250000  -999.250000  -999.250000  -999.250000 166.64196777 105.88000488 1.2343122959 1.0748641491
 2608.6306152 12.000000000  -999.250000 12.250000954 101.54199982  -999.250000  -999.250000  -999.250000  -999.250000 165.61849976 106.27600098 1.1709849834 1.0886976719
 2608.7829590 12.000000000  -999.250000 12.250000954 106.85695648  -999.250000  -999.250000  -999.250000  -999.250000 162.95532227 106.61500549 1.1118881702 1.0831012726
 2608.9355469 12.000000000  -999.250000 12.250000954 112.56560516  -999.250000  -999.250000  -999.250000  -999.250000 166.38845825 106.71000671 1.1705212593 1.0660514832
 2609.0878906 12.000000000  -999.250000 12.250000954 120.34120941  -999.250000  -999.250000  -999.250000  -999.250000 165.50698853 106.62001038 1.1442127228 1.0666944981
 2609.2402344 12.000000000  -999.250000 12.250000954 129.69160461  -999.250000  -999.250000  -999.250000  -999.250000 164.68395996 106.49501038 1.1911573410 1.1488783360
 2609.3925781 12.000000000  -999.250000 12.250000954 142.58529663  -999.250000  -999.250000  -999.250000  -999.250000 165.41894531 106.39801025 1.1595993042 1.1264944077
 2609.5451660 12.000000000  -999.250000 12.250000954 145.50524902  -999.250000  -999.250000  -999.250000  -999.250000 168.04818726 106.32200623 1.1383399963 1.1181664467
 2609.6975098 12.000000000  -999.250000 12.250000954 143.20866394  -999.250000  -999.250000  -999.250000  -999.250000 173.22402954 106.26400757 1.1456351280 1.0962960720
 2609.8498535 12.000000000  -999.250000 12.250000954 144.09448242  -999.250000  -999.250000  -999.250000  -999.250000 172.27072144 106.26200867 1.1500422955 1.0985872746
 2610.0021973 12.000000000  -999.250000 12.250000954 139.69816589  -999.250000  -999.250000  -999.250000  -999.250000 169.46072388 106.37001038 1.1570572853 1.1033701897
 2610.1545410 12.000000000  -999.250000 12.250000954 144.88189697  -999.250000  -999.250000  -999.250000  -999.250000 165.05557251 106.65200806 1.1449747086 1.1068682671
 2610.3071289 12.000000000  -999.250000 12.250000954 144.98030090  -999.250000  -999.250000  -999.250000  -999.250000 166.40527344 107.07701111 1.1486296654 1.0951673985
 2610.4594727 12.000000000  -999.250000 12.250000954 143.20866394  -999.250000  -999.250000  -999.250000  -999.250000 167.91793823 107.47799683 1.1233808994 1.0722403526
 2610.6118164 12.000000000  -999.250000 12.250000954 144.19290161  -999.250000  -999.250000  -999.250000  -999.250000 167.57254028 107.71299744 1.1346342564 1.0607883930
 2610.7641602 12.000000000  -999.250000 12.250000954 144.22572327  -999.250000  -999.250000  -999.250000  -999.250000 170.37704468 107.69700623 1.1287944317 1.0705358982
 2610.9167480 12.000000000  -999.250000 12.250000954 147.57215881  -999.250000  -999.250000  -999.250000  -999.250000 170.50607300 107.41000366 1.1251144409 1.0741655827
 2611.0690918 12.000000000  -999.250000 12.250000954 143.60237122  -999.250000  -999.250000  -999.250000  -999.250000 171.72744751 107.01100159 1.1206562519 1.0674855709
 2611.2214355 12.000000000  -999.250000 12.250000954 145.20997620  -999.250000  -999.250000  -999.250000  -999.250000 169.56079102 106.69300842 1.1336309910 1.0742115974
 2611.3737793 12.000000000  -999.250000 12.250000954 143.60237122  -999.250000  -999.250000  -999.250000  -999.250000 167.82211304 106.55000305 1.1422588825 1.0620632172
 2611.5263672 12.000000000  -999.250000 12.250000954 142.71653748  -999.250000  -999.250000  -999.250000  -999.250000 168.61480713 106.63700867 1.1417615414 1.0989477634
 2611.6787109 12.000000000  -999.250000 12.250000954 133.89106750  -999.250000  -999.250000  -999.250000  -999.250000 166.61282349 106.83300781 1.1281442642 1.1264653206
 2611.8310547 12.000000000  -999.250000 12.250000954 123.98294067  -999.250000  -999.250000  -999.250000  -999.250000 168.93917847 106.97399902 1.1517751217 1.1241619587
 2611.9833984 12.000000000  -999.250000 12.250000954 119.09448242  -999.250000  -999.250000  -999.250000  -999.250000 167.95880127 106.92100525 1.1367955208 1.0821282864
 2612.1359863 12.000000000  -999.250000 12.250000954 123.03149414  -999.250000  -999.250000  -999.250000  -999.250000 169.29504395 106.59300232 1.1361384392 1.0806396008
 2612.2883301 12.000000000  -999.250000 12.250000954 122.01442719  -999.250000  -999.250000  -999.250000  -999.250000 168.35470581 106.21901703 1.1492366791 1.0894308090
 2612.4406738 12.000000000  -999.250000 12.250000954 121.32544708  -999.250000  -999.250000  -999.250000  -999.250000 166.96099854 106.05700684 1.1552851200 1.1311101913
 2612.5930176 12.000000000  -999.250000 12.250000954 121.85039520  -999.250000  -999.250000  -999.250000  -999.250000 165.90411377 106.08100891 1.1550567150 1.1175315380
 2612.7453613 12.000000000  -999.250000 12.250000954 120.47243500  -999.250000  -999.250000  -999.250000  -999.250000 166.67465210 106.15499878 1.1627538204 1.1044864655
 2612.8979492 12.000000000  -999.250000 12.250000954 123.62204742  -999.250000  -999.250000  -999.250000  -999.250000 168.21228027 106.24900818 1.1563425064 1.1089303493
