# LAS format log file from PETREL
# Project units are specified as depth units
#==================================================================
~Version information
VERS.   2.0:
WRAP.   NO:
#==================================================================
~Well
STRT .m      1242.0020752 :
STOP .m      2811.1123047 :
STEP .m     0.00000000 :
NULL .        -999.250000 :
COMP.           : COMPANY
WELL.  35/11-9   : WELL
FLD.            : FIELD
LOC.            : LOCATION
SRVC.           : SERVICE COMPANY
DATE.  2018-09-11 14:48:57   : Log Export Date {yyyy-MM-dd HH:mm:ss}
PROV.           : PROVINCE
UWI.   35/11-9   : UNIQUE WELL ID
API.            : API NUMBER
#==================================================================
~Curve
DEPT .m                   : DEPTH
Lithology_geolink ._      : Lithology_geolink
CALI .in                  : CALI
BS .in                    : BS
DRHO .g/cm3               : DRHO
NPHI .m3/m3               : NPHI
RHOB .g/cm3               : RHOB
GR .gAPI                  : GR
DTC .us/ft                : DTC
DTS .us/ft                : DTS
RDEP .ohm.m               : RDEP
SP .mV                    : SP
RMIC .ohm.m               : RMIC
~Parameter
#==================================================================
~Ascii
# ...
 2587.9987793 6.0000000000 8.8120002747 8.5000000000 0.0103010004 0.3229788244 2.5120000839 100.34848022 80.789184570 147.63549805 15.213999748 17.131000519 13.916000366
 2588.1513672 6.0000000000 8.8249998093 8.5000000000 0.0222750008 0.3135432601 2.5150001049 100.63871002 80.282821655 148.56358337 15.366999626 20.805999756 14.470999718
 2588.3037109 6.0000000000 8.8229999542 8.5000000000 0.0182200000 0.3036440015 2.5220000744 97.436294556 81.163307190 148.74693298 15.868000031 23.256000519 13.133999825
 2588.4560547 6.0000000000 8.7889995575 8.5000000000 0.0183700006 0.3008013070 2.5529999733 99.477317810 81.978576660 149.95385742 16.021999359 21.462999344 13.918999672
 2588.6083984 6.0000000000 8.7639999390 8.5000000000 0.0147660002 0.3196363449 2.5650000572 92.212669373 82.339248657 150.48596191 15.961999893 19.100000381 13.637999535
 2588.7609863 6.0000000000 8.7989997864 8.5000000000 0.0109639997 0.3425488770 2.5409998894 100.10512543 82.494926453 150.47273254 15.901000023 17.700000763 14.069999695
 2588.9133301 6.0000000000 8.8249998093 8.5000000000 0.0061720000 0.3634035587 2.5120000839 99.829010010 82.159515381 151.32548523 16.035999298 17.524999619 13.876000404
 2589.0656738 6.0000000000 8.8109998703 8.5000000000 0.0058080000 0.3580657542 2.5050001144 97.967330933 82.482353210 151.62548828 16.048000336 19.712999344 13.538999557
 2589.2180176 6.0000000000 8.7639999390 8.5000000000 0.0081230002 0.3389556408 2.5150001049 98.175659180 82.076980591 150.05426025 16.451999664 20.587999344 14.430999756
 2589.3703613 6.0000000000 8.7639999390 8.5000000000 0.0072050001 0.3189741075 2.5250000954 101.69020844 81.442527771 150.21630859 16.923000336 19.975000381 15.130999565
 2589.5229492 6.0000000000 8.7639999390 8.5000000000 0.0093860002 0.3302500546 2.5420000553 94.333724976 81.776130676 149.16699219 17.372999191 18.399999619 16.107999802
 2589.6752930 6.0000000000 8.7860002518 8.5000000000 0.0124530001 0.3383769393 2.5610001087 91.745063782 83.060363770 149.79110718 18.299999237 18.575000763 16.975999832
 2589.8276367 6.0000000000 8.8229999542 8.5000000000 0.0133050000 0.3482906818 2.5490000248 84.939743042 82.659881592 151.10403442 19.009000778 20.850000381 15.402999878
 2589.9799805 6.0000000000 8.7790002823 8.5000000000 0.0117419995 0.3394997716 2.5209999084 89.766120911 83.204437256 150.51080322 18.606000900 20.194000244 13.782999992
 2590.1325684 6.0000000000 8.7340002060 8.5000000000 0.0135650001 0.3434430957 2.5009999275 89.853973389 82.851554871 151.00451660 18.253000259 18.794000626 15.243000031
 2590.2849121 6.0000000000 8.7539997101 8.5000000000 0.0135000004 0.3363938630 2.4939999580 92.962417603 83.023857117 150.84642029 18.145000458 17.569000244 16.125000000
 2590.4370117 6.0000000000 8.7639999390 8.5000000000 0.0125415381 0.3309640586 2.5099742413 94.471000671 82.933998108 150.48199463 17.901390076 20.101934433 15.456073761
 2590.5893555 6.0000000000 8.7899999619 8.5000000000 0.0146855563 0.3241476715 2.5419487953 94.164001465 82.817001343 149.54699707 17.502639771 22.115774155 15.507915497
 2590.7416992 6.0000000000 8.8140001297 8.5000000000 0.0141626894 0.3264414966 2.5669198036 94.580001831 82.359001160 146.58700562 17.298652649 22.772899628 14.150358200
 2590.8942871 6.0000000000 8.7930002213 8.5000000000 0.0106007149 0.3273671865 2.5739886761 99.658996582 79.917007446 145.89900208 16.900636673 21.770610809 15.695512772
 2591.0466309 6.0000000000 8.7539997101 8.5000000000 0.0126566906 0.3292851150 2.5999581814 82.660003662 79.079002380 144.23599243 16.553556442 21.463489532 12.525093079
 2591.1989746 6.0000000000 8.7749996185 8.5000000000 0.0134117929 0.3187550008 2.6089856625 79.591003418 79.325996399 144.33700562 16.199565887 22.686037064 14.099465370
 2591.3513184 6.0000000000 8.7989997864 8.5000000000 0.0117486706 0.3181598783 2.5890319347 87.319000244 79.807998657 145.14300537 15.882508278 22.032052994 11.189675331
 2591.5036621 6.0000000000 8.8249998093 8.5000000000 0.0070161838 0.3265312910 2.5471343994 90.230003357 79.982002258 145.72999573 15.449388504 22.031000137 13.305193901
 2591.6562500 6.0000000000 8.8219995499 8.5000000000 0.0082689654 0.3309864104 2.5310256481 87.200996399 80.189002991 146.62899780 15.564811707 22.992456436 13.129293442
 2591.8085938 6.0000000000 8.7819995880 8.5000000000 0.0108628394 0.3322748840 2.5319983959 95.816001892 80.425003052 147.01800537 15.820590019 23.954458237 14.141374588
 2591.9609375 6.0000000000 8.7639999390 8.5000000000 0.0116108060 0.3198398948 2.5230143070 94.027999878 81.772994995 147.15199280 16.084575653 21.509927750 13.223476410
 2592.1132813 6.0000000000 8.7790002823 8.5000000000 0.0123655805 0.3313320875 2.5329680443 91.459999084 80.723999023 149.62399292 16.308282852 21.419279099 15.246500969
 2592.2658691 6.0000000000 8.8369998932 8.5000000000 0.0171483271 0.3360931575 2.5519695282 91.097000122 81.513992310 148.67199707 16.737314224 21.680580139 16.194488525
 2592.4182129 6.0000000000 8.8140001297 8.5000000000 0.0220810957 0.3499969840 2.5579905510 85.453002930 81.412002563 150.10400391 17.533721924 22.642456055 16.755102158
 2592.5705566 6.0000000000 8.7790002823 8.5000000000 0.0134398835 0.3512641788 2.5210592747 89.377998352 82.708000183 151.33399963 18.453525543 24.128618240 16.907756805
 2592.7229004 6.0000000000 8.7639999390 8.5000000000 0.0099511556 0.3584910035 2.4910960197 90.065002441 82.916999817 153.27201843 16.160366058 23.346517563 17.176139832
 2592.8754883 6.0000000000 8.7639999390 8.5000000000 0.0081488751 0.3647430241 2.4810159206 87.640998840 83.531997681 154.95300293 14.523614883 23.430860519 9.4104661942
 2593.0278320 6.0000000000 8.7790002823 8.5000000000 0.0118840002 0.3707098961 2.4969742298 90.928001404 84.169998169 155.05900574 14.400193214 21.946382523 12.798542023
 2593.1801758 6.0000000000 8.8179998398 8.5000000000 0.0092522334 0.3617535233 2.4900112152 91.232002258 84.584991455 155.17999268 14.335103989 20.196804047 14.468328476
 2593.3325195 6.0000000000 8.7840003967 8.5000000000 0.0086829076 0.3556448221 2.4870047569 93.460998535 84.039993286 153.90100098 14.309041977 22.465354919 15.466403008
 2593.4851074 6.0000000000 8.7639999390 8.5000000000 0.0091113122 0.3400209844 2.4840047359 89.800003052 84.021003723 150.61099243 16.041225433 24.085409164 17.065441132
 2593.6374512 6.0000000000 8.7639999390 8.5000000000 0.0121081909 0.3358333707 2.5109567642 86.023002625 83.092002869 148.50900269 19.322736740 26.271493912 17.818794250
 2593.7897949 6.0000000000 8.7639999390 8.5000000000 0.0124404747 0.3274041414 2.5389552116 83.546997070 81.406997681 147.70500183 19.830192566 24.921173096 17.614330292
 2593.9421387 6.0000000000 8.7939996719 8.5000000000 0.0129731456 0.3249511421 2.5479857922 85.620002747 82.097999573 147.08700562 19.227966309 23.083944321 16.466840744
 2594.0944824 6.0000000000 8.8219995499 8.5000000000 0.0118924733 0.3243648410 2.5340447426 86.650001526 82.015998840 146.75799561 18.557149887 21.817056656 15.291766167
 2594.2470703 6.0000000000 8.8079996109 8.5000000000 0.0092322649 0.3193074167 2.5050466061 82.684997559 80.740997314 145.35499573 18.621892929 21.463560104 15.828133583
 2594.3994141 6.0000000000 8.7609996796 8.5000000000 0.0065842434 0.3117659390 2.4990096092 82.249000549 80.035003662 146.98399353 19.218042374 23.122337341 16.682630539
 2594.5517578 6.0000000000 8.7639999390 8.5000000000 0.0100993505 0.3186075091 2.5179693699 81.861999512 79.545997620 146.17100525 19.849987030 25.046915054 14.524466515
 2594.7041016 6.0000000000 8.7849998474 8.5000000000 0.0112642776 0.3231559396 2.5060384274 80.490997314 80.783996582 146.81599426 20.369337082 26.794399261 17.706771851
 2594.8566895 6.0000000000 8.8660001755 8.5000000000 0.0102715995 0.3328919113 2.4860320091 95.657997131 81.488998413 147.09199524 19.806905746 24.048418045 17.659093857
 2595.0090332 6.0000000000 8.9549999237 8.5000000000 0.0065359934 0.3558309078 2.4530529976 94.942001343 81.733001709 147.58399963 17.816194534 22.646242142 13.526633263
 2595.1613770 6.0000000000 9.0349998474 8.5000000000 0.0130395517 0.3515261412 2.4629840851 96.643997192 82.931999207 149.47599792 16.322391510 21.289175034 13.873432159
