# LAS format log file from PETREL
# Project units are specified as depth units
#==================================================================
~Version information
VERS.   2.0:
WRAP.   NO:
#==================================================================
~Well
STRT .m      1245.0043945 :
STOP .m      3214.9267578 :
STEP .m     0.00000000 :
NULL .        -999.250000 :
COMP.           : COMPANY
WELL.  35/11-11   : WELL
FLD.            : FIELD
LOC.            : LOCATION
SRVC.           : SERVICE COMPANY
DATE.  2018-09-11 14:48:54   : Log Export Date {yyyy-MM-dd HH:mm:ss}
PROV.           : PROVINCE
UWI.   35/11-11   : UNIQUE WELL ID
API.            : API NUMBER
#==================================================================
~Curve
DEPT .m                   : DEPTH
Lithology_geolink ._      : Lithology_geolink
CALI .in                  : CALI
BS .in                    : BS
ROP .m/h                  : ROP
DRHO .g/cm3               : DRHO
THOR .ppm                 : THOR
NPHI .m3/m3               : NPHI
RHOB .g/cm3               : RHOB
PEF .b/e                  : PEF
GR .gAPI                  : GR
URAN .ppm                 : URAN
DTC .us/ft                : DTC
DTS .us/ft                : DTS
RDEP .ohm.m               : RDEP
SP .mV                    : SP
RMIC .ohm.m               : RMIC
RMED .ohm.m               : RMED
~Parameter
#==================================================================
~Ascii
# ...
 2029.1022949 12.000000000 13.109999657 12.250000954 36.259841919 -0.000401122  -999.250000 0.2890184224 2.5255897045 4.1200733185 114.99949646  -999.250000 99.616096497 214.43728638 2.2483351231 58.825630188 2.0271999836 2.6401283741
 2029.2547607 12.000000000 13.147800446 12.250000954 36.259841919 0.0002994396  -999.250000 0.2775092125 2.5377902985 4.2044324875 110.97831726  -999.250000 98.809501648 214.09370422 2.2991592884 58.895442963 2.0901000500 2.6802678108
 2029.4071045 12.000000000 13.138899803 12.250000954 36.259841919 -0.000100000  -999.250000 0.2870922983 2.5420999527 4.2754430771 110.15275574  -999.250000 98.898811340 215.94630432 2.3940238953 59.586547852 2.2149000168 2.7795202732
 2029.5594482 12.000000000 13.129599571 12.250000954 44.727691650 -0.002300000  -999.250000 0.3003786802 2.5327000618 4.3268175125 107.49995422  -999.250000 99.047599792 217.50320435 2.3788244724 59.338500977 2.2111999989 2.7651231289
 2029.7119141 12.000000000 13.081501007 12.250000954 44.727691650 -0.003300000  -999.250000 0.3438651264 2.5255999565 4.2702450752 100.57654572  -999.250000 98.927093506 216.16079712 2.0558588505 58.979286194 2.1998999119 2.4182782173
 2029.8642578 12.000000000 13.072299004 12.250000954 44.727691650 -0.004100000  -999.250000 0.3263281882 2.5215001106 4.2539262772 93.509132385  -999.250000 97.307998657 208.06239319 2.1234910488 59.257755280 2.2915000916 2.5031633377
 2030.0167236 12.000000000 13.075099945 12.250000954 44.727691650 -0.004500000  -999.250000 0.2881306112 2.5260999203 4.3094558716 84.445755005  -999.250000 95.633903503 203.30369568 2.2108302116 59.474723816 2.5276999474 2.6089153290
 2030.1690674 12.000000000 13.059599876 12.250000954 44.727691650 -0.005100000  -999.250000 0.2542542815 2.5346999168 4.4309053421 81.288948059  -999.250000 94.543197632 198.26019287 2.5399720669 59.495864868 2.8526000977 2.9976766109
 2030.3215332 12.000000000 13.062101364 12.250000954 44.727691650 -0.005500000  -999.250000 0.2514022291 2.5427999496 4.5322189331 84.189971924  -999.250000 93.631004333 199.05360413 2.7589247227 58.905174255 2.9770998955 3.2272164822
 2030.4738770 12.000000000 13.070099831 12.250000954 44.727691650 -0.005600000  -999.250000 0.2620914280 2.5478000641 4.5434908867 89.639526367  -999.250000 93.985107422 197.81547546 2.6704709530 59.036792755 2.9388000965 3.0912091732
 2030.6263428 12.000000000 13.007800102 12.250000954 38.845146179 -0.005200000  -999.250000 0.2780871987 2.5483000278 4.4748549461 95.936958313  -999.250000 94.604209900 196.76991272 2.6091492176 59.062980652 2.8294999599 3.0673191547
 2030.7786865 12.000000000 12.983499527 12.250000954 38.845146179 -0.004600000  -999.250000 0.2918889523 2.5457999706 4.3792767525 97.475074768  -999.250000 96.136901855 197.73757935 2.5096795559 58.824989319 2.9205000401 2.9833672047
 2030.9311523 12.000000000 12.952400208 12.250000954 38.845146179 -0.004500000  -999.250000 0.3077872694 2.5388000011 4.3219456673 98.689231873  -999.250000 97.147300720 200.99330139 2.5265862942 58.999858856 2.8808999062 3.0060815811
 2031.0834961 12.000000000 12.887299538 12.250000954 38.845146179 -0.004500000  -999.250000 0.3088991046 2.5309998989 4.2545537949 105.01802826  -999.250000 97.081802368 203.60858154 2.5671675205 59.166366577 2.8022000790 3.0358762741
 2031.2359619 12.000000000 12.851699829 12.250000954 38.845146179 -0.004900000  -999.250000 0.3283843696 2.5209000111 4.1866545677 115.81555939  -999.250000 97.300598145 204.39830017 2.5602056980 59.079467773 2.5469000340 3.0011279583
 2031.3883057 12.000000000 12.861400604 12.250000954 38.845146179 -0.004900000  -999.250000 0.3481841385 2.5146999359 4.1432347298 128.86294556  -999.250000 97.059501648 204.17500305 2.1920952797 58.875164032 2.4172000885 2.5760409832
 2031.5407715 12.000000000 12.841699600 12.250000954 33.366142273 -0.004700000  -999.250000 0.3372088075 2.5158998966 4.1650824547 136.49159241  -999.250000 94.866096497 202.99551392 2.1365442276 59.307552338 2.4560999870 2.5167472363
 2031.6931152 12.000000000 12.872500420 12.250000954 33.366142273 -0.004400000  -999.250000 0.3087228239 2.5227999687 4.2468347549 136.66806030  -999.250000 92.692001343 200.25480652 2.4586415291 59.088275909 2.7130000591 2.8779103756
 2031.8454590 12.000000000 12.881601334 12.250000954 33.366142273 -0.004300000  -999.250000 0.2775499523 2.5302000046 4.3567242622 125.75839233  -999.250000 90.947906494 194.56770325 2.6019706726 58.862564087 2.9019000530 3.0350484848
 2031.9979248 12.000000000 12.884498596 12.250000954 33.366142273 -0.004600000  -999.250000 0.2581155598 2.5320999622 4.4824995995 114.59474182  -999.250000 90.468711853 187.82020569 2.6787388325 59.324428558 3.0515000820 3.1276259422
 2032.1502686 12.000000000 12.847900391 12.250000954 33.366142273 -0.004300000  -999.250000 0.2419259399 2.5355999470 4.5570802689 107.02282715  -999.250000 90.370506287 179.67849731 3.6349663734 59.832187653 3.3986999989 4.2093653679
 2032.3027344 12.000000000 12.850299835 12.250000954 33.366142273 -0.004300000  -999.250000 0.2556889355 2.5348999500 4.5725874901 104.65489197  -999.250000 89.886901855 178.81790161 4.6601786613 59.758762360 3.3735001087 5.3006262779
 2032.4550781 12.000000000 12.835700989 12.250000954 33.366142273 -0.004400000  -999.250000 0.2756679654 2.5274000168 4.5623168945 103.96649933  -999.250000 90.351188660 178.26930237 3.1492247581 59.803726196 3.2283000946 3.6670215130
 2032.6075439 12.000000000 12.850299835 12.250000954 36.853675842 -0.005000000  -999.250000 0.2745009661 2.5162999630 4.5711927414 102.30443573  -999.250000 92.275299072 184.45671082 2.8456416130 60.191291809 3.0480000973 3.3208754063
 2032.7598877 12.000000000 12.855899811 12.250000954 36.853675842 -0.004500000  -999.250000 0.2755990922 2.5125999451 4.5643057823 99.134437561  -999.250000 92.567001343 188.91969299 3.1015944481 59.850673676 3.2160999775 3.5946800709
 2032.9123535 12.000000000 12.761500359 12.250000954 36.853675842 -0.004000000  -999.250000 0.2838933468 2.5167996883 4.5180373192 102.07514191  -999.250000 92.761901855 192.91799927 3.2964441776 59.966110229 3.2525000572 3.8048317432
 2033.0646973 12.000000000 12.800399780 12.250000954 36.853675842 -0.003900000  -999.250000 0.2993875742 2.5237998962 4.4300704002 108.63043976  -999.250000 93.729209900 199.64390564 3.1560127735 60.141757965 3.0662000179 3.6440289021
 2033.2171631 12.000000000 12.804900169 12.250000954 36.853675842 -0.004500000  -999.250000 0.3243799806 2.5271999836 4.3506631851 113.95043945  -999.250000 94.994003296 204.52378845 2.6635944843 60.237125397 2.8984000683 3.0749559402
 2033.3695068 12.000000000 12.810900688 12.250000954 36.853675842 -0.004900000  -999.250000 0.3255990446 2.5269999504 4.3046364784 111.21569824  -999.250000 95.628005981 206.68627930 2.4641594887 60.266876221 2.7446999550 2.8474822044
 2033.5219727 12.000000000 12.811499596 12.250000954 32.687007904 -0.005000000  -999.250000 0.3265991807 2.5244998932 4.2772221565 105.38256836  -999.250000 93.840789795 206.69528198 2.4080448151 60.362125397 2.6324999332 2.7683632374
 2033.6743164 12.000000000 12.822099686 12.250000954 32.687007904 -0.003400000  -999.250000 0.2949253917 2.5243999958 4.2744026184 94.947158813  -999.250000 92.105697632 205.12861633 2.1965694427 60.491695404 2.6161999702 2.5593676567
 2033.8266602 12.000000000 12.811499596 12.250000954 32.687007904 -0.001500000  -999.250000 0.2900078297 2.5299999714 4.3563685417 86.334899902  -999.250000 91.849700928 200.08949280 2.3210999966 60.042720795 2.8691000938 2.7223384380
 2033.9791260 12.000000000 12.820699692 12.250000954 32.687007904 -0.001500000  -999.250000 0.2668185830 2.5399000645 4.4528226852 81.987571716  -999.250000 91.291702271 197.22569275 2.7591488361 60.349151611 3.6256000996 3.2312920094
 2034.1314697 12.000000000 12.796400070 12.250000954 32.687007904 -0.003300000  -999.250000 0.2769836783 2.5446000099 4.5128040314 84.367980957  -999.250000 90.543197632 196.23669434 3.8131101131 60.275718689 3.5366001129 4.3677778244
 2034.2839355 12.000000000 12.820099831 12.250000954 32.687007904 -0.005500000  -999.250000 0.2909888029 2.5427000523 4.4481520653 90.872489929  -999.250000 90.894302368 195.11920166 2.9454970360 59.916786194 2.9872000217 3.4227592945
