# LAS format log file from PETREL
# Project units are specified as depth units
#==================================================================
~Version information
VERS.   2.0:
WRAP.   NO:
#==================================================================
~Well
STRT .m      1150.0018311 :
STOP .m      2885.3808594 :
STEP .m     0.00000000 :
NULL .        -999.250000 :
COMP.           : COMPANY
WELL.  35/11-10   : WELL
FLD.            : FIELD
LOC.            : LOCATION
SRVC.           : SERVICE COMPANY
DATE.  2018-09-11 14:48:54   : Log Export Date {yyyy-MM-dd HH:mm:ss}
PROV.           : PROVINCE
UWI.   35/11-10   : UNIQUE WELL ID
API.            : API NUMBER
#==================================================================
~Curve
DEPT .m                   : DEPTH
Lithology_geolink ._      : Lithology_geolink
CALI .in                  : CALI
BS .in                    : BS
DRHO .g/cm3               : DRHO
NPHI .m3/m3               : NPHI
RHOB .g/cm3               : RHOB
GR .gAPI                  : GR
DTC .us/ft                : DTC
DTS .us/ft                : DTS
RDEP .ohm.m               : RDEP
SP .mV                    : SP
RSHA .ohm.m               : RSHA
RMIC .ohm.m               : RMIC
RMED .ohm.m               : RMED
~Parameter
#==================================================================
~Ascii
# ...
 1956.0455322 13.000000000 8.6350002289 8.5000000000 0.0047442727 0.3093826771 2.4689753056 67.639999390 101.38714600 194.65991211 2.4548437595 -151.6255035 2.7018444538 1.6161121130 2.7021825314
 1956.1979980 13.000000000 8.6389999390 8.5000000000 0.0013452978 0.3092660904 2.4379680157 69.674003601 102.81658936 195.81330872 2.2598686218 -152.2517090 2.5078542233 1.4553871155 2.5083107948
 1956.3503418 13.000000000 8.6339998245 8.5000000000 0.0027750360 0.3294008374 2.4179894924 71.152000427 103.17902374 197.87971497 2.1779830456 -153.3122559 2.4169759750 1.4719455242 2.4172186852
 1956.5028076 13.000000000 8.6400003433 8.5000000000 -0.000921440 0.3306510150 2.4050047398 74.722999573 103.20996857 198.77606201 2.1570672989 -152.3757019 2.3870689869 1.3792234659 2.3870482445
 1956.6551514 13.000000000 8.6370000839 8.5000000000 -0.001192748 0.3441901505 2.4080231190 75.967002869 103.81430817 200.69369507 2.1990239620 -152.8128967 2.4300208092 1.4298366308 2.4298968315
 1956.8076172 13.000000000 8.6350002289 8.5000000000 0.0028719094 0.3435025811 2.4370560646 76.894996643 104.19505310 202.80317688 2.2290368080 -152.6875000 2.4560272694 2.3028967381 2.4559583664
 1956.9599609 13.000000000 8.6370000839 8.5000000000 0.0084267445 0.3485369682 2.4719934464 70.248001099 103.60395050 202.29164124 2.2520170212 -152.3763580 2.4730119705 1.6092354059 2.4729728699
 1957.1123047 13.000000000 8.6350002289 8.5000000000 0.0081060454 0.3232116103 2.4639768600 68.777000427 103.54965210 201.83041382 2.2730081081 -154.0630035 2.4880039692 1.5641378164 2.4879639149
 1957.2647705 13.000000000 8.6370000839 8.5000000000 0.0044187228 0.3130960763 2.4349768162 70.561996460 103.11396027 201.11328125 2.2829639912 -154.0612030 2.4929559231 1.5191441774 2.4929919243
 1957.4171143 13.000000000 8.6389999390 8.5000000000 0.0040700561 0.3228663206 2.4059917927 70.518997192 104.31050110 201.46391296 2.2380135059 -151.8134460 2.4380087852 1.4711538553 2.4381320477
 1957.5695801 13.000000000 8.6379995346 8.5000000000 0.0003956098 0.3260524571 2.3960006237 73.846000671 103.68561554 201.34909058 2.2550418377 -152.3764954 2.4490423203 1.4470769167 2.4489822388
 1957.7219238 13.000000000 8.6400003433 8.5000000000 -0.000090661 0.3417478204 2.3970024586 71.581001282 103.21250153 201.43563843 2.3070383072 -154.2491455 2.5020353794 1.4360352755 2.5018727779
 1957.8743896 13.000000000 8.6359996796 8.5000000000 0.0003341114 0.3385466039 2.4000105858 70.830001831 103.84133148 200.97546387 2.3550081253 -153.1870575 2.5460119247 1.5197980404 2.5459294319
 1958.0267334 13.000000000 8.6359996796 8.5000000000 0.0017192115 0.3529834151 2.4130001068 72.739997864 104.25468445 200.30780029 2.3649983406 -152.0010071 2.5609943867 1.5020576715 2.5609641075
 1958.1791992 13.000000000 8.6350002289 8.5000000000 0.0007373387 0.3378471434 2.4129970074 68.655998230 103.86849213 200.05227661 2.3630111217 -153.2481995 2.5540158749 1.3842835426 2.5540111065
 1958.3315430 13.000000000 8.6350002289 8.5000000000 0.0015709880 0.3344207406 2.4109928608 68.886001587 104.17509460 199.60566711 2.3700118065 -152.1254578 2.5640070438 1.3212016821 2.5639758110
 1958.4840088 13.000000000 8.6389999390 8.5000000000 0.0003093939 0.3361636102 2.4020016193 67.219001770 103.04130554 200.43873596 2.3849806786 -152.6901093 2.5729727745 1.4955793619 2.5729856491
 1958.6363525 13.000000000 8.6330003738 8.5000000000 0.0005550897 0.3291906118 2.4029953480 66.555999756 103.85644531 200.89477539 2.3729968071 -153.9989014 2.5559992790 1.4282177687 2.5560407639
 1958.7888184 13.000000000 8.6339998245 8.5000000000 0.0006642634 0.3220097423 2.3969936371 68.794998169 103.16073608 199.36917114 2.3689982891 -152.6255951 2.5549871922 1.3611609936 2.5550017357
 1958.9411621 13.000000000 8.6339998245 8.5000000000 -0.001040157 0.3067762256 2.3929941654 71.625000000 102.36997986 200.72024536 2.3679616451 -153.0004578 2.5469567776 1.3011921644 2.5470128059
 1959.0935059 13.000000000 8.6379995346 8.5000000000 0.0012578407 0.3218028843 2.3860111237 70.333999634 102.34178162 199.78285217 2.3201031685 -153.5637054 2.4930992126 1.4176249504 2.4931297302
 1959.2459717 13.000000000 8.6359996796 8.5000000000 0.0010611194 0.3340172172 2.4000370502 69.023002625 100.82048035 199.59463501 2.4491016865 -154.4375458 2.6170947552 1.5196733475 2.6168015003
 1959.3983154 13.000000000 8.6379995346 8.5000000000 0.0037073970 0.3271769881 2.4460434914 67.545997620 100.17498779 196.64035034 2.5760736465 -153.8750000 2.7350671291 2.0124166012 2.7347164154
 1959.5507813 13.000000000 8.6409997940 8.5000000000 0.0079389354 0.3109959662 2.5000407696 64.421997070 98.909088135 197.07858276 2.6680681705 -153.8759460 2.8190705776 1.5165981054 2.8188652992
 1959.7031250 13.000000000 8.6669998169 8.5000000000 0.0074893446 0.2946971059 2.5169534683 61.530998230 99.013526917 192.81988525 2.7528879642 -155.0619049 2.9069008827 1.8529133797 2.9067885876
 1959.8555908 13.000000000 8.6610002518 8.5000000000 0.0027174901 0.2926506102 2.4879014492 67.592002869 99.675315857 191.42617798 2.6128501892 -153.6882019 2.7828540802 1.5886394978 2.7831985950
 1960.0079346 13.000000000 8.6619997025 8.5000000000 0.0016769550 0.2948562503 2.4469630718 73.592002869 101.31541443 191.66085815 2.4259545803 -153.9384003 2.6009576321 1.3587366343 2.6014373302
 1960.1604004 13.000000000 8.6440000534 8.5000000000 0.0029046051 0.2978466153 2.4239616394 72.760002136 103.07967377 193.97897339 2.3689422607 -154.4380035 2.5479416847 1.3430360556 2.5480849743
 1960.3127441 13.000000000 8.6359996796 8.5000000000 0.0069041071 0.3171015680 2.4080080986 75.651000977 103.91485596 197.68191528 2.2969846725 -154.4381104 2.4749805927 1.3878558874 2.4751751423
 1960.4652100 13.000000000 8.6339998245 8.5000000000 0.0132061038 0.3218352199 2.4129881859 73.748001099 103.73469543 196.33644104 2.2780241966 -154.5597076 2.4510240555 1.4887571335 2.4510383606
 1960.6175537 13.000000000 8.6359996796 8.5000000000 0.0153210880 0.3151263893 2.4079806805 75.985000610 103.54302216 196.61322021 2.2930047512 -152.5006561 2.4659993649 1.5258815289 2.4659640789
 1960.7700195 13.000000000 8.6359996796 8.5000000000 0.0122555885 0.3101659715 2.3959856033 75.380996704 103.57591248 195.63407898 2.2989888191 -153.3157043 2.4649758339 1.4960721731 2.4650015831
 1960.9223633 13.000000000 8.6319999695 8.5000000000 0.0100043463 0.3168905973 2.3899984360 74.527000427 103.52165985 195.67739868 2.2920353413 -154.9997559 2.4500281811 1.5338783264 2.4500241280
 1961.0748291 13.000000000 8.6359996796 8.5000000000 0.0077198744 0.3319759369 2.3890094757 74.892997742 103.09539032 193.65354919 2.3362257481 -154.6835022 2.4851968288 1.5389879942 2.4849438667
 1961.2271729 13.000000000 8.6379995346 8.5000000000 0.0043473281 0.3341782391 2.3930270672 75.236999512 103.33989716 193.99404907 2.4770648479 -151.8755951 2.6080553532 1.8171064854 2.6078028679
 1961.3795166 13.000000000 8.6379995346 8.5000000000 0.0058035911 0.3269306123 2.4100160599 78.248001099 103.21389008 194.04318237 2.5580017567 -152.6263580 2.6769983768 1.8110224009 2.6768343449
 1961.5319824 13.000000000 8.6359996796 8.5000000000 0.0092909699 0.3057429790 2.4199929237 76.447998047 103.08086395 195.51782227 2.5599510670 -154.3117065 2.6749663353 1.6275892258 2.6750030518
 1961.6843262 13.000000000 8.6579999924 8.5000000000 0.0109350421 0.3134406209 2.4169712067 76.333999634 102.90609741 196.54730225 2.4988934994 -152.6874542 2.6329038143 1.5422724485 2.6331007481
 1961.8367920 13.000000000 8.6590003967 8.5000000000 0.0078493049 0.3201486468 2.3989975452 71.427001953 103.02719879 199.42823792 2.3659238815 -152.0012970 2.5129342079 1.5759181976 2.5131924152
 1961.9891357 13.000000000 8.6499996185 8.5000000000 0.0092182755 0.3456660807 2.3980000019 82.747001648 104.50800323 202.21681213 2.2709639072 -153.6239929 2.4309704304 1.5620448589 2.4311969280
 1962.1416016 13.000000000 8.6569995880 8.5000000000 0.0068924995 0.3347857594 2.3980023861 81.942001343 104.50534058 203.22085571 2.2259848118 -152.3751526 2.3940024376 1.4692234993 2.3940594196
