# LAS format log file from PETREL
# Project units are specified as depth units
#==================================================================
~Version information
VERS.   2.0:
WRAP.   NO:
#==================================================================
~Well
STRT .m      989.00103760 :
STOP .m      3365.3732910 :
STEP .m     0.00000000 :
NULL .        -999.250000 :
COMP.           : COMPANY
WELL.  35/11-1   : WELL
FLD.            : FIELD
LOC.            : LOCATION
SRVC.           : SERVICE COMPANY
DATE.  2018-09-11 14:48:54   : Log Export Date {yyyy-MM-dd HH:mm:ss}
PROV.           : PROVINCE
UWI.   35/11-1   : UNIQUE WELL ID
API.            : API NUMBER
#==================================================================
~Curve
DEPT .m                   : DEPTH
Lithology_geolink ._      : Lithology_geolink
CALI .in                  : CALI
DRHO .g/cm3               : DRHO
NPHI .m3/m3               : NPHI
RHOB .g/cm3               : RHOB
PEF .b/e                  : PEF
GR .gAPI                  : GR
DTC .us/ft                : DTC
RDEP .ohm.m               : RDEP
SP .mV                    : SP
RSHA .ohm.m               : RSHA
RMED .ohm.m               : RMED
~Parameter
#==================================================================
~Ascii
# ...
 1149.9354248  -999.250000 18.826000214 -0.003000000  -999.250000 1.8830000162 3.3359999657 101.28998566 152.50500488 0.7730320096 49.750999451 0.8619759679 0.8619759679
 1150.0877686  -999.250000 19.888000488 0.0030000000  -999.250000 1.9320000410 3.0490000248 95.538764954 153.74841309 0.7810160518 49.750198364 0.8559935689 0.8559935689
 1150.2402344  -999.250000 18.482000351 0.0010000000  -999.250000 1.9809999466 3.0139999390 88.017265320 153.25000000 0.7858638763 49.500999451 0.8540239930 0.8540239930
 1150.3925781  -999.250000 18.763000488 0.0060000001  -999.250000 2.0060000420 3.0980000496 92.325820923 153.24919128 0.7519646883 49.498497009 0.8600128293 0.8600128293
 1150.5450439  -999.250000 19.357000351 0.0030000000  -999.250000 2.0120000839 3.5510001183 96.327011108 152.99398804 0.7410440445 48.722126007 0.8639559746 0.8639559746
 1150.6973877  -999.250000 20.715999603 0.0080000004  -999.250000 2.0179998875 3.9769999981 99.805793762 151.49839783 0.7519743443 49.253402710 0.8530288339 0.8530288339
 1150.8497314  -999.250000 19.295000076 0.0070000002  -999.250000 1.9819999933 4.6640000343 97.567810059 151.00959778 0.7440224290 50.002502441 0.8620512486 0.8620512486
 1151.0021973  -999.250000 18.090999603 0.0130000003  -999.250000 1.9539999962 4.1719999313 99.074020386 154.00401306 0.7512147427 50.472404480 0.8779839873 0.8779839873
 1151.1545410  -999.250000 18.122999191 0.0030000000  -999.250000 1.9320000410 3.8689999580 102.49419403 155.25239563 0.8180448413 51.220802307 0.8728591204 0.8728591204
 1151.3070068  -999.250000 18.153999329 -0.001000000  -999.250000 1.9939999580 3.2439999580 100.68519592 155.99597168 0.8319551349 51.469200134 0.8291217685 0.8291217685
 1151.4593506  -999.250000 18.122999191 -0.014000000  -999.250000 2.0550000668 3.3750000000 99.797378540 154.74198914 0.8180897832 51.223205566 0.8670352697 0.8670352697
 1151.6118164  -999.250000 18.372999191 -0.003000000  -999.250000 2.1289999485 3.7539999485 94.920738220 152.23599243 0.8459880352 52.214996338 0.8780600429 0.8780600429
 1151.7641602  -999.250000 18.122999191 0.0000000000  -999.250000 2.1740000248 4.4409999847 90.638618469 148.73316956 0.8429871798 50.964393616 0.8929230571 0.8929230571
 1151.9166260  -999.250000 18.107000351 0.0000000000  -999.250000 2.2300000191 3.4879999161 94.872497559 143.49800110 0.8390200138 49.221000671 0.8694243431 0.8694243431
 1152.0689697  -999.250000 18.107000351 -0.015000000  -999.250000 2.2009999752 3.0199999809 94.258415222 143.00000000 0.8440160155 49.471603394 0.9751089811 0.9751089811
 1152.2214355  -999.250000 18.013000488 -0.013000000  -999.250000 2.1270000935 2.4389998913 96.861244202 143.01301575 0.8489159346 49.969001770 1.0087517500 1.0087517500
 1152.3737793  -999.250000 17.965999603 -0.011000000  -999.250000 2.0469999313 2.6619999409 93.431190491 146.27723694 0.8278974295 49.719200134 0.9467244148 0.9467244148
 1152.5262451  -999.250000 18.278999329 -0.010000000  -999.250000 1.9659999609 2.9609999657 91.318504333 154.76000977 0.7961841226 49.467998505 0.8607718349 0.8607718349
 1152.6785889  -999.250000 17.965999603 -0.009000000  -999.250000 1.9229999781 3.0569999218 92.679389954 157.25000000 0.8419390917 48.969200134 0.8041987419 0.8041987419
 1152.8309326  -999.250000 18.090999603 -0.009000000  -999.250000 1.9210000038 2.7439999580 90.007804871 157.25000000 0.8228238821 48.718498230 0.8658847213 0.8658847213
 1152.9833984  -999.250000 18.013000488 -0.007000000  -999.250000 1.9769999981 2.3729999065 92.431388855 157.24118042 0.7679455280 48.249397278 0.8302147388 0.8302147388
 1153.1357422  -999.250000 18.638000488 -0.012000000  -999.250000 2.0209999084 2.3629999161 90.380805969 154.50000000 0.7509903908 47.750999451 0.8967694044 0.8967694044
 1153.2882080  -999.250000 18.997999191 -0.010000000  -999.250000 2.0290000439 2.3959999084 92.184997559 154.50080872 0.7478590012 47.756607056 0.8251314163 0.8251314163
 1153.4405518  -999.250000 18.513000488 -0.013000000  -999.250000 2.0369999409 2.4769999981 91.263214111 154.75239563 0.7040736675 49.504104614 0.8658910990 0.8658910990
 1153.5930176  -999.250000 18.013000488 -0.012000000  -999.250000 2.0290000439 2.8239998817 95.379409790 155.50000000 0.7271121740 50.465995789 0.8321154118 0.8321154118
 1153.7453613  -999.250000 18.232000351 0.0000000000  -999.250000 2.0569999218 2.9260001183 96.760017395 155.49519348 0.7620288730 49.220001221 0.8681313992 0.8681313992
 1153.8978271  -999.250000 17.965999603 0.0010000000  -999.250000 2.0490000248 2.8459999561 99.885505676 154.00601196 0.7709359527 49.225006104 0.9091040492 0.9091040492
 1154.0501709  -999.250000 18.170000076 0.0010000000  -999.250000 2.0610001087 2.5350000858 102.51342010 155.50080872 0.7550640702 50.464492798 0.9349711537 0.9349711537
 1154.2025146  -999.250000 17.965999603 -0.005000000  -999.250000 2.0350000858 2.5099999905 106.70181274 155.74839783 0.7749006748 48.750198364 0.9257918596 0.9257918596
 1154.3548584  -999.250000 17.965999603 0.0010000000  -999.250000 2.0329999924 2.5680000782 110.99459076 155.25180054 0.7439399362 48.501602173 0.8609831929 0.8609831929
 1154.5073242  -999.250000 18.497999191 0.0020000001  -999.250000 2.0160000324 2.8159999847 108.73058319 156.00639343 0.7190191746 48.750999451 0.8539903760 0.8539903760
 1154.6596680  -999.250000 18.295000076 0.0070000002  -999.250000 2.0160000324 2.9279999733 102.66366577 158.00000000 0.7250048518 48.752128601 0.8510144353 0.8510144353
 1154.8121338  -999.250000 18.513000488 0.0010000000  -999.250000 2.0020000935 2.9670000076 92.556594849 157.99839783 0.7270288467 49.218399048 0.8569391370 0.8569391370
 1154.9644775  -999.250000 18.090999603 0.0030000000  -999.250000 2.0039999485 2.8459999561 90.563453674 157.49639893 0.7360144258 48.720603943 0.8380408883 0.8380408883
 1155.1169434  -999.250000 18.434999466 -0.004000000  -999.250000 1.9900000095 2.7699999809 90.767616272 156.00077820 0.7419903874 48.970802307 0.8549839854 0.8549839854
 1155.2692871  -999.250000 18.622999191 0.0000000000  -999.250000 1.9830000401 2.8540000916 96.249702454 156.25061035 0.7390601039 49.217670441 0.8500409126 0.8500409126
 1155.4217529  -999.250000 18.090999603 0.0010000000  -999.250000 1.9809999466 2.7269999981 96.128601074 156.50079346 0.7640128136 48.255001068 0.8670095801 0.8670095801
 1155.5740967  -999.250000 18.278999329 0.0000000000  -999.250000 1.9960000515 2.6429998875 97.255706787 156.74699402 0.7679639459 49.499797821 0.8699230552 0.8699230552
 1155.7265625  -999.250000 18.076000214 -0.006000000  -999.250000 2.0039999485 2.5780000687 99.637817383 155.49758911 0.7530128360 49.000198364 0.8380929232 0.8380929232
 1155.8789063  -999.250000 18.903999329 -0.005000000  -999.250000 1.9939999580 2.9260001183 103.62720490 154.74920654 0.7570672631 48.749397278 0.8669551611 0.8669551611
 1156.0313721  -999.250000 18.090999603 0.0060000001  -999.250000 1.9910000563 3.1170001030 104.31700897 154.50241089 0.7779807448 48.250099182 0.8531217575 0.8531217575
 1156.1837158  -999.250000 18.107000351 0.0179999992  -999.250000 2.0160000324 2.9730000496 105.56120300 155.24839783 0.7720288634 47.969200134 0.8909935951 0.8909935951
 1156.3361816  -999.250000 18.045000076 0.0140000004  -999.250000 2.0529999733 2.5079998970 105.00601196 154.74919128 0.7810096145 47.720100403 0.8890032172 0.8890032172
 1156.4885254  -999.250000 18.107000351 0.0000000000  -999.250000 2.0699999332 2.3810000420 106.85638428 154.49760437 0.7839295268 47.752601624 0.8900095820 0.8900095820
 1156.6408691  -999.250000 18.684999466 -0.010000000  -999.250000 2.0680000782 2.4019999504 101.04376984 153.75122070 0.7619374990 48.251602173 0.8929831982 0.8929831982
 1156.7933350  -999.250000 18.013000488 -0.014000000  -999.250000 2.0629999638 2.4979999065 93.077217102 154.25320435 0.7359967828 48.499298096 0.8859999776 0.8859999776
 1156.9456787  -999.250000 18.013000488 -0.009000000  -999.250000 2.0610001087 2.6840000153 97.510513306 155.25300598 0.7349855900 47.969398499 0.8859518766 0.8859518766
 1157.0981445  -999.250000 18.013000488 -0.008000000  -999.250000 2.0450000763 2.8239998817 101.89402008 156.49920654 0.7290063500 47.720001221 0.8659871817 0.8659871817
