# LAS format log file from PETREL
# Project units are specified as depth units
#==================================================================
~Version information
VERS.   2.0:
WRAP.   NO:
#==================================================================
~Well
STRT .m      2901.5925293 :
STOP .m      3271.0102539 :
STEP .m     0.00000000 :
NULL .        -999.250000 :
COMP.           : COMPANY
WELL.  35/11-13   : WELL
FLD.            : FIELD
LOC.            : LOCATION
SRVC.           : SERVICE COMPANY
DATE.  2018-09-11 14:48:55   : Log Export Date {yyyy-MM-dd HH:mm:ss}
PROV.           : PROVINCE
UWI.   35/11-13   : UNIQUE WELL ID
API.            : API NUMBER
#==================================================================
~Curve
DEPT .m                   : DEPTH
Lithology_geolink ._      : Lithology_geolink
CALI .in                  : CALI
BS .in                    : BS
ROP .m/h                  : ROP
DRHO .g/cm3               : DRHO
NPHI .m3/m3               : NPHI
RHOB .g/cm3               : RHOB
PEF .b/e                  : PEF
GR .gAPI                  : GR
DTC .us/ft                : DTC
DTS .us/ft                : DTS
RDEP .ohm.m               : RDEP
RMIC .ohm.m               : RMIC
RMED .ohm.m               : RMED
~Parameter
#==================================================================
~Ascii
# ...
 3145.2802734 4.0000000000 8.3255996704 8.5000000000  -999.250000 -0.003000000 0.2310895771 2.3741056919 2.9559328556 59.617794037 84.234306335 145.86915588 3.2109119892 0.5269054174 2.2692549229
 3145.4328613 1.0000000000 8.3521003723 8.5000000000  -999.250000 -0.004100000 0.2245897651 2.3777134418 2.9759778976 54.561344147 83.988769531 145.58860779 3.2184863091 0.5303061008 2.3036112785
 3145.5852051 1.0000000000 8.3521003723 8.5000000000  -999.250000 -0.004500000 0.2213905305 2.3819093704 2.8132343292 52.553123474 83.757415771 144.93620300 3.2763609886 0.5322310925 2.3693377972
 3145.7375488 1.0000000000 8.3654003143 8.5000000000  -999.250000 -0.005200000 0.2155094594 2.3877370358 2.7727162838 54.005977631 83.764778137 144.93714905 3.1897041798 0.5516004562 2.3305521011
 3145.8898926 2.0000000000 8.3654003143 8.5000000000  -999.250000 -0.004900000 0.2214112133 2.4107682705 2.9698262215 57.425781250 83.814971924 145.09457397 3.1302301884 0.5519168377 2.3008615971
 3146.0422363 2.0000000000 8.3521003723 8.5000000000  -999.250000 -0.006300000 0.2284078598 2.3909840584 2.9863073826 61.091403961 84.049079895 145.45585632 3.2735338211 0.5623607039 2.4014935493
 3146.1948242 2.0000000000 8.3521003723 8.5000000000  -999.250000 -0.005900000 0.2332856059 2.3810558319 3.1150877476 61.153591156 84.098655701 145.18327332 3.2937724590 0.5378404260 2.3969266415
 3146.3471680 2.0000000000 8.3388996124 8.5000000000  -999.250000 -0.005700000 0.2288065702 2.3673312664 2.9865057468 60.901821136 84.083381653 145.39343262 3.0358850956 0.5192828178 2.2182233334
 3146.4995117 4.0000000000 8.3521003723 8.5000000000  -999.250000 -0.004600000 0.2328980714 2.3867921829 2.8652384281 60.660243988 83.948539734 145.78747559 2.9643266201 0.5086084604 2.1704189777
 3146.6518555 1.0000000000 8.3697996140 8.5000000000  -999.250000 -0.004700000 0.2317001671 2.3818864822 2.7644925117 57.131122589 84.533393860 145.51522827 2.9809691906 0.5139099360 2.1823487282
 3146.8044434 1.0000000000 8.3787002563 8.5000000000  -999.250000 -0.003400000 0.2317686379 2.3734478951 2.7603929043 53.959621429 83.907806396 144.65826416 3.0243237019 0.5201294422 2.2128541470
 3146.9567871 1.0000000000 8.3521003723 8.5000000000  -999.250000 -0.002200000 0.2219818980 2.3883814812 2.9137952328 51.039112091 84.190147400 143.33494568 3.0940513611 0.5293151736 2.2609405518
 3147.1091309 1.0000000000 8.3521003723 8.5000000000  -999.250000 -0.000900000 0.2106910348 2.3767998219 2.8487188816 51.671241760 83.909660339 142.92843628 3.1260197163 0.5388120413 2.2862231731
 3147.2614746 1.0000000000 8.3521003723 8.5000000000  -999.250000 -0.001000000 0.2051115334 2.3766109943 2.9228820801 53.440494537 83.759124756 142.57879639 3.1384403706 0.5463044643 2.3006362915
 3147.4140625 1.0000000000 8.3521003723 8.5000000000  -999.250000 -0.001500000 0.2123246491 2.3833990097 2.9111227989 53.072452545 83.653114319 142.63455200 3.1636662483 0.5491204858 2.3232386112
 3147.5664063 1.0000000000 8.3787002563 8.5000000000  -999.250000 -0.002800000 0.2200076878 2.3830933571 2.7312550545 56.016704559 83.565483093 142.62431335 3.1841936111 0.5555074811 2.3352451324
 3147.7187500 1.0000000000 8.3521003723 8.5000000000  -999.250000 -0.005000000 0.2248056084 2.3789741993 2.7033188343 55.522804260 83.803062439 143.87707520 3.1181416512 0.5602017641 2.3012251854
 3147.8710938 1.0000000000 8.3345003128 8.5000000000  -999.250000 -0.006700000 0.2283004820 2.3628890514 2.7772383690 56.584209442 84.030853271 145.54251099 3.2064120770 0.5612780452 2.3792331219
 3148.0234375 1.0000000000 8.3432998657 8.5000000000  -999.250000 -0.007800000 0.2285763174 2.3559837341 2.7387080193 56.275886536 84.248176575 145.48570251 3.2139635086 0.5475854278 2.3998992443
 3148.1760254 1.0000000000 8.3521003723 8.5000000000  -999.250000 -0.007400000 0.2137826979 2.3459029198 2.6187193394 55.270126343 84.480155945 145.67257690 3.1912858486 0.5384964943 2.3994796276
 3148.3283691 1.0000000000 8.3521003723 8.5000000000  -999.250000 -0.008000000 0.2030017525 2.3477003574 2.5060582161 55.969554901 84.021919250 145.90596008 3.2447712421 0.5363152027 2.4491615295
 3148.4807129 1.0000000000 8.3388996124 8.5000000000  -999.250000 -0.008400000 0.2041230798 2.3478360176 2.4801392555 55.570018768 84.403205872 145.99877930 3.2891993523 0.5458142161 2.4875237942
 3148.6330566 1.0000000000 8.3521003723 8.5000000000  -999.250000 -0.008200000 0.2185113877 2.3702030182 2.5046517849 56.578720093 84.405868530 145.80065918 3.2885766029 0.5546990633 2.5023293495
 3148.7856445 1.0000000000 8.3432998657 8.5000000000 110.26636505 -0.006100000 0.2256153673 2.3720619678 2.5367455482 57.705020905 84.066291809 145.46743774 3.2111306190 0.5540833473 2.4580039978
 3148.9379883 1.0000000000 8.3521003723 8.5000000000 116.57299042 -0.004700000 0.2303934246 2.3602058887 2.4885058403 55.720523834 83.906578064 144.10478210 3.0647642612 0.5489023924 2.3657302856
 3149.0903320 1.0000000000 8.3521003723 8.5000000000 105.21547699 -0.004200000 0.2263009697 2.3638982773 2.4299778938 57.231407166 84.143951416 142.65872192 2.9804935455 0.5504733920 2.3225688934
 3149.2426758 2.0000000000 8.3521003723 8.5000000000 96.333755493 -0.003700000 0.2268857360 2.3629515171 2.4787750244 57.622737885 84.116134644 142.73136902 3.1645929813 0.5963342786 2.4910569191
 3149.3952637 5.0000000000 8.3521003723 8.5000000000 69.801071167 -0.003100000 0.2179948688 2.3951723576 2.6501481533 66.182662964 83.766487122 143.27957153 3.9088089466 0.6803312302 3.0881249905
 3149.5476074 5.0000000000 8.3388996124 8.5000000000 64.023490906 -0.003900000 0.2163905352 2.4176757336 2.6341164112 66.708572388 83.949035645 144.05067444 4.2226104736 0.7835370302 3.3447496891
 3149.6997070 5.0000000000 8.3388996124 8.5000000000 52.490158081 -0.005900000 0.2105000019 2.4024999142 2.7065999508 71.491203308 83.782897949 144.85369873 3.9175999165 0.8065999746 3.1266000271
 3149.8520508 2.0000000000 8.3521003723 8.5000000000 49.104331970 -0.007400000 0.2196000069 2.3661000729 2.5590000153 66.322799683 84.595596313 146.87399292 3.4684000015 0.7544000149 2.7876999378
 3150.0043945 2.0000000000 8.3521003723 8.5000000000 42.332675934 -0.007300000 0.2220000029 2.3757998943 2.5027000904 70.593002319 84.663597107 147.85409546 3.7158000469 0.7226999998 2.9767000675
 3150.1569824 2.0000000000 8.3521003723 8.5000000000 39.340553284 -0.010600000 0.2310000062 2.3608999252 2.5004999638 64.290100098 83.499702454 147.61219788 3.0789000988 0.6710000038 2.4553999901
 3150.3093262 2.0000000000 8.3697996140 8.5000000000 36.351707458 -0.014600000 0.2312999964 2.3252000809 2.4598000050 68.197898865 83.078292847 146.81829834 2.7908000946 0.6413000226 2.2456998825
 3150.4616699 2.0000000000 8.3521003723 8.5000000000 33.362861633 -0.016400000 0.2354000062 2.3926999569 2.5692000389 68.323898315 82.306503296 145.72549438 3.8575000763 0.7612000108 3.1017000675
 3150.6140137 2.0000000000 8.3654003143 8.5000000000 39.366798401 -0.013200000 0.2178000063 2.5092000961 3.1140999794 73.240196228 81.926803589 142.65240479 8.3503999710 1.2107000351 6.6494002342
 3150.7663574 2.0000000000 8.3521003723 8.5000000000 42.368766785 -0.008600000 0.2205999941 2.4328000546 2.9161000252 70.593002319 81.479797363 138.81010437 5.2638998032 1.5716999769 4.2006001472
 3150.9189453 2.0000000000 8.3697996140 8.5000000000 51.643703461 -0.006500000 0.2096000016 2.3928999901 2.5306000710 69.505798340 81.511100769 139.45910645 4.2855000496 1.3653000593 3.5151000023
 3151.0712891 2.0000000000 8.3654003143 8.5000000000 56.282810211 -0.006100000 0.2145999968 2.4233999252 2.5081999302 68.497299194 82.383102417 141.76359558 5.6964001656 0.9671999812 4.6666998863
 3151.2236328 2.0000000000 8.3521003723 8.5000000000 65.557746887 -0.006800000 0.2138999999 2.3545999527 2.4763000011 66.354301453 83.598999023 142.27360535 4.2775998116 0.7943000197 3.4930999279
 3151.3759766 2.0000000000 8.3697996140 8.5000000000 70.196853638 -0.006900000 0.2328999937 2.3343000412 2.4305999279 66.559097290 84.070396423 144.15580750 3.6010999680 0.6183999777 2.9495000839
