# LAS format log file from PETREL
# Project units are specified as depth units
#==================================================================
~Version information
VERS.   2.0:
WRAP.   NO:
#==================================================================
~Well
STRT .m      963.35791016 :
STOP .m      4034.6738281 :
STEP .m     0.00000000 :
NULL .        -999.250000 :
COMP.           : COMPANY
WELL.  35/11-2   : WELL
FLD.            : FIELD
LOC.            : LOCATION
SRVC.           : SERVICE COMPANY
DATE.  2018-09-11 14:48:55   : Log Export Date {yyyy-MM-dd HH:mm:ss}
PROV.           : PROVINCE
UWI.   35/11-2   : UNIQUE WELL ID
API.            : API NUMBER
#==================================================================
~Curve
DEPT .m                   : DEPTH
Lithology_geolink ._      : Lithology_geolink
CALI .in                  : CALI
DRHO .g/cm3               : DRHO
NPHI .m3/m3               : NPHI
RHOB .g/cm3               : RHOB
GR .gAPI                  : GR
DTC .us/ft                : DTC
RDEP .ohm.m               : RDEP
SP .mV                    : SP
RSHA .ohm.m               : RSHA
RMED .ohm.m               : RMED
~Parameter
#==================================================================
~Ascii
# ...
 1002.2199097  -999.250000 21.180002213 0.0129919909 0.4604992867 1.8229719400 33.031410217 182.62780762 1995.2105713 5.6553983688 0.6078149676 0.6078149676
 1002.3723145  -999.250000 21.409999847 0.0110080093 0.4886905849 1.8309679031 32.781097412 177.87690735 6.8028945923 6.1567997932 1.4026815891 1.4026815891
 1002.5247192  -999.250000 21.511999130 0.0070144231 0.5291863680 1.8031009436 36.279598236 193.24383545 1.3610388041 7.1565995216 1.0341478586 1.0341478586
 1002.6771240  -999.250000 21.264999390 0.0070000002 0.5482866168 1.7711154222 36.188037872 170.13426208 0.9618197083 8.6563987732 0.9900176525 0.9900176525
 1002.8295288  -999.250000 20.698999405 0.0050072083 0.5858346224 1.7690072060 37.343540192 169.00045776 0.8869383335 7.1576008797 1.0449779034 1.0449779034
 1002.9818726  -999.250000 20.238000870 0.0099799754 0.5654956698 1.8108317852 37.344001770 167.50120544 0.8652547002 6.1578011513 1.0869663954 1.0869663954
 1003.1342773  -999.250000 20.018999100 0.0090040043 0.5196770430 1.8568158150 37.405948639 164.62730408 0.9723888636 5.6574006081 1.2049055099 1.2049055099
 1003.2866821  -999.250000 19.812000275 0.0119879860 0.5039600730 1.8868798018 38.779895782 159.37921143 1.5484353304 6.1565995216 1.4288206100 1.4288206100
 1003.4390869  -999.250000 19.597999573 0.0070200241 0.5136387348 1.8830159903 40.999111176 155.37660217 1.3140215874 7.6563992500 1.4379963875 1.4379963875
 1003.5914917  -999.250000 19.801000595 0.0099879857 0.5341224670 1.8919639587 42.687324524 154.75024414 1.3230768442 7.6570000648 1.3710268736 1.3710268736
 1003.7438965  -999.250000 20.364000320 0.0099999998 0.4996071756 1.9159039259 42.438098907 159.99789429 1.3552354574 10.655797958 1.3450103998 1.3450103998
 1003.8963013  -999.250000 20.882999420 0.0129879862 0.4863669574 1.9468759298 37.252079010 157.25109863 1.4531104565 8.6578006744 1.3759876490 1.3759876490
 1004.0487061  -999.250000 21.489000320 0.0080200247 0.5106716156 1.9380359650 31.830169678 157.12504578 1.4990119934 9.1567993164 1.4679632187 1.4679632187
 1004.2011108  -999.250000 22.292999268 0.0050120144 0.5292479396 1.8752522469 28.142477036 156.50024414 1.5043507814 9.1569995880 1.5669603348 1.5669603348
 1004.3535156  -999.250000 22.895000458 -0.005955947 0.5492638350 1.7415367365 29.312530518 155.37545776 1.6502931118 10.156599045 1.5709984303 1.5709984303
 1004.5059204  -999.250000 23.073999405 -0.014967548 0.5527204275 1.6503281593 31.530111313 156.12469482 1.7721513510 14.155397415 1.5370135307 1.5370135307
 1004.6583252  -999.250000 23.077999115 -0.017989187 0.5317988396 1.6330612898 34.998611450 162.12260437 1.8350120783 11.158201218 1.4760243893 1.4760243893
 1004.8107300  -999.250000 23.038999557 -0.017003605 0.5234632492 1.7047405243 36.155536652 161.87510681 1.8400321007 10.157400131 1.4080271721 1.4080271721
 1004.9631348  -999.250000 22.816001892 -0.007036043 0.5190523267 1.7946755886 36.405899048 154.00315857 1.8499903679 11.656398773 1.3710148335 1.3710148335
 1005.1154785  -999.250000 22.483999252 -0.003016019 0.5438702106 1.8617316484 34.032901764 149.87829590 1.8468766212 11.656999588 1.3390256166 1.3390256166
 1005.2678833  -999.250000 22.399000168 0.0069599519 0.5342112780 1.9127957821 34.812374115 148.37620544 1.8031204939 11.656999588 1.3509902954 1.3509902954
 1005.4202881  -999.250000 22.538999557 0.0129759712 0.5200653672 1.9478597641 36.248847961 151.37260437 1.8460980654 11.656999588 1.3929663897 1.3929663897
 1005.5726929  -999.250000 22.621000290 0.0179799758 0.4830288887 1.9479999542 34.906536102 160.87120056 1.8810448647 13.656198502 1.4389815331 1.4389815331
 1005.7250977  -999.250000 22.559000015 0.0209879857 0.5126164556 1.9539759159 33.531547546 159.12570190 1.8969887495 13.656999588 1.4599915743 1.4599915743
 1005.8775024  -999.250000 22.606000900 0.0090480577 0.4980910718 1.9420480728 32.406448364 155.00164795 1.8929018974 14.656599045 1.4859895706 1.4859895706
 1006.0299072  -999.250000 22.895000458 -0.000959952 0.5335900784 1.8902082443 33.812435150 154.12535095 1.8576972485 16.656198502 1.4850003719 1.4850003719
 1006.1823120  -999.250000 23.073999405 -0.014943932 0.5395335555 1.7684886456 32.625476837 158.87309265 1.7496327162 17.656599045 1.4360196590 1.4360196590
 1006.3347168  -999.250000 23.077999115 -0.015995996 0.5692564845 1.6614285707 33.468662262 165.12249756 1.6187167168 15.657801628 1.2930572033 1.2930572033
 1006.4871216  -999.250000 23.077999115 -0.015004004 0.5678740740 1.5972563028 34.280673981 166.37449646 1.5177245140 15.657000542 1.1520564556 1.1520564556
 1006.6395264  -999.250000 23.077999115 -0.019981971 0.5878338814 1.5820541382 37.498710632 168.74906921 1.4317308664 16.656599045 1.0490412712 1.0490412712
 1006.7919312  -999.250000 23.077999115 -0.019003604 0.5801018476 1.5949531794 38.655536652 170.49929810 1.3477534056 16.157199860 0.9720308185 0.9720308185
 1006.9443359  -999.250000 23.077999115 -0.020992791 0.5703374147 1.5940035582 36.563838959 171.62454224 1.2707853317 15.157400131 0.9480096102 0.9480096102
 1007.0966797  -999.250000 23.077999115 -0.016020024 0.5654456019 1.5870280266 35.157123566 178.74430847 1.2038962841 16.156198502 0.9569928050 0.9569928050
 1007.2490845  -999.250000 23.077999115 -0.015004004 0.5951145887 1.5690721273 31.690776825 186.99339294 1.1669131517 19.654195786 0.9440104365 0.9440104365
 1007.4014893  -999.250000 23.077999115 -0.015000000 0.6078692675 1.5610320568 30.048315048 189.49800110 1.1359523535 19.656999588 0.9310104251 0.9310104251
 1007.5538940  -999.250000 23.077999115 -0.021971967 0.5850335360 1.5311201811 28.406658173 189.37504578 1.1189746857 20.156799316 0.9240028262 0.9240028262
 1007.7062988  -999.250000 23.077999115 -0.035943933 0.6000514627 1.4871761799 27.875211716 190.99932861 1.1099523306 21.656398773 0.9240000248 0.9240000248
 1007.8587036  -999.250000 23.077999115 -0.039983980 0.6448940039 1.4621001482 26.938375473 190.87504578 1.0929859877 19.158000946 0.9070068002 0.9070068002
 1008.0111084  -999.250000 23.077999115 -0.039004005 0.6294338107 1.4580159187 26.609130859 191.87460327 1.0879971981 16.158201218 0.9010024071 0.9010024071
 1008.1635132  -999.250000 23.077999115 -0.036012013 0.6016380191 1.4659678936 26.547025681 194.49894714 1.0869776011 15.657200813 0.8870056272 0.8870056272
 1008.3159180  -999.250000 23.077999115 -0.037991989 0.5767297745 1.4620159864 27.390663147 199.24809265 1.0789915323 16.156799316 0.8899987936 0.8899987936
 1008.4683228  -999.250000 23.077999115 -0.041983981 0.5854253769 1.4540320635 28.843418121 199.49989319 1.0759719610 17.156599045 0.8790044188 0.8790044188
 1008.6207275  -999.250000 23.077999115 -0.041999999 0.5815509558 1.4470280409 31.529924393 200.37464905 1.0659840107 18.156599045 0.8760011792 0.8760011792
 1008.7731323  -999.250000 23.077999115 -0.042996395 0.5610974431 1.4499891996 30.703330994 201.74945068 1.0609999895 17.657199860 0.8759999871 0.8759999871
 1008.9255371  -999.250000 23.077999115 -0.037021626 0.5775934458 1.4589675665 29.875331879 199.87573242 1.0609999895 16.657400131 0.8779992461 0.8779992461
 1009.0779419  -999.250000 23.077999115 -0.035007209 0.5508552790 1.4779316187 27.500951767 196.00154114 1.0610288382 19.155998230 0.8700032234 0.8700032234
 1009.2302856  -999.250000 23.077999115 -0.029024027 0.5386090875 1.4969239235 31.684644699 191.25381470 1.0700112581 20.156198502 0.8510152102 0.8510152102
 1009.3826904  -999.250000 23.077999115 -0.027008010 0.5254322290 1.5029759407 31.031526566 188.25239563 1.0739887953 18.658201218 0.8539975882 0.8539975882
 1009.5350952  -999.250000 23.077999115 -0.028991990 0.5287990570 1.4960280657 30.453462601 184.62789917 1.0700029135 20.655397415 0.8699871898 0.8699871898
 1009.6875000  -999.250000 23.077999115 -0.029995995 0.5633689165 1.4840480089 27.157321930 183.87530518 1.0710167885 19.657400131 0.8879927993 0.8879927993
 1009.8399048  -999.250000 23.077999115 -0.032987986 0.5162428617 1.4800159931 28.296543121 180.62629700 1.0770168304 16.658201218 0.8959968090 0.8959968090
