# LAS format log file from PETREL
# Project units are specified as depth units
#==================================================================
~Version information
VERS.   2.0:
WRAP.   NO:
#==================================================================
~Well
STRT .m      1150.0018311 :
STOP .m      2885.3808594 :
STEP .m     0.00000000 :
NULL .        -999.250000 :
COMP.           : COMPANY
WELL.  35/11-10   : WELL
FLD.            : FIELD
LOC.            : LOCATION
SRVC.           : SERVICE COMPANY
DATE.  2018-09-11 14:48:54   : Log Export Date {yyyy-MM-dd HH:mm:ss}
PROV.           : PROVINCE
UWI.   35/11-10   : UNIQUE WELL ID
API.            : API NUMBER
#==================================================================
~Curve
DEPT .m                   : DEPTH
Lithology_geolink ._      : Lithology_geolink
CALI .in                  : CALI
BS .in                    : BS
DRHO .g/cm3               : DRHO
NPHI .m3/m3               : NPHI
RHOB .g/cm3               : RHOB
GR .gAPI                  : GR
DTC .us/ft                : DTC
DTS .us/ft                : DTS
RDEP .ohm.m               : RDEP
SP .mV                    : SP
RSHA .ohm.m               : RSHA
RMIC .ohm.m               : RMIC
RMED .ohm.m               : RMED
~Parameter
#==================================================================
~Ascii
# ...
 2305.9558105 4.0000000000 8.3240003586 8.5000000000 -0.006399000 0.2507602572 2.1340000629 42.092372894 98.787002563 173.13699341 19.402000427 -124.8130035 17.466999054 4.3877310753 17.458683014
 2306.1083984 4.0000000000 8.3240003586 8.5000000000 -0.009052861 0.2460914105 2.1210112572 36.727001190 97.879829407 172.93971252 20.014047623 -126.0641022 17.309715271 3.0343461037 17.317239761
 2306.2607422 4.0000000000 8.3219995499 8.5000000000 -0.011462715 0.2444735765 2.1280128956 42.594596863 97.772232056 172.75064087 15.059247971 -126.7504044 12.771447182 2.2654583454 12.779283524
 2306.4130859 4.0000000000 8.3280000687 8.5000000000 -0.014405000 0.2467743009 2.1359999180 41.814266205 97.290000916 171.89999390 14.590000153 -127.0000076 12.425999641 1.9564784765 12.426553726
 2306.5654297 4.0000000000 8.3280000687 8.5000000000 -0.013637999 0.2414391339 2.1440000534 38.851753235 97.055000305 171.34100342 13.475000381 -125.6880035 11.359999657 2.7541394234 11.363410950
 2306.7180176 4.0000000000 8.3299999237 8.5000000000 -0.009213901 0.2490098327 2.1550192833 41.728000641 97.395195007 170.89140320 11.309546471 -125.3154984 9.8456201553 2.2217242718 9.8464298248
 2306.8703613 4.0000000000 8.3280000687 8.5000000000 -0.008525013 0.2445611656 2.1670289040 35.777000427 96.889198303 170.52180481 12.896945000 -126.8739014 10.855689049 1.4654263258 10.853379250
 2307.0227051 4.0000000000 8.3339996338 8.5000000000 -0.006038126 0.2475761473 2.1850128174 44.257408142 96.391166687 170.40374756 13.482905388 -126.1881104 11.282326698 1.7201730013 11.284310341
 2307.1750488 4.0000000000 8.3229999542 8.5000000000 -0.004244000 0.2388739586 2.1930000782 47.196304321 96.498001099 170.87197876 11.552000046 -126.2500000 9.6140003204 1.7737456560 9.6193475723
 2307.3276367 4.0000000000 8.3240003586 8.5000000000 -0.000630261 0.2457189709 2.2000112534 43.888000488 97.221611023 170.06146240 11.081425667 -126.4363022 9.2148799896 1.1340576410 9.2156391144
 2307.4799805 4.0000000000 8.3260002136 8.5000000000 -0.000168471 0.2462052405 2.2070207596 46.421001434 96.358276367 169.09777832 10.723658562 -125.3765030 9.1400194168 0.9057275057 9.1401205063
 2307.6323242 4.0000000000 8.3280000687 8.5000000000 0.0007876304 0.2541292608 2.2200095654 48.922988892 96.528945923 167.70220947 10.511908531 -126.3124008 9.1520223618 1.2449071407 9.1519813538
 2307.7846680 4.0000000000 8.3260002136 8.5000000000 0.0030530000 0.2436987609 2.2260000706 51.698551178 96.495002747 165.33799744 11.079000473 -125.9379959 9.1660003662 1.5744159222 9.1659774780
 2307.9370117 4.0000000000 8.3269996643 8.5000000000 0.0026310000 0.2423971295 2.2320001125 50.542861938 95.323997498 163.01400757 11.788000107 -125.9379959 9.1669998169 1.7650865316 9.1669969559
 2308.0895996 4.0000000000 8.3260002136 8.5000000000 -0.001852838 0.2322922051 2.2370240688 44.609001160 94.489509583 161.69520569 10.548440933 -126.0629044 8.2042789459 1.0054454803 8.2085380554
 2308.2419434 4.0000000000 8.3290004730 8.5000000000 -0.000506030 0.2404718399 2.2520129681 42.798900604 92.946716309 157.46917725 7.7054147720 -126.0002975 6.5064911842 0.8594615459 6.5117211342
 2308.3942871 4.0000000000 8.3260002136 8.5000000000 -0.000525000 0.2395115644 2.2599999905 42.551391602 94.641998291 158.82800293 6.0920000076 -126.1880112 4.9409999847 0.7525135875 4.9435129166
 2308.5466309 4.0000000000 8.3310003281 8.5000000000 -0.000831000 0.2465384454 2.2790000439 50.843688965 94.194999695 157.80900574 5.6230001450 -126.0630035 4.5929999352 0.9251634479 4.5941133499
 2308.6992188 4.0000000000 8.3280000687 8.5000000000 0.0004694519 0.2513872385 2.2889857292 53.773998260 94.475128174 161.46954346 5.6305756569 -125.3121948 4.5113768578 0.9140384197 4.5111317635
 2308.8515625 4.0000000000 8.3290004730 8.5000000000 -0.000500095 0.2593222857 2.2799503803 53.437999725 98.295867920 164.31216431 5.9903635979 -124.8166122 4.7471089363 0.9468942285 4.7456231117
 2309.0039063 4.0000000000 8.3199996948 8.5000000000 -0.003676315 0.2705899477 2.2489569187 51.004898071 100.08487701 170.64622498 6.8396143913 -127.0617065 5.4376864433 0.9091217518 5.4368910789
 2309.1562500 4.0000000000 8.3260002136 8.5000000000 -0.005121000 0.2718769312 2.2219998837 50.086467743 100.01100159 172.65899658 6.5989999771 -126.2500000 5.2420001030 0.8781487942 5.2426271439
 2309.3088379 4.0000000000 8.3299999237 8.5000000000 -0.005422572 0.2763528228 2.2140128613 54.521999359 99.550102234 172.66293335 6.0125899315 -124.5012054 4.7996635437 0.7165192366 4.8007082939
 2309.4611816 4.0000000000 8.3310003281 8.5000000000 -0.006399609 0.2787751257 2.2220351696 57.490001678 98.987503052 172.62413025 5.7567548752 -125.2508011 4.5897965431 0.8256474137 4.5903367996
 2309.6135254 5.0000000000 8.3240003586 8.5000000000 -0.004910450 0.2894988060 2.2440176010 54.662532806 98.679527283 172.08218384 5.6039071083 -125.7499084 4.4627165794 0.8379615545 4.4632034302
 2309.7658691 5.0000000000 8.3330001831 8.5000000000 -0.005191000 0.2907460332 2.2550001144 56.292373657 98.383003235 171.57899475 5.5460000038 -125.6880035 4.2859997749 0.8489471674 4.2862834930
 2309.9182129 5.0000000000 8.3299999237 8.5000000000 -0.007342000 0.2807720304 2.2469999790 55.680984497 99.203010559 171.38499451 5.5240001678 -125.6880035 4.1859998703 0.7474903464 4.1863198280
 2310.0708008 5.0000000000 8.3229999542 8.5000000000 -0.008420853 0.2771407962 2.2289969921 55.206001282 99.296279907 171.52906799 5.5307950974 -125.2501984 3.9688317776 0.7031410336 3.9693479538
 2310.2231445 5.0000000000 8.3299999237 8.5000000000 -0.007701747 0.2806773186 2.2270176411 59.237537384 99.470924377 172.19474792 5.4025616646 -125.3760986 3.8637232780 0.7937083840 3.8641684055
 2310.3754883 5.0000000000 8.3269996643 8.5000000000 -0.005048000 0.2993001044 2.2379999161 60.889358521 100.04599762 172.65299988 5.1290001869 -126.0630035 3.6909999847 0.9084479809 3.6912772655
 2310.5278320 5.0000000000 8.3249998093 8.5000000000 -0.001718000 0.3087617159 2.2479999065 62.329692841 98.617996216 172.37699890 5.1090002060 -125.3750000 3.7390000820 0.8900913596 3.7388465405
 2310.6804199 5.0000000000 8.3310003281 8.5000000000 0.0023469215 0.3082778454 2.2509822845 59.451999664 98.336929321 171.33787537 5.5440211296 -125.8758011 3.9679934978 0.9926698208 3.9676330090
 2310.8327637 5.0000000000 8.3290004730 8.5000000000 -0.000197697 0.2889470160 2.2400031090 55.305999756 97.046997070 171.26982117 5.5567231178 -126.3740082 3.9637498856 0.8255384564 3.9640064240
 2310.9851074 5.0000000000 8.3629999161 8.5000000000 -0.002502245 0.2736714780 2.2420225143 53.405048370 96.423767090 171.16007996 5.3831372261 -125.7494049 3.8074753284 0.8648080230 3.8082501888
 2311.1374512 5.0000000000 8.3599996567 8.5000000000 -0.003279000 0.2564721406 2.2560000420 61.958267212 95.028999329 171.20799255 4.8449997902 -125.3750000 3.4800000191 0.8510673046 3.4810495377
 2311.2900391 5.0000000000 8.3610000610 8.5000000000 -0.002198614 0.2729075253 2.2750096321 59.027999878 95.275016785 171.59475708 4.3246474266 -125.8745956 3.1946570873 0.7941827178 3.1954567432
 2311.4423828 5.0000000000 8.3610000610 8.5000000000 -0.003829192 0.2807215154 2.2809805870 55.381999969 95.909111023 173.31582642 4.1044421196 -125.6245956 2.9806425571 0.9465096593 2.9813427925
 2311.5947266 5.0000000000 8.3610000610 8.5000000000 -0.005188616 0.2864667773 2.2689759731 56.347450256 98.475997925 173.82804871 3.7564768791 -125.3759995 2.7575950623 0.9001505971 2.7583572865
 2311.7470703 5.0000000000 8.3640003204 8.5000000000 -0.001205000 0.2741687596 2.2539999485 58.816040039 97.852996826 174.48300171 3.4300000668 -126.0000000 2.5050001144 0.8353119493 2.5054056644
 2311.8994141 5.0000000000 8.3610000610 8.5000000000 -0.001644000 0.2777364850 2.2449998856 59.116523743 96.619003296 173.37600708 2.9760000706 -125.4999924 2.2339999676 0.6966682673 2.2348670959
 2312.0520020 5.0000000000 8.3579998016 8.5000000000 -0.002270987 0.2856463194 2.2590641975 65.244003296 94.594169617 171.69281006 2.7048091888 -124.6885071 2.0989005566 0.7857115269 2.0992162228
