# LAS format log file from PETREL
# Project units are specified as depth units
#==================================================================
~Version information
VERS.   2.0:
WRAP.   NO:
#==================================================================
~Well
STRT .m      998.18890381 :
STOP .m      3019.4697266 :
STEP .m     0.00000000 :
NULL .        -999.250000 :
COMP.           : COMPANY
WELL.  35/12-1   : WELL
FLD.            : FIELD
LOC.            : LOCATION
SRVC.           : SERVICE COMPANY
DATE.  2018-09-11 14:48:57   : Log Export Date {yyyy-MM-dd HH:mm:ss}
PROV.           : PROVINCE
UWI.   35/12-1   : UNIQUE WELL ID
API.            : API NUMBER
#==================================================================
~Curve
DEPT .m                   : DEPTH
Lithology_geolink ._      : Lithology_geolink
CALI .in                  : CALI
BS .in                    : BS
DRHO .g/cm3               : DRHO
NPHI .m3/m3               : NPHI
RHOB .g/cm3               : RHOB
PEF .b/e                  : PEF
GR .gAPI                  : GR
DTC .us/ft                : DTC
RDEP .ohm.m               : RDEP
SP .mV                    : SP
RSHA .ohm.m               : RSHA
RMIC .ohm.m               : RMIC
RMED .ohm.m               : RMED
~Parameter
#==================================================================
~Ascii
# ...
 1404.3348389  -999.250000 17.531000137 17.500000000 -0.086999997  -999.250000 2.1730000973 3.9149999619 123.44744873 132.55700684 1.7700721025 178.64117432 1.4930241108 1.4770015478 0.0390000008
 1404.4873047  -999.250000 17.531000137 17.500000000 -0.086999997  -999.250000 2.1640000343 3.8970000744 125.24656677 134.05799866 1.7590439320 179.08428955 1.4820439816 1.4670079947 0.0390000008
 1404.6396484  -999.250000 17.531000137 17.500000000 -0.086999997  -999.250000 2.1600000858 3.9319999218 124.10391235 134.59100342 1.7341001034 179.41819763 1.4660640955 1.4550096989 0.0390000008
 1404.7921143  -999.250000 17.531000137 17.500000000 -0.086000003  -999.250000 2.1579999924 3.9890000820 120.91555786 134.11300659 1.7120881081 179.45593262 1.4560400248 1.3930495977 0.0390000008
 1404.9444580  -999.250000 17.531000137 17.500000000 -0.086000003  -999.250000 2.1619999409 3.9820001125 121.49253082 133.93200684 1.7040320635 179.78918457 1.4540079832 1.3999943733 0.0390000008
 1405.0969238  -999.250000 17.531000137 17.500000000 -0.086000003  -999.250000 2.1649999619 3.9300000668 122.00859070 133.90299988 1.7209454775 180.37406921 1.4609775543 1.4259791374 0.0390000008
 1405.2492676  -999.250000 17.518999100 17.500000000 -0.086000003  -999.250000 2.1679999828 3.7660000324 126.23561096 133.56399536 1.7458999157 180.91769409 1.4809198380 1.4619711637 0.0390000008
 1405.4017334  -999.250000 17.455999374 17.500000000 -0.086000003  -999.250000 2.1700000763 3.6129999161 126.02417755 133.31900024 1.7569646835 181.18557739 1.4899711609 1.5059647560 0.0390000008
 1405.5540771  -999.250000 17.400999069 17.500000000 -0.086000003  -999.250000 2.1740000248 3.5280001163 122.95845795 132.72000122 1.7649679184 181.44358826 1.4999599457 1.5329784155 0.0390000008
 1405.7064209  -999.250000 17.391000748 17.500000000 -0.086000003  -999.250000 2.1770000458 3.5480000973 116.22379303 131.45700073 1.7859158516 181.16267395 1.5248998404 1.5429840088 0.0390000008
 1405.8588867  -999.250000 17.391000748 17.500000000 -0.086000003  -999.250000 2.1840000153 3.6389999390 112.21021271 129.30999756 1.8328118324 181.25384521 1.5538839102 1.5529919863 0.0390000008
 1406.0112305  -999.250000 17.391000748 17.500000000 -0.086999997  -999.250000 2.1930000782 3.7630000114 110.48376465 127.83300018 1.8628798723 181.00061035 1.5709319115 1.5599887371 0.0390000008
 1406.1636963  -999.250000 17.392999649 17.500000000 -0.089000002  -999.250000 2.1970000267 3.8889999390 112.44342804 126.69999695 1.8839159012 180.70646667 1.5899239779 1.5550040007 0.0390000008
 1406.3160400  -999.250000 17.413999557 17.500000000 -0.090999998  -999.250000 2.2019999027 4.0949997902 115.62589264 125.77799988 1.9019278288 180.74989319 1.6188837290 1.5739696026 0.0390000008
 1406.4685059  -999.250000 17.468999863 17.500000000 -0.093000002  -999.250000 2.2079999447 4.2410001755 114.78768158 125.63200378 1.9408438206 180.85482788 1.6359319687 1.5939840078 0.0390000008
 1406.6208496  -999.250000 17.520999908 17.500000000 -0.092000000  -999.250000 2.2219998837 4.4330000877 110.14871979 125.78399658 1.9738677740 180.89491272 1.6519358158 1.6389640570 0.0390000008
 1406.7733154  -999.250000 17.528999329 17.500000000 -0.090000004  -999.250000 2.2239999771 4.3359999657 107.48612976 125.94899750 1.9720079899 180.97985840 1.6579760313 1.6669776440 0.0390000008
 1406.9256592  -999.250000 17.506000519 17.500000000 -0.089000002  -999.250000 2.2190001011 4.1840000153 109.55234528 126.34799957 1.9570600986 180.94009399 1.6560080051 1.7229552269 0.0390000008
 1407.0781250  -999.250000 17.444999695 17.500000000 -0.088000000  -999.250000 2.2079999447 3.9849998951 114.92169952 126.95200348 1.9510239363 180.60552979 1.6460400820 1.6680439711 0.0390000008
 1407.2304688  -999.250000 17.409000397 17.500000000 -0.086999997  -999.250000 2.2000000477 3.8689999580 115.29071045 127.44799805 1.9390480518 180.16604614 1.6360400915 1.6210377216 0.0390000008
 1407.3829346  -999.250000 17.400999069 17.500000000 -0.086999997  -999.250000 2.1960000992 3.8699998856 114.45767212 127.79300690 1.9270385504 179.89543152 1.6270288229 1.6269952059 0.0390000008
 1407.5352783  -999.250000 17.431999207 17.500000000 -0.086999997  -999.250000 2.1909999847 3.9189999104 111.83310699 127.01300049 1.9369599819 179.79016113 1.6349679232 1.6230032444 0.0390000008
 1407.6876221  -999.250000 17.452999115 17.500000000 -0.088000000  -999.250000 2.1889998913 3.9149999619 113.49633026 126.31900024 1.9529358149 179.91468811 1.6569118500 1.6299887896 0.0390000008
 1407.8400879  -999.250000 17.465999603 17.500000000 -0.089000002  -999.250000 2.1889998913 3.7899999619 113.29615784 125.40000153 1.9828799963 180.32933044 1.6809039116 1.6559791565 0.0390000008
 1407.9924316  -999.250000 17.465999603 17.500000000 -0.088000000  -999.250000 2.1940000057 3.6119999886 111.62068176 124.43299866 2.0218439102 181.14305115 1.7058998346 1.6779646873 0.0390000008
 1408.1448975  -999.250000 17.447999954 17.500000000 -0.086999997  -999.250000 2.2000000477 3.5290000439 107.88999176 123.66400909 2.0618398190 181.96269226 1.7269159555 1.7059775591 0.0390000008
 1408.2972412  -999.250000 17.410999298 17.500000000 -0.086000003  -999.250000 2.2030000687 3.5490000248 107.64738464 123.24800110 2.0829157829 182.22537231 1.7489118576 1.7419422865 0.0390000008
 1408.4497070  -999.250000 17.392999649 17.500000000 -0.086000003  -999.250000 2.1970000267 3.6050000191 108.95894623 123.01899719 2.0929598808 182.68824768 1.7579640150 1.7599855661 0.0390000008
 1408.6020508  -999.250000 17.400999069 17.500000000 -0.086999997  -999.250000 2.1960000992 3.6150000095 109.47158813 122.24199677 2.1139159203 182.97929382 1.7749319077 1.7540047169 0.0390000008
 1408.7545166  -999.250000 17.455999374 17.500000000 -0.086999997  -999.250000 2.2030000687 3.6559998989 107.42964172 120.10600281 2.1518478394 183.00395203 1.8078678846 1.7460064888 0.0390000008
 1408.9068604  -999.250000 17.518999100 17.500000000 -0.085000001  -999.250000 2.2219998837 3.7569999695 106.74054718 117.23899841 2.2187316418 182.56106567 1.8587956429 1.7230185270 0.0390000008
 1409.0593262  -999.250000 17.520999908 17.500000000 -0.085000001  -999.250000 2.2400000095 3.8670001030 106.72101593 115.61599731 2.3235795498 182.21057129 1.9217478037 1.7629679441 0.0390000008
 1409.2116699  -999.250000 17.465999603 17.500000000 -0.083999999  -999.250000 2.2560000420 3.8519999981 107.01776123 114.56099701 2.3996956348 181.89176941 1.9777756929 1.9068845510 0.0390000008
 1409.3641357  -999.250000 17.402999878 17.500000000 -0.082999997  -999.250000 2.2679998875 3.7669999599 107.09992981 114.62000275 2.4448556900 182.10466003 2.0108940601 2.0918519497 0.0390000008
 1409.5164795  -999.250000 17.391000748 17.500000000 -0.082999997  -999.250000 2.2660000324 3.7969999313 107.30982971 116.53500366 2.4469919205 182.27372742 1.9980521202 2.1719357967 0.0390000008
 1409.6689453  -999.250000 17.391000748 17.500000000 -0.085000001  -999.250000 2.2520000935 3.7820000648 110.39852905 118.66500092 2.3363556862 182.02041626 1.9212467670 2.0281155109 0.0390000008
 1409.8212891  -999.250000 17.391000748 17.500000000 -0.088000000  -999.250000 2.2300000191 3.7599999905 111.63001251 121.16101074 2.1656844616 181.73045349 1.8074563742 1.8591353893 0.0390000008
 1409.9736328  -999.250000 17.398000717 17.500000000 -0.090999998  -999.250000 2.2060000896 3.7039999962 114.01417542 124.09200287 2.0594246387 181.39581299 1.7382764816 1.7431857586 0.0390000008
 1410.1260986  -999.250000 17.422000885 17.500000000 -0.093000002  -999.250000 2.1919999123 3.7690000534 113.73123169 125.72299957 1.9833042622 181.02459717 1.6832201481 1.7080279589 0.0390000008
 1410.2784424  -999.250000 17.398000717 17.500000000 -0.093000002  -999.250000 2.1830000877 3.8469998837 115.47120667 126.34799957 1.9531201124 180.31170654 1.6690561771 1.7159872055 0.0390000008
 1410.4309082  -999.250000 17.391000748 17.500000000 -0.093000002  -999.250000 2.1819999218 3.8699998856 117.06971741 127.01599884 1.9430400133 179.81179810 1.6620279551 1.6830264330 0.0390000008
