# LAS format log file from PETREL
# Project units are specified as depth units
#==================================================================
~Version information
VERS.   2.0:
WRAP.   NO:
#==================================================================
~Well
STRT .m      1242.0020752 :
STOP .m      2811.1123047 :
STEP .m     0.00000000 :
NULL .        -999.250000 :
COMP.           : COMPANY
WELL.  35/11-9   : WELL
FLD.            : FIELD
LOC.            : LOCATION
SRVC.           : SERVICE COMPANY
DATE.  2018-09-11 14:48:57   : Log Export Date {yyyy-MM-dd HH:mm:ss}
PROV.           : PROVINCE
UWI.   35/11-9   : UNIQUE WELL ID
API.            : API NUMBER
#==================================================================
~Curve
DEPT .m                   : DEPTH
Lithology_geolink ._      : Lithology_geolink
CALI .in                  : CALI
BS .in                    : BS
DRHO .g/cm3               : DRHO
NPHI .m3/m3               : NPHI
RHOB .g/cm3               : RHOB
GR .gAPI                  : GR
DTC .us/ft                : DTC
DTS .us/ft                : DTS
RDEP .ohm.m               : RDEP
SP .mV                    : SP
RMIC .ohm.m               : RMIC
~Parameter
#==================================================================
~Ascii
# ...
 1761.3812256 2.0000000000 12.043999672 12.250000954 -0.005150000 0.3504375517 2.1250000000 67.802154541 105.91000366 211.23802185 0.5219179988 44.387001038 0.2199975997
 1761.5336914 2.0000000000 12.057999611 12.250000954 -0.006052000 0.3376625478 2.1289999485 66.751861572 105.72699738 214.29100037 0.5219720006 45.394001007 0.2170224041
 1761.6860352 2.0000000000 12.043000221 12.250000954 -0.007876000 0.3183603883 2.1359999180 68.538322449 105.60900116 217.09100342 0.5177509785 46.575000763 0.2309968024
 1761.8385010 2.0000000000 12.053999901 12.250000954 -0.007172000 0.3179754317 2.1380000114 73.929725647 105.08399963 214.91999817 0.5121089816 48.587001801 0.2270015925
 1761.9908447 2.0000000000 12.060999870 12.250000954 -0.006667000 0.3218908310 2.1459999084 75.001464844 104.99099731 214.64500427 0.5076040030 48.062999725 0.2279976010
 1762.1433105 2.0000000000 12.038000107 12.250000954 -0.008875000 0.3224223256 2.1440000534 73.084724426 105.09100342 209.77900696 0.5068749785 46.094001770 0.2249871790
 1762.2956543 2.0000000000 12.036999702 12.250000954 -0.008520000 0.3237833679 2.1440000534 72.908493042 105.42800140 209.77499390 0.5020359755 44.168998718 0.2170007974
 1762.4479980 2.0000000000 12.057000160 12.250000954 -0.005605000 0.3103075624 2.1440000534 68.533294678 106.12799835 210.29498291 0.5055829883 44.299999237 0.2180031985
 1762.6004639 2.0000000000 12.062998772 12.250000954 -0.004426000 0.3075215816 2.1440000534 71.400604248 106.23000336 211.87899780 0.5083249807 45.918998718 0.2219983935
 1762.7528076 2.0000000000 12.064999580 12.250000954 -0.005337000 0.2985532582 2.1480000019 70.906913757 106.21700287 215.03900146 0.5088469982 47.756000519 0.2199943960
 1762.9052734 2.0000000000 12.086001396 12.250000954 -0.003278000 0.3043672740 2.1500000954 69.554512024 106.22100067 215.65499878 0.5021489859 45.831001282 0.2130023986
 1763.0576172 2.0000000000 12.093999863 12.250000954 -0.004573000 0.3177717626 2.1470000744 67.707954407 106.01799774 215.59300232 0.4946280122 43.905998230 0.2160088122
 1763.2100830 2.0000000000 12.090999603 12.250000954 -0.004205000 0.3189065158 2.1389999390 72.633514404 105.74099731 215.16200256 0.4841749966 42.069000244 0.2269983888
 1763.3624268 2.0000000000 12.086999893 12.250000954 -0.003189000 0.3369444609 2.1410000324 69.534912109 105.61299896 208.26300049 0.4824570119 43.993999481 0.2250128090
 1763.5148926 2.0000000000 12.093001366 12.250000954 0.0000900000 0.3135336637 2.1410000324 68.176147461 104.65499115 203.41299438 0.4805639982 46.444000244 0.2410064042
 1763.6672363 2.0000000000 12.074999809 12.250000954 0.0002450000 0.3079937398 2.1480000019 68.354949951 103.76699829 201.53799438 0.4924930036 45.655998230 0.2489887774
 1763.8197021 2.0000000000 12.156999588 12.250000954 0.0012680000 0.3046986461 2.1470000744 68.289222717 104.10299683 200.80099487 0.5096120238 46.444000244 0.2349839807
 1763.9720459 2.0000000000 12.154998779 12.250000954 0.0001800000 0.3045417666 2.1530001163 68.427291870 105.48000336 207.73399353 0.5220370293 44.474998474 0.2249887735
 1764.1245117 2.0000000000 12.163999557 12.250000954 0.0017060000 0.2993703783 2.1570000648 70.034393311 106.06600189 204.48300171 0.5217059851 42.987998962 0.2110320181
 1764.2768555 2.0000000000 12.174999237 12.250000954 0.0025470001 0.2779002786 2.1579999924 70.277999878 110.39299774 208.27400208 0.5145609975 43.730998993 0.2309992015
 1764.4293213 2.0000000000 12.267999649 12.250000954 0.0173269995 0.2575891614 2.1389999390 67.819946289 114.51200867 218.71099854 0.5053830147 44.650001526 0.2300320268
 1764.5816650 2.0000000000 12.435999870 12.250000954 0.0293240007 0.2876004279 2.0810000896 86.489356995 118.22399902 225.14299011 0.4926170111 47.625000000 0.2499871850
 1764.7340088 2.0000000000 12.531999588 12.250000954 0.0406120010 0.3172184527 2.0599999428 85.681007385 116.57599640 223.53799438 0.4852370024 48.105998993 0.2339407504
 1764.8864746 2.0000000000 12.489999771 12.250000954 0.0609159991 0.3710814416 2.0739998817 75.699272156 115.86400604 226.29800415 0.4899320006 45.918998718 0.1599935889
 1765.0388184 2.0000000000 11.579000473 12.250000954 0.0811910033 0.3696018159 2.1359999180 69.802429199 113.55000305 229.80299377 0.4890150130 42.025001526 0.1520128101
 1765.1912842 2.0000000000 11.520000458 12.250000954 0.0647569969 0.3688333631 2.1359999180 67.835632324 108.11399841 228.85800171 0.4975470006 43.469001770 0.1679895818
 1765.3436279 2.0000000000 11.663000107 12.250000954 0.0486439988 0.3602700830 2.1389999390 64.886871338 107.65600586 225.04699707 0.4878939986 47.319000244 0.1550088078
 1765.4960938 2.0000000000 11.858000755 12.250000954 0.0435229987 0.3634179235 2.1429998875 64.724937439 107.95200348 226.99299622 0.4811710119 49.769001007 0.1660031974
 1765.6484375 2.0000000000 11.911999702 12.250000954 0.0207080003 0.3513432741 2.1189999580 69.632949829 110.56700134 231.95300293 0.4736459851 47.275001526 0.1699951887
 1765.8009033 2.0000000000 11.923999786 12.250000954 0.0118800001 0.3539757133 2.1080000401 65.829360962 111.58200073 233.19700623 0.4690819979 43.512001038 0.1640015990
 1765.9532471 2.0000000000 11.967000961 12.250000954 0.0049250000 0.3459754586 2.0969998837 69.795860291 111.92800140 234.90499878 0.4754469991 45.394001007 0.1650024056
 1766.1057129 2.0000000000 11.972999573 12.250000954 0.0022080000 0.3505443633 2.1029999256 67.125816345 113.00299072 236.48599243 0.4749679863 46.706001282 0.1680064052
 1766.2580566 2.0000000000 11.967000961 12.250000954 -0.001046000 0.3228791654 2.1050000191 62.640151978 112.77300262 240.73800659 0.4759489894 48.150001526 0.1720032096
 1766.4105225 2.0000000000 11.963000298 12.250000954 -0.002388000 0.3336233199 2.1050000191 59.105758667 112.81099701 238.05799866 0.4644100070 46.487998962 0.1760080010
 1766.5628662 2.0000000000 11.984001160 12.250000954 -0.002537000 0.3549843132 2.1040000916 71.424903870 112.35300446 244.27600098 0.4614329934 45.131000519 0.1809991896
 1766.7152100 2.0000000000 11.925999641 12.250000954 0.0006010000 0.3807188570 2.1050000191 68.812591553 113.01499939 257.85198975 0.4555799961 45.043998718 0.1799944043
 1766.8676758 2.0000000000 11.965999603 12.250000954 0.0045250002 0.3837112188 2.1080000401 70.797004700 112.82200623 247.37399292 0.4559000134 46.575000763 0.1730184257
 1767.0200195 2.0000000000 11.972999573 12.250000954 0.0043520001 0.3733807504 2.1010000706 68.303451538 112.97499847 241.14999390 0.4580990076 48.762001038 0.1959895939
 1767.1724854 2.0000000000 11.972999573 12.250000954 0.0057060001 0.3569998741 2.0999999046 67.611564636 113.33899689 238.75999451 0.4569450021 48.805999756 0.1829951853
 1767.3248291 2.0000000000 11.972999573 12.250000954 0.0054870001 0.3507009149 2.1010000706 64.580276489 114.46199799 239.27600098 0.4558579922 47.144001007 0.1769959927
 1767.4772949 2.0000000000 11.937999725 12.250000954 0.0045889998 0.3407317102 2.1050000191 69.917572021 114.85600281 242.96699524 0.4573050141 45.743999481 0.1720032096
 1767.6296387 2.0000000000 11.923999786 12.250000954 0.0052600000 0.3663479984 2.1080000401 61.897426605 114.45700073 244.12397766 0.4580740035 45.043998718 0.1759951860
 1767.7821045 2.0000000000 11.925000191 12.250000954 0.0071810000 0.3513997495 2.1070001125 63.661594391 113.95899963 239.15199280 0.4569399953 49.155998230 0.1699967980
 1767.9344482 2.0000000000 11.927000046 12.250000954 0.0077169999 0.3529449999 2.1080000401 54.061706543 113.79900360 239.48899841 0.4556640089 49.243999481 0.1680240333
 1768.0869141 2.0000000000 11.897000313 12.250000954 0.0063330000 0.3460757434 2.1080000401 59.932186127 115.41600037 240.74200439 0.4551999867 49.506000519 0.1979887933
 1768.2392578 2.0000000000 11.935999870 12.250000954 0.0069249999 0.3401777446 2.1140000820 61.301708221 115.44999695 240.72099304 0.4557060003 46.006000519 0.1909895837
 1768.3917236 2.0000000000 11.965000153 12.250000954 0.0050149998 0.3530764282 2.1129999161 68.411521912 113.43000031 244.90499878 0.4504280090 46.180999756 0.1779903919
 1768.5440674 2.0000000000 11.972000122 12.250000954 0.0040790001 0.3404348791 2.1019999981 65.000740051 115.80899048 244.31300354 0.4466359913 46.924999237 0.1719976068
