# LAS format log file from PETREL
# Project units are specified as depth units
#==================================================================
~Version information
VERS.   2.0:
WRAP.   NO:
#==================================================================
~Well
STRT .m      963.35791016 :
STOP .m      4034.6738281 :
STEP .m     0.00000000 :
NULL .        -999.250000 :
COMP.           : COMPANY
WELL.  35/11-2   : WELL
FLD.            : FIELD
LOC.            : LOCATION
SRVC.           : SERVICE COMPANY
DATE.  2018-09-11 14:48:55   : Log Export Date {yyyy-MM-dd HH:mm:ss}
PROV.           : PROVINCE
UWI.   35/11-2   : UNIQUE WELL ID
API.            : API NUMBER
#==================================================================
~Curve
DEPT .m                   : DEPTH
Lithology_geolink ._      : Lithology_geolink
CALI .in                  : CALI
DRHO .g/cm3               : DRHO
NPHI .m3/m3               : NPHI
RHOB .g/cm3               : RHOB
GR .gAPI                  : GR
DTC .us/ft                : DTC
RDEP .ohm.m               : RDEP
SP .mV                    : SP
RSHA .ohm.m               : RSHA
RMED .ohm.m               : RMED
~Parameter
#==================================================================
~Ascii
# ...
 1204.3022461  -999.250000 19.278999329 0.0030192309 0.4905967414 1.9400385618 45.095352173 146.37620544 1.3640527725 30.658201218 1.2740336657 1.2740336657
 1204.4547119  -999.250000 19.899002075 -0.001983987 0.5193308592 1.9509646893 46.219001770 145.62500000 1.3859302998 33.657001495 1.2599999905 1.2599999905
 1204.6070557  -999.250000 19.725000381 -0.002000000 0.5283384919 1.9529935122 46.999374390 143.75149536 1.3569759130 33.157402039 1.2729896307 1.2729896307
 1204.7593994  -999.250000 19.226999283 0.0019839874 0.5022339225 1.9390560389 45.345329285 140.50260925 1.3470071554 33.656600952 1.2510176897 1.2510176897
 1204.9118652  -999.250000 19.006999969 0.0049903844 0.4581160843 1.9280352592 42.721103668 141.99879456 1.3500120640 33.657001495 1.2559959888 1.2559959888
 1205.0642090  -999.250000 19.000000000 0.0049999999 0.4411306977 1.9349719286 44.311721802 142.62449646 1.3550120592 34.156600952 1.2500047684 1.2500047684
 1205.2166748  -999.250000 18.840000153 0.0059967949 0.4502679110 1.9449679852 48.812999725 139.87500000 1.3600192070 33.157001495 1.2730000019 1.2730000019
 1205.3690186  -999.250000 18.683000565 0.0099839866 0.4533725977 1.9400200844 54.433494568 139.50030518 1.3680601120 31.158601761 1.2859896421 1.2859896421
 1205.5214844  -999.250000 18.372999191 0.0279423092 0.4660096169 1.9519615173 54.500000000 140.25000000 1.3930047750 30.656999588 1.2669999599 1.2669999599
 1205.6738281  -999.250000 18.768999100 0.0528999195 0.4806846976 1.9898478985 55.530174255 136.37809753 1.3949831724 30.157400131 1.2969760895 1.2969760895
 1205.8262939  -999.250000 19.350999832 0.0589807704 0.5086528063 2.0358526707 52.655998230 133.62500000 1.3879687786 29.656999588 1.2949999571 1.2949999571
 1205.9786377  -999.250000 19.769998550 0.0420544855 0.5337995887 2.0569326878 55.497722626 132.50090027 1.3749327660 30.656198502 1.3289728165 1.3289728165
 1206.1311035  -999.250000 19.833999634 0.0230608489 0.5265476108 2.0350706577 54.187999725 135.25000000 1.3469063044 31.656999588 1.2910000086 1.2910000086
 1206.2834473  -999.250000 19.673000336 0.0170192309 0.4949162006 1.9731987715 54.655624390 140.24600220 1.3079015017 32.656200409 1.2420392036 1.2420392036
 1206.4359131  -999.250000 20.131999969 0.0289615691 0.4865300059 1.9151856899 52.375000000 150.12500000 1.2668918371 32.657001495 1.1900000572 1.1900000572
 1206.5882568  -999.250000 20.586000443 0.0419583321 0.5058134794 1.8900800943 50.970127106 157.61898804 1.2219110727 33.156600952 1.1730135679 1.1730135679
 1206.7407227  -999.250000 20.206001282 0.0449903943 0.5332640409 1.8890032768 49.780998230 160.25000000 1.1850383282 33.657001495 1.1480000019 1.1480000019
 1206.8930664  -999.250000 20.537000656 0.0360288434 0.5344672203 1.8909935951 47.439876556 158.87609863 1.1970697641 34.156600952 1.0201025009 1.0201025009
 1207.0454102  -999.250000 21.906000137 0.0210600477 0.5206133723 1.9049439430 48.748947144 150.13200378 1.2259975672 30.659803391 0.9500560760 0.9500560760
 1207.1978760  -999.250000 22.121002197 0.0130256414 0.5137065649 1.9568333626 46.282974243 136.51091003 1.2249759436 30.157400131 0.9330136180 0.9330136180
 1207.3502197  -999.250000 21.069999695 0.0120040029 0.5019682646 2.0297076702 48.717048645 130.00520325 1.2149664164 31.156198502 1.0219286680 1.0219286680
 1207.5026855  -999.250000 19.761999130 0.0110032046 0.4884026349 2.0539228916 49.937999725 131.62500000 1.2010288239 31.156999588 1.2020000219 1.2020000219
 1207.6550293  -999.250000 19.488000870 0.0179719776 0.4728274643 2.0171480179 51.967376709 139.24389648 1.2132282257 30.657400131 1.3239023685 1.3239023685
 1207.8074951  -999.250000 20.083002090 0.0279679503 0.4672034681 1.9571923018 47.937999725 152.87500000 1.3082115650 33.157001495 1.2769999504 1.2769999504
 1207.9598389  -999.250000 19.975000381 0.0339807719 0.4628105462 1.9260993004 46.251350403 156.49710083 1.3962066174 33.157001495 1.1291184425 1.1291184425
 1208.1121826  -999.250000 19.878000259 0.0399759784 0.4427643716 1.9518959522 46.219028473 147.63211060 1.4820768833 33.157001495 1.0590561628 1.0590561628
 1208.2646484  -999.250000 20.007999420 0.0539551303 0.4247632027 2.0267596245 49.216598511 135.63461304 1.5300167799 35.155399323 1.1209504604 1.1209504604
 1208.4169922  -999.250000 19.985000610 0.0719279423 0.4217993915 2.1106638908 47.470405579 128.13101196 1.5369710922 30.161006927 1.2928621769 1.2928621769
 1208.5693359  -999.250000 19.782999039 0.0690120161 0.4450551867 2.1418757439 49.371948242 125.87860107 1.5190849304 28.659400940 1.4038223028 1.4038223028
 1208.7218018  -999.250000 19.586999893 0.0460920744 0.4735088348 2.1190919876 50.030471802 129.12239075 1.5722017288 29.656198502 1.4599552155 1.4599552155
 1208.8741455  -999.250000 19.659999847 0.0220961533 0.4792119861 2.0612325668 53.432544708 134.99058533 1.6561057568 29.157800674 1.4300479889 1.4300479889
 1209.0266113  -999.250000 19.944000244 0.0219999999 0.4584766626 2.0002441406 53.624851227 133.50120544 1.7220432758 29.156999588 1.4050199986 1.4050199986
 1209.1789551  -999.250000 20.287998199 0.0379358977 0.4343573451 1.9631483555 55.466049194 129.38160706 1.7399567366 29.656198502 1.3710545301 1.3710545301
 1209.3314209  -999.250000 19.919002533 0.0469639711 0.4401458502 1.9500521421 55.905647278 126.50230408 1.7128511667 27.658601761 1.4169632196 1.4169632196
 1209.4837646  -999.250000 19.528999329 0.0479959957 0.4539557099 1.9599599838 57.030097961 125.62570953 1.6508878469 30.654596329 1.4479751587 1.4479751587
 1209.6362305  -999.250000 19.648000717 0.0539759807 0.4626092613 1.9878879786 58.623722076 128.49769592 1.5808582306 30.656999588 1.4450024366 1.4450024366
 1209.7885742  -999.250000 19.961999893 0.0729238763 0.4557321668 2.0278398991 59.343425751 133.24620056 1.5219374895 31.156599045 1.3370865583 1.3370865583
 1209.9410400  -999.250000 20.524000168 0.0849519596 0.4462528229 2.0538957119 62.403545380 136.87210083 1.4829591513 32.655799866 1.2910368443 1.2910368443
 1210.0933838  -999.250000 20.643999100 0.0879879817 0.4357237816 2.0569880009 61.563674927 138.74850464 1.4659726620 33.156600952 1.2420392036 1.2420392036
 1210.2458496  -999.250000 19.922000885 0.0770352557 0.4542852044 2.0430448055 64.497650146 140.99819946 1.4489735365 30.159400940 1.2539902925 1.2539902925
 1210.3981934  -999.250000 19.568000793 0.0540920757 0.4687137604 2.0171041489 64.438056946 140.12570190 1.4379855394 29.157800674 1.2260223627 1.2260223627
 1210.5505371  -999.250000 19.677000046 0.0320881419 0.4691188335 1.9930962324 63.751102448 140.99859619 1.4289823771 31.153797150 1.2499616146 1.2499616146
 1210.7030029  -999.250000 20.104999542 0.0230360292 0.4626109004 1.9870239496 60.502605438 139.37629700 1.4180144072 27.160203934 1.2559952736 1.2559952736
 1210.8553467  -999.250000 20.530000687 0.0150320511 0.4649224877 1.9780360460 55.227458954 133.13500977 1.4270321131 31.150594711 1.2649855614 1.2649855614
 1211.0078125  -999.250000 19.872001648 0.0060360287 0.5005954504 1.9421441555 51.940628052 134.87359619 1.4470480680 32.655799866 1.2829855680 1.2829855680
 1211.1601563  -999.250000 19.250000000 0.0000240385 0.5180442929 1.8852283955 51.469753265 138.24459839 1.4670480490 32.657001495 1.3379119635 1.3379119635
 1211.3126221  -999.250000 19.570999146 0.0009959969 0.5303105712 1.8033282757 49.032951355 144.24519348 1.4971152544 32.157402039 1.3759696484 1.3759696484
 1211.4649658  -999.250000 18.986000061 0.0010000000 0.5477939248 1.7163485289 46.096355438 146.99780273 1.5450544357 34.155399323 1.3450248241 1.3450248241
 1211.6174316  -999.250000 18.114999771 -0.006967975 0.5689691305 1.6592282057 48.154346466 144.25219727 1.5789903402 30.659801483 1.3390047550 1.3390047550
 1211.7697754  -999.250000 17.992000580 -0.018951923 0.5733759999 1.6659719944 54.682765961 139.87850952 1.5749727488 29.657800674 1.3389999866 1.3389999866
 1211.9222412  -999.250000 17.819000244 -0.019995997 0.5493978262 1.7287477255 64.305297852 135.37860107 1.5579566956 30.156599045 1.3689759970 1.3689759970
