# LAS format log file from PETREL
# Project units are specified as depth units
#==================================================================
~Version information
VERS.   2.0:
WRAP.   NO:
#==================================================================
~Well
STRT .m      963.35791016 :
STOP .m      4034.6738281 :
STEP .m     0.00000000 :
NULL .        -999.250000 :
COMP.           : COMPANY
WELL.  35/11-2   : WELL
FLD.            : FIELD
LOC.            : LOCATION
SRVC.           : SERVICE COMPANY
DATE.  2018-09-11 14:48:55   : Log Export Date {yyyy-MM-dd HH:mm:ss}
PROV.           : PROVINCE
UWI.   35/11-2   : UNIQUE WELL ID
API.            : API NUMBER
#==================================================================
~Curve
DEPT .m                   : DEPTH
Lithology_geolink ._      : Lithology_geolink
CALI .in                  : CALI
DRHO .g/cm3               : DRHO
NPHI .m3/m3               : NPHI
RHOB .g/cm3               : RHOB
GR .gAPI                  : GR
DTC .us/ft                : DTC
RDEP .ohm.m               : RDEP
SP .mV                    : SP
RSHA .ohm.m               : RSHA
RMED .ohm.m               : RMED
~Parameter
#==================================================================
~Ascii
# ...
 3419.4353027 5.0000000000 9.6169996262 0.0849296004 0.1949251145 2.5467662811 80.980827332 94.821685791 10.813719749 175.99160767 4.8835954666 4.8835954666
 3419.5878906 5.0000000000 9.6350002289 0.0800080076 0.1911159456 2.5709617138 70.247215271 88.482154846 12.965560913 175.53573608 5.5559234619 5.5559234619
 3419.7402344 5.0000000000 9.7130002975 0.0610304512 0.1899119169 2.5570223331 58.134418488 84.513359070 13.614963531 175.52003479 5.8694982529 5.8694982529
 3419.8925781 5.0000000000 9.7639999390 0.0440272428 0.1890014559 2.5360336304 50.153778076 82.692916870 13.917516708 173.66297913 6.7346124649 6.7346124649
 3420.0449219 5.0000000000 9.7110004425 0.0310415998 0.1925187111 2.5130736828 49.641601563 80.034523010 14.536016464 173.73475647 8.1046066284 8.1046066284
 3420.1975098 5.0000000000 9.5000000000 0.0250096153 0.1971426010 2.4960272312 51.751609802 78.606277466 15.651212692 173.23678589 9.0305204391 9.0305204391
 3420.3498535 5.0000000000 9.2139997482 0.0230032057 0.2027709782 2.4710400105 53.834663391 78.317459106 14.908195496 174.18148804 9.3375101089 9.3375101089
 3420.5021973 5.0000000000 9.3489999771 0.0200048070 0.2156094015 2.4280688763 58.164058685 78.287048340 12.815357208 171.27964783 9.9100818634 9.9100818634
 3420.6545410 5.0000000000 9.6920003891 0.0379711539 0.2479481250 2.4359872341 66.026390076 77.109901428 11.558012962 173.01521301 10.570940018 10.570940018
 3420.8071289 5.0000000000 9.8549995422 0.0559712015 0.2881256938 2.4659521580 76.849670410 78.059478760 10.373893738 172.85925293 10.141689301 10.141689301
 3420.9594727 6.0000000000 9.8470001221 0.0689791664 0.3212569356 2.5179164410 84.046478271 82.451950073 10.054509163 172.22700500 8.3119363785 8.3119363785
 3421.1118164 6.0000000000 9.4680004120 0.0470352545 0.3414276838 2.5199968815 89.187767029 83.895698547 10.585147858 171.48619080 7.0879597664 7.0879597664
 3421.2641602 6.0000000000 9.1210002899 0.0150512820 0.3624463379 2.5100159645 89.048233032 87.551124573 11.578407288 170.90292358 6.7185897827 6.7185897827
 3421.4165039 2.0000000000 9.0369997025 -0.013907201 0.3591507077 2.4960448742 84.421852112 85.738830566 13.175876617 170.86810303 7.0718641281 7.0718641281
 3421.5690918 2.0000000000 8.8649997711 -0.028975960 0.3170375824 2.4830207825 69.826408386 85.328651428 15.824756622 170.30990601 7.4533896446 7.4533896446
 3421.7214355 2.0000000000 8.7609996796 -0.031995192 0.2489192337 2.4690225124 52.128368378 82.941833496 17.138898849 168.99610901 8.3885002136 8.3885002136
 3421.8737793 2.0000000000 8.7910003662 -0.017024040 0.1822568327 2.4660048485 36.222484589 82.811203003 16.565923691 168.50279236 9.9335222244 9.9335222244
 3422.0261230 2.0000000000 8.7969999313 -0.003044800 0.1438230425 2.4640064240 30.718587875 80.998817444 15.817399979 168.07936096 11.460107803 11.460107803
 3422.1787109 2.0000000000 8.7969999313 0.0039887824 0.1252196729 2.4699904919 31.086381912 80.102424622 14.743719101 167.07061768 11.687642097 11.687642097
 3422.3310547 2.0000000000 8.8179998398 0.0069951927 0.1176920310 2.4709982872 34.041259766 81.501747131 13.875391006 167.61711121 11.011086464 11.011086464
 3422.4833984 2.0000000000 8.8889999390 0.0079983976 0.1219830960 2.4690032005 37.357685089 81.616813660 13.347845078 167.21763611 10.436920166 10.436920166
 3422.6357422 2.0000000000 9.0570001602 0.0099935997 0.1324265003 2.4580352306 38.447517395 83.367378235 12.845609665 168.15698242 10.043260574 10.043260574
 3422.7883301 2.0000000000 9.1920003891 0.0119967954 0.1406168938 2.4420256615 37.983753204 96.905281067 12.229985237 168.25982666 9.7904033661 9.7904033661
 3422.9406738 2.0000000000 9.2349996567 0.0149951922 0.1443340480 2.4390046597 41.562255859 87.823608398 11.967419624 168.22804260 9.3826541901 9.3826541901
 3423.0930176 2.0000000000 9.1730003357 0.0140016032 0.1466662586 2.4669551849 47.246883392 83.230346680 11.978981018 171.08740234 9.3091173172 9.3091173172
 3423.2453613 5.0000000000 8.9980001450 0.0010208334 0.1602182537 2.5139245987 59.534294128 80.166908264 12.099806786 171.94264221 9.3219785690 9.3219785690
 3423.3977051 5.0000000000 8.9010000229 -0.012955200 0.1874227375 2.5678272247 67.334022522 79.105392456 10.034629822 170.73786926 9.5602350235 9.5602350235
 3423.5502930 5.0000000000 8.8839998245 -0.022983974 0.2186200768 2.5630080700 74.996742249 81.951431274 9.1344347000 170.18588257 9.7197456360 9.7197456360
 3423.7026367 5.0000000000 8.9069995880 -0.023000000 0.2533743083 2.4461874962 75.842666626 90.457351685 8.9932241440 170.65124512 9.7918844223 9.7918844223
 3423.8549805 5.0000000000 9.2239999771 -0.017009616 0.2966406345 2.2822628021 73.623565674 97.262100220 8.8612117767 170.60208130 9.9207925797 9.9207925797
 3424.0073242 6.0000000000 10.011000633 -0.002048000 0.3326745331 2.2062432766 72.682014465 101.79149628 8.7513523102 169.96105957 9.2900257111 9.2900257111
 3424.1599121 6.0000000000 10.116998672 0.0039903848 0.3705793321 2.1790430546 72.839736938 112.30315399 8.5153789520 170.72476196 8.0230302811 8.0230302811
 3424.3122559 6.0000000000 9.8549995422 0.0040000002 0.4045954943 2.2079534531 76.798645020 111.48434448 7.8390846252 169.91030884 7.0415720940 7.0415720940
 3424.4645996 6.0000000000 10.255000114 0.0139839752 0.3933481574 2.2828798294 78.611099243 110.26795197 9.1988162994 168.41839600 7.0979070663 7.0979070663
 3424.6169434 6.0000000000 10.578000069 0.0478911996 0.3651105762 2.4155743122 80.944519043 108.04214478 8.8541135788 170.40362549 7.6173329353 7.6173329353
 3424.7695313 6.0000000000 10.396000862 0.0869374946 0.3060746193 2.5328125954 78.684638977 97.307220459 8.8120660782 170.50982666 8.1261854172 8.1261854172
 3424.9218750 6.0000000000 10.156999588 0.0869999975 0.2581368089 2.5190224648 68.378540039 88.612930298 8.9417924881 170.19250488 8.1000432968 8.1000432968
 3425.0742188 6.0000000000 10.156000137 0.0660336539 0.2160773873 2.4750704765 58.117446899 80.169532776 9.5590105057 168.97895813 8.3565883636 8.3565883636
 3425.2265625 5.0000000000 9.8039999008 0.0350496806 0.1971502751 2.4749999046 50.145767212 76.197357178 11.851321220 168.31904602 10.249961853 10.249961853
 3425.3789063 5.0000000000 9.2390003204 0.0021056002 0.1962527931 2.5298240185 46.139816284 75.038703918 16.286773682 168.90013123 13.526491165 13.526491165
 3425.5314941 5.0000000000 9.0059995651 -0.007983975 0.2061640918 2.5899038315 43.217670441 70.596122742 17.326353073 168.74226379 17.879030228 17.879030228
 3425.6838379 5.0000000000 9.0190000534 0.0159615390 0.2382085919 2.6079711914 43.908882141 72.738548279 15.534877777 166.53854370 22.809097290 22.809097290
 3425.8361816 5.0000000000 9.1300001144 0.0689150617 0.3158654273 2.6070017815 49.355258942 73.696464539 11.460536003 166.62684631 22.207979202 22.207979202
 3425.9885254 6.0000000000 9.3959999084 0.1088719964 0.4455739856 2.5940415859 58.773792267 76.658493042 7.9622097015 166.36784363 15.506509781 15.506509781
 3426.1411133 6.0000000000 9.6440000534 0.1020112187 0.5424052477 2.5630495548 66.143218994 79.882835388 7.1952128410 167.57406616 10.426120758 10.426120758
 3426.2934570 6.0000000000 9.7340002060 0.0740448758 0.5076660514 2.5230641365 73.781753540 80.247421265 6.9903268814 166.43583679 7.8920545578 7.8920545578
 3426.4458008 6.0000000000 9.7969999313 0.0600224361 0.3427246511 2.5080239773 78.015228271 83.484802246 7.6439504623 165.15405273 6.9495062828 6.9495062828
 3426.5981445 6.0000000000 9.8559999466 0.0510287993 0.1755358726 2.4731121063 79.418510437 93.059272766 10.846721649 165.21678162 6.8164224625 6.8164224625
 3426.7507324 6.0000000000 9.5419998169 0.0330288447 0.1050323099 2.3691666126 69.505912781 95.890502930 23.706375122 166.04867554 7.6486635208 7.6486635208
 3426.9030762 2.0000000000 9.0170001984 0.0080400649 0.1021244824 2.2561812401 54.010845184 93.607666016 59.630371094 164.71215820 10.319715500 10.319715500
 3427.0554199 2.0000000000 8.9079999924 -0.004979167 0.1108459979 2.2520065308 40.130241394 92.762344360 81.835449219 165.54965210 19.196758270 19.196758270
