# LAS format log file from PETREL
# Project units are specified as depth units
#==================================================================
~Version information
VERS.   2.0:
WRAP.   NO:
#==================================================================
~Well
STRT .m      359.96881104 :
STOP .m      3380.8413086 :
STEP .m     0.00000000 :
NULL .        -999.250000 :
COMP.           : COMPANY
WELL.  35/11-12   : WELL
FLD.            : FIELD
LOC.            : LOCATION
SRVC.           : SERVICE COMPANY
DATE.  2018-09-11 14:48:55   : Log Export Date {yyyy-MM-dd HH:mm:ss}
PROV.           : PROVINCE
UWI.   35/11-12   : UNIQUE WELL ID
API.            : API NUMBER
#==================================================================
~Curve
DEPT .m                   : DEPTH
Lithology_geolink ._      : Lithology_geolink
CALI .in                  : CALI
BS .in                    : BS
ROP .m/h                  : ROP
DRHO .g/cm3               : DRHO
NPHI .m3/m3               : NPHI
RHOB .g/cm3               : RHOB
PEF .b/e                  : PEF
GR .gAPI                  : GR
DTC .us/ft                : DTC
RDEP .ohm.m               : RDEP
RMED .ohm.m               : RMED
~Parameter
#==================================================================
~Ascii
# ...
 2393.5942383 12.000000000  -999.250000 12.250000954 112.76245117  -999.250000  -999.250000  -999.250000  -999.250000 168.26998901 103.75801086 1.3917181492 1.1835615635
 2393.7465820 12.000000000  -999.250000 12.250000954 113.58265686  -999.250000  -999.250000  -999.250000  -999.250000 165.47988892 103.20800781 1.4496316910 1.1638891697
 2393.8991699 12.000000000  -999.250000 12.250000954 111.35169220  -999.250000  -999.250000  -999.250000  -999.250000 165.60916138 102.61900330 1.4279153347 1.2607514858
 2394.0515137 12.000000000  -999.250000 12.250000954 110.85958099  -999.250000  -999.250000  -999.250000  -999.250000 164.42855835 101.52101135 1.5493514538 1.2428190708
 2394.2038574 12.000000000  -999.250000 12.250000954 108.95668793  -999.250000  -999.250000  -999.250000  -999.250000 163.37857056 100.38200378 1.4437952042 1.3443558216
 2394.3562012 12.000000000  -999.250000 12.250000954 109.67848206  -999.250000  -999.250000  -999.250000  -999.250000 160.77520752 99.921997070 1.4629087448 1.4004664421
 2394.5087891 12.000000000  -999.250000 12.250000954 106.72571564  -999.250000  -999.250000  -999.250000  -999.250000 160.43502808 100.50700378 1.4832458496 1.4316506386
 2394.6611328 12.000000000  -999.250000 12.250000954 107.02098083  -999.250000  -999.250000  -999.250000  -999.250000 158.76715088 102.30899811 1.4313716888 1.4661984444
 2394.8134766 12.000000000  -999.250000 12.250000954 107.05379486  -999.250000  -999.250000  -999.250000  -999.250000 159.37380981 104.45500183 1.3605341911 1.4442014694
 2394.9658203 12.000000000  -999.250000 12.250000954 109.87532043  -999.250000  -999.250000  -999.250000  -999.250000 159.00662231 105.85600281 1.2505009174 1.3353164196
 2395.1181641 12.000000000  -999.250000 12.250000954 114.50131989  -999.250000  -999.250000  -999.250000  -999.250000 164.01004028 106.52600098 1.2489449978 1.2090113163
 2395.2707520 12.000000000  -999.250000 12.250000954 111.12203217  -999.250000  -999.250000  -999.250000  -999.250000 163.62020874 106.65000916 1.3836879730 1.1537518501
 2395.4230957 12.000000000  -999.250000 12.250000954 114.14042664  -999.250000  -999.250000  -999.250000  -999.250000 164.96337891 106.13000488 1.2464430332 1.1727712154
 2395.5754395 12.000000000  -999.250000 12.250000954 119.65222931  -999.250000  -999.250000  -999.250000  -999.250000 163.12036133 105.03199768 1.3323135376 1.2852857113
 2395.7277832 12.000000000  -999.250000 12.250000954 117.91336823  -999.250000  -999.250000  -999.250000  -999.250000 164.36407471 103.75000000 1.3258547783 1.3188428879
 2395.8803711 12.000000000  -999.250000 12.250000954 110.56429291  -999.250000  -999.250000  -999.250000  -999.250000 163.13153076 103.02500916 1.3168315887 1.3445501328
 2396.0327148 12.000000000  -999.250000 12.250000954 114.86219788  -999.250000  -999.250000  -999.250000  -999.250000 161.84640503 103.37001038 1.3373634815 1.3373982906
 2396.1850586 12.000000000  -999.250000 12.250000954 121.09577942  -999.250000  -999.250000  -999.250000  -999.250000 160.78811646 104.57499695 1.3351671696 1.3034112453
 2396.3374023 12.000000000  -999.250000 12.250000954 117.48686981  -999.250000  -999.250000  -999.250000  -999.250000 158.82937622 105.97798920 1.3124024868 1.2358291149
 2396.4897461 12.000000000  -999.250000 12.250000954 111.84381866  -999.250000  -999.250000  -999.250000  -999.250000 159.40231323 107.15200806 1.2810611725 1.1937837601
 2396.6420898 12.000000000  -999.250000 12.250000954 106.16798401  -999.250000  -999.250000  -999.250000  -999.250000 160.44393921 108.04601288 1.2550919056 1.1777687073
 2396.7944336 12.000000000  -999.250000 12.250000954 109.44882202  -999.250000  -999.250000  -999.250000  -999.250000 165.21224976 108.51600647 1.2322556973 1.1378970146
 2396.9470215 12.000000000  -999.250000 12.250000954 106.72571564  -999.250000  -999.250000  -999.250000  -999.250000 164.48181152 108.47500610 1.2410826683 1.1119799614
 2397.0993652 12.000000000  -999.250000 12.250000954 109.28476715  -999.250000  -999.250000  -999.250000  -999.250000 161.51016235 107.96200562 1.2570843697 1.0939767361
 2397.2517090 12.000000000  -999.250000 12.250000954 113.18898010  -999.250000  -999.250000  -999.250000  -999.250000 159.97424316 107.13999939 1.2183601856 1.0911550522
 2397.4040527 12.000000000  -999.250000 12.250000954 125.45930481  -999.250000  -999.250000  -999.250000  -999.250000 162.77395630 106.39900208 1.2107160091 1.0976123810
 2397.5566406 12.000000000  -999.250000 12.250000954 125.49212646  -999.250000  -999.250000  -999.250000  -999.250000 166.06060791 105.66799927 1.2410409451 1.1239933968
 2397.7089844 12.000000000  -999.250000 12.250000954 122.70341492  -999.250000  -999.250000  -999.250000  -999.250000 164.68743896 104.71701050 1.2467651367 1.1981925964
 2397.8613281 12.000000000  -999.250000 12.250000954 122.27689362  -999.250000  -999.250000  -999.250000  -999.250000 162.34790039 103.88099670 1.2975955009 1.2636785507
 2398.0136719 12.000000000  -999.250000 12.250000954 127.46062469  -999.250000  -999.250000  -999.250000  -999.250000 161.08984375 103.38500977 1.2942500114 1.3045532703
 2398.1660156 12.000000000  -999.250000 12.250000954 133.13648987  -999.250000  -999.250000  -999.250000  -999.250000 161.29803467 103.19700623 1.3799059391 1.3231368065
 2398.3186035 12.000000000  -999.250000 12.250000954 131.06956482  -999.250000  -999.250000  -999.250000  -999.250000 164.70843506 103.28100586 1.4000284672 1.2975208759
 2398.4709473 12.000000000  -999.250000 12.250000954 133.26770020  -999.250000  -999.250000  -999.250000  -999.250000 162.34625244 103.47700500 1.3568518162 1.3483211994
 2398.6232910 12.000000000  -999.250000 12.250000954 123.68765259  -999.250000  -999.250000  -999.250000  -999.250000 164.97091675 103.69799805 1.4317772388 1.3579745293
 2398.7756348 12.000000000  -999.250000 12.250000954 120.60366058  -999.250000  -999.250000  -999.250000  -999.250000 161.37475586 103.94100952 1.4182398319 1.3630716801
 2398.9282227 12.000000000  -999.250000 12.250000954 120.04592896  -999.250000  -999.250000  -999.250000  -999.250000 162.95178223 104.22100830 1.3412733078 1.3535492420
 2399.0805664 12.000000000  -999.250000 12.250000954 114.46849823  -999.250000  -999.250000  -999.250000  -999.250000 163.53561401 104.75300598 1.3694899082 1.3417482376
 2399.2329102 12.000000000  -999.250000 12.250000954 114.82940674  -999.250000  -999.250000  -999.250000  -999.250000 167.52969360 105.78399658 1.3330278397 1.3340420723
 2399.3852539 12.000000000  -999.250000 12.250000954 113.45146179  -999.250000  -999.250000  -999.250000  -999.250000 169.16763306 107.12100220 1.3256096840 1.2988889217
 2399.5378418 12.000000000  -999.250000 12.250000954 112.69684601  -999.250000  -999.250000  -999.250000  -999.250000 169.69094849 108.26800537 1.2861075401 1.2075009346
 2399.6901855 12.000000000  -999.250000 12.250000954 110.07216644  -999.250000  -999.250000  -999.250000  -999.250000 168.31561279 109.15899658 1.2209117413 1.1926491261
 2399.8425293 12.000000000  -999.250000 12.250000954 106.39763641  -999.250000  -999.250000  -999.250000  -999.250000 170.01473999 109.89300537 1.2013986111 1.1695826054
 2399.9948730 12.000000000  -999.250000 12.250000954 107.64434814  -999.250000  -999.250000  -999.250000  -999.250000 172.99942017 110.21900940 1.2205216885 1.0952594280
 2400.1474609 12.000000000  -999.250000 12.250000954 113.41863251  -999.250000  -999.250000  -999.250000  -999.250000 172.04431152 109.93800354 1.2605195045 1.0990288258
 2400.2998047 12.000000000  -999.250000 12.250000954 118.66798401  -999.250000  -999.250000  -999.250000  -999.250000 170.85607910 109.19500732 1.1476690769 1.0870096684
 2400.4521484 12.000000000  -999.250000 12.250000954 119.48818970  -999.250000  -999.250000  -999.250000  -999.250000 164.72204590 108.54800415 1.1671919823 1.0535171032
 2400.6044922 12.000000000  -999.250000 12.250000954 126.47636414  -999.250000  -999.250000  -999.250000  -999.250000 162.28384399 108.20600891 1.1424951553 1.0640721321
 2400.7568359 12.000000000  -999.250000 12.250000954 127.42781067  -999.250000  -999.250000  -999.250000  -999.250000 162.56484985 107.62300110 1.1722600460 1.1268262863
