# LAS format log file from PETREL
# Project units are specified as depth units
#==================================================================
~Version information
VERS.   2.0:
WRAP.   NO:
#==================================================================
~Well
STRT .m      963.35791016 :
STOP .m      4034.6738281 :
STEP .m     0.00000000 :
NULL .        -999.250000 :
COMP.           : COMPANY
WELL.  35/11-2   : WELL
FLD.            : FIELD
LOC.            : LOCATION
SRVC.           : SERVICE COMPANY
DATE.  2018-09-11 14:48:55   : Log Export Date {yyyy-MM-dd HH:mm:ss}
PROV.           : PROVINCE
UWI.   35/11-2   : UNIQUE WELL ID
API.            : API NUMBER
#==================================================================
~Curve
DEPT .m                   : DEPTH
Lithology_geolink ._      : Lithology_geolink
CALI .in                  : CALI
DRHO .g/cm3               : DRHO
NPHI .m3/m3               : NPHI
RHOB .g/cm3               : RHOB
GR .gAPI                  : GR
DTC .us/ft                : DTC
RDEP .ohm.m               : RDEP
SP .mV                    : SP
RSHA .ohm.m               : RSHA
RMED .ohm.m               : RMED
~Parameter
#==================================================================
~Ascii
# ...
 2813.1884766 6.0000000000 13.836000443 -0.000003205 0.3500835299 2.4940223694 65.188003540 105.37500000 1.6970000267 89.238998413 1.8209999800 1.8209999800
 2813.3408203 6.0000000000 13.760000229 0.0089855762 0.3627696633 2.4820194244 65.000000000 104.75000000 1.7300000191 92.238998413 1.8079999685 1.8079999685
 2813.4931641 6.0000000000 13.727000237 0.0329231992 0.3550050259 2.5158913136 64.438003540 105.75000000 1.8109999895 90.113998413 1.7690000534 1.7690000534
 2813.6457520 6.0000000000 13.819999695 0.0270096157 0.3213440180 2.5020225048 66.188003540 104.75000000 1.9259999990 86.863998413 1.7400000095 1.7400000095
 2813.7980957 6.0000000000 14.041000366 0.0349871814 0.3052057922 2.5020000935 66.500000000 104.87500000 2.0690000057 87.801002502 1.7450000048 1.7450000048
 2813.9504395 6.0000000000 14.093998909 0.0210224353 0.3061484396 2.4730465412 63.812999725 102.75000000 2.1059999466 87.738998413 1.8270000219 1.8270000219
 2814.1027832 6.0000000000 13.892998695 0.0170128010 0.3295149803 2.4530639648 64.000000000 102.99999237 2.0299999714 90.238998413 2.0290000439 2.0290000439
 2814.2553711 6.0000000000 13.784999847 0.0090128202 0.3139850199 2.4320335388 62.625000000 103.25000000 1.9420000315 91.988998413 2.2049999237 2.2049999237
 2814.4077148 6.0000000000 13.727000237 0.0149903847 0.3285865188 2.4280064106 61.875000000 103.37500000 1.9500000477 90.051002502 2.2320001125 2.2320001125
 2814.5600586 6.0000000000 13.571999550 0.0299759600 0.3344605863 2.4429759979 60.344001770 104.50000000 2.0190000534 89.988998413 2.1250000000 2.1250000000
 2814.7124023 6.0000000000 13.503999710 0.0280064009 0.3670853078 2.4529681206 64.250000000 103.12500763 1.9769999981 89.488998413 2.0529999733 2.0529999733
 2814.8649902 6.0000000000 13.456999779 0.0180160254 0.3486597240 2.4939341545 64.875000000 102.62500000 1.8969999552 86.301002502 1.9980000257 1.9980000257
 2815.0173340 6.0000000000 13.312000275 0.0080160256 0.3383964300 2.5309405327 66.813003540 102.25000000 1.8530000448 86.863998413 2.0510001183 2.0510001183
 2815.1696777 6.0000000000 13.246000290 0.0149887819 0.3344762325 2.5509681702 63.780998230 102.00000000 1.7960000038 88.363998413 2.1040000916 2.1040000916
 2815.3220215 6.0000000000 13.248000145 0.0140016032 0.3242364228 2.4881007671 69.563003540 103.12500763 1.7710000277 89.676002502 2.0250000954 2.0250000954
 2815.4743652 6.0000000000 13.215000153 0.0329391994 0.3232431412 2.4551055431 68.938003540 103.75000000 1.8470000029 89.801002502 1.8960000277 1.8960000277
 2815.6269531 6.0000000000 13.215000153 0.0170256421 0.2988691330 2.4180593491 71.750000000 106.12500000 1.8999999762 88.801002502 1.8259999752 1.8259999752
 2815.7792969 6.0000000000 13.302999496 0.0279823728 0.3114996850 2.4429600239 66.188003540 102.12500000 1.8830000162 88.613998413 1.8179999590 1.8179999590
 2815.9316406 6.0000000000 13.378999710 0.0190144219 0.3261465132 2.4489903450 67.563003540 101.62500000 1.8309999704 86.926002502 1.9650000334 1.9650000334
 2816.0839844 6.0000000000 13.345999718 0.0100288000 0.3324996531 2.4200928211 66.375000000 102.37500000 1.9379999638 84.551002502 2.0060000420 2.0060000420
 2816.2365723 6.0000000000 13.321999550 0.0099999998 0.3593369722 2.3980352879 69.688003540 102.99999237 1.9019999504 87.676002502 1.9589999914 1.9589999914
 2816.3889160 6.0000000000 13.374999046 0.0109983971 0.3622953296 2.4219615459 70.125000000 103.75000000 1.8700000048 89.613998413 1.9090000391 1.9090000391
 2816.5412598 6.0000000000 13.432000160 0.0209839735 0.3857024610 2.4918878078 66.938003540 103.75000000 1.9079999924 88.301002502 1.9500000477 1.9500000477
 2816.6936035 6.0000000000 13.496000290 0.0170128010 0.3701699972 2.5039615631 62.969001770 102.62500000 1.8329999447 87.488998413 2.0039999485 2.0039999485
 2816.8461914 6.0000000000 13.605999947 0.0120080132 0.3589079976 2.4301185608 64.438003540 108.37500000 1.7569999695 93.113998413 2.1389999390 2.1389999390
 2816.9985352 6.0000000000 13.604999542 0.0120000001 0.3466995656 2.3810784817 68.000000000 104.75000000 1.8159999847 88.488998413 1.9859999418 1.9859999418
 2817.1508789 6.0000000000 13.496000290 0.0090048071 0.3403401673 2.3630287647 71.688003540 107.37500000 1.7719999552 87.051002502 1.9299999475 1.9299999475
 2817.3032227 6.0000000000 13.560999870 0.0070032054 0.3344793618 2.3829679489 72.563003540 105.75000000 1.7259999514 87.113998413 1.8339999914 1.8339999914
 2817.4558105 6.0000000000 13.690999985 0.0040048002 0.3359376490 2.3909871578 71.875000000 104.87500000 1.7020000219 89.301002502 1.8849999905 1.8849999905
 2817.6081543 6.0000000000 13.744000435 0.0000064103 0.3520241976 2.3890030384 68.813003540 105.49999237 1.6890000105 88.551002502 1.8550000191 1.8550000191
 2817.7604980 6.0000000000 13.845999718 0.0039935899 0.3632619977 2.3850064278 62.937999725 107.50000000 1.6849999428 90.051002502 1.8049999475 1.8049999475
 2817.9128418 6.0000000000 13.989999771 0.0109887822 0.3506103158 2.3690257072 64.438003540 108.37500000 1.7319999933 89.863998413 1.7480000257 1.7480000257
 2818.0651855 6.0000000000 14.013999939 0.0279456005 0.3247928321 2.3670065403 69.063003540 108.12500763 1.7460000515 91.176002502 1.7259999514 1.7259999514
 2818.2177734 6.0000000000 14.010000229 0.0210112184 0.3315290511 2.3440370560 74.063003540 107.62500000 1.7599999905 90.301002502 1.7979999781 1.7979999781
 2818.3701172 6.0000000000 14.324000359 0.0120144235 0.3447088599 2.3280258179 67.188003540 105.87500000 1.7300000191 86.676002502 1.7940000296 1.7940000296
 2818.5224609 6.0000000000 14.560998917 0.0020160258 0.3656863272 2.3299968243 62.500000000 106.87500763 1.6540000439 82.988998413 1.8370000124 1.8370000124
 2818.6748047 6.0000000000 14.298999786 0.0020000001 0.3613440394 2.3479423523 58.280998230 106.62500000 1.6169999838 82.551002502 1.8300000429 1.8300000429
 2818.8273926 6.0000000000 14.020000458 -0.003990385 0.3866793215 2.3539905548 63.125000000 105.12500000 1.6360000372 87.988998413 1.8159999847 1.8159999847
 2818.9797363 6.0000000000 14.063000679 -0.005996795 0.3808693588 2.3500063419 64.750000000 107.00000000 1.6679999828 87.988998413 1.7309999466 1.7309999466
 2819.1320801 6.0000000000 14.264000893 0.0039839745 0.3769562542 2.3629791737 66.500000000 107.62500000 1.7330000401 89.613998413 1.6549999714 1.6549999714
 2819.2844238 6.0000000000 14.310999870 0.0069904001 0.3419124782 2.3749616146 66.563003540 106.74999237 1.8129999638 92.551002502 1.6560000181 1.6560000181
 2819.4370117 6.0000000000 14.359998703 0.0129903853 0.3364386261 2.3809905052 66.313003540 105.12500000 1.8279999495 90.051002502 1.7539999485 1.7539999485
 2819.5893555 6.0000000000 14.614000320 0.0050128205 0.3383768797 2.3630287647 64.563003540 104.37500763 1.7469999790 84.613998413 1.8509999514 1.8509999514
 2819.7416992 6.0000000000 14.687999725 0.0079951929 0.3354547024 2.3629999161 61.280998230 110.87500000 1.6900000572 85.738998413 1.9379999638 1.9379999638
 2819.8940430 6.0000000000 14.498000145 0.0109951925 0.3393537402 2.3729839325 60.405998230 105.75000000 1.6690000296 88.238998413 1.9240000248 1.9240000248
 2820.0463867 6.0000000000 14.356000900 0.0129936002 0.3267006576 2.3809745312 61.530998230 105.62500763 1.6599999666 88.676002502 1.8420000076 1.8420000076
 2820.1989746 6.0000000000 14.531999588 0.0110032046 0.3344574571 2.3889870644 65.188003540 106.12500000 1.6560000181 92.176002502 1.7380000353 1.7380000353
 2820.3513184 6.0000000000 14.621000290 0.0070064105 0.3271617293 2.3929934502 62.500000000 106.74999237 1.6779999733 91.238998413 1.7079999447 1.7079999447
 2820.5036621 6.0000000000 14.324000359 0.0089967949 0.3432341814 2.3929998875 64.438003540 106.37500000 1.6879999638 92.051002502 1.7150000334 1.7150000334
 2820.6560059 6.0000000000 14.225000381 0.0080032004 0.3272015452 2.3979840279 64.563003540 106.25000000 1.6929999590 88.238998413 1.7259999514 1.7259999514
 2820.8085938 6.0000000000 14.258000374 0.0070016026 0.3271499872 2.3999969959 66.438003540 107.62500000 1.7369999886 86.238998413 1.7300000191 1.7300000191
