# LAS format log file from PETREL
# Project units are specified as depth units
#==================================================================
~Version information
VERS.   2.0:
WRAP.   NO:
#==================================================================
~Well
STRT .m      2818.0771484 :
STOP .m      3213.0979004 :
STEP .m     0.00000000 :
NULL .        -999.250000 :
COMP.           : COMPANY
WELL.  35/11-15 S   : WELL
FLD.            : FIELD
LOC.            : LOCATION
SRVC.           : SERVICE COMPANY
DATE.  2018-09-11 14:48:55   : Log Export Date {yyyy-MM-dd HH:mm:ss}
PROV.           : PROVINCE
UWI.   35/11-15 S   : UNIQUE WELL ID
API.            : API NUMBER
#==================================================================
~Curve
DEPT .m                   : DEPTH
Lithology_geolink ._      : Lithology_geolink
CALI .in                  : CALI
BS .in                    : BS
ROP .m/h                  : ROP
DRHO .g/cm3               : DRHO
THOR .ppm                 : THOR
SGR .gAPI                 : SGR
RHOB .g/cm3               : RHOB
PEF .b/e                  : PEF
GR .gAPI                  : GR
URAN .ppm                 : URAN
DTC .us/ft                : DTC
DTS .us/ft                : DTS
RDEP .ohm.m               : RDEP
RMIC .ohm.m               : RMIC
RMED .ohm.m               : RMED
~Parameter
#==================================================================
~Ascii
# ...
 2846.2712402 6.0000000000 8.6928997040 8.5000000000 55984.320313 -0.002600000 12.150300026 0.0187999997 2.4842000008 2.9749000072 108.70549774 4.1412000656 85.454498291 151.45449829 17.676900864 12.442299843 18.056499481
 2846.4235840 6.0000000000 8.7069997787 8.5000000000 50100.121094 -0.002600000 11.795200348 0.0178999994 2.4876000881 2.9391000271 108.52770233 4.4516000748 85.363601685 151.63639832 10.150600433 5.1105999947 10.389399529
 2846.5761719 6.0000000000 8.7239999771 8.5000000000 42340.320313 -0.003500000 11.827099800 0.0167999994 2.4934000969 2.9105000496 105.48979950 4.3329000473 85.545501709 151.45449829 5.6283998489 5.5071997643 5.9033999443
 2846.7285156 6.0000000000 8.7171001434 8.5000000000 35879.761719 -0.005100000 12.395099640 0.0176999997 2.4663999081 2.7760999203 106.53350067 4.1180000305 85.181800842 150.36360168 11.841199875 5.2441000938 12.354499817
 2846.8808594 6.0000000000 8.7098999023 8.5000000000 31070.160156 -0.005700000 12.270500183 0.0178999994 2.4572999477 2.7111001015 108.03410339 4.3269000053 83.636398315 149.00000000 14.511799812 10.462400436 15.068400383
 2847.0332031 6.0000000000 8.7182998657 8.5000000000 28201.320313 0.0091000004 12.485300064 0.0182000007 2.4900999069 2.7121000290 108.51360321 4.2649998665 82.363601685 148.36360168 7.2809000015 8.8055000305 7.6612000465
 2847.1855469 6.0000000000 8.7353000641 8.5000000000 25326.720703 0.0120999999 12.492699623 0.0171000008 2.6140999794 3.2207999229 103.86450195 3.9808001518 81.818191528 148.18179321 10.234900475 9.2419004440 10.779100418
 2847.3381348 6.0000000000 8.7267999649 8.5000000000 23114.880859 0.0115000000 12.246199608 0.0165999997 2.5589001179 3.2985999584 99.948898315 3.7263998985 81.818191528 148.00000000 18.692699432 13.678000450 19.608600616
 2847.4904785 6.0000000000 8.7353000641 8.5000000000 21890.519531 -0.002100000 12.260299683 0.0164999999 2.4990999699 2.8722999096 98.844596863 3.6473999023 82.545501709 148.18179321 15.123100281 13.752599716 15.870300293
 2847.6428223 6.0000000000 8.7353000641 8.5000000000 21726.720703 -0.003200000 12.524999619 0.0168999992 2.4772000313 2.8238999844 101.40950012 3.8666999340 83.545501709 149.54537964 16.216199875 9.0309000015 16.660299301
 2847.7951660 6.0000000000 8.6815996170 8.5000000000 22788.359375 -0.001500000 12.620900154 0.0172000006 2.4860000610 2.8255999088 102.61060333 3.9861001968 85.545501709 150.90910339 11.291600227 9.9250001907 11.490400314
 2847.9477539 6.0000000000 8.6703996658 8.5000000000 27066.599609 -0.001800000 12.809300423 0.0177999996 2.4962999821 2.8977000713 103.94860077 3.9298002720 85.818199158 151.54539490 14.036800385 10.957200050 14.183899879
 2848.1000977 6.0000000000 8.6682996750 8.5000000000 37651.320313 -0.002500000 12.895600319 0.0184000004 2.5106000900 2.9335000515 104.34020233 3.8368997574 85.454498291 152.18177795 15.712200165 16.079599380 16.001499176
 2848.2524414 6.0000000000 8.6618995667 8.5000000000 45585.000000 -0.005300000 12.590800285 0.0187999997 2.5150001049 2.8666000366 103.81379700 3.7943000793 84.818199158 152.54539490 16.622999191 16.362600327 16.834299088
 2848.4047852 6.0000000000 8.6674995422 8.5000000000 46591.558594 -0.006600000 12.332699776 0.0186000001 2.4985001087 2.8563001156 103.33560181 3.8329999447 84.090896606 152.72729492 16.518299103 15.492500305 16.655700684
 2848.5573730 6.0000000000 8.6618995667 8.5000000000 43999.921875 -0.006300000 12.278599739 0.0183000006 2.5239000320 2.8854000568 103.30780029 3.9196999073 84.000000000 152.09089661 14.989000320 15.766400337 15.086400032
 2848.7097168 6.0000000000 8.6618995667 8.5000000000 39412.078125 -0.005200000 12.444899559 0.0185000002 2.5517001152 2.9985001087 102.59439850 3.7843999863 84.000000000 151.09089661 17.126800537 13.767499924 17.169700623
 2848.8620605 6.0000000000 8.6618995667 8.5000000000 35651.519531 -0.004600000 11.924099922 0.0187999997 2.5195000172 2.8269000053 100.26679993 3.6394000053 84.000000000 150.18179321 14.704799652 14.733900070 14.783399582
 2849.0144043 6.0000000000 8.6365003586 8.5000000000 34449.839844 -0.004700000 11.523099899 0.0189999994 2.5230998993 2.9293000698 99.132202148 3.5962998867 84.545501709 149.45449829 14.235600471 13.886899948 14.207799911
 2849.1667480 6.0000000000 8.6224002838 8.5000000000 33527.160156 -0.004600000 11.589099884 0.0196000002 2.5246000290 3.0601000786 100.88420105 3.6721000671 84.727302551 149.27268982 16.229900360 15.869299889 16.084800720
 2849.3193359 6.0000000000 8.6293001175 8.5000000000 32004.357422 -0.005500000 11.878000259 0.0205000006 2.5220000744 2.9665000439 104.33940125 3.7191998959 84.727302551 148.90910339 11.737400055 17.313600540 11.779299736
 2849.4716797 6.0000000000 8.6195001602 8.5000000000 32857.558594 -0.007000000 12.187800407 0.0200999994 2.5211999416 2.9014999866 105.22550201 3.7827000618 84.545501709 148.27270508 10.326899529 21.601200104 10.369700432
 2849.6240234 6.0000000000 8.6280002594 8.5000000000 32052.242188 -0.006400000 12.095999718 0.0190999992 2.5399999619 2.9530999660 103.23320007 3.7911999226 84.181800842 147.54539490 22.811500549 21.573999405 22.542100906
 2849.7763672 6.0000000000 8.6167001724 8.5000000000 27912.960938 -0.005800000 11.555899620 0.0182000007 2.4960999489 2.8975000381 99.349296570 3.7453999519 83.636398315 146.90910339 20.177999496 20.656499863 20.123600006
 2849.9289551 6.0000000000 8.6317996979 8.5000000000 23988.240234 -0.004500000 11.242300034 0.0179999992 2.5183000565 2.8891000748 96.575996399 3.5367999077 83.363601685 146.54539490 16.866899490 18.835599899 17.288700104
 2850.0812988 6.0000000000 8.6317996979 8.5000000000 22073.041016 -0.004700000 11.448900223 0.0179999992 2.5631999969 2.9263999462 97.049201965 3.5136001110 82.727302551 146.18179321 18.796100616 20.116399765 19.390100479
 2850.2336426 6.0000000000 8.6478004456 8.5000000000 23232.599609 -0.005200000 11.273699760 0.0186000001 2.5611000061 2.9126999378 97.429000854 3.4602999687 82.818199158 145.90910339 21.141099930 20.669200897 21.991100311
 2850.3859863 6.0000000000 8.6449003220 8.5000000000 21880.800781 -0.005800000 10.850600243 0.0186999999 2.5202000141 2.8682000637 96.615699768 3.4289999008 82.999992371 145.45449829 20.857799530 19.694999695 21.697799683
 2850.5385742 6.0000000000 8.6590995789 8.5000000000 19439.279297 -0.006600000 10.878600121 0.0179999992 2.4721999168 2.7667000294 96.880599976 3.5706999302 82.818199158 144.54539490 18.971000671 18.646699905 19.576400757
 2850.6909180 6.0000000000 8.6646995544 8.5000000000 17604.720703 -0.005400000 11.374300003 0.0183000006 2.5060000420 2.8152999878 100.65219879 3.8048999310 82.818199158 143.81820679 17.759399414 14.692199707 18.421699524
 2850.8432617 6.0000000000 8.6644001007 8.5000000000 14350.320313 -0.005600000 12.413800240 0.0186999999 2.5169000626 2.8294999599 107.70130157 4.1315999031 82.545501709 143.45449829 13.171799660 10.453599930 13.735199928
 2850.9956055 6.0000000000 8.6644001007 8.5000000000 11556.720703 -0.005800000 12.712599754 0.0187999997 2.5432999134 2.9489998817 109.86239624 4.3043999672 82.272689819 144.09089661 5.6094999313 10.612500191 5.9379000664
 2851.1479492 6.0000000000 8.6731996536 8.5000000000 11158.919922 -0.007300000 12.536399841 0.0186000001 2.5311999321 2.9519000053 105.64309692 3.8728003502 82.636398315 145.09089661 9.0874996185 17.389400482 9.6373996735
 2851.3005371 6.0000000000 8.6618995667 8.5000000000 19404.359375 -0.007600000 11.626099586 0.0172000006 2.5327999592 2.9230999947 98.608001709 3.6103000641 82.272689819 145.81820679 22.243299484 22.178499222 23.357599258
 2851.4528809 6.0000000000 8.6618995667 8.5000000000 57486.238281 -0.006400000 11.285400391 0.0167999994 2.5323998928 2.9274001122 94.334602356 3.3670001030 83.181800842 146.72729492 19.547100067 19.984100342 20.557600021
 2851.6052246 6.0000000000 8.6562004089 8.5000000000 91020.242188 -0.004900000 11.487600327 0.0162000004 2.5225000381 3.0471000671 93.709999084 3.3211998940 83.636398315 147.27270508 17.456699371 18.648099899 18.330299377
 2851.7575684 6.0000000000 8.6492996216 8.5000000000 102772.43750 -0.005900000 11.318799973 0.0160000008 2.5195000172 2.9212999344 93.543197632 3.4342000484 84.000000000 147.09089661 20.012300491 19.830099106 20.982299805
