# LAS format log file from PETREL
# Project units are specified as depth units
#==================================================================
~Version information
VERS.   2.0:
WRAP.   NO:
#==================================================================
~Well
STRT .m      989.00103760 :
STOP .m      3365.3732910 :
STEP .m     0.00000000 :
NULL .        -999.250000 :
COMP.           : COMPANY
WELL.  35/11-1   : WELL
FLD.            : FIELD
LOC.            : LOCATION
SRVC.           : SERVICE COMPANY
DATE.  2018-09-11 14:48:54   : Log Export Date {yyyy-MM-dd HH:mm:ss}
PROV.           : PROVINCE
UWI.   35/11-1   : UNIQUE WELL ID
API.            : API NUMBER
#==================================================================
~Curve
DEPT .m                   : DEPTH
Lithology_geolink ._      : Lithology_geolink
CALI .in                  : CALI
DRHO .g/cm3               : DRHO
NPHI .m3/m3               : NPHI
RHOB .g/cm3               : RHOB
PEF .b/e                  : PEF
GR .gAPI                  : GR
DTC .us/ft                : DTC
RDEP .ohm.m               : RDEP
SP .mV                    : SP
RSHA .ohm.m               : RSHA
RMED .ohm.m               : RMED
~Parameter
#==================================================================
~Ascii
# ...
 2730.0178223 6.0000000000 8.6560001373 -0.022000000 0.2739299834 2.5099999905 3.4609999657 95.626800537 79.875404358 3.0879840851 36.610801697 4.6965174675 4.6965174675
 2730.1701660 6.0000000000 8.5699996948 -0.020000000 0.2368199974 2.4820001125 3.4920001030 96.746391296 80.126205444 3.0783126354 37.111652374 3.1485514641 3.1485514641
 2730.3225098 6.0000000000 8.5080003738 -0.018999999 0.2206999958 2.4509999752 3.3849999905 94.491584778 80.872596741 3.2731602192 38.139797211 2.2455418110 2.2455418110
 2730.4750977 6.0000000000 8.4300003052 -0.016000001 0.2163100094 2.4100000858 3.4079999924 89.249404907 79.368209839 3.3727502823 37.387798309 1.9606848955 1.9606848955
 2730.6274414 6.0000000000 8.4300003052 -0.008000000 0.2260700017 2.3959999084 3.3980000019 89.072822571 77.250801086 3.2947180271 36.389347076 2.1761844158 2.1761844158
 2730.7797852 6.0000000000 8.5389995575 -0.001000000 0.2148399949 2.4430000782 3.7750000954 95.198822021 77.750198364 3.1188461781 35.358798981 3.5430448055 3.5430448055
 2730.9321289 6.0000000000 8.6479997635 0.0020000001 0.1865200102 2.5309998989 4.0859999657 101.93529510 77.880210876 3.0234005451 34.609199524 7.3114838600 7.3114838600
 2731.0847168 6.0000000000 8.6479997635 -0.008000000 0.1806599945 2.5920000076 4.1170001030 100.25460052 81.131401062 3.2751376629 34.107601166 8.8481006622 8.8481006622
 2731.2370605 6.0000000000 8.5469999313 -0.018999999 0.2143600136 2.5639998913 3.9649999142 101.68679810 83.124008179 3.9419775009 33.356395721 5.4506621361 5.4506621361
 2731.3894043 6.0000000000 8.5389995575 -0.028999999 0.2470700145 2.5079998970 3.8789999485 100.94591522 82.500198364 4.5515627861 31.108798981 3.9938428402 3.9938428402
 2731.5417480 6.0000000000 8.5389995575 -0.023000000 0.2456100136 2.4800000191 3.9409999847 105.87760162 82.625801086 4.9020128250 30.359199524 3.8968989849 3.8968989849
 2731.6940918 7.0000000000 8.6090002060 -0.022000000 0.2192399949 2.4709999561 3.7769999504 107.50480652 83.126411438 4.9096679688 29.860000610 4.4581136703 4.4581136703
 2731.8466797 7.0000000000 8.6479997635 -0.021000000 0.2153300047 2.4790000916 3.5409998894 110.49680328 84.001602173 4.7027506828 29.856100082 5.1540255547 5.1540255547
 2731.9990234 7.0000000000 8.7030000687 -0.022000000 0.2290000021 2.4920001030 3.2660000324 109.50550842 84.501205444 4.6252369881 28.638998032 5.7861199379 5.7861199379
 2732.1513672 7.0000000000 8.7580003738 -0.021000000 0.2490200102 2.5120000839 3.0659999847 112.93750000 85.249397278 4.7732944489 27.389398575 6.4846076965 6.4846076965
 2732.3037109 7.0000000000 8.8590002060 -0.021000000 0.2617200017 2.5290000439 2.9449999332 112.62109375 84.873397827 4.9573445320 26.390199661 6.8627867699 6.8627867699
 2732.4562988 7.0000000000 8.8590002060 -0.021000000 0.2705100179 2.5329999924 2.8519999981 110.17440033 83.875000000 5.1724605560 25.889400482 6.7293634415 6.7293634415
 2732.6086426 7.0000000000 8.8590002060 -0.020000000 0.2670899928 2.5290000439 2.8259999752 105.93800354 83.874595642 5.3161568642 25.389047623 6.5311250687 6.5311250687
 2732.7609863 7.0000000000 8.8590002060 -0.017999999 0.2578099966 2.5250000954 2.8610000610 105.95022583 83.625000000 5.4140062332 24.169599533 6.6092195511 6.6092195511
 2732.9133301 7.0000000000 8.8590002060 -0.017999999 0.2480500042 2.5209999084 3.0569999218 113.56720734 83.625602722 5.4179506302 22.673349380 6.7463011742 6.7463011742
 2733.0659180 7.0000000000 8.8590002060 -0.021000000 0.2480500042 2.5209999084 3.1480000019 116.17179871 84.001602173 5.3868751526 22.887001038 6.9345374107 6.9345374107
 2733.2182617 7.0000000000 8.8590002060 -0.023000000 0.2558600008 2.5209999084 3.2750000954 111.12379456 84.500801086 5.3480238914 21.641853333 7.1020994186 7.1020994186
 2733.3706055 7.0000000000 8.8590002060 -0.025000000 0.2739299834 2.5199999809 3.1740000248 110.37580109 85.001205444 5.3629198074 22.173349380 7.1639871597 7.1639871597
 2733.5229492 7.0000000000 8.8590002060 -0.022000000 0.2778300047 2.5269999504 3.2109999657 110.88411713 85.749000549 5.3129873276 22.391000748 7.1559138298 7.1559138298
 2733.6752930 7.0000000000 8.8590002060 -0.023000000 0.2871100008 2.5329999924 3.0429999828 116.54978180 85.124000549 5.3050560951 22.389799118 7.1018366814 7.1018366814
 2733.8278809 7.0000000000 8.8590002060 -0.025000000 0.2807599902 2.5309998989 3.0450000763 108.30180359 84.500000000 5.3400387764 21.638601303 6.9994497299 6.9994497299
 2733.9802246 7.0000000000 8.8590002060 -0.030999999 0.2817400098 2.5230000019 3.0780000687 104.80759430 84.499397278 5.3519248962 20.889850616 6.8278431892 6.8278431892
 2734.1325684 7.0000000000 8.8590002060 -0.032000002 0.2709999979 2.5139999390 3.0469999313 101.44060516 84.125801086 5.3050990105 20.172199249 6.7302517891 6.7302517891
 2734.2849121 7.0000000000 8.8590002060 -0.032000002 0.2734400034 2.5099999905 2.8910000324 103.06290436 84.625198364 5.3670945168 19.673801422 6.8871684074 6.8871684074
 2734.4375000 7.0000000000 8.8590002060 -0.028999999 0.2690399885 2.5099999905 2.7520000935 103.01879883 84.750000000 5.4261379242 20.173698425 6.9925503731 6.9925503731
 2734.5898438 7.0000000000 8.8590002060 -0.028000001 0.2592799962 2.5179998875 2.8550000191 108.88391876 84.750801086 5.4690175056 20.391452789 7.1642756462 7.1642756462
 2734.7421875 7.0000000000 8.8590002060 -0.027000001 0.2573200166 2.5290000439 3.0199999809 114.44251251 85.250000000 5.4799633026 20.674150467 7.3363876343 7.3363876343
 2734.8945313 7.0000000000 8.8590002060 -0.028000001 0.2661100030 2.5369999409 3.2109999657 117.23467255 85.249595642 5.4569563866 21.391401291 7.5782628059 7.5782628059
 2735.0471191 7.0000000000 8.8590002060 -0.032000002 0.2793000042 2.5290000439 3.2030000687 107.67280579 84.997200012 5.4301853180 21.641000748 7.7404127121 7.7404127121
 2735.1994629 7.0000000000 8.8590002060 -0.030999999 0.2719700038 2.5179998875 3.2339999676 102.93269348 84.124801636 5.4881248474 21.641000748 7.2447786331 7.2447786331
 2735.3518066 7.0000000000 8.8590002060 -0.028999999 0.2626999915 2.5099999905 3.1389999390 99.629905701 84.000198364 5.5660576820 21.640251160 6.4831299782 6.4831299782
 2735.5041504 7.0000000000 8.8590002060 -0.024000000 0.2480500042 2.5039999485 3.0899999142 102.68229675 84.125602722 5.6019811630 21.171747208 5.9417643547 5.9417643547
 2735.6564941 7.0000000000 8.8590002060 -0.023000000 0.2451199889 2.5120000839 3.0139999390 99.128707886 84.500198364 5.5899682045 20.390199661 6.4188895226 6.4188895226
 2735.8090820 7.0000000000 8.8590002060 -0.027000001 0.2534199953 2.5060000420 2.8519999981 101.44180298 84.625396729 5.5699520111 19.892601013 6.9745874405 6.9745874405
 2735.9614258 7.0000000000 8.8590002060 -0.028999999 0.2700200081 2.5099999905 2.9019999504 102.63451385 84.750000000 5.5550799370 20.391401291 7.4688925743 7.4688925743
 2736.1137695 7.0000000000 8.8590002060 -0.033000000 0.2831999958 2.5079998970 2.8650000095 108.56591034 84.750000000 5.6052002907 20.641452789 7.4019136429 7.4019136429
 2736.2661133 7.0000000000 8.8590002060 -0.033000000 0.2880899906 2.5139999390 3.1019999981 110.38000488 84.749595642 5.7300882339 20.922599792 7.3477740288 7.3477740288
 2736.4187012 7.0000000000 8.8590002060 -0.032000002 0.2939499915 2.5179998875 3.0940001011 113.49120331 84.499603271 5.7848877907 20.674600601 7.2075629234 7.2075629234
 2736.5710449 7.0000000000 8.8590002060 -0.029999999 0.2797900140 2.5139999390 3.1819999218 110.75220490 84.375411987 5.7498879433 21.173049927 7.3835511208 7.3835511208
 2736.7233887 7.0000000000 8.8590002060 -0.029999999 0.2622100115 2.5139999390 3.0409998894 112.12299347 84.625404358 5.6798171997 21.205953598 7.7272372246 7.7272372246
 2736.8757324 7.0000000000 8.8590002060 -0.034000002 0.2514599860 2.5039999485 3.0490000248 110.86518097 84.872192383 5.5657997131 22.420997620 7.8748683929 7.8748683929
 2737.0283203 6.0000000000 8.8590002060 -0.035000000 0.2514599860 2.5039999485 3.0610001087 104.73560333 83.121009827 5.4405999184 21.175298691 7.7907252312 7.7907252312
 2737.1806641 6.0000000000 8.7659997940 -0.028999999 0.2651399970 2.5039999485 3.1800000668 100.23657990 81.874603271 5.3158879280 21.892253876 7.0800528526 7.0800528526
