# LAS format log file from PETREL
# Project units are specified as depth units
#==================================================================
~Version information
VERS.   2.0:
WRAP.   NO:
#==================================================================
~Well
STRT .m      1245.0043945 :
STOP .m      3214.9267578 :
STEP .m     0.00000000 :
NULL .        -999.250000 :
COMP.           : COMPANY
WELL.  35/11-11   : WELL
FLD.            : FIELD
LOC.            : LOCATION
SRVC.           : SERVICE COMPANY
DATE.  2018-09-11 14:48:54   : Log Export Date {yyyy-MM-dd HH:mm:ss}
PROV.           : PROVINCE
UWI.   35/11-11   : UNIQUE WELL ID
API.            : API NUMBER
#==================================================================
~Curve
DEPT .m                   : DEPTH
Lithology_geolink ._      : Lithology_geolink
CALI .in                  : CALI
BS .in                    : BS
ROP .m/h                  : ROP
DRHO .g/cm3               : DRHO
THOR .ppm                 : THOR
NPHI .m3/m3               : NPHI
RHOB .g/cm3               : RHOB
PEF .b/e                  : PEF
GR .gAPI                  : GR
URAN .ppm                 : URAN
DTC .us/ft                : DTC
DTS .us/ft                : DTS
RDEP .ohm.m               : RDEP
SP .mV                    : SP
RMIC .ohm.m               : RMIC
RMED .ohm.m               : RMED
~Parameter
#==================================================================
~Ascii
# ...
 2290.4682617 12.000000000 12.833900452 12.250000954 46.292648315 -0.005200000  -999.250000 0.3226999938 2.4323000908 3.1036000252 96.068000793  -999.250000 106.32890320 214.97052002 1.8239022493 54.625000000 2.5357000828 2.1353969574
 2290.6208496 12.000000000 12.833700180 12.250000954 52.024280548 -0.005100000  -999.250000 0.3438999951 2.4289999008 3.0655000210 97.430999756  -999.250000 106.45089722 215.20620728 1.7997000217 54.924701691 2.5230000019 2.1115999222
 2290.7731934 12.000000000 12.838500023 12.250000954 52.024280548 -0.004600000  -999.250000 0.3440999985 2.4296998978 3.0093998909 98.066299438  -999.250000 105.60269928 215.02189636 1.7798318863 55.054298401 2.5165998936 2.0843436718
 2290.9255371 12.000000000 12.850299835 12.250000954 52.024280548 -0.004100000  -999.250000 0.3307999969 2.4330000877 2.9823999405 97.430999756  -999.250000 105.15630341 214.57769775 1.8060578108 54.671100616 2.5453999043 2.1082615852
 2291.0778809 12.000000000 12.850299835 12.250000954 52.024280548 -0.003800000  -999.250000 0.3154000044 2.4389998913 3.0104999542 95.403800964  -999.250000 104.75450134 212.42300415 1.8635078669 54.670600891 2.5919001102 2.1722972393
 2291.2304688 12.000000000 12.850299835 12.250000954 52.024280548 -0.001700000  -999.250000 0.3120999932 2.4530000687 2.9702999592 93.649497986  -999.250000 104.81990051 210.58290100 1.8960000277 55.008201599 2.6486001015 2.2151999474
 2291.3828125 12.000000000 12.835201263 12.250000954 52.024280548 0.0003000000  -999.250000 0.3082999885 2.4649000168 2.9540998936 93.453102112  -999.250000 105.19200134 211.82139587 1.9039000273 54.991798401 2.6177000999 2.2230999470
 2291.5351563 12.000000000 12.812999725 12.250000954 45.374015808 0.0001000000  -999.250000 0.3066000044 2.4614000320 2.9751999378 95.626800537  -999.250000 105.25000000 213.86851501 1.8967115879 54.708499908 2.5910000801 2.2148132324
 2291.6875000 12.000000000 12.800399780 12.250000954 45.374015808 -0.002700000  -999.250000 0.3070000112 2.4449999332 3.1119999886 98.035598755  -999.250000 105.63989258 215.38940430 1.8917080164 54.629100800 2.5095000267 2.2092089653
 2291.8400879 12.000000000 12.761500359 12.250000954 45.374015808 -0.004500000  -999.250000 0.3174000084 2.4324998856 3.2163999081 98.692703247  -999.250000 105.85710144 215.98721313 1.8604999781 54.720798492 2.5483000278 2.1754999161
 2291.9924316 12.000000000 12.759699821 12.250000954 45.374015808 -0.004500000  -999.250000 0.3240999877 2.4363000393 3.2114000320 96.827102661  -999.250000 106.16820526 216.08349609 1.9009000063 54.883201599 2.5025000572 2.2228999138
 2292.1447754 12.000000000 12.754501343 12.250000954 45.374015808 -0.004200000  -999.250000 0.3068999946 2.4375998974 3.1649999619 94.875000000  -999.250000 106.91070557 215.53439331 1.8708481789 54.933399200 2.4540998936 2.1896531582
 2292.2971191 12.000000000 12.753199577 12.250000954 45.374015808 -0.004200000  -999.250000 0.3009000123 2.4372000694 3.0787000656 95.835800171  -999.250000 106.26640320 214.71917725 1.8364551067 54.708499908 2.3359999657 2.1540570259
 2292.4497070 12.000000000 12.758399963 12.250000954 45.374015808 -0.004300000  -999.250000 0.2912999988 2.4342999458 3.0453999043 96.503402710  -999.250000 106.40329742 214.65661621 1.8565000296 54.729000092 2.2990999222 2.1758999825
 2292.6020508 12.000000000 12.757199287 12.250000954 46.965221405 -0.004500000  -999.250000 0.2890000045 2.4346001148 3.0446999073 98.459098816  -999.250000 106.40180969 215.45649719 1.8387000561 54.741798401 2.3459999561 2.1551001072
 2292.7543945 12.000000000 12.761500359 12.250000954 46.965221405 -0.004800000  -999.250000 0.2930000126 2.4346001148 3.0813000202 99.837097168  -999.250000 106.53420258 214.78787231 1.8447902203 54.325298309 2.4001998901 2.1607909203
 2292.9067383 12.000000000 12.757800102 12.250000954 46.965221405 -0.004700000  -999.250000 0.2948000133 2.4321999550 3.1152999401 99.581398010  -999.250000 106.45390320 214.95530701 1.8322201967 54.328899384 2.4349999428 2.1473217010
 2293.0590820 12.000000000 12.763999939 12.250000954 46.965221405 -0.004700000  -999.250000 0.2930000126 2.4286999702 3.1424999237 97.619300842  -999.250000 105.97019196 214.46482849 1.8103350401 54.562500000 2.4591000080 2.1141531467
 2293.2116699 12.000000000 12.761500359 12.250000954 46.965221405 -0.004700000  -999.250000 0.2861999869 2.4274001122 3.1500999928 98.779502869  -999.250000 104.70539856 212.77059937 1.8365000486 54.562500000 2.4226999283 2.1433999538
 2293.3640137 12.000000000 12.777999878 12.250000954 46.965221405 -0.004600000  -999.250000 0.3005000055 2.4281001091 3.1226000786 97.941497803  -999.250000 103.85569763 210.46380615 1.8933088779 54.662399292 2.3796999454 2.2047016621
 2293.5163574 12.000000000 12.776699066 12.250000954 41.656822205 -0.003000000  -999.250000 0.3091999888 2.4319999218 3.1152999401 97.217399597  -999.250000 103.14880371 209.46627808 1.7922623158 54.416999817 2.3371000290 2.0947766304
 2293.6687012 12.000000000 12.778699875 12.250000954 41.656822205 0.0088999998  -999.250000 0.3219000101 2.4491999149 3.1215999126 91.359703064  -999.250000 102.96280670 210.23710632 1.8303385973 54.324798584 2.3824000359 2.1464169025
 2293.8212891 12.000000000 12.783701897 12.250000954 41.656822205 0.0088000000  -999.250000 0.3192999959 2.4760000706 3.2667999268 88.304000854  -999.250000 103.02079773 212.52929688 1.8227000237 54.766399384 2.4581999779 2.1382000446
 2293.9736328 12.000000000 12.782699585 12.250000954 41.656822205 0.0098000001  -999.250000 0.3156000078 2.5134000778 3.2743000984 87.306999207  -999.250000 103.59819794 213.72592163 2.0318999290 54.733600616 2.6528000832 2.3650999069
 2294.1259766 12.000000000 12.786700249 12.250000954 41.656822205 -0.000900000  -999.250000 0.2971000075 2.5174002647 3.2964000702 91.598503113  -999.250000 104.29910278 212.34269714 2.0091364384 54.500000000 2.5794999599 2.3451318741
 2294.2783203 12.000000000 12.791099548 12.250000954 41.656822205 -0.001000000  -999.250000 0.2994999886 2.4941000938 3.1749000549 95.667503357  -999.250000 105.25000000 211.37199402 1.8181066513 54.799701691 2.4951000214 2.1280484200
 2294.4309082 12.000000000 12.792000771 12.250000954 41.656822205 -0.003000000  -999.250000 0.3231999874 2.4626998901 3.0987999439 100.16079712  -999.250000 105.14140320 215.01029968 1.8177000284 54.862701416 2.3166000843 2.1245000362
 2294.5832520 12.000000000 12.786499977 12.250000954 44.465225220 -0.004400000  -999.250000 0.3362999856 2.4470999241 3.0032999516 98.643898010  -999.250000 105.00000000 215.81608582 1.8164999485 54.587600708 2.3076999187 2.1184000969
 2294.7355957 12.000000000 12.784799576 12.250000954 44.465225220 -0.004500000  -999.250000 0.3429999948 2.4502999783 2.9202001095 98.018600464  -999.250000 104.65029907 215.25549316 1.8014241457 54.932899475 2.2711000443 2.0962355137
 2294.8879395 12.000000000 12.769300461 12.250000954 44.465225220 -0.005200000  -999.250000 0.3294999897 2.4481000900 2.9249000549 95.788696289  -999.250000 104.32289886 215.19259644 1.8107849360 55.179298401 2.2571001053 2.1075816154
 2295.0402832 12.000000000 12.768199921 12.250000954 44.465225220 -0.004600000  -999.250000 0.3154000044 2.4465000629 2.9377000332 95.369796753  -999.250000 104.24549866 213.93362427 1.8196856976 54.796100616 2.2895998955 2.1135904789
 2295.1928711 12.000000000 12.764599800 12.250000954 44.465225220 -0.004300000  -999.250000 0.3084999919 2.4449000359 2.9986999035 92.803298950  -999.250000 104.50000000 213.78559875 1.8097000122 54.729000092 2.3261001110 2.1064999104
 2295.3452148 12.000000000 12.762498856 12.250000954 44.465225220 -0.004200000  -999.250000 0.3107999861 2.4416000843 3.0892999172 91.851097107  -999.250000 104.37200928 213.61369324 1.8116967678 54.974899292 2.3092999458 2.0949184895
 2295.4975586 12.000000000 12.761500359 12.250000954 44.465225220 -0.004800000  -999.250000 0.3199000061 2.4391000271 3.1854999065 90.720596313  -999.250000 104.25740051 213.56320190 1.7970236540 54.995899200 2.3073999882 2.0712378025
 2295.6499023 12.000000000 12.761500359 12.250000954 35.016407013 -0.005200000  -999.250000 0.3050999939 2.4356999397 3.2253999710 91.739501953  -999.250000 104.15180206 211.50689697 1.8200628757 54.937500000 2.3010001183 2.1033484936
