# LAS format log file from PETREL
# Project units are specified as depth units
#==================================================================
~Version information
VERS.   2.0:
WRAP.   NO:
#==================================================================
~Well
STRT .m      1245.0043945 :
STOP .m      3214.9267578 :
STEP .m     0.00000000 :
NULL .        -999.250000 :
COMP.           : COMPANY
WELL.  35/11-11   : WELL
FLD.            : FIELD
LOC.            : LOCATION
SRVC.           : SERVICE COMPANY
DATE.  2018-09-11 14:48:54   : Log Export Date {yyyy-MM-dd HH:mm:ss}
PROV.           : PROVINCE
UWI.   35/11-11   : UNIQUE WELL ID
API.            : API NUMBER
#==================================================================
~Curve
DEPT .m                   : DEPTH
Lithology_geolink ._      : Lithology_geolink
CALI .in                  : CALI
BS .in                    : BS
ROP .m/h                  : ROP
DRHO .g/cm3               : DRHO
THOR .ppm                 : THOR
NPHI .m3/m3               : NPHI
RHOB .g/cm3               : RHOB
PEF .b/e                  : PEF
GR .gAPI                  : GR
URAN .ppm                 : URAN
DTC .us/ft                : DTC
DTS .us/ft                : DTS
RDEP .ohm.m               : RDEP
SP .mV                    : SP
RMIC .ohm.m               : RMIC
RMED .ohm.m               : RMED
~Parameter
#==================================================================
~Ascii
# ...
 2423.8183594 13.000000000 12.495200157 12.250000954 60.213260651 -0.001700000  -999.250000 0.3222865462 2.5014998913 3.7939999104 96.020172119  -999.250000 99.488098145 225.03939819 1.9518799782 51.816493988 2.9235999584 2.2878997326
 2423.9707031 13.000000000 12.495200157 12.250000954 60.213260651 -0.000900000  -999.250000 0.3397719562 2.5043001175 3.7439999580 96.018104553  -999.250000 99.883903503 226.64279175 1.9716680050 51.775165558 2.8942999840 2.3088662624
 2424.1230469 13.000000000 12.484399796 12.250000954 60.213260651 -0.002000000  -999.250000 0.3418966234 2.4993000031 3.7437999249 96.660270691  -999.250000 99.559501648 228.72380066 2.0031495094 51.554653168 2.9574999809 2.3389518261
 2424.2756348 13.000000000 12.499798775 12.250000954 32.716537476 -0.003200000  -999.250000 0.3379000127 2.4879000187 3.7797000408 97.101600647  -999.250000 99.565498352 229.52510071 2.0155999660 51.370899200 2.9291000366 2.3524999619
 2424.4279785 13.000000000 12.505500793 12.250000954 32.716537476 -0.004300000  -999.250000 0.3555716872 2.4751000404 3.8064999580 96.176582336  -999.250000 99.456802368 229.39688110 1.9070739746 51.578567505 2.8749001026 2.2259027958
 2424.5803223 13.000000000 12.529198647 12.250000954 32.716537476 -0.004200000  -999.250000 0.3461152315 2.4744999409 3.7816998959 94.642257690  -999.250000 99.263412476 228.66119385 1.8289251328 52.111347198 2.7939000130 2.1406366825
 2424.7326660 13.000000000 12.524799347 12.250000954 32.716537476 -0.003800000  -999.250000 0.3311240375 2.4823000431 3.7425999641 90.762329102  -999.250000 98.979202271 228.26168823 1.9301373959 52.241592407 2.8605999947 2.2589099407
 2424.8852539 13.000000000 12.517399788 12.250000954 32.716537476 -0.003300000  -999.250000 0.3048000038 2.4932000637 3.7400999069 92.231002808  -999.250000 98.617599487 227.53120422 2.0153000355 52.058399200 2.9932999611 2.3536999226
 2425.0375977 13.000000000 12.539501190 12.250000954 32.716537476 -0.003400000  -999.250000 0.2838000059 2.4948999882 3.8032999039 94.015502930  -999.250000 98.796089172 227.72689819 2.0099999905 52.099899292 3.0729999542 2.3417000771
 2425.1899414 13.000000000 12.539501190 12.250000954 31.758531570 -0.004300000  -999.250000 0.2872943878 2.4883999825 3.8866999149 95.398880005  -999.250000 99.378005981 228.59449768 2.0098001957 51.921386719 3.0583000183 2.3398029804
 2425.3422852 13.000000000 12.561699867 12.250000954 31.758531570 -0.005100000  -999.250000 0.3037735522 2.4839999676 3.9205000401 94.946929932  -999.250000 98.407691956 228.20100403 1.9529912472 51.621379852 2.8359000683 2.2710103989
 2425.4948730 13.000000000 12.540599823 12.250000954 31.758531570 -0.005400000  -999.250000 0.3111000061 2.4849998951 3.9347999096 95.806396484  -999.250000 95.435989380 224.82110596 1.8294999599 51.695701599 2.7416999340 2.1291999817
 2425.6472168 13.000000000 12.537098885 12.250000954 31.758531570 0.0057000001  -999.250000 0.3109000027 2.5069999695 3.9470999241 93.805397034  -999.250000 93.755996704 225.75399780 1.8803999424 51.945701599 2.7418000698 2.1872999668
 2425.7995605 13.000000000 12.533499718 12.250000954 31.758531570 0.0104999999  -999.250000 0.2876372933 2.5469999313 4.1698999405 89.207870483  -999.250000 92.458297729 219.15330505 1.9447968006 52.128807068 2.8745000362 2.2504987717
 2425.9519043 13.000000000 12.497201920 12.250000954 31.758531570 0.0133999996  -999.250000 0.2725242078 2.6063001156 4.3710999489 85.359664917  -999.250000 92.105697632 218.00482178 2.0837771893 52.021171570 3.2920999527 2.4089457989
 2426.1042480 13.000000000 12.585598946 12.250000954 31.758531570 0.0137000000  -999.250000 0.2603195608 2.6593999863 4.3382000923 86.204734802  -999.250000 93.547599792 217.59689331 2.4191620350 52.008220673 3.5690000057 2.7713186741
 2426.2568359 13.000000000 12.572799683 12.250000954 30.127952576 0.0099999998  -999.250000 0.2696999907 2.6357998848 4.2439999580 87.483802795  -999.250000 94.114601135 220.53997803 2.1961998940 52.291500092 3.4893999100 2.5334000587
 2426.4091797 13.000000000 12.586899757 12.250000954 30.127952576 0.0068999999  -999.250000 0.2748916745 2.5710000992 4.0862002373 90.107894897  -999.250000 95.720207214 222.25650024 2.1400899887 52.370773315 2.9672999382 2.4762916565
 2426.5615234 13.000000000 12.685899734 12.250000954 30.127952576 -0.004300000  -999.250000 0.2770964801 2.4965999126 4.0708999634 87.154548645  -999.250000 97.421096802 223.33900452 2.0479478836 52.279350281 2.8480000496 2.3744633198
 2426.7138672 13.000000000 12.686300278 12.250000954 30.127952576 -0.004700000  -999.250000 0.2897796333 2.4735999107 3.9212999344 91.562423706  -999.250000 97.680091858 221.71510315 1.9935870171 52.316600800 2.8485999107 2.3177905083
 2426.8664551 13.000000000 12.715297699 12.250000954 30.127952576 -0.004200000  -999.250000 0.2917000055 2.4704999924 3.8563001156 91.368598938  -999.250000 97.816993713 224.89657593 2.0992999077 52.441600800 2.8979001045 2.4377999306
 2427.0187988 13.000000000 12.731900215 12.250000954 30.127952576 -0.003200000  -999.250000 0.3023000062 2.4702999592 3.8601000309 93.625602722  -999.250000 97.714302063 222.60852051 2.1644999981 52.466701508 2.9430000782 2.5244998932
 2427.1711426 13.000000000 12.763500214 12.250000954 27.066928864 -0.003200000  -999.250000 0.2789374292 2.4765000343 3.8763999939 88.573196411  -999.250000 97.520805359 225.74890137 2.1099872589 52.437500000 2.9284999371 2.4775750637
 2427.3234863 13.000000000 12.761500359 12.250000954 27.066928864 -0.001300000  -999.250000 0.2790996730 2.4828999043 3.9209001064 89.213562012  -999.250000 97.485099792 224.90000916 2.1591210365 52.337600708 2.9340000153 2.5392010212
 2427.4760742 13.000000000 12.761500359 12.250000954 27.066928864 0.0012000001  -999.250000 0.2750000060 2.4900000095 4.0013999939 85.541900635  -999.250000 98.099700928 224.97369385 2.1164000034 52.016899109 3.0769999027 2.4932999611
 2427.6284180 13.000000000 12.781900406 12.250000954 27.066928864 0.0007000000  -999.250000 0.2928999960 2.4956998825 4.0904998779 85.146896362  -999.250000 98.439002991 226.21311951 2.1630001068 52.012298584 3.1666998863 2.5467998981
 2427.7807617 13.000000000 12.826299667 12.250000954 27.066928864 -0.001800000  -999.250000 0.2926004827 2.5002000332 4.1361999512 80.942337036  -999.250000 98.534194946 226.01829529 2.1684911251 52.620399475 3.0373001099 2.5390124321
 2427.9331055 13.000000000 12.850299835 12.250000954 27.066928864 -0.005300000  -999.250000 0.2952956855 2.5097000599 4.1521000862 84.119491577  -999.250000 98.815490723 224.89610291 1.8302429914 52.966701508 2.7421000004 2.1579117775
 2428.0854492 13.000000000 12.894700050 12.250000954 27.066928864 -0.005200000  -999.250000 0.2863144279 2.5223000050 4.1711997986 86.457855225  -999.250000 98.959800720 224.74200439 1.7612099648 52.537899017 2.7095999718 2.0857148170
 2428.2380371 13.000000000 12.872500420 12.250000954 27.066928864 -0.004400000  -999.250000 0.2800000012 2.5334000587 4.1139001846 90.865196228  -999.250000 98.653297424 225.31489563 2.0299999714 51.921100616 2.7121000290 2.3789999485
 2428.3903809 13.000000000 12.927598953 12.250000954 38.517059326 -0.003800000  -999.250000 0.2752076983 2.5183000565 3.9955000877 93.954147339  -999.250000 98.653297424 224.87899780 2.0043411255 51.953899384 2.8747000694 2.3570353985
 2428.5427246 13.000000000 12.972801208 12.250000954 38.517059326 -0.003500000  -999.250000 0.2729036808 2.4976000786 3.8282001019 97.708976746  -999.250000 99.078903198 225.39779663 2.0160810947 52.420600891 2.6918001175 2.3752706051
 2428.6950684 13.000000000 13.072299004 12.250000954 38.517059326 -0.003700000  -999.250000 0.2692059278 2.4762001038 3.7411999702 98.011726379  -999.250000 99.619010925 225.93157959 1.9003857374 52.658298492 2.7230999470 2.2498013973
 2428.8476563 13.000000000 13.181099892 12.250000954 38.517059326 -0.003800000  -999.250000 0.2777000070 2.4679000378 3.7421000004 101.21450043  -999.250000 100.16369629 225.79069519 1.9262000322 52.421100616 2.5181999207 2.2850999832
 2429.0000000 13.000000000 13.222100258 12.250000954 38.517059326 -0.003500000  -999.250000 0.2709999979 2.4663000107 3.7430000305 100.51309967  -999.250000 100.62049866 225.75999451 1.7491999865 52.087600708 2.5014998913 2.0875000954
