# LAS format log file from PETREL
# Project units are specified as depth units
#==================================================================
~Version information
VERS.   2.0:
WRAP.   NO:
#==================================================================
~Well
STRT .m      963.35791016 :
STOP .m      4034.6738281 :
STEP .m     0.00000000 :
NULL .        -999.250000 :
COMP.           : COMPANY
WELL.  35/11-2   : WELL
FLD.            : FIELD
LOC.            : LOCATION
SRVC.           : SERVICE COMPANY
DATE.  2018-09-11 14:48:55   : Log Export Date {yyyy-MM-dd HH:mm:ss}
PROV.           : PROVINCE
UWI.   35/11-2   : UNIQUE WELL ID
API.            : API NUMBER
#==================================================================
~Curve
DEPT .m                   : DEPTH
Lithology_geolink ._      : Lithology_geolink
CALI .in                  : CALI
DRHO .g/cm3               : DRHO
NPHI .m3/m3               : NPHI
RHOB .g/cm3               : RHOB
GR .gAPI                  : GR
DTC .us/ft                : DTC
RDEP .ohm.m               : RDEP
SP .mV                    : SP
RSHA .ohm.m               : RSHA
RMED .ohm.m               : RMED
~Parameter
#==================================================================
~Ascii
# ...
 2214.7138672 6.0000000000 15.678001404 0.0000224000 0.3252406716 2.3830127716 56.312999725 120.25000000 1.5839647055 73.551002502 1.3689999580 1.3689999580
 2214.8662109 6.0000000000 15.661999702 -0.007974359 0.3359227777 2.3710384369 56.812198639 122.24680328 1.5620319843 74.424598694 1.3170832396 1.3170832396
 2215.0185547 6.0000000000 15.663999557 -0.008996795 0.3588165641 2.3630256653 57.623699188 120.37800598 1.5820000172 74.239295959 1.2820560932 1.2820560932
 2215.1711426 6.0000000000 15.658000946 -0.005006410 0.3793571591 2.3629999161 58.687999725 120.49999237 1.6020303965 75.176002502 1.2979999781 1.2979999781
 2215.3234863 5.0000000000 15.741999626 -0.004003200 0.3774431348 2.3729679585 57.312999725 120.37500000 1.6211619377 73.738998413 1.3240000010 1.3240000010
 2215.4758301 5.0000000000 15.744000435 -0.004000000 0.3647703230 2.3809742928 54.817001343 118.50299835 1.7221888304 71.429702759 1.3479616642 1.3479616642
 2215.6281738 5.0000000000 15.713000298 -0.001009615 0.3803449571 2.4218685627 50.569808960 114.88080597 1.8400000334 71.364097595 1.3749567270 1.3749567270
 2215.7805176 5.0000000000 15.746000290 -0.003990385 0.3555496931 2.4648621082 48.503307343 112.75340271 1.9659999609 71.800300598 1.4518766403 1.4518766403
 2215.9331055 5.0000000000 15.689999580 -0.006990400 0.3340144455 2.5118496418 44.562999725 111.50000000 1.9509614706 73.488998413 1.5909999609 1.5909999609
 2216.0854492 5.0000000000 15.611000061 -0.010987179 0.3339799941 2.5080127716 46.934200287 113.49680328 1.9268144369 73.800506592 1.7018224001 1.7018224001
 2216.2377930 5.0000000000 15.930998802 -0.009006410 0.3408090472 2.4671313763 50.650039673 115.62160492 1.8109999895 72.615898132 1.7299551964 1.7299551964
 2216.3901367 5.0000000000 16.492000580 -0.009000000 0.3481165767 2.4321122169 49.221305847 119.11939240 1.6660000086 72.863594055 1.5712547302 1.5712547302
 2216.5427246 5.0000000000 16.632999420 -0.005006410 0.3652026057 2.4080383778 49.375000000 118.87500000 1.6589871645 73.613998413 1.5000000000 1.5000000000
 2216.6950684 5.0000000000 16.667999268 -0.008987200 0.3788880408 2.3790926933 46.280998230 120.62500763 1.6510064602 71.863998413 1.4400000572 1.4400000572
 2216.8474121 5.0000000000 16.863000870 -0.004016026 0.3891435862 2.3710258007 48.964702606 120.00099945 1.6550368071 72.799499512 1.3591295481 1.3591295481
 2216.9997559 5.0000000000 16.659999847 -0.005993590 0.3696925044 2.3710000515 47.377555847 120.74879456 1.6779999733 73.987091064 1.3540079594 1.3540079594
 2217.1523438 6.0000000000 16.127000809 -0.008995192 0.3545142710 2.3789870739 51.469001770 121.62500000 1.6298974752 72.051002502 1.3890000582 1.3890000582
 2217.3046875 6.0000000000 16.136999130 -0.010993600 0.3432779908 2.3630511761 56.375000000 121.62500000 1.5658574104 71.488998413 1.4079999924 1.4079999924
 2217.4570313 6.0000000000 16.802999496 -0.006016026 0.3515467048 2.3480482101 59.557899475 123.24739838 1.4769680500 72.424499512 1.3351168633 1.3351168633
 2217.6093750 5.0000000000 17.395000458 -0.001016026 0.3622827828 2.3380320072 58.657451630 123.99879456 1.4570000172 73.299598694 1.2800880671 1.2800880671
 2217.7617188 5.0000000000 17.851999283 -0.006980769 0.3871302903 2.3160705566 54.444759369 122.00320435 1.4659999609 73.425804138 1.2420608997 1.2420608997
 2217.9143066 5.0000000000 18.277000427 -0.007996800 0.3954966962 2.2970607281 51.655998230 122.62500000 1.4619791508 73.551002502 1.2339999676 1.2339999676
 2218.0666504 5.0000000000 18.358999252 -0.003016026 0.3896593750 2.2870318890 49.222900391 121.62660217 1.4490176439 73.426200867 1.2509728670 1.2509728670
 2218.2189941 5.0000000000 18.152999878 -0.000009615 0.3857462704 2.3049423695 51.215797424 122.87299347 1.4600000381 73.426002502 1.2340272665 1.2340272665
 2218.3713379 5.0000000000 18.121000290 -0.007974359 0.3677377999 2.3139710426 54.151290894 122.50060272 1.5030000210 74.237693787 1.2369952202 1.2369952202
 2218.5239258 6.0000000000 18.148000717 -0.008998397 0.3593932986 2.3399581909 56.405998230 120.49999237 1.5300641060 74.051002502 1.2259999514 1.2259999514
 2218.6762695 6.0000000000 17.761999130 -0.004016000 0.3510833085 2.3728942871 58.312999725 122.75000000 1.5700417757 73.863998413 1.2539999485 1.2539999485
 2218.8286133 6.0000000000 17.145000458 -0.006990385 0.3603351414 2.3999135494 55.598350525 122.00119781 1.5959984064 75.423500061 1.2819551229 1.2819551229
 2218.9809570 6.0000000000 16.468000412 -0.006003205 0.3666796684 2.4139552116 56.623348236 123.12320709 1.5950000286 73.616905212 1.3189407587 1.3189407587
 2219.1335449 6.0000000000 15.758000374 -0.008995192 0.3808372915 2.3960287571 53.625000000 122.37500000 1.5759967566 73.113998413 1.3400000334 1.3400000334
 2219.2858887 6.0000000000 15.395000458 -0.005012800 0.3467347622 2.3890223503 57.969001770 123.12500763 1.5739952326 73.363998413 1.3530000448 1.3530000448
 2219.4382324 6.0000000000 15.355000496 -0.007990385 0.3559451401 2.3790318966 59.497550964 120.50419617 1.5709823370 72.864799500 1.3350288868 1.3350288868
 2219.5905762 6.0000000000 15.340000153 -0.005009615 0.3315791190 2.3829870224 61.840244293 120.25040436 1.5599999428 72.239997864 1.3419888020 1.3419888020
 2219.7429199 6.0000000000 15.317999840 -0.000016026 0.3534496725 2.3979518414 66.056243896 120.25000000 1.5579999685 72.488594055 1.3220320940 1.3220320940
 2219.8955078 6.0000000000 15.293001175 0.0000000000 0.3340113163 2.4019870758 68.063003540 121.25000000 1.5800048113 73.113998413 1.3120000362 1.3120000362
 2220.0478516 6.0000000000 15.291000366 0.0000000000 0.3447127640 2.3960192204 66.502502441 120.12680054 1.5830191374 74.361999512 1.3080064058 1.3080064058
 2220.2001953 6.0000000000 15.361000061 0.0000000000 0.3359540999 2.3810482025 61.352264404 120.00019836 1.5950000286 73.864799500 1.3139903545 1.3139903545
 2220.3525391 6.0000000000 15.470998764 0.0029903846 0.3378838003 2.3750193119 56.507762909 120.99839783 1.6380000114 72.677909851 1.3539358377 1.3539358377
 2220.5051270 6.0000000000 15.536999702 0.0000048077 0.3491019905 2.3730030060 59.937999725 120.62500763 1.6740288734 71.176002502 1.3960000277 1.3960000277
 2220.6574707 6.0000000000 15.520000458 -0.000996800 0.3544813991 2.3889486790 54.780998230 119.12500000 1.6920080185 70.363998413 1.4060000181 1.4060000181
 2220.8098145 6.0000000000 15.496000290 -0.004987179 0.3525431454 2.3949806690 57.370849609 120.37300110 1.6969168186 72.984794617 1.4259680510 1.4259680510
 2220.9621582 6.0000000000 15.515999794 0.0029743591 0.3379369080 2.4079582691 56.720054626 118.87740326 1.6449999809 74.112197876 1.4240032434 1.4240032434
 2221.1147461 6.0000000000 15.520999908 0.0030000000 0.3427622020 2.4000129700 57.875000000 118.75000000 1.5578910112 75.051002502 1.3890000582 1.3890000582
 2221.2670898 6.0000000000 15.520000458 0.0049935998 0.3588641584 2.3910288811 55.062999725 121.87500763 1.4903718233 74.551002502 1.3159999847 1.3159999847
 2221.4194336 5.0000000000 15.515999794 -0.000980769 0.3871646225 2.3750512600 55.624099731 120.62700653 1.7229104042 72.991500854 1.2540991306 1.2540991306
 2221.5717773 5.0000000000 15.467000961 -0.004987179 0.3794025481 2.3710129261 53.503406525 116.63140869 2.2909998894 72.801300049 1.2190561295 1.2190561295
 2221.7241211 5.0000000000 15.317999840 -0.012974359 0.3355906010 2.3849551678 44.389621735 109.26181030 3.1240000725 71.491104126 1.3947179317 1.3947179317
 2221.8767090 5.0000000000 15.114999771 -0.017983999 0.2657418847 2.4159007072 31.093999863 101.37500000 4.3799872398 72.488998413 2.0739998817 2.0739998817
 2222.0290527 16.000000000 15.010000229 -0.016006410 0.2090707868 2.4508876801 24.729200363 93.013389587 4.9925165176 73.986595154 3.5606174469 3.5606174469
 2222.1813965 16.000000000 15.020998955 -0.009022435 0.1758332103 2.4799070358 22.675281525 89.131210327 3.4430000782 74.987396240 5.1185030937 5.1185030937
 2222.3337402 16.000000000 15.174000740 -0.002022436 0.1709156185 2.4790031910 29.098684311 90.872192383 2.5759999752 74.614601135 4.6727194786 4.6727194786
