# LAS format log file from PETREL
# Project units are specified as depth units
#==================================================================
~Version information
VERS.   2.0:
WRAP.   NO:
#==================================================================
~Well
STRT .m      989.00103760 :
STOP .m      3365.3732910 :
STEP .m     0.00000000 :
NULL .        -999.250000 :
COMP.           : COMPANY
WELL.  35/11-1   : WELL
FLD.            : FIELD
LOC.            : LOCATION
SRVC.           : SERVICE COMPANY
DATE.  2018-09-11 14:48:54   : Log Export Date {yyyy-MM-dd HH:mm:ss}
PROV.           : PROVINCE
UWI.   35/11-1   : UNIQUE WELL ID
API.            : API NUMBER
#==================================================================
~Curve
DEPT .m                   : DEPTH
Lithology_geolink ._      : Lithology_geolink
CALI .in                  : CALI
DRHO .g/cm3               : DRHO
NPHI .m3/m3               : NPHI
RHOB .g/cm3               : RHOB
PEF .b/e                  : PEF
GR .gAPI                  : GR
DTC .us/ft                : DTC
RDEP .ohm.m               : RDEP
SP .mV                    : SP
RSHA .ohm.m               : RSHA
RMED .ohm.m               : RMED
~Parameter
#==================================================================
~Ascii
# ...
 2254.5300293 5.0000000000 12.211000443 -0.013000000 0.0463821776 2.6480000019 6.8280000687 67.684394836 58.126602173 28.435245514 53.450416565 11.752615929 11.752615929
 2254.6823730 5.0000000000 12.211000443 -0.016000001 0.0605273061 2.6410000324 6.8750000000 65.434196472 59.129005432 17.368015289 53.087070465 8.3953094482 8.3953094482
 2254.8349609 5.0000000000 12.211000443 -0.016000001 0.0737299994 2.6210000515 6.5700001717 63.064796448 61.632598877 13.009349823 53.130825043 6.7148365974 6.7148365974
 2254.9873047 5.0000000000 12.211000443 -0.021000000 0.0878899992 2.5859999657 6.2699999809 63.624347687 64.004203796 10.937347412 53.388462067 5.4162597656 5.4162597656
 2255.1396484 5.0000000000 12.211000443 -0.026000001 0.1030057818 2.5529999733 6.7729997635 63.223159790 66.626205444 10.527570724 53.675106049 4.3308300972 4.3308300972
 2255.2919922 5.0000000000 12.211000443 -0.034000002 0.1215502694 2.5409998894 6.7849998474 65.814407349 67.373397827 8.3862848282 52.497714996 3.6018829346 3.6018829346
 2255.4443359 5.0000000000 12.211000443 -0.029999999 0.1327919960 2.5490000248 6.7230000496 66.689407349 66.379203796 5.4462866783 52.943222046 3.5291411877 3.5291411877
 2255.5969238 5.0000000000 12.211000443 -0.027000001 0.1240200028 2.5529999733 6.3439998627 67.563003540 69.011199951 3.7533919811 53.078037262 3.6149330139 3.6149330139
 2255.7492676 5.0000000000 12.211000443 -0.023000000 0.1035528034 2.5160000324 6.7340002060 67.560997009 72.511016846 2.9403812885 52.466323853 2.9698445797 2.9698445797
 2255.9016113 5.0000000000 12.211000443 -0.025000000 0.1122859195 2.4319999218 6.0120000839 66.319610596 79.388229370 2.5548126698 52.668724060 2.2493269444 2.2493269444
 2256.0539551 5.0000000000 12.211000443 -0.025000000 0.1459459960 2.3570001125 5.6719999313 70.445816040 87.629203796 2.4376955032 52.497272491 1.8296731710 1.8296731710
 2256.2065430 5.0000000000 12.211000443 -0.025000000 0.1982399970 2.3220000267 4.9920001030 75.331001282 90.249198914 2.2469823360 52.666938782 1.6258976460 1.6258976460
 2256.3588867 5.0000000000 12.211000443 -0.024000000 0.2241200060 2.3340001106 5.5269999504 80.939102173 90.000404358 1.9296201468 53.269557953 1.5941169262 1.5941169262
 2256.5112305 6.0000000000 12.211000443 -0.024000000 0.2450863868 2.3589999676 5.7230000496 81.629005432 90.247398376 1.6926201582 52.372013092 1.6672196388 1.6672196388
 2256.6635742 6.0000000000 12.211000443 -0.017000001 0.2441415638 2.3870000839 6.4219999313 84.120094299 88.627403259 1.4557644129 52.380420685 1.8041106462 1.8041106462
 2256.8161621 6.0000000000 12.211000443 -0.021000000 0.2524400055 2.3949999809 6.1170001030 81.064804077 90.124603271 1.3091535568 52.642234802 1.8729200363 1.8729200363
 2256.9685059 6.0000000000 12.211000443 -0.022000000 0.2485399991 2.3810000420 6.1680002213 81.622596741 90.000801086 1.3572547436 52.716461182 1.8474568129 1.8474568129
 2257.1208496 6.0000000000 12.211000443 -0.034000002 0.2495084554 2.3459999561 5.9530000687 80.135017395 90.501197815 1.5162547827 53.004463196 1.5086121559 1.5086121559
 2257.2731934 6.0000000000 12.211000443 -0.035000000 0.2407340854 2.3259999752 6.0590000153 86.373397827 91.247795105 1.6751586199 52.668704987 1.2669935226 1.2669935226
 2257.4255371 6.0000000000 12.211000443 -0.028000001 0.2295079976 2.3420000076 5.7340002060 85.380409241 89.875404358 1.7738702297 52.486412048 1.2634295225 1.2634295225
 2257.5781250 6.0000000000 12.211000443 -0.021000000 0.2250999957 2.3670001030 5.6129999161 88.739601135 90.123001099 1.6928303242 52.744510651 1.5318832397 1.5318832397
 2257.7304688 6.0000000000 12.211000443 -0.015000000 0.2411842197 2.3829998970 5.1250000000 85.504104614 89.500000000 1.6402163506 52.903812408 1.8070577383 1.8070577383
 2257.8828125 6.0000000000 12.211000443 -0.021000000 0.2621763647 2.3729999065 4.9920001030 88.061698914 89.500404358 1.7750720978 52.786403656 1.8428719044 1.8428719044
 2258.0351563 6.0000000000 12.211000443 -0.020000000 0.2690290511 2.3849999905 5.2340002060 87.249099731 89.748199463 1.8199791908 52.414913177 1.7630753517 1.7630753517
 2258.1877441 6.0000000000 12.211000443 -0.022000000 0.2656300068 2.3929998875 5.5269999504 86.701400757 88.627403259 1.8067824841 52.362224579 1.8106079102 1.8106079102
 2258.3400879 6.0000000000 12.211000443 -0.017999999 0.2670899928 2.4119999409 6.4060001373 90.869392395 89.378013611 1.7388877869 52.743511200 1.9997627735 1.9997627735
 2258.4924316 6.0000000000 12.211000443 -0.022000000 0.2729406059 2.4040000439 6.4380002022 87.372497559 91.249595642 1.6689888239 52.438610077 1.8516442776 1.8516442776
 2258.6447754 6.0000000000 12.211000443 -0.026000001 0.2763645053 2.3789999485 6.7500000000 85.805892944 91.001205444 1.6621105671 52.198120117 1.6295272112 1.6295272112
 2258.7973633 6.0000000000 12.211000443 -0.033000000 0.2631800175 2.3440001011 6.5659999847 81.384803772 91.752792358 1.7312783003 52.894649506 1.3346672058 1.3346672058
 2258.9497070 6.0000000000 12.211000443 -0.030999999 0.2524400055 2.3320000172 6.7270002365 84.450721741 92.622596741 1.8180063963 52.474018097 1.2311313152 1.2311313152
 2259.1020508 6.0000000000 12.211000443 -0.026000001 0.2392810881 2.3550000191 6.8280000687 92.375099182 91.123199463 1.8219358921 52.486431122 1.3136490583 1.3136490583
 2259.2543945 6.0000000000 12.211000443 -0.020000000 0.2377923429 2.3959999084 6.0900001526 92.440704346 89.997398376 1.7820287943 52.755271912 1.7190001011 1.7190001011
 2259.4067383 6.0000000000 12.211000443 -0.021000000 0.2494912297 2.4119999409 5.3400001526 94.115585327 88.377601624 1.8000977039 52.922870636 2.3420593739 2.3420593739
 2259.5593262 6.0000000000 12.211000443 -0.022000000 0.2597700059 2.4100000858 4.9530000687 88.245002747 90.002403259 1.8613455296 52.842449188 2.3778128624 2.3778128624
 2259.7116699 6.0000000000 12.211000443 -0.024000000 0.2578131258 2.3829998970 5.3010001183 86.686698914 90.750602722 1.9691683054 53.292621613 2.0078396797 2.0078396797
 2259.8640137 6.0000000000 12.211000443 -0.029999999 0.2602460980 2.3629999161 5.6560001373 85.874595642 91.125602722 2.0739133358 52.435272217 1.9080240726 1.9080240726
 2260.0163574 6.0000000000 12.281000137 -0.033000000 0.2656213939 2.3550000191 5.9650001526 85.635017395 91.499397278 2.0198302269 52.601924896 1.9229118824 1.9229118824
 2260.1689453 6.0000000000 12.319999695 -0.037000000 0.2758799791 2.3610000610 5.6370000839 91.867797852 91.128601074 1.9140480757 51.932064056 1.8670592308 1.8670592308
 2260.3212891 6.0000000000 12.305000305 -0.035000000 0.2778300047 2.3650000095 5.3979997635 89.628906250 92.249000549 1.9289119244 52.263774872 1.5736570358 1.5736570358
 2260.4736328 6.0000000000 12.211000443 -0.035000000 0.2656495273 2.3550000191 5.2849998474 92.059097290 91.625999451 1.8736922741 52.746269226 1.3602019548 1.3602019548
 2260.6259766 6.0000000000 12.211000443 -0.026000001 0.2661092281 2.3750000000 5.4689998627 89.626106262 92.250602722 1.6818172932 52.290870667 1.4866473675 1.4866473675
 2260.7785645 6.0000000000 12.211000443 -0.021000000 0.2636699975 2.3910000324 5.3049998283 90.314201355 92.625396729 1.5676927567 52.832637787 1.8907775879 1.8907775879
 2260.9309082 6.0000000000 12.211000443 -0.021000000 0.2695299983 2.3789999485 5.1209998131 90.682296753 92.749595642 1.4719198942 52.720428467 2.1322162151 2.1322162151
 2261.0832520 6.0000000000 12.211000443 -0.027000001 0.2553926706 2.3420000076 4.7930002213 87.126602173 92.499000549 1.4219503403 52.986270905 1.6436682940 1.6436682940
 2261.2355957 6.0000000000 12.211000443 -0.030999999 0.2412326932 2.3259999752 5.1989998817 88.122299194 91.874404907 1.3908013105 53.153823853 1.4370015860 1.4370015860
 2261.3879395 6.0000000000 12.211000443 -0.028000001 0.2236581892 2.3420000076 5.1719999313 86.433296204 91.500801086 1.2668316364 53.044170380 1.4381794930 1.4381794930
 2261.5405273 6.0000000000 12.211000443 -0.026000001 0.2314500064 2.3359999657 5.2849998474 83.488204956 91.994400024 1.1622527838 53.150638580 1.5491296053 1.5491296053
 2261.6928711 6.0000000000 12.211000443 -0.030999999 0.2407051772 2.2969999313 5.0780000687 79.796272278 90.245590210 1.2413398027 53.348266602 1.2775993347 1.2775993347
