# LAS format log file from PETREL
# Project units are specified as depth units
#==================================================================
~Version information
VERS.   2.0:
WRAP.   NO:
#==================================================================
~Well
STRT .m      1242.0020752 :
STOP .m      2811.1123047 :
STEP .m     0.00000000 :
NULL .        -999.250000 :
COMP.           : COMPANY
WELL.  35/11-9   : WELL
FLD.            : FIELD
LOC.            : LOCATION
SRVC.           : SERVICE COMPANY
DATE.  2018-09-11 14:48:57   : Log Export Date {yyyy-MM-dd HH:mm:ss}
PROV.           : PROVINCE
UWI.   35/11-9   : UNIQUE WELL ID
API.            : API NUMBER
#==================================================================
~Curve
DEPT .m                   : DEPTH
Lithology_geolink ._      : Lithology_geolink
CALI .in                  : CALI
BS .in                    : BS
DRHO .g/cm3               : DRHO
NPHI .m3/m3               : NPHI
RHOB .g/cm3               : RHOB
GR .gAPI                  : GR
DTC .us/ft                : DTC
DTS .us/ft                : DTS
RDEP .ohm.m               : RDEP
SP .mV                    : SP
RMIC .ohm.m               : RMIC
~Parameter
#==================================================================
~Ascii
# ...
 2792.8242188 16.000000000 8.5810003281 8.5000000000 -0.161742240 0.2985163927 2.4050064087 113.46131897  -999.250000  -999.250000 18.444309235  -999.250000 23.864000320
 2792.9768066 16.000000000 8.5830001831 8.5000000000 -0.161343634 0.2939794362 2.3990094662 111.17205811  -999.250000  -999.250000 18.779462814  -999.250000 17.599000931
 2793.1291504 16.000000000 8.6190004349 8.5000000000 -0.162074804 0.2947151959 2.3920111656 112.12300110  -999.250000  -999.250000 17.078731537  -999.250000 17.885999680
 2793.2814941  -999.250000 8.6569995880 8.5000000000 -0.162671044 0.2564798892 2.3900032043 110.87568665  -999.250000  -999.250000 15.792060852  -999.250000 16.136999130
 2793.4338379  -999.250000 8.6680002213 8.5000000000 -0.164386243 0.2165366709 2.3939936161 110.05937958  -999.250000  -999.250000 14.553983688  -999.250000 10.902999878
 2793.5861816  -999.250000 8.6800003052 8.5000000000 -0.162168115 0.1872919053 2.4249007702 112.15918732  -999.250000  -999.250000 10.961525917  -999.250000 13.352000237
 2793.7387695  -999.250000 8.6899995804 8.5000000000 -0.159530222 0.2154075652 2.4639375210 109.16470337  -999.250000  -999.250000 11.902471542  -999.250000 12.236000061
 2793.8911133  -999.250000 8.6960000992 8.5000000000 -0.153119281 0.2481004596 2.5209085941 111.24815369  -999.250000  -999.250000 14.749432564  -999.250000 17.909999847
 2794.0434570  -999.250000 8.6540002823 8.5000000000 -0.146757185 0.2638695836 2.5739150047 108.23398590  -999.250000  -999.250000 19.997583389  -999.250000 57.405998230
 2794.1958008  -999.250000 8.6250000000 8.5000000000 -0.144137368 0.2377526760 2.5869584084 109.46870422  -999.250000  -999.250000 27.097236633  -999.250000 73.223999023
 2794.3483887  -999.250000 8.6090002060 8.5000000000 -0.148615807 0.1843000948 2.5740206242 108.04221344  -999.250000  -999.250000 51.331138611  -999.250000 256.41198730
 2794.5007324  -999.250000 8.5810003281 8.5000000000 -0.152008563 0.1482401043 2.5620193481 109.34983063  -999.250000  -999.250000 95.972404480  -999.250000 131.87399292
 2794.6530762  -999.250000 8.5769996643 8.5000000000 -0.145231888 0.1360734105 2.5859615803 107.37626648  -999.250000  -999.250000 110.66653442  -999.250000 91.686996460
 2794.8054199  -999.250000 8.5780000687 8.5000000000 -0.139218271 0.1496536285 2.5979616642 108.16334534  -999.250000  -999.250000 58.211471558  -999.250000 36.520000458
 2794.9580078  -999.250000 8.5989999771 8.5000000000 -0.146526247 0.1742888689 2.5720417500 107.12673950  -999.250000  -999.250000 34.004585266  -999.250000 30.066999435
 2795.1103516  -999.250000 8.6250000000 8.5000000000 -0.155234039 0.2121008933 2.5280706882  -999.250000  -999.250000  -999.250000 19.568111420  -999.250000 20.517000198
 2795.2626953  -999.250000 8.6680002213 8.5000000000 -0.164908484 0.2463064194 2.4690947533  -999.250000  -999.250000  -999.250000 11.113533974  -999.250000 9.8000001907
 2795.4150391  -999.250000 8.6850004196 8.5000000000 -0.174248040 0.2516474128 2.4070994854  -999.250000  -999.250000  -999.250000 9.7102308273  -999.250000 4.1149997711
 2795.5673828  -999.250000 8.7200002670 8.5000000000 -0.179113433 0.2283831984 2.3641376495  -999.250000  -999.250000  -999.250000 8.8417806625  -999.250000 8.2569999695
 2795.7199707  -999.250000 8.7589998245 8.5000000000 -0.173249438 0.2072564065 2.3560128212  -999.250000  -999.250000  -999.250000 7.3174424171  -999.250000 8.6590003967
 2795.8723145  -999.250000 8.7930002213 8.5000000000 -0.165053144 0.1991081685 2.3559999466  -999.250000  -999.250000  -999.250000 6.4034628868  -999.250000 2.9509999752
 2796.0246582  -999.250000 8.8129997253 8.5000000000 -0.163173988 0.2087099105 2.3470141888  -999.250000  -999.250000  -999.250000 6.3750433922  -999.250000 2.3889999390
 2796.1770020  -999.250000 8.8249998093 8.5000000000 -0.167793155 0.2177554369 2.3280608654  -999.250000  -999.250000  -999.250000 5.6772403717  -999.250000 2.7709999084
 2796.3295898  -999.250000 8.7950000763 8.5000000000 -0.172817960 0.2349971086 2.3210113049  -999.250000  -999.250000  -999.250000 5.0599870682  -999.250000 2.7760000229
 2796.4819336  -999.250000 8.7559995651 8.5000000000 -0.177266881 0.2350121737 2.3239951134  -999.250000  -999.250000  -999.250000 5.4383912086  -999.250000 3.0659999847
 2796.6342773  -999.250000 8.6850004196 8.5000000000 -0.178657785 0.2335826606 2.3509569168  -999.250000  -999.250000  -999.250000 6.2816472054  -999.250000 8.0279998779
 2796.7866211  -999.250000 8.6470003128 8.5000000000 -0.174161434 0.2288321853 2.3848912716  -999.250000  -999.250000  -999.250000 8.0812273026  -999.250000 14.807999611
 2796.9392090  -999.250000 8.6110000610 8.5000000000 -0.163343340 0.2344957888 2.4249358177  -999.250000  -999.250000  -999.250000 10.071813583  -999.250000 17.427000046
 2797.0915527  -999.250000 8.6110000610 8.5000000000 -0.159194633 0.2369099855 2.4369807243  -999.250000  -999.250000  -999.250000 14.232327461  -999.250000 18.464000702
 2797.2438965  -999.250000 8.6110000610 8.5000000000 -0.161277652 0.2317467481 2.4350030422  -999.250000  -999.250000  -999.250000 17.175287247  -999.250000 18.378000259
 2797.3962402  -999.250000 8.6110000610 8.5000000000 -0.162490070 0.2394779772 2.4220206738  -999.250000  -999.250000  -999.250000 17.530437469  -999.250000 18.125999451
 2797.5485840  -999.250000 8.6269998550 8.5000000000 -0.162470073 0.2494568676 2.4200065136  -999.250000  -999.250000  -999.250000 16.928932190  -999.250000 16.944999695
 2797.7011719  -999.250000 8.6190004349 8.5000000000 -0.163045079 0.2596524358 2.4200000763  -999.250000  -999.250000  -999.250000 16.975921631  -999.250000 16.165000916
 2797.8535156  -999.250000 8.6110000610 8.5000000000 -0.162842333 0.2543314993 2.4279870987  -999.250000  -999.250000  -999.250000 16.402919769  -999.250000 16.990999222
 2798.0058594  -999.250000 8.6110000610 8.5000000000 -0.162573427 0.2484141141 2.4240064621  -999.250000  -999.250000  -999.250000 16.504833221  -999.250000 17.947999954
 2798.1582031  -999.250000 8.6099996567 8.5000000000 -0.161408737 0.2459635139 2.4259936810  -999.250000  -999.250000  -999.250000 16.907707214  -999.250000 16.684000015
 2798.3107910  -999.250000 8.5830001831 8.5000000000 -0.161523804 0.2461020350 2.4170143604  -999.250000  -999.250000  -999.250000 16.822139740  -999.250000 15.105999947
 2798.4631348  -999.250000 8.5810003281 8.5000000000 -0.162277788 0.2422101796 2.4060175419  -999.250000  -999.250000  -999.250000 15.276480675  -999.250000 13.873000145
 2798.6154785  -999.250000 8.5810003281 8.5000000000 -0.165417969 0.2497403175 2.3920223713  -999.250000  -999.250000  -999.250000 15.384821892  -999.250000 12.496000290
 2798.7678223  -999.250000 8.5810003281 8.5000000000 -0.164922610 0.2585757971 2.3840255737  -999.250000  -999.250000  -999.250000 14.502832413  -999.250000 13.475999832
 2798.9204102  -999.250000 8.5810003281 8.5000000000 -0.161422625 0.2678273618 2.3869953156  -999.250000  -999.250000  -999.250000 14.374201775  -999.250000 12.274999619
 2799.0727539  -999.250000 8.5799999237 8.5000000000 -0.160933778  -999.250000 2.3879983425  -999.250000  -999.250000  -999.250000 12.960268974  -999.250000 12.184000015
 2799.2250977  -999.250000 8.6110000610 8.5000000000 -0.164346516  -999.250000 2.3850047588  -999.250000  -999.250000  -999.250000 12.585597992  -999.250000 11.017999649
 2799.3774414  -999.250000 8.6110000610 8.5000000000 -0.161286920  -999.250000 2.3909904957  -999.250000  -999.250000  -999.250000 12.857562065  -999.250000 12.038000107
 2799.5297852  -999.250000 8.6079998016 8.5000000000 -0.164273411  -999.250000 2.3939905167  -999.250000  -999.250000  -999.250000 13.478009224  -999.250000 13.793999672
 2799.6823730  -999.250000 8.5880002975 8.5000000000 -0.163886636  -999.250000 2.4019870758  -999.250000  -999.250000  -999.250000 14.456433296  -999.250000 14.411000252
 2799.8347168  -999.250000 8.6110000610 8.5000000000 -0.161186337  -999.250000 2.4029984474  -999.250000  -999.250000  -999.250000 14.535875320  -999.250000 15.234999657
 2799.9870605  -999.250000 8.6120004654 8.5000000000 -0.155116737  -999.250000 2.4069936275  -999.250000  -999.250000  -999.250000 15.332720757  -999.250000 17.200000763
