# LAS format log file from PETREL
# Project units are specified as depth units
#==================================================================
~Version information
VERS.   2.0:
WRAP.   NO:
#==================================================================
~Well
STRT .m      998.18890381 :
STOP .m      3019.4697266 :
STEP .m     0.00000000 :
NULL .        -999.250000 :
COMP.           : COMPANY
WELL.  35/12-1   : WELL
FLD.            : FIELD
LOC.            : LOCATION
SRVC.           : SERVICE COMPANY
DATE.  2018-09-11 14:48:57   : Log Export Date {yyyy-MM-dd HH:mm:ss}
PROV.           : PROVINCE
UWI.   35/12-1   : UNIQUE WELL ID
API.            : API NUMBER
#==================================================================
~Curve
DEPT .m                   : DEPTH
Lithology_geolink ._      : Lithology_geolink
CALI .in                  : CALI
BS .in                    : BS
DRHO .g/cm3               : DRHO
NPHI .m3/m3               : NPHI
RHOB .g/cm3               : RHOB
PEF .b/e                  : PEF
GR .gAPI                  : GR
DTC .us/ft                : DTC
RDEP .ohm.m               : RDEP
SP .mV                    : SP
RSHA .ohm.m               : RSHA
RMIC .ohm.m               : RMIC
RMED .ohm.m               : RMED
~Parameter
#==================================================================
~Ascii
# ...
 2210.3784180  -999.250000 18.016000748 17.500000000 -0.005000000 0.2479807585 2.5969998837 4.2500000000 94.810997009 82.271011353 2.8022308350 -174.4438934 5.2664709091 4.3709998131 0.0489999987
 2210.5307617  -999.250000 18.016000748 17.500000000 -0.004000000 0.2519807816 2.5989999771 4.0659999847 94.041000366 82.057998657 2.7691586018 -173.4591827 5.3097882271 4.0180001259 0.0489999987
 2210.6831055  -999.250000 18.016000748 17.500000000 -0.001000000 0.2569679916 2.6089999676 4.1560001373 95.082328796 82.526000977 2.7352175713 -171.9967041 5.3666353226 4.0299811363 0.0489999987
 2210.8354492  -999.250000 18.016000748 17.500000000 -0.001000000 0.2560064197 2.6070001125 4.2509999275 96.006523132 82.099998474 2.7061860561 -171.3849335 5.4753012657 4.0210142136 0.0489999987
 2210.9877930  -999.250000 18.016000748 17.500000000 0.0010000000 0.2480512708 2.6119999886 4.3249998093 95.766387939 81.513000488 2.7000384331 -170.3679047 5.4988527298 4.1238350868 0.0489999987
 2211.1403809  -999.250000 18.016000748 17.500000000 0.0010000000 0.2330721170 2.6110000610 4.4279999733 92.792999268 81.336006165 2.7129375935 -170.5035400 5.3815674782 4.5609998703 0.0489999987
 2211.2927246  -999.250000 18.016000748 17.500000000 0.0010000000 0.2429360002 2.6150000095 4.4239997864 92.219917297 81.097007751 2.7398703098 -170.5807495 5.1859421730 4.7536911964 0.0489999987
 2211.4450684  -999.250000 18.016000748 17.500000000 0.0010000000 0.2569102645 2.6140000820 4.2709999084 97.477561951 81.070991516 2.7897596359 -170.7730713 5.0984182358 4.7140641212 0.0489999987
 2211.5974121  -999.250000 18.010999680 17.500000000 0.0000000000 0.2560064197 2.6140000820 4.0370001793 102.14751434 80.648002625 2.8357787132 -170.7471313 5.2562355995 4.8088479042 0.0489999987
 2211.7500000  -999.250000 17.993999481 17.500000000 -0.001000000 0.2589855790 2.6140000820 3.9070000648 103.43499756 80.347999573 2.8598847389 -170.9024963 5.6282095909 4.7010002136 0.0489999987
 2211.9023438  -999.250000 18.010999680 17.500000000 -0.003000000 0.2480528802 2.6099998951 4.0489997864 98.721000671 80.267997742 2.8550240993 -170.1514130 5.9315433502 5.0850000381 0.0489999987
 2212.0546875  -999.250000 18.013000488 17.500000000 -0.004000000 0.2549552023 2.6070001125 4.1040000916 93.224807739 80.438003540 2.8520143032 -168.9567566 5.9887304306 4.7774925232 0.0489999987
 2212.2070313  -999.250000 18.004999161 17.500000000 -0.006000000 0.2440705150 2.6059999466 4.1700000763 92.424270630 81.740997314 2.9027550220 -168.8047028 5.8705720901 5.0256009102 0.0489999987
 2212.3596191  -999.250000 18.013000488 17.500000000 -0.007000000 0.2469855696 2.6080000401 4.2649998665 96.662002563 82.251998901 2.9278800488 -169.8396759 5.6868829727 4.8800001144 0.0489999987
 2212.5119629  -999.250000 18.016000748 17.500000000 -0.007000000 0.2469999939 2.6019999981 4.3130002022 101.08999634 82.073997498 2.9588510990 -169.8390198 5.7327737808 4.7829999924 0.0489999987
 2212.6643066  -999.250000 18.016000748 17.500000000 -0.007000000 0.2291152030 2.6040000916 4.4029998779 97.627548218 80.851997375 3.0067691803 -169.2798004 6.1977543831 4.5134320259 0.0489999987
 2212.8166504  -999.250000 18.013000488 17.500000000 -0.006000000 0.2200576961 2.6050000191 4.2859997749 91.706497192 79.329002380 3.0527787209 -170.1856232 6.7682547569 4.2793745995 0.0489999987
 2212.9689941  -999.250000 18.000000000 17.500000000 -0.003000000 0.2070833296 2.6199998856 4.3080000877 87.396903992 78.235992432 3.0996990204 -170.9642639 6.9657454491 4.2989678383 0.0489999987
 2213.1215820  -999.250000 17.989000320 17.500000000 -0.002000000 0.2050096095 2.6310000420 4.1999998093 88.376998901 77.128997803 3.1676731110 -170.7825928 6.9620237350 5.1779999733 0.0489999987
 2213.2739258  -999.250000 17.992000580 17.500000000 -0.001000000 0.2049999982 2.6380000114 4.2080001831 88.948081970 76.741996765 3.2476153374 -171.3172760 7.1242165565 6.0266399384 0.0489999987
 2213.4262695  -999.250000 17.968999863 17.500000000 -0.002000000 0.2268589735 2.6359999180 4.1929998398 88.619529724 77.531997681 3.3077116013 -171.2742157 7.2911968231 5.6406216621 0.0489999987
 2213.5786133  -999.250000 17.943000793 17.500000000 -0.002000000 0.2299807668 2.6340000629 4.4770002365 87.906143188 78.375999451 3.3000383377 -171.0918884 7.5437836647 5.4702720642 0.0489999987
 2213.7312012  -999.250000 17.947999954 17.500000000 -0.002000000 0.2309951931 2.6329998970 4.8249998093 86.184997559 78.061004639 3.2233695984 -172.1426086 7.8873486519 5.8169999123 0.0489999987
 2213.8835449  -999.250000 17.992000580 17.500000000 -0.001000000 0.2121215910 2.6329998970 4.9470000267 84.049003601 78.164001465 3.0816826820 -171.3894196 8.1786012650 5.5570001602 0.0489999987
 2214.0358887  -999.250000 18.013000488 17.500000000 -0.001000000 0.2239230871 2.6289999485 4.9050002098 84.170799255 78.634994507 2.9008703232 -171.1859741 8.0267400742 5.1306834221 0.0489999987
 2214.1882324  -999.250000 18.016000748 17.500000000 -0.001000000 0.2379102558 2.6219999790 4.6900000572 87.251052856 79.029998779 2.8522307873 -171.2765503 7.5174565315 5.1819167137 0.0489999987
 2214.3408203  -999.250000 18.016000748 17.500000000 -0.001000000 0.2509374917 2.6159999371 4.6050000191 88.708999634 79.674003601 2.8549857140 -170.6629639 6.9915246964 5.1620001793 0.0489999987
 2214.4931641  -999.250000 18.016000748 17.500000000 -0.001000000 0.2420432717 2.6159999371 4.6110000610 92.323997498 79.581001282 2.8649518490 -170.5403748 6.8954520226 4.6950001717 0.0489999987
 2214.6455078  -999.250000 18.016000748 17.500000000 0.0000000000 0.2181535959 2.6199998856 4.7319998741 92.581588745 79.518997192 2.8699758053 -170.7493286 6.8412594795 4.3994736671 0.0489999987
 2214.7978516  -999.250000 18.010999680 17.500000000 0.0000000000 0.2120384574 2.6250000000 4.7719998360 91.608566284 79.135002136 2.8341732025 -170.9987946 6.4956684113 4.5337834358 0.0489999987
 2214.9501953  -999.250000 17.983999252 12.283600807 0.0000000000 0.2169679403 2.6229999065 4.6250000000 90.146339417 78.560997009 2.6998639107 -171.2687073 5.9862704277 4.3273320198 0.0489999987
 2215.1027832  -999.250000 17.955999374 12.250000954 0.0000000000 0.2468557656 2.6199998856 4.2230000496 88.186996460 79.083000183 2.5865433216 -171.3228302 5.3381152153 4.2849998474 0.0489999987
 2215.2551270  -999.250000 17.944999695 12.250000954 0.0010000000 0.2479936033 2.6219999790 3.9649999142 91.517662048 81.623001099 2.6377499104 -170.5504913 4.7577886581 4.3059668541 0.0489999987
 2215.4074707  -999.250000 17.971000671 12.250000954 0.0010000000 0.2698589861 2.6180000305 3.6809999943 93.975059509 84.093002319 2.6330239773 -171.1461182 4.0006442070 4.1812005043 0.0489999987
 2215.5598145  -999.250000 18.007999420 12.250000954 -0.001000000 0.2749679685 2.5999999046 3.6119999886 98.230178833 87.331001282 2.5872211456 -171.6057892 3.3789854050 4.2319183350 0.0489999987
 2215.7124023  -999.250000 18.016000748 12.250000954 -0.003000000 0.3008750081 2.5710000992 3.5399999619 100.38899994 91.057998657 2.4287631512 -171.1753845 3.0863969326 3.7070000172 0.0489999987
 2215.8647461  -999.250000 18.016000748 12.250000954 -0.005000000 0.3049744070 2.5469999313 3.5060000420 102.74400330 93.497001648 2.2846922874 -170.2360229 2.9267644882 3.1830000877 0.0489999987
 2216.0170898  -999.250000 18.016000748 12.250000954 -0.005000000 0.3228846192 2.5420000553 3.5039999485 103.96405029 93.839004517 2.1775145531 -170.8201599 2.8314568996 2.8455407619 0.0489999987
 2216.1694336  -999.250000 18.016000748 12.250000954 -0.005000000 0.3220064044 2.5439999104 3.6110000610 101.92327881 92.873001099 2.1133077145 -170.7871704 2.7026200294 2.8020689487 0.0489999987
 2216.3220215  -999.250000 18.016000748 12.250000954 -0.003000000 0.3309567273 2.5539999008 3.6679999828 99.521003723 90.880996704 2.1080241203 -170.9235535 2.4551904202 2.9249999523 0.0489999987
 2216.4743652  -999.250000 18.016000748 12.250000954 0.0000000000 0.2971634567 2.5780000687 3.7880001068 97.925003052 89.258003235 2.1259133816 -170.5571747 2.4012548923 3.0829999447 0.0489999987
