# LAS format log file from PETREL
# Project units are specified as depth units
#==================================================================
~Version information
VERS.   2.0:
WRAP.   NO:
#==================================================================
~Well
STRT .m      1242.0020752 :
STOP .m      2811.1123047 :
STEP .m     0.00000000 :
NULL .        -999.250000 :
COMP.           : COMPANY
WELL.  35/11-9   : WELL
FLD.            : FIELD
LOC.            : LOCATION
SRVC.           : SERVICE COMPANY
DATE.  2018-09-11 14:48:57   : Log Export Date {yyyy-MM-dd HH:mm:ss}
PROV.           : PROVINCE
UWI.   35/11-9   : UNIQUE WELL ID
API.            : API NUMBER
#==================================================================
~Curve
DEPT .m                   : DEPTH
Lithology_geolink ._      : Lithology_geolink
CALI .in                  : CALI
BS .in                    : BS
DRHO .g/cm3               : DRHO
NPHI .m3/m3               : NPHI
RHOB .g/cm3               : RHOB
GR .gAPI                  : GR
DTC .us/ft                : DTC
DTS .us/ft                : DTS
RDEP .ohm.m               : RDEP
SP .mV                    : SP
RMIC .ohm.m               : RMIC
~Parameter
#==================================================================
~Ascii
# ...
 2690.4116211 1.0000000000 8.4580001831 8.5000000000 0.0096870000 0.2309409678 2.2460000515 40.222507477 92.788002014 161.59400940 3.5090000629 83.719001770 0.7160000205
 2690.5639648 1.0000000000 8.4860000610 8.5000000000 0.0091150012 0.2301210463 2.2439999580 38.674674988 92.883010864 162.02200317 3.4639999866 80.349998474 0.7530000210
 2690.7163086 1.0000000000 8.4890003204 8.5000000000 0.0075269998 0.2357431650 2.2449998856 41.591117859 92.727996826 162.37199402 3.4590001106 77.944000244 0.7289999723
 2690.8688965 7.0000000000 8.4890003204 8.5000000000 0.0097150002 0.2389047891 2.2509999275 43.531436920 92.367996216 162.61900330 3.4289999008 78.336997986 0.7279999852
 2691.0212402 7.0000000000 8.4650001526 8.5000000000 0.0104860002 0.2394809872 2.2560000420 43.348049164 92.748001099 162.77200317 3.4570000172 83.413002014 0.7160000205
 2691.1735840 7.0000000000 8.4580001831 8.5000000000 0.0094100004 0.2392774224 2.2479999065 38.396163940 93.539001465 162.94999695 3.4100000858 83.150001526 0.7519999743
 2691.3259277 7.0000000000 8.4580001831 8.5000000000 0.0063100001 0.2415919155 2.2369999886 38.500663757 93.616996765 163.77999878 3.4409999847 79.869003296 0.7120000124
 2691.4782715 7.0000000000 8.4580001831 8.5000000000 0.0059460001 0.2443530709 2.2300000191 40.156608582 94.192001343 163.96598816 3.4110000134 81.574996948 0.7289999723
 2691.6308594 7.0000000000 8.4580001831 8.5000000000 0.0049589998 0.2412818521 2.2300000191 38.666137695 94.898002625 165.25700378 3.4400000572 78.425003052 0.6970000267
 2691.7832031 7.0000000000 8.4580001831 8.5000000000 0.0062790001 0.2443512082 2.2320001125 38.395278931 94.958999634 166.46299744 3.4400000572 80.086997986 0.6589999795
 2691.9355469 7.0000000000 8.4580001831 8.5000000000 0.0074319998 0.2431573272 2.2360000610 36.701801300 96.216003418 166.75399780 3.4449999332 81.400001526 0.6840000153
 2692.0878906 7.0000000000 8.4580001831 8.5000000000 0.0076520001 0.2457394898 2.2339999676 37.829578400 95.325996399 167.06100464 3.4679999352 82.188003540 0.6669999957
 2692.2404785 7.0000000000 8.4580001831 8.5000000000 0.0063510002 0.2437238395 2.2339999676 41.292400360 94.971000671 167.98300171 3.4790000916 82.974998474 0.6869999766
 2692.3928223 7.0000000000 8.4580001831 8.5000000000 0.0046680002 0.2455852181 2.2309999466 37.991546631 95.428001404 169.98800659 3.4270000458 78.380996704 0.6250000000
 2692.5451660 7.0000000000 8.4580001831 8.5000000000 0.0020590001 0.2520521879 2.2300000191 38.955070496 95.044998169 169.81700134 3.2880001068 73.481002808 0.6179999709
 2692.6975098 7.0000000000 8.4580001831 8.5000000000 0.0009759999 0.2502329350 2.2249999046 38.998859406 95.059989929 169.60899353 3.1210000515 74.969001770 0.6480000019
 2692.8500977 7.0000000000 8.4580001831 8.5000000000 0.0019630000 0.2461788505 2.2230000496 39.536174774 95.481002808 169.60200500 2.9519999027 78.163002014 0.6190000176
 2693.0024414 7.0000000000 8.4580001831 8.5000000000 0.0029120001 0.2480425686 2.2219998837 40.212104797 94.888999939 170.50000000 2.8380000591 80.481002808 0.6280000210
 2693.1547852 7.0000000000 8.4580001831 8.5000000000 0.0018020000 0.2548225522 2.2279999256 39.045711517 93.304000854 170.70799255 2.9820001125 77.155998230 0.6290000081
 2693.3071289 6.0000000000 8.4829998016 8.5000000000 0.0007000000 0.2631449699 2.2390000820 48.247379303 90.906997681 165.77000427 3.3529999256 75.188003540 1.1210000515
 2693.4594727 6.0000000000 8.5279998779 8.5000000000 0.0067119999 0.2818713188 2.3039999008 69.683975220 88.277999878 162.21000671 3.9800000191 74.005996704 17.326000214
 2693.6120605 5.0000000000 8.5500001907 8.5000000000 0.0121339997 0.3075739145 2.3870000839 80.935112000 86.092002869 157.83399963 6.7049999237 73.525001526 15.310999870
 2693.7644043 5.0000000000 8.5500001907 8.5000000000 0.0243749991 0.3284500539 2.4830000401 97.179283142 85.513999939 154.39900208 7.9889998436 73.000000000 2.8080000877
 2693.9167480 5.0000000000 8.5500001907 8.5000000000 0.0322729982 0.3255703747 2.5000000000 104.80683136 84.007003784 153.30200195 7.2839999199 72.736999512 1.3109999895
 2694.0690918 2.0000000000 8.5360002518 8.5000000000 0.0356450006 0.3288130164 2.4849998951 88.505920410 83.681999207 151.44297791 7.1079998016 73.788002014 6.9029998779
 2694.2216797 2.0000000000 8.5500001907 8.5000000000 0.0320479982 0.3344490826 2.4739999771 89.157867432 82.935989380 151.12200928 6.9489998817 77.155998230 12.137000084
 2694.3740234 2.0000000000 8.5500001907 8.5000000000 0.0349880010 0.3407034576 2.4920001030 112.78855896 82.630996704 152.49699402 7.1550002098 75.449996948 9.4149999619
 2694.5263672 2.0000000000 8.5500001907 8.5000000000 0.0435869992 0.3466056585 2.5230000019 111.27006531 82.249000549 150.44601440 8.2729997635 74.925003052 4.6719999313
 2694.6787109 2.0000000000 8.5500001907 8.5000000000 0.0401480012 0.3474567235 2.5230000019 111.93273163 81.311996460 147.80499268 7.0939998627 73.918998718 2.3310000896
 2694.8312988 2.0000000000 8.5459995270 8.5000000000 0.0295410007 0.3560009301 2.5510001183 111.13530731 82.972999573 147.14599609 5.9730000496 72.956001282 1.2849999666
 2694.9836426 2.0000000000 8.5299997330 8.5000000000 0.0306030009 0.3400205374 2.6080000401 108.40434265 81.816001892 146.35099792 5.5050001144 74.050003052 6.7309999466
 2695.1359863 2.0000000000 8.5500001907 8.5000000000 0.0456020012 0.3338783383 2.6909999847 93.630897522 82.491996765 146.31700134 5.3159999847 75.974998474 4.1139998436
 2695.2883301 2.0000000000 8.5469999313 8.5000000000 0.0342359990 0.3240441680 2.6570000648 72.413421631 82.275001526 147.72300720 6.0289998055 78.119003296 16.589000702
 2695.4406738 2.0000000000 8.5209999084 8.5000000000 0.0178130008 0.3278602362 2.5840001106 91.395538330 81.775993347 149.07098389 8.6210002899 77.900001526 16.847999573
 2695.5932617 2.0000000000 8.5200004578 8.5000000000 0.0170629993 0.3385738134 2.5380001068 110.42488098 82.153999329 149.21697998 9.5340003967 75.275001526 16.525999069
 2695.7456055 1.0000000000 8.5480003357 8.5000000000 0.0183929987 0.3510673344 2.5190000534 111.01328278 82.375999451 147.11900330 17.395000458 75.494003296 17.099000931
 2695.8979492 1.0000000000 8.5500001907 8.5000000000 0.0180280004 0.3794898987 2.5160000324 111.82182312 83.603996277 146.71699524 19.072000504 76.456001282 16.201999664
 2696.0502930 1.0000000000 8.5419998169 8.5000000000 0.0214649998 0.3844217658 2.5199999809 119.18988800 85.016998291 146.66700745 16.628000259 79.125000000 5.1189999580
 2696.2028809 1.0000000000 8.5190000534 8.5000000000 0.0200210027 0.3804764748 2.5230000019 120.31787109 84.923004150 146.46200562 9.5640001297 78.819000244 10.967000008
 2696.3552246 1.0000000000 8.5069999695 8.5000000000 0.0185330007 0.3520566821 2.4930000305 105.94506836 87.301002502 155.52499390 4.1859998703 79.869003296 0.6399999857
 2696.5075684 1.0000000000 8.4580001831 8.5000000000 0.0105210003 0.3195840120 2.4289999008 103.45340729 90.581001282 158.37899780 3.5179998875 82.361999512 0.4550000131
 2696.6599121 1.0000000000 8.4429998398 8.5000000000 0.0096540004 0.2993258834 2.3710000515 75.653190613 95.588996887 165.67901611 2.2969999313 82.755996704 1.6230000257
 2696.8125000 1.0000000000 8.4469995499 8.5000000000 0.0055260002 0.2846469283 2.2999999523 63.904472351 94.558998108 169.20300293 1.8949999809 80.569000244 0.6110000014
 2696.9648438 1.0000000000 8.4280004501 8.5000000000 0.0055880002 0.2794786096 2.2690000534 53.152599335 95.347000122 172.66499329 1.8930000067 78.905998230 0.3160000145
 2697.1171875 1.0000000000 8.4280004501 8.5000000000 0.0040779999 0.2837507725 2.2520000935 55.390602112 95.396003723 173.76499939 1.8279999495 81.400001526 0.3650000095
 2697.2695313 1.0000000000 8.4040002823 8.5000000000 0.0095939999 0.2833584249 2.2799999714 51.410369873 95.543998718 174.63800049 1.8430000544 84.331001282 0.8460000157
 2697.4218750 1.0000000000 8.3970003128 8.5000000000 0.0113570001 0.2797324061 2.3099999428 54.757637024 95.761001587 174.62998962 1.9819999933 85.074996948 0.4810000062
 2697.5744629 1.0000000000 8.3970003128 8.5000000000 0.0102700004 0.2711059749 2.3059999943 55.775413513 95.825996399 174.92999268 2.1610000134 84.069000244 0.4020000100
