# LAS format log file from PETREL
# Project units are specified as depth units
#==================================================================
~Version information
VERS.   2.0:
WRAP.   NO:
#==================================================================
~Well
STRT .m      1245.0043945 :
STOP .m      3214.9267578 :
STEP .m     0.00000000 :
NULL .        -999.250000 :
COMP.           : COMPANY
WELL.  35/11-11   : WELL
FLD.            : FIELD
LOC.            : LOCATION
SRVC.           : SERVICE COMPANY
DATE.  2018-09-11 14:48:54   : Log Export Date {yyyy-MM-dd HH:mm:ss}
PROV.           : PROVINCE
UWI.   35/11-11   : UNIQUE WELL ID
API.            : API NUMBER
#==================================================================
~Curve
DEPT .m                   : DEPTH
Lithology_geolink ._      : Lithology_geolink
CALI .in                  : CALI
BS .in                    : BS
ROP .m/h                  : ROP
DRHO .g/cm3               : DRHO
THOR .ppm                 : THOR
NPHI .m3/m3               : NPHI
RHOB .g/cm3               : RHOB
PEF .b/e                  : PEF
GR .gAPI                  : GR
URAN .ppm                 : URAN
DTC .us/ft                : DTC
DTS .us/ft                : DTS
RDEP .ohm.m               : RDEP
SP .mV                    : SP
RMIC .ohm.m               : RMIC
RMED .ohm.m               : RMED
~Parameter
#==================================================================
~Ascii
# ...
 2946.5502930 7.0000000000 8.6471996307 8.5000000000 92.224411011 -0.003100000 14.191699982 0.3269000053 2.5325999260 3.4237000942 122.60070038 -1.216599941 88.593696594 163.71481323 7.3906269073 44.787399292 9.2196998596 8.2009534836
 2946.7026367 7.0000000000 8.6508998871 8.5000000000 92.224411011 -0.004800000 14.371999741 0.3337999880 2.5141999722 3.4542000294 128.68460083 -1.178200006 88.116104126 165.09849548 8.3739452362 45.307899475 9.7339000702 9.2606000900
 2946.8552246 7.0000000000 8.6534996033 8.5000000000 92.224411011 -0.005200000 14.426099777 0.3093999922 2.5171999931 3.4159998894 131.43589783 -1.134099960 85.706802368 159.96212769 7.9669585228 45.920600891 8.6188001633 8.8000450134
 2947.0075684 7.0000000000 8.6483001709 8.5000000000 92.224411011 -0.004400000 14.282199860 0.2942999899 2.5392000675 3.3645999432 130.15339661 -1.000399947 84.129493713 158.61640930 6.6111755371 45.692100525 8.2964000702 7.3053979874
 2947.1599121 7.0000000000 8.6515998840 8.5000000000 92.224411011 -0.004300000 14.165599823 0.2754999995 2.5596001148 3.3793001175 122.33689880 -0.951699972 82.385398865 156.80398560 6.9129123688 44.846298218 7.5534000397 7.6450510025
 2947.3122559 7.0000000000 8.6549997330 8.5000000000 92.224411011 -0.003200000 12.447099686 0.2734000087 2.5808000565 3.3880000114 118.25930023 -1.172299981 81.397300720 153.55250549 6.7969737053 44.570701599 7.7281999588 7.5187072754
 2947.4648438 7.0000000000 8.6527996063 8.5000000000 92.224411011 -0.003000000 12.430000305 0.2669000030 2.5908000469 3.4381999969 117.10780334 -1.156299949 81.333297729 152.83709717 8.0404043198 45.153701782 7.8668999672 8.8323907852
 2947.6171875 7.0000000000 8.6476001740 8.5000000000 85.062339783 -0.002600000 12.366499901 0.2639999986 2.5954000950 3.5023000240 120.20410156 -1.121199965 81.932998657 154.31640625 8.0727510452 45.562500000 8.8463001251 8.8453826904
 2947.7695313 7.0000000000 8.6468000412 8.5000000000 85.062339783 -0.002700000 12.544899940 0.2644000053 2.5917999744 3.6013000011 120.43099976 -0.951699972 82.328895569 148.48030090 7.3721246719 45.196201324 8.4924001694 8.0506763458
 2947.9218750 7.0000000000 8.6483001709 8.5000000000 85.062339783 -0.001400000 12.803799629 0.2813999951 2.5931000710 3.6131999493 120.59719849 -0.687399983 83.254501343 152.60929871 6.7843828201 44.741798401 8.7161998749 7.4436445236
 2948.0744629 7.0000000000 8.6409997940 8.5000000000 85.062339783 -0.000600000 12.752599716 0.3046999872 2.5940001011 3.5859999657 120.31739807 -0.593900025 83.708297729 155.29820251 7.5286021233 44.824798584 9.3731002808 8.2109651566
 2948.2268066 7.0000000000 8.6499996185 8.5000000000 85.062339783 -0.001400000 12.671899796 0.3086999953 2.5894000530 3.5666999817 124.28489685 -0.512399971 84.083297729 157.09919739 9.0344839096 45.166500092 9.9579000473 9.8223152161
 2948.3791504 7.0000000000 8.6529998779 8.5000000000 85.062339783 -0.003100000 12.437199593 0.3278000057 2.5838000774 3.5878000259 123.53669739 -0.539399981 83.807998657 158.40910339 8.0436944962 44.946201324 9.7178001404 8.7468309402
 2948.5314941 7.0000000000 8.6438999176 8.5000000000 84.022315979 -0.004200000 12.086000443 0.3174999952 2.5836999416 3.6171998978 122.82879639 -0.573000014 83.153289795 156.23339844 8.0123472214 44.458499908 9.3600997925 8.7100563049
 2948.6838379 7.0000000000 8.6456003189 8.5000000000 84.022315979 -0.004700000 12.155300140 0.3100000024 2.5868999958 3.6503999233 119.11070251 -0.599500000 82.293190002 156.90101624 8.8534002304 44.445701599 8.6541996002 9.5901746750
 2948.8364258 7.0000000000 8.6456003189 8.5000000000 84.022315979 -0.003300000 12.219499588 0.3174999952 2.5875000954 3.6661000252 122.69920349 -0.536400020 81.452400208 155.49569702 6.6853842735 44.762298584 7.2466001511 7.2420735359
 2948.9887695 7.0000000000 8.6372003555 8.5000000000 84.022315979 0.0000000000 11.974699974 0.2971999943 2.5857999325 3.6740000248 122.55789948 -0.701900005 79.668197632 153.13710022 5.8600192070 45.004100800 6.8973999023 6.3785800934
 2949.1411133 7.0000000000 8.6515998840 8.5000000000 84.022315979 0.0001000000 12.100899696 0.2888000011 2.5880999565 3.6440999508 125.35959625 -0.625899971 78.845199585 151.54557800 6.9039225578 45.029201508 7.2870998383 7.4720430374
 2949.2934570 7.0000000000 8.6549997330 8.5000000000 84.022315979 -0.001400000 11.647399902 0.2721000016 2.5922999382 3.6098001003 121.75180054 -0.797999978 78.437500000 150.46110535 7.0851235390 44.866798401 8.0129995346 7.6959867477
 2949.4460449 7.0000000000 8.6508998871 8.5000000000 84.022315979 -0.004500000 11.659899712 0.2757000029 2.5984001160 3.5550000668 119.24770355 -0.513100028 78.608596802 148.61030579 7.1604800224 44.550201416 8.5117998123 7.7480173111
 2949.5983887 7.0000000000 8.6429004669 8.5000000000 80.961288452 -0.003800000 11.634599686 0.2897999883 2.6031000614 3.5234000683 116.71610260 -0.480899990 77.247001648 146.12669373 8.5661439896 44.341701508 9.1634998322 9.2686595917
 2949.7507324 7.0000000000 8.6413002014 8.5000000000 80.961288452 -0.003800000 11.549799919 0.3023999929 2.6085000038 3.5429999828 115.13819885 -0.434899986 76.370498657 148.80610657 8.3271875381 44.512298584 9.1798000336 8.9679861069
 2949.9030762 7.0000000000 8.6527996063 8.5000000000 80.961288452 -0.003300000 11.578800201 0.3093000054 2.6164999008 3.6986000538 112.30500031 -0.510699987 76.602699280 150.48429871 7.0301628113 44.887298584 8.3636999130 7.5626101494
 2950.0556641 7.0000000000 8.6754999161 8.5000000000 80.961288452 -0.003600000 10.913599968 0.2813999951 2.6357998848 3.9198999405 102.41549683 -0.687799990 77.689002991 147.42860413 6.8858251572 45.095798492 8.8888998032 7.3972578049
 2950.2080078 7.0000000000 8.6752996445 8.5000000000 80.961288452 -0.0000000000 10.389200211 0.2694999874 2.6649999619 3.9546999931 104.72650146 -0.522199988 78.278305054 152.91389465 10.233526230 45.025100708 11.751199722 10.871921539
 2950.3603516 7.0000000000 8.6738004684 8.5000000000 80.961288452 -0.000300000 9.1176996231 0.2702000141 2.6670000553 3.9165000916 105.04070282 -1.058599949 79.319900513 152.59039307 9.9739255905 44.970798492 11.194100380 10.646671295
 2950.5126953 7.0000000000 8.6697998047 8.5000000000 80.961288452 -0.000900000 11.718500137 0.2836999893 2.6412999630 3.7904999256 115.65049744 -0.740100026 80.290199280 155.67269897 6.6302661896 45.066600800 9.3275003433 7.1193609238
 2950.6652832 7.0000000000 8.6656999588 8.5000000000 82.539375305 -0.004200000 13.859700203 0.2808000147 2.6023001671 3.8096001148 118.42520142 -0.808099985 81.632400513 155.32389832 7.5142745972 44.991798401 8.0904998779 8.0692682266
 2950.8176270 7.0000000000 8.6593999863 8.5000000000 82.539375305 -0.004900000 13.695699692 0.2827999890 2.5869998932 3.7685999870 131.17199707 -0.948499978 81.241096497 155.98510742 7.2146830559 44.841701508 7.9239001274 7.7615962029
 2950.9699707 7.0000000000 8.6517000198 8.5000000000 82.539375305 -0.004800000 14.026800156 0.2876000106 2.5889999866 3.7132999897 128.32470703 -0.912299991 81.322898865 155.57929993 5.9596138000 44.779201508 7.3965001106 6.4531993866
 2951.1223145 7.0000000000 8.6462001801 8.5000000000 82.539375305 -0.005200000 13.931799889 0.3145000041 2.5915000439 3.6628000736 126.57140350 -1.086899996 81.317001343 156.77148438 6.5217943192 44.783298492 7.2009000778 7.1265158653
 2951.2746582 7.0000000000 8.6549997330 8.5000000000 82.539375305 -0.004700000 14.027999878 0.3125999868 2.5945000648 3.5905001163 123.38639832 -1.098999977 81.775299072 157.55720520 7.3098726273 45.212100983 8.1905002594 8.0212316513
 2951.4272461 7.0000000000 8.6549997330 8.5000000000 82.539375305 -0.004100000 14.806099892 0.3203999996 2.5919001102 3.5790998936 126.94239807 -0.749899983 82.077400208 156.86659241 6.6884016991 45.495899200 7.9566001892 7.3793349266
 2951.5795898 7.0000000000 8.6449003220 8.5000000000 85.367454529 -0.002900000 14.626199722 0.3122999966 2.5920999050 3.5875999928 120.43090057 -0.918099999 81.982101440 157.67089844 5.3922791481 45.171100616 7.1423997879 5.9665660858
 2951.7319336 7.0000000000 8.6496000290 8.5000000000 85.367454529 -0.003100000 14.586199760 0.3391000032 2.5871000290 3.6602001190 118.09339905 -0.960600019 81.337806702 156.30969238 5.4837498665 44.870899200 6.6589999199 6.0558533669
