# LAS format log file from PETREL
# Project units are specified as depth units
#==================================================================
~Version information
VERS.   2.0:
WRAP.   NO:
#==================================================================
~Well
STRT .m      998.18890381 :
STOP .m      3019.4697266 :
STEP .m     0.00000000 :
NULL .        -999.250000 :
COMP.           : COMPANY
WELL.  35/12-1   : WELL
FLD.            : FIELD
LOC.            : LOCATION
SRVC.           : SERVICE COMPANY
DATE.  2018-09-11 14:48:57   : Log Export Date {yyyy-MM-dd HH:mm:ss}
PROV.           : PROVINCE
UWI.   35/12-1   : UNIQUE WELL ID
API.            : API NUMBER
#==================================================================
~Curve
DEPT .m                   : DEPTH
Lithology_geolink ._      : Lithology_geolink
CALI .in                  : CALI
BS .in                    : BS
DRHO .g/cm3               : DRHO
NPHI .m3/m3               : NPHI
RHOB .g/cm3               : RHOB
PEF .b/e                  : PEF
GR .gAPI                  : GR
DTC .us/ft                : DTC
RDEP .ohm.m               : RDEP
SP .mV                    : SP
RSHA .ohm.m               : RSHA
RMIC .ohm.m               : RMIC
RMED .ohm.m               : RMED
~Parameter
#==================================================================
~Ascii
# ...
 1673.0159912  -999.250000 17.444999695 17.500000000 -0.079999998  -999.250000 2.3519999981 3.8299999237 122.34613037 113.02200317 2.3859951496 178.60530090 2.0530240536 2.0759375095 0.0370000005
 1673.1684570  -999.250000 17.450000763 17.500000000 -0.081000000  -999.250000 2.3440001011 3.7309999466 122.95151520 113.50000000 2.3521633148 178.39533997 2.0271248817 2.2168872356 0.0370000005
 1673.3208008  -999.250000 17.500000000 17.500000000 -0.082999997  -999.250000 2.3329999447 3.5780000687 128.61845398 113.91300201 2.3261249065 178.16955566 2.0001296997 2.1960170269 0.0370000005
 1673.4732666  -999.250000 17.489999771 17.500000000 -0.086000003  -999.250000 2.3220000267 3.4019999504 130.31663513 114.33300018 2.2961440086 177.62586975 1.9840768576 2.2339694500 0.0370000005
 1673.6256104  -999.250000 17.429000854 17.500000000 -0.086000003  -999.250000 2.3239998817 3.3310000896 129.75944519 113.38500214 2.2960000038 177.02145386 1.9849952459 2.2469894886 0.0370000005
 1673.7780762  -999.250000 17.395999908 17.500000000 -0.085000001  -999.250000 2.3229999542 3.3589999676 125.53737640 113.88700104 2.2960000038 176.60166931 1.9740527868 2.2529952526 0.0370000005
 1673.9304199  -999.250000 17.395999908 17.500000000 -0.082999997  -999.250000 2.3229999542 3.3829998970 123.59854889 114.35198975 2.2870430946 176.56405640 1.9849470854 2.2290194035 0.0370000005
 1674.0827637  -999.250000 17.413999557 17.500000000 -0.082000002  -999.250000 2.3169999123 3.3629999161 124.21001434 114.53199768 2.2949552536 176.49617004 1.9899719954 1.8975316286 0.0370000005
 1674.2352295  -999.250000 17.420999527 17.500000000 -0.081000000  -999.250000 2.3129999638 3.3069999218 127.10668182 114.75199890 2.2999758720 176.99519348 1.9959712029 1.5113093853 0.0370000005
 1674.3875732  -999.250000 17.474000931 17.500000000 -0.081000000  -999.250000 2.3090000153 3.2899999619 131.00276184 114.78399658 2.2900481224 177.96168518 1.9880385399 1.8454635143 0.0370000005
 1674.5400391  -999.250000 17.503000259 17.500000000 -0.082999997  -999.250000 2.3059999943 3.3770000935 133.25920105 114.76399994 2.2780578136 178.21360779 1.9810335636 2.2496762276 0.0370000005
 1674.6923828  -999.250000 17.525999069 17.500000000 -0.085000001  -999.250000 2.2990000248 3.3989999294 137.30751038 114.87100220 2.2620770931 177.80697632 1.9541298151 2.3079071045 0.0370000005
 1674.8448486  -999.250000 17.535999298 17.500000000 -0.086000003  -999.250000 2.2990000248 3.5629999638 139.19349670 114.41999817 2.2510528564 178.14047241 1.9410624504 1.9742676020 0.0370000005
 1674.9971924  -999.250000 17.569999695 17.500000000 -0.086000003  -999.250000 2.2990000248 3.5090000629 136.12245178 113.64499664 2.2400529385 179.08673096 1.9370192289 0.8578950167 0.0370000005
 1675.1496582  -999.250000 17.632999420 17.500000000 -0.083999999  -999.250000 2.3090000153 3.4820001125 132.12719727 113.41600037 2.2390048504 179.39849854 1.9320240021 0.6281833649 0.0370000005
 1675.3020020  -999.250000 17.666999817 17.500000000 -0.082999997  -999.250000 2.3129999638 3.3750000000 127.01210022 113.27100372 2.2419857979 179.28727722 1.9429470301 0.8408293724 0.0370000005
 1675.4544678  -999.250000 17.659000397 17.500000000 -0.083999999  -999.250000 2.3129999638 3.3450000286 127.99420929 112.58399963 2.2619040012 179.70933533 1.9629039764 1.4874820709 0.0370000005
 1675.6068115  -999.250000 17.596000671 17.500000000 -0.086999997  -999.250000 2.3129999638 3.3410000801 128.97720337 111.89399719 2.3167355061 179.96238708 1.9918605089 2.0695335865 0.0370000005
 1675.7592773  -999.250000 17.541000366 17.500000000 -0.088000000  -999.250000 2.3220000267 3.4489998817 129.53855896 112.00000000 2.3657646179 179.60157776 2.0198655128 2.3217983246 0.0370000005
 1675.9116211  -999.250000 17.534000397 17.500000000 -0.088000000  -999.250000 2.3299999237 3.4830000401 131.23463440 112.34899902 2.3500769138 179.46023560 2.0180094242 2.4518957138 0.0370000005
 1676.0639648  -999.250000 17.556999207 17.500000000 -0.088000000  -999.250000 2.3250000477 3.4409999847 130.23759460 112.96399689 2.3201680183 179.25050354 1.9931401014 2.2722883224 0.0370000005
 1676.2164307  -999.250000 17.620000839 17.500000000 -0.088000000  -999.250000 2.3129999638 3.2569999695 130.46582031 113.81900024 2.2881538868 178.93949890 1.9740912914 2.2400257587 0.0370000005
 1676.3687744  -999.250000 17.663999557 17.500000000 -0.086000003  -999.250000 2.3069999218 3.2479999065 130.39212036 114.38400269 2.2601568699 178.51702881 1.9570952654 2.2190337181 0.0370000005
 1676.5212402  -999.250000 17.672000885 17.500000000 -0.085000001  -999.250000 2.3059999943 3.2990000248 133.18475342 114.73500061 2.2430818081 178.56391907 1.9410768747 2.1980168819 0.0370000005
 1676.6735840  -999.250000 17.669000626 17.500000000 -0.083999999  -999.250000 2.3029999733 3.3680000305 135.00308228 114.83200073 2.2290673256 178.52011108 1.9280624390 2.1790304184 0.0370000005
 1676.8260498  -999.250000 17.660999298 17.500000000 -0.082999997  -999.250000 2.3039999008 3.2139999866 133.73701477 114.98400879 2.2260143757 178.37922668 1.9170528650 2.1400313377 0.0370000005
 1676.9783936  -999.250000 17.666999817 17.500000000 -0.079999998  -999.250000 2.3139998913 3.1500000954 129.57633972 115.13200378 2.2299807072 177.77146912 1.9140144587 2.1080257893 0.0370000005
 1677.1308594  -999.250000 17.641000748 17.500000000 -0.078000002  -999.250000 2.3180000782 3.0799999237 125.16053009 115.15799713 2.2528896332 177.22686768 1.9358942509 2.1729481220 0.0370000005
 1677.2832031  -999.250000 17.562000275 17.500000000 -0.077000000  -999.250000 2.3180000782 3.2820000648 125.37382507 114.50700378 2.2918126583 177.04444885 1.9648605585 2.1680040359 0.0370000005
 1677.4356689  -999.250000 17.534000397 17.500000000 -0.078000002  -999.250000 2.3090000153 3.4749999046 126.40417480 114.51300049 2.3049376011 176.74647522 1.9749519825 2.1679999828 0.0370000005
 1677.5880127  -999.250000 17.535999298 17.500000000 -0.079999998  -999.250000 2.3010001183 3.5580000877 128.01570129 113.63600159 2.3258991241 176.97544861 1.9849519730 2.2599263191 0.0370000005
 1677.7404785  -999.250000 17.555000305 17.500000000 -0.082000002  -999.250000 2.2950000763 3.4379999638 128.33074951 114.08699799 2.3369469643 177.66789246 1.9929616451 2.2639968395 0.0370000005
 1677.8928223  -999.250000 17.547000885 17.500000000 -0.083999999  -999.250000 2.2939999104 3.2750000954 128.51585388 114.38700104 2.3399856091 178.08433533 1.9930000305 2.2450151443 0.0370000005
 1678.0452881  -999.250000 17.534000397 17.500000000 -0.086000003  -999.250000 2.2950000763 3.2230000496 129.16848755 114.09999847 2.3131296635 178.20980835 1.9830480814 2.2380056381 0.0370000005
 1678.1976318  -999.250000 17.531000137 17.500000000 -0.088000000  -999.250000 2.3010001183 3.3369998932 131.01051331 113.74900055 2.2980720997 178.22596741 1.9790191650 2.1890392303 0.0370000005
 1678.3499756  -999.250000 17.531000137 17.500000000 -0.088000000  -999.250000 2.3059999943 3.4189999104 132.52256775 113.55200195 2.3009831905 178.68389893 1.9859607220 2.2469069958 0.0370000005
 1678.5024414  -999.250000 17.531000137 17.500000000 -0.089000002  -999.250000 2.3069999218 3.5460000038 133.33135986 113.37699890 2.3169229031 179.27705383 1.9909759760 2.2959606647 0.0370000005
 1678.6547852  -999.250000 17.551000595 17.500000000 -0.090999998  -999.250000 2.2929999828 3.4630000591 130.67127991 113.73899841 2.3199856281 179.20118713 1.9850288630 2.2630529404 0.0370000005
 1678.8072510  -999.250000 17.638999939 17.500000000 -0.090999998  -999.250000 2.2839999199 3.4230000973 130.37422180 113.68099976 2.3299520016 179.58837891 1.9830096960 2.2060458660 0.0370000005
 1678.9595947  -999.250000 17.663999557 17.500000000 -0.088000000  -999.250000 2.2839999199 3.3169999123 133.91732788 113.68699646 2.3210432529 179.58100891 1.9869807959 2.2619104385 0.0370000005
 1679.1120605  -999.250000 17.628000259 17.500000000 -0.085000001  -999.250000 2.2939999104 3.3519999981 136.63481140 113.34799957 2.3180143833 179.58898926 1.9830192327 2.2659969330 0.0370000005
