# LAS format log file from PETREL
# Project units are specified as depth units
#==================================================================
~Version information
VERS.   2.0:
WRAP.   NO:
#==================================================================
~Well
STRT .m      2818.0771484 :
STOP .m      3213.0979004 :
STEP .m     0.00000000 :
NULL .        -999.250000 :
COMP.           : COMPANY
WELL.  35/11-15 S   : WELL
FLD.            : FIELD
LOC.            : LOCATION
SRVC.           : SERVICE COMPANY
DATE.  2018-09-11 14:48:55   : Log Export Date {yyyy-MM-dd HH:mm:ss}
PROV.           : PROVINCE
UWI.   35/11-15 S   : UNIQUE WELL ID
API.            : API NUMBER
#==================================================================
~Curve
DEPT .m                   : DEPTH
Lithology_geolink ._      : Lithology_geolink
CALI .in                  : CALI
BS .in                    : BS
ROP .m/h                  : ROP
DRHO .g/cm3               : DRHO
THOR .ppm                 : THOR
SGR .gAPI                 : SGR
RHOB .g/cm3               : RHOB
PEF .b/e                  : PEF
GR .gAPI                  : GR
URAN .ppm                 : URAN
DTC .us/ft                : DTC
DTS .us/ft                : DTS
RDEP .ohm.m               : RDEP
RMIC .ohm.m               : RMIC
RMED .ohm.m               : RMED
~Parameter
#==================================================================
~Ascii
# ...
 3128.2111816 2.0000000000  -999.250000 8.5000000000 63635.039063  -999.250000 2.1494998932 0.0307000000  -999.250000  -999.250000 54.264400482 -0.870199978 80.818199158 143.72729492 2.3728001118  -999.250000 1.8272999525
 3128.3635254 2.0000000000  -999.250000 8.5000000000 67214.875000  -999.250000 2.1895000935 0.0304000005  -999.250000  -999.250000 53.275199890 -0.969799995 80.818199158 144.36360168 2.3561000824  -999.250000 1.8061000109
 3128.5161133 2.0000000000  -999.250000 8.5000000000 65760.476563  -999.250000 2.1047999859 0.0299999993  -999.250000  -999.250000 52.876201630 -0.882099986 80.000000000 144.45449829 2.3886001110  -999.250000 1.8575999737
 3128.6684570 2.0000000000  -999.250000 8.5000000000 61869.960938  -999.250000 2.1433999538 0.0292000007  -999.250000  -999.250000 51.751300812 -0.840900004 79.454498291 144.00000000 2.5322000980  -999.250000 1.9385000467
 3128.8208008 2.0000000000  -999.250000 8.5000000000 62517.238281  -999.250000 2.2525000572 0.0299999993  -999.250000  -999.250000 53.447700500 -0.817200005 79.454498291 142.81820679 2.6268999577  -999.250000 2.0387001038
 3128.9731445 2.0000000000  -999.250000 8.5000000000 60958.082031  -999.250000 2.3183000088 0.0296999998  -999.250000  -999.250000 54.483001709 -0.710799992 79.363601685 141.45449829 2.9995000362  -999.250000 2.1925001144
 3129.1257324 2.0000000000  -999.250000 8.5000000000 58026.242188  -999.250000 2.4572000504 0.0298999995  -999.250000  -999.250000 60.703998566 -0.805599988 79.181800842 141.00000000 3.1984999180  -999.250000 2.3996999264
 3129.2780762 2.0000000000  -999.250000 8.5000000000 51866.640625  -999.250000 2.4870998859 0.0291000009  -999.250000  -999.250000 60.863201141 -0.583599985 78.181800842 141.09089661 3.1382999420  -999.250000 3.1675000191
 3129.4304199 2.0000000000  -999.250000 8.5000000000 47341.441406  -999.250000 2.9516000748 0.0274999999  -999.250000  -999.250000 57.555000305 -0.407099992 78.818199158 140.54539490 3.6689000130  -999.250000 3.3926999569
 3129.5827637 2.0000000000  -999.250000 8.5000000000 44137.437500  -999.250000 3.2009999752 0.0267999992  -999.250000  -999.250000 58.592601776 -0.255199999 79.363601685 138.45449829 5.8901000023  -999.250000 4.7294998169
 3129.7351074 2.0000000000  -999.250000 8.5000000000 38768.761719  -999.250000 3.4816000462 0.0263999999  -999.250000  -999.250000 69.770401001 -0.085000001 79.363601685 134.63639832 7.8857998848  -999.250000 6.4411997795
 3129.8876953 2.0000000000  -999.250000 8.5000000000 28331.281250  -999.250000 4.2470002174 0.0280000009  -999.250000  -999.250000 92.662101746 0.0653999969 79.000000000 130.36360168 9.2910995483  -999.250000 8.2573003769
 3130.0400391 2.0000000000  -999.250000 8.5000000000 17818.560547  -999.250000 5.2845997810 0.0322000012  -999.250000  -999.250000 103.64320374 0.4077000022 77.272689819 126.18180084 10.719799995  -999.250000 9.1710996628
 3130.1923828 2.0000000000  -999.250000 8.5000000000 6022.7998047  -999.250000 6.4474000931 0.0362000018  -999.250000  -999.250000 106.73760223 0.5497000217 73.909103394 123.45449066 13.822799683  -999.250000 8.5404996872
 3130.3447266 2.0000000000  -999.250000 8.5000000000 4040.9997559  -999.250000 7.0837001801 0.0377000012  -999.250000  -999.250000 118.44370270 0.8762000203 71.545501709 122.99999237 24.133399963  -999.250000 15.255599976
 3130.4973145 2.0000000000  -999.250000 8.5000000000 5702.0400391  -999.250000 7.2039999962 0.0370999984  -999.250000  -999.250000 107.03109741 0.8873999715 69.181800842 122.90910339 27.140300751  -999.250000 17.716400146
 3130.6496582 2.0000000000  -999.250000 8.5000000000 5773.6801758  -999.250000 7.1360001564 0.0357000008  -999.250000  -999.250000 101.97200012 0.9506000280 70.000000000 122.72730255 34.462398529  -999.250000 23.458599091
 3130.8020020 2.0000000000  -999.250000 8.5000000000 4858.9199219  -999.250000 7.1645002365 0.0346999988  -999.250000  -999.250000 97.754600525 1.2103999853 70.636398315 122.81819916 36.106700897  -999.250000 26.625499725
 3130.9543457 2.0000000000  -999.250000 8.5000000000 4103.2797852  -999.250000 7.0359997749 0.0346000008  -999.250000  -999.250000 101.97499847 1.1525000334 70.636398315 123.63639832 26.700300217  -999.250000 22.871299744
 3131.1069336 2.0000000000  -999.250000 8.5000000000 3722.7602539  -999.250000 6.9155001640 0.0344999991  -999.250000  -999.250000 109.52929688 1.3203999996 70.000000000 125.00000000 24.520099640  -999.250000 21.476200104
 3131.2592773 2.0000000000  -999.250000 8.5000000000 3544.1999512  -999.250000 6.8333997726 0.0348999985  -999.250000  -999.250000 106.99590302 1.3437000513 71.818199158 125.27269745 24.113800049  -999.250000 21.350099564
 3131.4116211 2.0000000000  -999.250000 8.5000000000 3444.4799805  -999.250000 6.6361999512 0.0355000012  -999.250000  -999.250000 100.57230377 1.3937000036 72.818199158 123.27269745 23.834299088  -999.250000 21.093500137
 3131.5639648 2.0000000000  -999.250000 8.5000000000 3194.2800293  -999.250000 6.4306998253 0.0359000005  -999.250000  -999.250000 111.92569733 1.3902000189 73.000000000 119.45449829 23.061899185  -999.250000 20.486600876
 3131.7163086 2.0000000000  -999.250000 8.5000000000 2648.5200195  -999.250000 6.4229001999 0.0355000012  -999.250000  -999.250000 104.55519867 1.2618999481 72.181800842 115.45449829 22.748500824  -999.250000 20.589099884
 3131.8688965 2.0000000000  -999.250000 8.5000000000 1808.2800293  -999.250000 6.2484998703 0.0348000005  -999.250000  -999.250000 95.591201782 1.3416999578 70.636398315 113.18180084 26.786100388  -999.250000 24.830099106
 3132.0212402 2.0000000000  -999.250000 8.5000000000 1143.7199707  -999.250000 6.2361001968 0.0350000001  -999.250000  -999.250000 83.359703064 1.2487000227 68.363601685 112.54550171 26.724000931  -999.250000 24.771699905
 3132.1735840 2.0000000000  -999.250000 8.5000000000 1468.4400635  -999.250000 6.2070999146 0.0353999995  -999.250000  -999.250000 72.665100098 1.2812000513 65.636398315 110.45449829 27.396699905  -999.250000 25.634799957
 3132.3259277 16.000000000  -999.250000 8.5000000000 2129.3999023  -999.250000 6.1444001198 0.0357000008  -999.250000  -999.250000 67.858802795 1.3372000456 65.181800842 108.45449066 26.119100571  -999.250000 24.478700638
 3132.4785156 16.000000000  -999.250000 8.5000000000 2810.5200195  -999.250000 6.1641998291 0.0357000008  -999.250000  -999.250000 67.270896912 1.2720999718 66.454498291 110.00000000 25.601299286  -999.250000 24.216499329
 3132.6308594 16.000000000  -999.250000 8.5000000000 4320.7197266  -999.250000 6.3378000259 0.0355999991  -999.250000  -999.250000 85.925399780 1.2484999895 66.000000000 112.81819916 21.810199738  -999.250000 20.906600952
 3132.7832031 16.000000000  -999.250000 8.5000000000 5882.3999023  -999.250000 6.3070001602 0.0351999998  -999.250000  -999.250000 94.700698853 1.1796000004 66.545501709 114.54550171 25.075500488  -999.250000 23.874000549
 3132.9355469 16.000000000  -999.250000 8.5000000000 6264.7202148  -999.250000 6.5296001434 0.0340999998  -999.250000  -999.250000 91.185203552 1.3085000515 68.000000000 115.54550171 24.839700699  -999.250000 23.375999451
 3133.0881348 16.000000000  -999.250000 8.5000000000 5673.2397461  -999.250000 6.5001997948 0.0335999988  -999.250000  -999.250000 82.094398499 1.3724000454 69.545501709 117.36360168 21.248399734  -999.250000 19.915500641
 3133.2404785 16.000000000  -999.250000 8.5000000000 4979.8798828  -999.250000 6.5777001381 0.0337999985  -999.250000  -999.250000 100.81759644 1.4608000517 69.545501709 119.90910339 19.949600220  -999.250000 18.785400391
 3133.3928223 16.000000000  -999.250000 8.5000000000 4720.6801758  -999.250000 6.3347997665 0.0337999985  -999.250000  -999.250000 116.57089996 1.5934000015 69.818199158 120.18180084 23.751300812  -999.250000 22.564899445
 3133.5451660 16.000000000  -999.250000 8.5000000000 4263.1201172  -999.250000 6.2323999405 0.0335000008  -999.250000  -999.250000 115.47450256 1.6468000412 70.363601685 119.45449829 28.811399460  -999.250000 26.918600082
 3133.6977539 16.000000000  -999.250000 8.5000000000 3237.1201172  -999.250000 6.2069001198 0.0329000019  -999.250000  -999.250000 109.84390259 1.6870000362 71.000000000 119.81819916 49.326999664  -999.250000 44.238800049
