# LAS format log file from PETREL
# Project units are specified as depth units
#==================================================================
~Version information
VERS.   2.0:
WRAP.   NO:
#==================================================================
~Well
STRT .m      2818.0771484 :
STOP .m      3213.0979004 :
STEP .m     0.00000000 :
NULL .        -999.250000 :
COMP.           : COMPANY
WELL.  35/11-15 S   : WELL
FLD.            : FIELD
LOC.            : LOCATION
SRVC.           : SERVICE COMPANY
DATE.  2018-09-11 14:48:55   : Log Export Date {yyyy-MM-dd HH:mm:ss}
PROV.           : PROVINCE
UWI.   35/11-15 S   : UNIQUE WELL ID
API.            : API NUMBER
#==================================================================
~Curve
DEPT .m                   : DEPTH
Lithology_geolink ._      : Lithology_geolink
CALI .in                  : CALI
BS .in                    : BS
ROP .m/h                  : ROP
DRHO .g/cm3               : DRHO
THOR .ppm                 : THOR
SGR .gAPI                 : SGR
RHOB .g/cm3               : RHOB
PEF .b/e                  : PEF
GR .gAPI                  : GR
URAN .ppm                 : URAN
DTC .us/ft                : DTC
DTS .us/ft                : DTS
RDEP .ohm.m               : RDEP
RMIC .ohm.m               : RMIC
RMED .ohm.m               : RMED
~Parameter
#==================================================================
~Ascii
# ...
 3077.4619141 2.0000000000 8.4110002518 8.5000000000 31255.921875 -0.006699359 2.6530001163 0.0146001605 2.4853870869 3.4091093540 45.168285370 1.1911000013 69.090896606 121.63639832 4.7221660614 1.3303586245 3.3684000969
 3077.6142578 2.0000000000 8.4134998322 8.5000000000 32139.000000 -0.005901282 2.6760001183 0.0145001598 2.4823050499 3.4470388889 44.539909363 1.1680999994 69.545501709 122.36360168 4.9231777191 1.3305996656 3.5934998989
 3077.7666016 2.0000000000 8.4078998566 8.5000000000 33504.117188 -0.006896800 2.8050000668 0.0144003201 2.4855895042 3.4449071884 44.108379364 1.0988999605 70.181800842 122.18180084 4.9726419449 1.3727647066 3.6168000698
 3077.9191895 2.0000000000 8.4034996033 8.5000000000 34497.000000 -0.007998237 2.8475999832 0.0142003205 2.4783117771 3.3929834366 43.091529846 0.9671000242 70.181800842 122.00000000 5.1230587959 1.3896731138 3.7806999683
 3078.0715332 2.0000000000 8.4034996033 8.5000000000 33516.718750 -0.009397756 2.7915999889 0.0144995190 2.4661197662 3.3839142323 43.415878296 0.9602999687 70.636398315 121.18180084 5.1252965927 1.3878030777 3.8292000294
 3078.2238770 2.0000000000 8.4110002518 8.5000000000 30879.001953 -0.008601283 3.0046999454 0.0144001599 2.4760839939 3.4665672779 42.958435059 0.8776999712 71.272697449 119.81819916 5.0703883171 1.3369815350 3.8252000809
 3078.3762207 2.0000000000 8.4078998566 8.5000000000 28510.560547 -0.006905440 3.0589001179 0.0146990400 2.4698202610 3.4466643333 43.347450256 0.8179000020 71.181800842 118.81819916 5.0107913017 1.3325140476 3.7555999756
 3078.5288086 2.0000000000 8.4106998444 8.5000000000 25672.320313 -0.005901603 3.3190000057 0.0145003200 2.4857742786 3.4686644077 43.691452026 0.7705000043 71.000000000 118.63639832 4.9650731087 1.3397883177 3.6858999729
 3078.6811523 2.0000000000 8.4034996033 8.5000000000 22505.400391 -0.006998237 3.4363999367 0.0144999996 2.4847016335 3.3723547459 43.490623474 0.7290999889 70.363601685 118.72730255 5.1776585579 1.3742446899 3.9867999554
 3078.8334961 2.0000000000 8.3993997574 8.5000000000 19160.640625 -0.009096635 3.4841001034 0.0146996798 2.4956822395 3.3328630924 44.332550049 0.7415000200 70.000000000 118.45449066 5.3327517509 1.4466837645 4.0991001129
 3078.9858398 2.0000000000 8.4106998444 8.5000000000 16154.640625 -0.010993920 3.3866999149 0.0145006394 2.5069637299 3.4826190472 44.051406860 0.8320000172 69.636398315 117.90910339 5.5005621910 1.5572454929 4.2133002281
 3079.1384277 2.0000000000 8.3965997696 8.5000000000 16300.799805 -0.011199679 3.6465001106 0.0148993591 2.4987132549 3.5117540359 45.357501984 0.7912999988 69.545501709 117.27270508 5.9522757530 1.7587770224 4.5550999641
 3079.2907715 2.0000000000 8.4078998566 8.5000000000 17317.080078 -0.011000320 3.5002000332 0.0145006403 2.4770348072 3.4484016895 45.105308533 0.8701999784 69.000000000 116.72730255 6.1156392097 1.9118547440 4.6472997665
 3079.4431152 2.0000000000 8.4110002518 8.5000000000 16435.080078 -0.009202885 3.3445000648 0.0144001599 2.5178344250 3.5704040527 44.867080688 0.8891999722 69.000000000 116.00000000 5.6705145836 1.9322675467 4.3399000168
 3079.5954590 2.0000000000 8.4110002518 8.5000000000 5919.4799805 -0.007003526 3.0838999748 0.0134016024 2.5216937065 3.5970575809 43.347637177 1.0212999582 68.727302551 115.81819916 5.4662265778 1.9188215733 4.2045001984
 3079.7478027 2.0000000000 8.4060001373 8.5000000000 6736.6801758 -0.004109280 3.1391999722 0.0135993604 2.5177128315 3.6241133213 43.178932190 0.8975999951 68.545501709 116.18180084 5.6791157722 1.9815983772 4.4340000153
 3079.9003906 2.0000000000 8.4034996033 8.5000000000 13302.719727 -0.003001763 2.9470999241 0.0133004803 2.5136067867 3.4987015724 42.139667511 0.9211999774 68.363601685 116.36360168 6.0170588493 1.9576387405 4.6557002068
 3080.0527344 2.0000000000 8.4034996033 8.5000000000 18929.160156 -0.003798718 2.9816999435 0.0132999998 2.5091071129 3.5046899319 41.795047760 0.8471000195 68.363601685 116.54550171 6.0460543633 1.9310426712 4.6209998131
 3080.2050781 2.0000000000 8.3985004425 8.5000000000 21557.521484 -0.005397436 2.9170000553 0.0132001601 2.5061047077 3.6694355011 41.571159363 0.8898000121 68.363601685 116.90910339 5.7894120216 1.8309606314 4.4394998550
 3080.3574219 2.0000000000 8.3993997574 8.5000000000 20370.958984 -0.006496480 2.7039999962 0.0135987205 2.5006177425 3.7233278751 42.300556183 0.9954000115 68.181800842 116.72730255 5.9233684540 1.7732846737 4.5591998100
 3080.5100098 2.0000000000 8.3965997696 8.5000000000 17418.960938 -0.005801122 2.8956000805 0.0140991993 2.5126807690 3.6248583794 43.940071106 1.0494999886 68.363601685 116.00000000 5.9423699379 1.6913312674 4.6090998650
 3080.6623535 2.0000000000 8.3908996582 8.5000000000 16076.520508 -0.005001282 2.8705000877 0.0143995192 2.5071091652 3.6751191616 43.763885498 1.0190999508 68.181800842 115.63639069 5.8062186241 1.7255449295 4.5103998184
 3080.8146973 2.0000000000 8.3959999084 8.5000000000 17273.878906 -0.004400962 2.7960000038 0.0141004808 2.4959177971 3.7149360180 43.182434082 1.0345000029 68.000000000 115.63639069 5.9779238701 1.7781157494 4.6033000946
 3080.9670410 2.0000000000 8.3908996582 8.5000000000 19510.560547 -0.004200640 2.7219998837 0.0144987199 2.5077619553 3.6726357937 43.006660461 0.9891999960 67.636398315 115.45449829 6.3050508499 1.8050138950 4.8643999100
 3081.1196289 2.0000000000 8.3880996704 8.5000000000 22369.320313 -0.004200000 2.8311998844 0.0148993591 2.5140900612 3.6735982895 44.042537689 1.0270999670 67.636398315 115.27269745 6.4539623260 1.8832744360 4.9741001129
 3081.2719727 2.0000000000 8.3908996582 8.5000000000 28326.240234 -0.004898878 2.8626000881 0.0151995197 2.5093076229 3.7499773502 44.218521118 0.9369000196 67.090896606 115.09089661 6.5718111992 1.9935232401 5.0784997940
 3081.4243164 2.0000000000 8.3886995316 8.5000000000 33887.519531 -0.004800160 2.8401999474 0.0146000003 2.4927268028 3.7416136265 43.511833191 1.0593999624 67.090896606 114.90910339 6.6380939484 1.9053418636 5.0309000015
 3081.5766602 2.0000000000 8.3908996582 8.5000000000 29938.320313 -0.003901442 2.6642999649 0.0138999997 2.5066776276 3.8103895187 41.936229706 1.0640000105 67.272697449 114.90910339 6.5092067719 1.7023257017 4.9871997833
 3081.7292480 2.0000000000 8.3908996582 8.5000000000 23263.199219 -0.002602080 2.5977001190 0.0138999997 2.4913246632 3.8104999065 42.270957947 1.0642000437 67.636398315 114.72730255 6.1574630737 1.6323117018 4.6065998077
 3081.8815918 2.0000000000 8.3880996704 8.5000000000 14937.480469 -0.002600000 2.5566999912 0.0140000004 2.4936962128 3.9136345387 41.984260559 0.9330999851 67.636398315 114.54550171 6.2971749306 1.7568998337 4.7147998810
 3082.0339355 2.0000000000 8.3884000778 8.5000000000 8056.0795898 -0.002999359 2.4651000500 0.0137000000 2.4980928898 3.9686119556 41.042411804 0.9190000296 67.636398315 114.54550171 6.5801458359 1.8606338501 4.9001002312
 3082.1862793 2.0000000000 8.3884000778 8.5000000000 7373.8798828 -0.003299519 2.2430000305 0.0140000004 2.5038907528 4.0415830612 40.457038879 0.8439999819 67.272697449 114.72730255 6.5112113953 1.8606003523 4.8333997726
 3082.3386230 2.0000000000 8.3824996948 8.5000000000 11922.480469 -0.002203520 2.1986999512 0.0137000000 2.5119740963 4.0305356979 39.949230194 0.8379999995 67.636398315 114.90910339 6.5765895844 1.9301766157 4.8901000023
 3082.4912109 2.0000000000 8.3880996704 8.5000000000 17400.960938 0.0000963141 2.2711000443 0.0141000003 2.5153944492 4.0425806046 40.851947784 0.7759000063 67.090896606 115.09089661 6.6968073845 2.0155634880 4.9628000259
 3082.6435547 2.0000000000 8.3858995438 8.5000000000 21380.400391 0.0007988782 2.2760999203 0.0135000004 2.5058155060 4.0394053459 39.969417572 0.7724000216 67.090896606 115.18180084 6.7166686058 1.9875451326 4.9714999199
 3082.7958984 2.0000000000 8.3852996826 8.5000000000 22698.720703 -0.000597756 2.3642001152 0.0138999997 2.5104923248 4.0237255096 41.481769562 0.8008999825 67.090896606 115.27269745 6.7081136703 1.8845652342 4.9484000206
 3082.9482422 2.0000000000 8.3824996948 8.5000000000 24413.041016 -0.003191680 2.5041000843 0.0140000004 2.5047185421 3.9671814442 42.053672791 0.8025000095 67.272697449 115.63639069 6.7000255585 1.7775430679 4.9685997963
