# LAS format log file from PETREL
# Project units are specified as depth units
#==================================================================
~Version information
VERS.   2.0:
WRAP.   NO:
#==================================================================
~Well
STRT .m      963.35791016 :
STOP .m      4034.6738281 :
STEP .m     0.00000000 :
NULL .        -999.250000 :
COMP.           : COMPANY
WELL.  35/11-2   : WELL
FLD.            : FIELD
LOC.            : LOCATION
SRVC.           : SERVICE COMPANY
DATE.  2018-09-11 14:48:55   : Log Export Date {yyyy-MM-dd HH:mm:ss}
PROV.           : PROVINCE
UWI.   35/11-2   : UNIQUE WELL ID
API.            : API NUMBER
#==================================================================
~Curve
DEPT .m                   : DEPTH
Lithology_geolink ._      : Lithology_geolink
CALI .in                  : CALI
DRHO .g/cm3               : DRHO
NPHI .m3/m3               : NPHI
RHOB .g/cm3               : RHOB
GR .gAPI                  : GR
DTC .us/ft                : DTC
RDEP .ohm.m               : RDEP
SP .mV                    : SP
RSHA .ohm.m               : RSHA
RMED .ohm.m               : RMED
~Parameter
#==================================================================
~Ascii
# ...
 2416.7961426 6.0000000000 13.234000206 -0.015003204 0.3437312245 2.4359905720 49.972606659 110.62580872 1.9349999428 74.675399780 1.9499135017 1.9499135017
 2416.9484863 6.0000000000 13.234000206 -0.020980800 0.3087024987 2.4320127964 49.189250946 109.62660217 1.9600000381 75.238098145 1.9979231358 1.9979231358
 2417.1010742 6.0000000000 13.234000206 -0.014011218 0.3056647182 2.4389886856 49.405998230 109.37500763 1.9470000267 75.176002502 2.0429999828 2.0429999828
 2417.2534180 6.0000000000 13.234000206 -0.015996795 0.3100529313 2.4380016327 48.094001770 109.62500000 1.8919999599 74.426002502 2.0780000687 2.0780000687
 2417.4057617 5.0000000000 13.234000206 -0.011008013 0.3207827806 2.4320094585 46.502552032 110.12419891 1.8439999819 76.236099243 2.0919775963 2.0919775963
 2417.5581055 5.0000000000 13.248000145 -0.013990400 0.3358915448 2.4280128479 47.966648102 110.49938965 1.7949999571 74.678504944 2.0530624390 2.0530624390
 2417.7106934 5.0000000000 13.284999847 -0.014000000 0.3242387772 2.4299969673 47.719001770 111.25000000 1.7640000582 74.863998413 1.9880000353 1.9880000353
 2417.8630371 5.0000000000 13.317999840 -0.010006410 0.3217839301 2.4429793358 48.905998230 112.00000000 1.7580000162 76.176002502 1.9090000391 1.9090000391
 2418.0153809 5.0000000000 13.328000069 -0.003011218 0.2969199121 2.4549806118 47.408397675 112.74880219 1.7530000210 77.923202515 1.8750543594 1.8750543594
 2418.1677246 5.0000000000 13.328000069 -0.001003205 0.2924870551 2.4450159073 51.025188446 112.62519836 1.7539999485 76.366500854 1.8500400782 1.8500400782
 2418.3200684 5.0000000000 13.328000069 -0.000003200 0.3119474947 2.4469935894 48.722705841 112.37540436 1.7369999886 76.488800049 1.8450080156 1.8450080156
 2418.4726563 6.0000000000 13.314000130 -0.008985576 0.3285833895 2.4340207577 51.125000000 112.75000000 1.7249871492 75.051002502 1.8539999723 1.8539999723
 2418.6250000 6.0000000000 13.277000427 -0.007003205 0.3305668533 2.4449822903 48.348449707 113.12440491 1.7169872522 77.297401428 1.8420192003 1.8420192003
 2418.7773438 6.0000000000 13.244000435 -0.008996795 0.3139865994 2.4410064220 48.031497955 112.37620544 1.7089999914 77.239097595 1.8429985046 1.8429985046
 2418.9296875 6.0000000000 13.229999542 -0.006009600 0.3378134668 2.4469807148 50.745643616 111.25180054 1.6940000057 77.238998413 1.8160432577 1.8160432577
 2419.0822754 6.0000000000 13.227000237 -0.009993589 0.3422829509 2.4450030327 51.030998230 111.37500000 1.6919808388 76.051002502 1.8209999800 1.8209999800
 2419.2346191 5.0000000000 13.229999542 -0.013993590 0.3491090536 2.4380111694 50.625000000 111.37500000 1.6800128222 77.363998413 1.8009999990 1.8009999990
 2419.3869629 5.0000000000 13.234000206 -0.018991986 0.3227922618 2.4389982224 49.033550262 111.87420654 1.6880335808 73.681900024 1.7710480690 1.7710480690
 2419.5393066 5.0000000000 13.234000206 -0.014016001 0.3251921535 2.4489679337 49.343502045 111.12620544 1.7089999914 75.111694336 1.7630128860 1.7630128860
 2419.6918945 5.0000000000 13.234000206 -0.010006410 0.3061805069 2.4629776478 50.937999725 111.50000000 1.7440479994 77.301002502 1.7649999857 1.7649999857
 2419.8442383 5.0000000000 13.234000206 -0.008003205 0.3193188608 2.4769775867 49.437999725 110.62500763 1.7740144730 76.176002502 1.7769999504 1.7769999504
 2419.9965820 5.0000000000 13.234000206 -0.010995192 0.3115325570 2.4859857559 49.281250000 110.74980164 1.7830159664 72.057601929 1.8049551249 1.8049551249
 2420.1489258 6.0000000000 13.234000206 -0.015991988 0.3310187161 2.4840030670 49.780197144 110.75000000 1.7929999828 71.489898682 1.8649038076 1.8649038076
 2420.3012695 6.0000000000 13.234000206 -0.016996801 0.3271624744 2.4630672932 49.032199860 110.62520599 1.7530000210 75.045295715 1.9019407034 1.9019407034
 2420.4538574 6.0000000000 13.234000206 -0.014004808 0.3242247105 2.4530160427 49.344001770 110.00000000 1.7530881166 71.238998413 1.8849999905 1.8849999905
 2420.6062012 6.0000000000 13.234000206 -0.011004807 0.3344535530 2.4410192966 51.153099060 110.87359619 1.8081120253 70.365402222 1.8540495634 1.8540495634
 2420.7585449 6.0000000000 13.234000206 -0.011000000 0.3203326762 2.4509840012 52.778392792 110.99980164 1.8780000210 76.790687561 1.8350304365 1.8350304365
 2420.9108887 6.0000000000 13.237999916 -0.014987200 0.3154456019 2.4410319328 52.905796051 109.75200653 1.9229999781 76.239898682 1.8340015411 1.8340015411
 2421.0634766 6.0000000000 13.242000580 -0.015998399 0.2983673811 2.4390029907 49.905998230 109.50000000 1.9580175877 73.301002502 1.8910000324 1.8910000324
 2421.2158203 5.0000000000 13.237999916 -0.011008013 0.3046798408 2.4409968853 47.344001770 109.37500763 1.9689551592 71.863998413 2.0179998875 2.0179998875
 2421.3681641 5.0000000000 13.234000206 -0.010001603 0.3124874830 2.4390029907 48.092800140 108.75099945 1.9409919977 77.167503357 2.0799007416 2.0799007416
 2421.5205078 5.0000000000 13.234000206 -0.011993600 0.3134768605 2.4389998913 47.563850403 108.37560272 1.9359999895 74.804809570 2.0630271435 2.0630271435
 2421.6730957 5.0000000000 13.234000206 -0.012000000 0.3198098540 2.4389998913 49.844001770 108.62500000 1.9499664307 74.988998413 2.0469999313 2.0469999313
 2421.8254395 5.0000000000 13.234000206 -0.016991988 0.3149478137 2.4360048771 49.187999725 107.62500000 1.9289199114 76.926002502 2.0510001183 2.0510001183
 2421.9777832 5.0000000000 13.234000206 -0.018996794 0.3095786273 2.4300096035 47.191200256 108.62339783 1.8789247274 76.988899231 2.0679728985 2.0679728985
 2422.1301270 5.0000000000 13.234000206 -0.019998398 0.3046978116 2.4280030727 48.653644562 109.12419891 1.8320000172 76.177307129 2.0590143204 2.0590143204
 2422.2824707 5.0000000000 13.234000206 -0.019003199 0.3241575062 2.4339807034 48.313549042 110.12339783 1.7810000181 77.174400330 2.0180656910 2.0180656910
 2422.4350586 6.0000000000 13.234000206 -0.021995192 0.3354319930 2.4280095100 52.655998230 111.00000000 1.7279632092 76.551002502 1.9500000477 1.9500000477
 2422.5874023 6.0000000000 13.234000206 -0.021001602 0.3222911358 2.4299969673 49.942348480 112.12319946 1.7049793005 75.303001404 1.8791135550 1.8791135550
 2422.7397461 6.0000000000 13.234000206 -0.022996794 0.3017928898 2.4240095615 50.842548370 112.49939728 1.6920000315 76.736694336 1.8370673656 1.8370673656
 2422.8920898 6.0000000000 13.210999489 -0.023996800 0.3022484183 2.4259936810 49.782703400 110.87760162 1.6849999428 76.301704407 1.8090448380 1.8090448380
 2423.0446777 6.0000000000 13.163998604 -0.030988781 0.3173557520 2.4160158634 50.875000000 112.87500000 1.6869984865 75.863998413 1.7799999714 1.7799999714
 2423.1970215 5.0000000000 13.140999794 -0.024011219 0.3344425857 2.4239871502 49.219001770 113.12500763 1.6859920025 77.488998413 1.7779999971 1.7779999971
 2423.3493652 5.0000000000 13.140999794 -0.016012821 0.3252148330 2.4359807968 46.816848755 112.25140381 1.6809999943 78.237800598 1.7849887609 1.7849887609
 2423.5017090 5.0000000000 13.140999794 -0.016996801 0.3373609781 2.4389903545 44.691406250 111.62599945 1.6779999733 74.869407654 1.7909903526 1.7909903526
 2423.6542969 5.0000000000 13.140999794 -0.016001603 0.3227734864 2.4380016327 45.155998230 112.75000000 1.6659935713 73.363998413 1.7819999456 1.7819999456
 2423.8066406 6.0000000000 13.161999702 -0.022988781 0.3149525225 2.4320094585 49.905998230 111.37500000 1.6620128155 77.426002502 1.7740000486 1.7740000486
 2423.9589844 6.0000000000 13.206999779 -0.020004807 0.3129931390 2.4240128994 50.748649597 111.99900055 1.6699903011 75.616897583 1.7660127878 1.7660127878
 2424.1113281 6.0000000000 13.232000351 -0.024991987 0.3261488676 2.4160127640 50.500400543 111.75039673 1.6640000343 75.176704407 1.7600096464 1.7600096464
 2424.2639160 5.0000000000 13.234000206 -0.021006400 0.3403073549 2.4179968834 49.250000000 111.74999237 1.6750255823 76.238998413 1.7690000534 1.7690000534
 2424.4162598 5.0000000000 13.234000206 -0.020001601 0.3174167871 2.4219934940 47.844001770 112.37500000 1.6910032034 76.676002502 1.7829999924 1.7829999924
