# LAS format log file from PETREL
# Project units are specified as depth units
#==================================================================
~Version information
VERS.   2.0:
WRAP.   NO:
#==================================================================
~Well
STRT .m      1150.0018311 :
STOP .m      2885.3808594 :
STEP .m     0.00000000 :
NULL .        -999.250000 :
COMP.           : COMPANY
WELL.  35/11-10   : WELL
FLD.            : FIELD
LOC.            : LOCATION
SRVC.           : SERVICE COMPANY
DATE.  2018-09-11 14:48:54   : Log Export Date {yyyy-MM-dd HH:mm:ss}
PROV.           : PROVINCE
UWI.   35/11-10   : UNIQUE WELL ID
API.            : API NUMBER
#==================================================================
~Curve
DEPT .m                   : DEPTH
Lithology_geolink ._      : Lithology_geolink
CALI .in                  : CALI
BS .in                    : BS
DRHO .g/cm3               : DRHO
NPHI .m3/m3               : NPHI
RHOB .g/cm3               : RHOB
GR .gAPI                  : GR
DTC .us/ft                : DTC
DTS .us/ft                : DTS
RDEP .ohm.m               : RDEP
SP .mV                    : SP
RSHA .ohm.m               : RSHA
RMIC .ohm.m               : RMIC
RMED .ohm.m               : RMED
~Parameter
#==================================================================
~Ascii
# ...
 1612.3834229  -999.250000 12.987999916 12.250000954 0.0465520583 0.4754998386 2.1890366077 104.89175415 141.18800354 434.82598877 1.1189999580 -162.5000000 0.8637220263 0.7813269496 0.8638237119
 1612.5358887  -999.250000 13.491999626 12.250000954 0.0303802658 0.4509896636 2.2350015640 104.52629852 139.92799377 395.34698486 1.1619999409 -161.9380035 0.9014980197 1.3288022280 0.9009110928
 1612.6882324  -999.250000 12.683000565 12.250000954 0.0057674078 0.4412575960 2.2369999886 106.81533051 137.70799255 385.97799683 1.1640000343 -161.8130035 0.9026790261 1.3070962429 0.9029936194
 1612.8406982  -999.250000 12.604998589 12.250000954 0.0025297853 0.4594074190 2.2369952202 107.56939697 135.46200562 368.39300537 1.2400000095 -162.5630035 0.9612759948 1.2153682709 0.9608606100
 1612.9930420  -999.250000 12.607000351 12.250000954 -0.000231650 0.4624165893 2.2309951782 109.59837341 135.20199585 360.11999512 1.2680000067 -163.7500000 0.9820290208 1.2647997141 0.9819327593
 1613.1455078  -999.250000 12.609000206 12.250000954 0.0002133331 0.4595153332 2.2249968052 108.54084778 135.55700684 363.14498901 1.2009999752 -163.0630035 0.9352200031 1.2301400900 0.9351130128
 1613.2978516  -999.250000 12.586000443 12.250000954 0.0054093092 0.4327944219 2.2229976654 112.05617523 138.48699951 365.72900391 1.1579999924 -162.9380035 0.9046649933 0.6005320549 0.9050960541
 1613.4503174  -999.250000 13.041999817 12.250000954 0.0057911524 0.4726620615 2.2199969292 111.91012573 139.35699463 384.57595825 1.1569999456 -162.1880035 0.9009540081 1.0365897417 0.9010096192
 1613.6026611  -999.250000 14.142000198 12.250000954 0.0033947187 0.4855446815 2.2180111408 110.86783600 139.82299805 377.23599243 1.1419999599 -162.7500000 0.8891999722 1.2003474236 0.8890384436
 1613.7551270  -999.250000 13.369000435 12.250000954 0.0067891893 0.5118049383 2.2320096493 111.27267456 139.50599670 391.97900391 1.1130000353 -164.6250000 0.8671259880 1.2807435989 0.8670528531
 1613.9074707  -999.250000 12.689998627 12.250000954 0.0093973307 0.4922577143 2.2379992008 109.47444153 139.89399719 374.91299438 1.1230000257 -161.8750000 0.8760669827 1.2082921267 0.8759711385
 1614.0598145  -999.250000 13.312999725 12.250000954 0.0048212325 0.5094333887 2.2369999886 111.89611816 138.03599548 367.59298706 1.1230000257 -161.2500000 0.8767899871 1.0934607983 0.8769967556
 1614.2122803  -999.250000 12.727001190 12.250000954 0.0051115993 0.5139534473 2.2370007038 112.75531006 137.59599304 362.62399292 1.1189999580 -162.5000000 0.8781399727 1.0790560246 0.8779968023
 1614.3646240  -999.250000 12.743000031 12.250000954 0.0058559147 0.5035656691 2.2379975319 111.48204803 137.24800110 350.24600220 1.1230000257 -163.1880035 0.8836820126 1.2333790064 0.8839807510
 1614.5170898  -999.250000 12.756999969 12.250000954 0.0020026264 0.4853705764 2.2349951267 113.96401215 136.96699524 344.86401367 1.1779999733 -162.9380035 0.9264029860 1.2927638292 0.9258654714
 1614.6694336  -999.250000 12.791000366 12.250000954 -0.000949995 0.4685769081 2.2289793491 120.03926086 136.08000183 335.17401123 1.1959999800 -162.0000000 0.9443709850 1.3149119616 0.9439423084
 1614.8218994  -999.250000 12.788998604 12.250000954 0.0078012068 0.4670761824 2.2029719353 122.66889954 137.19000244 343.85800171 1.1549999714 -163.1880035 0.9143180251 0.5889183879 0.9140720963
 1614.9742432  -999.250000 12.765999794 12.250000954 0.0192823820 0.4720100462 2.1679768562 121.83167267 136.18099976 347.35000610 1.1490000486 -163.8750000 0.9101899862 0.3569214940 0.9100128412
 1615.1267090  -999.250000 12.862000465 12.250000954 0.0197796170 0.4724076688 2.1390624046 108.70252228 136.44099426 337.13400269 1.1779999733 -163.4380035 0.9346380234 0.7354747653 0.9349399209
 1615.2790527  -999.250000 12.864999771 12.250000954 0.0332650281 0.4857482910 2.1780447960 108.60206604 136.18400574 322.44601440 1.1729999781 -163.7500000 0.9312450290 1.2519286871 0.9310128093
 1615.4315186  -999.250000 12.706000328 12.250000954 0.0420132652 0.4951754510 2.2340223789 105.52746582 136.52900696 335.05700684 1.2230000496 -165.2500000 0.9662690163 1.2490199804 0.9659158587
 1615.5838623  -999.250000 13.105999947 12.250000954 0.0309418701 0.4948512614 2.2479622364 102.69526672 137.66000366 370.76098633 1.1979999542 -163.6880035 0.9531559944 1.1474086046 0.9530416131
 1615.7363281  -999.250000 12.769000053 12.250000954 0.0158097018 0.5020512342 2.2009456158 101.30810547 136.90199280 382.29098511 1.0920000076 -163.8750000 0.8732360005 0.3844519258 0.8731923103
 1615.8886719  -999.250000 14.043000221 12.250000954 0.0112617649 0.4702704847 2.1669929028 102.37014771 137.74400330 371.80801392 1.1069999933 -164.3750000 0.8870959878 0.7813947201 0.8869552016
 1616.0410156  -999.250000 13.833999634 12.250000954 0.0134674832 0.4705485106 2.1580231190 102.07347870 138.18800354 358.93099976 1.1260000467 -163.6880035 0.9076849818 0.8835953474 0.9079326987
 1616.1934814  -999.250000 13.663999557 12.250000954 0.0203061569 0.4647756219 2.1870024204 100.46128845 136.19200134 319.48800659 1.1619999409 -164.0630035 0.9369540215 0.5632889867 0.9369071126
 1616.3458252  -999.250000 12.881999969 12.250000954 0.0142629119 0.4731086195 2.1899943352 99.953811646 133.92700195 338.79098511 1.2680000067 -164.3130035 1.0219999552 1.1008325815 1.0217275620
 1616.4982910  -999.250000 12.602000237 12.250000954 0.0079171285 0.4596927464 2.1829817295 100.99216461 135.32800293 329.40600586 1.2309999466 -164.1250000 1.0060000420 0.9396565557 1.0060513020
 1616.6506348  -999.250000 12.645001411 12.250000954 0.0130729927 0.4614841044 2.1599881649 102.85002136 136.63900757 374.04598999 1.1690000296 -165.0630035 0.9652950168 0.5087307692 0.9651314020
 1616.8031006  -999.250000 13.473999977 12.250000954 0.0218078475 0.4600601196 2.1450064182 100.15516663 137.13600159 392.27297974 1.1080000401 -164.1250000 0.9223369956 1.1962298155 0.9221033454
 1616.9554443  -999.250000 14.432000160 12.250000954 0.0328442305 0.4769045115 2.1530144215 104.97813416 138.45399475 360.65701294 1.0779999495 -163.9380035 0.9039649963 0.6492115259 0.9040576220
 1617.1079102  -999.250000 13.515000343 12.250000954 0.0368818752 0.4717261791 2.1710352898 103.05255127 136.37199402 344.24499512 1.1109999418 -163.3750000 0.9328020215 0.6440119743 0.9329302907
 1617.2602539  -999.250000 13.050000191 12.250000954 0.0479343943 0.4571946561 2.2150022984 104.01821899 135.63800049 359.06900024 1.1670000553 -163.8750000 0.9808310270 0.9716818929 0.9808462858
 1617.4127197  -999.250000 13.015000343 12.250000954 0.0346849412 0.4387527704 2.2179582119 99.200859070 134.56500244 334.50799561 1.1870000362 -164.4380035 0.9963240027 1.0805675983 0.9959639311
 1617.5650635  -999.250000 13.053999901 12.250000954 0.0209291857 0.4341476858 2.1919357777 97.922019958 135.48699951 385.38198853 1.1799999475 -162.2500000 0.9899190068 0.3180689216 0.9900192022
 1617.7175293  -999.250000 13.364001274 12.250000954 0.0186694060 0.4825222194 2.1119439602 97.683189392 133.82600403 399.19900513 1.1920000315 -161.8750000 0.9905009866 0.2661570609 0.9909976125
 1617.8698730  -999.250000 14.172000885 12.250000954 0.0207903031 0.5071712732 2.0770328045 97.229362488 135.73699951 361.59399414 1.2280000448 -163.6250000 1.0110000372 0.4383074641 1.0109360218
 1618.0223389  -999.250000 13.581999779 12.250000954 0.0161889195 0.5103714466 2.1182610989 98.243186951 135.18699646 332.83401489 1.4709999561 -162.3750000 1.1799999475 1.2025449276 1.1795936823
 1618.1746826  -999.250000 14.220999718 12.250000954 0.0217744485 0.4347196817 2.2811641693 84.746826172 134.40299988 258.36099243 1.9919999838 -161.9380035 1.5390000343 7.6520872116 1.5378502607
 1618.3270264  -999.250000 13.902000427 12.250000954 0.0497635528 0.3573969305 2.4860241413 78.211463928 131.97599792 263.23098755 2.0260000229 -161.1880035 1.5770000219 10.486701965 1.5768781900
 1618.4794922  -999.250000 14.607999802 12.250000954 0.0416946113 0.3655583560 2.5158398151 75.608085632 129.57400513 247.03399658 1.7469999790 -162.0630035 1.4179999828 1.1914060116 1.4185092449
