# LAS format log file from PETREL
# Project units are specified as depth units
#==================================================================
~Version information
VERS.   2.0:
WRAP.   NO:
#==================================================================
~Well
STRT .m      1245.0043945 :
STOP .m      3214.9267578 :
STEP .m     0.00000000 :
NULL .        -999.250000 :
COMP.           : COMPANY
WELL.  35/11-11   : WELL
FLD.            : FIELD
LOC.            : LOCATION
SRVC.           : SERVICE COMPANY
DATE.  2018-09-11 14:48:54   : Log Export Date {yyyy-MM-dd HH:mm:ss}
PROV.           : PROVINCE
UWI.   35/11-11   : UNIQUE WELL ID
API.            : API NUMBER
#==================================================================
~Curve
DEPT .m                   : DEPTH
Lithology_geolink ._      : Lithology_geolink
CALI .in                  : CALI
BS .in                    : BS
ROP .m/h                  : ROP
DRHO .g/cm3               : DRHO
THOR .ppm                 : THOR
NPHI .m3/m3               : NPHI
RHOB .g/cm3               : RHOB
PEF .b/e                  : PEF
GR .gAPI                  : GR
URAN .ppm                 : URAN
DTC .us/ft                : DTC
DTS .us/ft                : DTS
RDEP .ohm.m               : RDEP
SP .mV                    : SP
RMIC .ohm.m               : RMIC
RMED .ohm.m               : RMED
~Parameter
#==================================================================
~Ascii
 1245.0043945  -999.250000 12.612999916 17.500000000 194.31759644  -999.250000  -999.250000 0.6958000064  -999.250000  -999.250000 60.205101013  -999.250000  -999.250000  -999.250000 0.8650000095  -999.250000  -999.250000 0.8169999719
 1245.1567383  -999.250000 12.600500107 17.500000000 194.31759644  -999.250000  -999.250000 0.7475585341  -999.250000  -999.250000 60.973884583  -999.250000  -999.250000  -999.250000 0.8769903779  -999.250000  -999.250000 0.8399815559
 1245.3092041  -999.250000 12.593600273 17.500000000 213.74345398  -999.250000  -999.250000 0.6956999898  -999.250000  -999.250000 62.888801575  -999.250000  -999.250000  -999.250000 0.8849999905  -999.250000  -999.250000 0.8799999952
 1245.4615479  -999.250000 12.586600304 17.500000000 213.74345398  -999.250000  -999.250000 0.6467392445  -999.250000  -999.250000 66.558959961  -999.250000  -999.250000  -999.250000 0.8740088344  -999.250000  -999.250000 0.8700079918
 1245.6140137  -999.250000 12.585099220 17.500000000 213.74345398  -999.250000  -999.250000 0.6890000105  -999.250000  -999.250000 66.506301880  -999.250000  -999.250000  -999.250000 0.8610000014  -999.250000  -999.250000 0.8360000253
 1245.7663574  -999.250000 12.588399887 17.500000000 213.74345398  -999.250000  -999.250000 0.8695553541  -999.250000  -999.250000 64.893386841  -999.250000  -999.250000  -999.250000 0.8530063629  -999.250000  -999.250000 0.8030263782
 1245.9188232  -999.250000 12.586199760 17.500000000 213.74345398  -999.250000  -999.250000 0.9271000028  -999.250000  -999.250000 63.880199432  -999.250000  -999.250000  -999.250000 0.8539999723  -999.250000  -999.250000 0.7900000215
 1246.0711670  -999.250000 12.621100426 17.500000000 213.74345398  -999.250000  -999.250000 0.7642305493  -999.250000  -999.250000 63.656879425  -999.250000  -999.250000  -999.250000 0.8719855547 69.004096985  -999.250000 0.8629415035
 1246.2236328  -999.250000 12.537699699 17.500000000 213.74345398  -999.250000  -999.250000 0.6280000210  -999.250000  -999.250000 68.992500305  -999.250000  -999.250000  -999.250000 0.8690000176 69.029197693  -999.250000 0.8109999895
 1246.3759766  -999.250000 12.720999718 17.500000000 269.33398438  -999.250000  -999.250000 0.5523605943  -999.250000  -999.250000 74.969009399  -999.250000  -999.250000  -999.250000 0.8630048037 69.799201965  -999.250000 0.8030063510
 1246.5283203  -999.250000 13.179900169 17.500000000 269.33398438  -999.250000  -999.250000 0.5309171677  -999.250000  -999.250000 79.417137146  -999.250000  -999.250000  -999.250000 0.8600023985 70.333503723  -999.250000 0.8020007610
 1246.6807861  -999.250000 13.272899628 17.500000000 269.33398438  -999.250000  -999.250000 0.5098168850  -999.250000  -999.250000 78.575981140  -999.250000 159.84559631  -999.250000 0.8510072231 69.654701233  -999.250000 0.7920079827
 1246.8331299  -999.250000 13.264700890 17.500000000 269.33398438  -999.250000  -999.250000 0.5233891010  -999.250000  -999.250000 76.911933899  -999.250000 156.30911255  -999.250000 0.8589935899 68.454902649  -999.250000 0.8079872131
 1246.9855957  -999.250000 13.267600060 17.500000000 269.33398438 -0.006100000  -999.250000 0.5363000035 2.0366001129  -999.250000 75.371299744  -999.250000 154.37440491  -999.250000 0.8709999919 67.712600708  -999.250000 0.8560000062
 1247.1379395  -999.250000 13.267999649 17.500000000 269.33398438 -0.005900000  -999.250000 0.5458999872 2.0280001163  -999.250000 74.858108521  -999.250000 154.30329895  -999.250000 0.8660039902 67.691596985  -999.250000 0.8639936447
 1247.2904053  -999.250000 13.272100449 17.500000000 260.36746216 -0.005600000  -999.250000 0.5939999819 2.0202000141  -999.250000 77.020500183  -999.250000 154.53959656  -999.250000 0.8560000062 67.017402649  -999.250000 0.8790000081
 1247.4427490  -999.250000 13.264800072 17.500000000 260.36746216 -0.003500000  -999.250000 0.6244000196 2.0192000866  -999.250000 79.801071167  -999.250000 151.11830139  -999.250000 0.8510040045 66.774597168  -999.250000 0.8590160608
 1247.5952148  -999.250000 13.217000008 17.500000000 260.36746216 0.0006000000  -999.250000 0.6607000232 2.0144999027  -999.250000 81.551399231  -999.250000 154.82170105  -999.250000 0.8410000205 67.424697876  -999.250000 0.8220000267
 1247.7475586  -999.250000 13.129700661 17.500000000 260.36746216 0.0002000000  -999.250000 0.6352999806 1.9538999796  -999.250000 81.016624451  -999.250000 157.89111328  -999.250000 0.8320072293 66.921600342  -999.250000 0.8020160198
 1247.9000244  -999.250000 13.340200424 17.500000000 260.36746216 -0.008900000  -999.250000 0.6276000142 1.8300000429  -999.250000 87.477600098  -999.250000 157.96961975  -999.250000 0.8209999800 66.283302307  -999.250000 0.7770000100
 1248.0523682  -999.250000 16.319000244 17.500000000 260.36746216 -0.020400001  -999.250000 0.6396999955 1.7057000399 8.8958997726 93.218399048  -999.250000 158.82598877  -999.250000 1.1145647764 65.813003540 0.1238000020 1.0382906199
 1248.2048340  -999.250000 18.917400360 17.500000000 260.36746216 -0.017800000  -999.250000 0.6585999727 1.6890000105 9.4340000153 99.456596375  -999.250000 160.50689697  -999.250000 0.7936999798 64.942100525 0.0876000002 0.7882000208
 1248.3571777  -999.250000 21.247297287 17.500000000 239.63255310 -0.014600000  -999.250000 0.6129000187 1.7245999575 9.2971000671 98.808616638  -999.250000 161.88920593  -999.250000 0.9488756657 64.595802307 0.1118000001 0.9204940200
 1248.5096436  -999.250000 22.637699127 17.500000000 239.63255310 -0.011100000  -999.250000 0.5519000292 1.7632999420 9.2080001831 98.079200745  -999.250000 161.55940247  -999.250000 1.0464999676 64.658302307 0.1336999983 1.0252000093
 1248.6619873  -999.250000 19.734401703 17.500000000 239.63255310 -0.012300000  -999.250000 0.5895000100 1.7618000507 9.3887996674 96.029998779  -999.250000 161.22880554  -999.250000 1.0462000370 64.853996277 0.1464000046 1.0544999838
 1248.8143311  -999.250000 19.931297302 17.500000000 239.63255310 -0.005400000  -999.250000 0.6014999747 1.7783000469 9.5432996750 96.157699585  -999.250000 161.32319641  -999.250000 1.0083999634 64.900100708 0.1203000024 0.9969999790
 1248.9667969  -999.250000 20.950101852 17.500000000 239.63255310 0.0029000000  -999.250000 0.6697000265 1.8022999763 9.4770002365 97.434898376  -999.250000 159.37651062 466.18438721 1.0113999844 64.712600708 0.1362999976 0.9505000114
 1249.1191406  -999.250000 20.232099533 17.500000000 239.63255310 0.0143999998  -999.250000 0.6417999864 1.8280999660 9.3135004044 100.34680176  -999.250000 159.95031738 466.18438721 1.0101000071 64.658302307 0.1456000060 0.9161000252
 1249.2716064  -999.250000 22.504800797 17.500000000 236.05216980 0.0138999997  -999.250000 0.6402999759 1.7899999619 9.4142999649 101.76219940  -999.250000 160.77400208 479.88110352 1.0471999645 64.887298584 0.1491000056 0.9096000195
 1249.4239502  -999.250000 21.640499115 17.500000000 212.66076660 0.0087000001  -999.250000 0.6693999767 1.7374999523 9.6651000977 102.58840179  -999.250000 159.27551270 493.74752808 1.0748000145 65.129096985 0.1134999990 0.8838000298
 1249.5764160  -999.250000 18.986900330 17.500000000 212.66076660 0.0024999999  -999.250000 0.7376999855 1.7165000439 9.7941999435 103.67810059  -999.250000 158.07499695 493.74752808 1.0623999834 65.054298401 0.0957000032 0.8612999916
 1249.7287598  -999.250000 20.515499115 17.500000000 212.66076660 0.0052999998  -999.250000 0.6284000278 1.7651000023 9.5895996094 104.00990295  -999.250000 156.98950195 493.74752808 1.0529999733 64.970802307 0.1062999964 0.8439999819
 1249.8812256  -999.250000 21.248699188 17.500000000 212.66076660 0.0049000001  -999.250000 0.5795000196 1.8181999922 9.3327999115 103.08529663  -999.250000 157.65190125 493.74752808 1.0782999992 64.966697693 0.1393000036 0.8180000186
 1250.0335693  -999.250000 21.810897827 17.500000000 162.58201599 0.0082999999  -999.250000 0.5871999860 1.8625999689 9.2030000687 100.44300079  -999.250000 158.88209534 493.74752808 1.0757000446 64.837600708 0.1535000056 0.7623000145
 1250.1860352  -999.250000 21.585798264 17.500000000 162.58201599 0.0137000000  -999.250000 0.8098999858 1.8822000027 9.2033004761 100.59639740  -999.250000 155.53648376 493.74752808 1.1082999706 64.916496277 0.1631000042 0.7735000253
