# LAS format log file from PETREL
# Project units are specified as depth units
#==================================================================
~Version information
VERS.   2.0:
WRAP.   NO:
#==================================================================
~Well
STRT .m      1245.0043945 :
STOP .m      3214.9267578 :
STEP .m     0.00000000 :
NULL .        -999.250000 :
COMP.           : COMPANY
WELL.  35/11-11   : WELL
FLD.            : FIELD
LOC.            : LOCATION
SRVC.           : SERVICE COMPANY
DATE.  2018-09-11 14:48:54   : Log Export Date {yyyy-MM-dd HH:mm:ss}
PROV.           : PROVINCE
UWI.   35/11-11   : UNIQUE WELL ID
API.            : API NUMBER
#==================================================================
~Curve
DEPT .m                   : DEPTH
Lithology_geolink ._      : Lithology_geolink
CALI .in                  : CALI
BS .in                    : BS
ROP .m/h                  : ROP
DRHO .g/cm3               : DRHO
THOR .ppm                 : THOR
NPHI .m3/m3               : NPHI
RHOB .g/cm3               : RHOB
PEF .b/e                  : PEF
GR .gAPI                  : GR
URAN .ppm                 : URAN
DTC .us/ft                : DTC
DTS .us/ft                : DTS
RDEP .ohm.m               : RDEP
SP .mV                    : SP
RMIC .ohm.m               : RMIC
RMED .ohm.m               : RMED
~Parameter
#==================================================================
~Ascii
# ...
 3074.5664063 3.0000000000 8.6690998077 8.5000000000 204.64894104 0.0004000000 11.437399864 0.2601999938 2.5550000668 3.4981999397 106.95020294 -0.925087035 83.840805054 153.24369812 10.399176598 41.650260925 2.3361001015 10.706757545
 3074.7187500 3.0000000000 8.6854000092 8.5000000000 204.64894104 0.0038000001 12.969900131 0.3106999993 2.5959999561 3.1217999458 120.07939911 -0.019053686 89.567001343 164.07029724 18.226455688 41.762119293 10.625900269 19.230440140
 3074.8710938 3.0000000000 8.6875000000 8.5000000000 204.64894104 0.0043000001 12.542400360 0.3434999883 2.5697000027 2.9161999226 129.18879700 -0.353061527 94.668182373 164.80490112 15.410340309 41.970462799 15.201100349 16.418334961
 3075.0234375 3.0000000000 8.6831998825 8.5000000000 120.67913818 0.0035000001 12.407400131 0.3481000066 2.4640998840 2.7813999653 133.61470032 -0.382706583 96.636901855 165.99728394 14.191099167 41.634780884 14.041199684 14.960266113
 3075.1760254 3.0000000000 8.6785001755 8.5000000000 120.67913818 0.0066999998 12.043399811 0.3679000139 2.3417000771 2.6842999458 129.72329712 -0.576788604 98.776802063 168.05589294 17.744588852 41.811714172 17.312000275 17.854347229
 3075.3283691 3.0000000000 8.6838998795 8.5000000000 120.67913818 0.0078999996 11.204700470 0.3689000010 2.2827999592 2.6712999344 122.31449890 -0.859446764 100.63240051 168.91560364 33.505012512 42.182804108 24.980600357 33.542026520
 3075.4807129 3.0000000000 8.6865997314 8.5000000000 120.67913818 0.0077000000 11.445599556 0.3402999938 2.3285000324 2.7123999596 115.24179840 -0.737097085 99.574409485 167.67611694 40.529865265 41.460159302 26.910600662 42.395328522
 3075.6330566 3.0000000000 8.6883001328 8.5000000000 120.67913818 0.0008000000 11.606399536 0.3043999970 2.4179000854 2.9616000652 113.58519745 -0.638557851 96.494010925 166.77310181 16.705459595 41.141906738 16.289899826 18.139955521
 3075.7854004 3.0000000000 8.6920003891 8.5000000000 120.67913818 -0.004000000 11.586400032 0.3111000061 2.4862999916 3.2353999615 120.29319763 -0.396277279 86.590797424 163.37179565 10.432116508 41.540218353 11.064200401 11.338109970
 3075.9379883 3.0000000000 8.6993999481 8.5000000000 134.17651367 -0.004000000 11.165499687 0.3465999961 2.5276999474 3.2348001003 127.70110321 -0.567124486 84.904800415 161.85691833 9.2743263245 41.886745453 12.154600143 10.127209663
 3076.0903320 3.0000000000 8.6943998337 8.5000000000 134.17651367 -0.000900000 10.866600037 0.3524999917 2.5574998856 2.7095000744 126.81680298 -0.723150015 82.452400208 157.83450317 13.336077690 41.630012512 16.386600494 14.555088997
 3076.2426758 6.0000000000 8.7074003220 8.5000000000 134.17651367 0.0267999992 9.7222003937 0.3228999972 2.5710000992 1.9235999584 114.41169739 -0.906406283 85.052101135 145.11000061 26.408029556 41.516582489 30.502700806 28.986446381
 3076.3950195 18.000000000 8.7185001373 8.5000000000 134.17651367 0.0445000008 8.8673000336 0.3386000097 2.4516999722 1.3198000193 100.20819855 -1.350874186 85.233596802 156.20559692 38.283744812 41.749252319 40.554000854 42.508464813
 3076.5476074 18.000000000 8.7299003601 8.5000000000 134.17651367 0.0445999987 8.0370998383 0.4237000048 2.2218999863 1.1075999737 86.048698425 -1.742573500 86.806503296 172.51391602 45.274341583 41.251300812 51.013198853 50.527496338
 3076.6999512 18.000000000 8.7347002029 8.5000000000 134.17651367 0.0063999998 6.6451997757 0.4641000032 1.9819999933 1.0527000427 72.937599182 -2.926001549 87.257400513 169.03257751 57.912834167 41.245407104 40.741100311 56.682243347
 3076.8522949 5.0000000000 8.6676998138 8.5000000000 134.17651367 -0.016700000 6.8924999237 0.3172999918 1.9620000124 1.3236000538 63.376800537 -2.855815649 86.172599792 167.53880310 11.966182709 41.591148376 8.6050996780 10.827818871
 3077.0046387 5.0000000000 8.6328001022 8.5000000000 247.83467102 -0.020199999 6.6284999847 0.2142000049 2.1089999676 2.1163001060 59.876899719 -3.045690060 84.482101440 160.67309570 4.2737579346 41.297046661 3.0978000164 3.9706768990
 3077.1572266 3.0000000000 8.5649995804 8.5000000000 247.83467102 -0.010200000 6.5183000565 0.1797000021 2.2818000317 3.0838999748 60.950099945 -3.179186583 82.148796082 159.52639771 2.4940173626 40.763652802 1.5369000435 2.3380856514
 3077.3095703 3.0000000000 8.5567998886 8.5000000000 247.83467102 -0.006700000 6.9867000580 0.1720000058 2.3573999405 3.6884000301 60.458400726 -3.073569775 80.309501648 144.53570557 1.8670020103 40.999500275 1.1664999723 1.7588256598
 3077.4619141 3.0000000000 8.5581998825 8.5000000000 247.83467102 -0.006700000 6.9158000946 0.1826000065 2.3654000759 3.7923998833 64.038299561 -3.173439264 80.529800415 141.56739807 1.9181163311 41.470798492 1.0332000256 1.8032273054
 3077.6142578 3.0000000000 8.5558004379 8.5000000000 247.83467102 -0.007000000 7.5388998985 0.1955000013 2.3643000126 3.8282999992 67.169700623 -2.884264469 80.693496704 138.27990723 1.5931217670 41.000499725 0.9556000233 1.5219515562
 3077.7666016 3.0000000000 8.5640001297 8.5000000000 247.83467102 -0.007200000 7.9023003578 0.1983000040 2.3657999039 3.9323000908 72.389198303 -2.685038090 79.491088867 134.64639282 1.6216069460 41.028701782 0.8858000040 1.5862920284
 3077.9191895 3.0000000000 8.5587997437 8.5000000000 174.61613464 -0.007300000 8.1891002655 0.2011999935 2.3845000267 4.0767998695 82.539901733 -2.595242977 78.089302063 137.57730103 2.4069395065 41.504100800 0.9404000044 2.3333013058
 3078.0715332 7.0000000000 8.5572996140 8.5000000000 174.61613464 -0.006500000 12.043199539 0.2052000016 2.4189999104 4.2312002182 94.231498718 -1.162699223 77.883903503 134.15100098 3.5177190304 41.296100616 1.2749999762 3.2626104355
 3078.2238770 7.0000000000 8.5640001297 8.5000000000 174.61613464 -0.005000000 12.421799660 0.2115000039 2.4544999599 4.3183999062 103.08920288 -1.018328071 81.184494019 133.89509583 3.3482749462 41.395500183 1.7271000147 2.9615857601
 3078.3762207 7.0000000000 8.5553998947 8.5000000000 174.61613464 -0.004600000 12.078599930 0.2203000039 2.4607000351 4.4068999290 99.807601929 -1.179282546 84.099700928 134.28819275 2.8462109566 41.687500000 1.8305000067 2.3980076313
 3078.5288086 7.0000000000 8.5565996170 8.5000000000 174.61613464 -0.005000000 8.8971004486 0.2257999927 2.4344000816 4.4475002289 91.254600525 -1.356516361 89.026802063 134.78689575 1.8193457127 41.554298401 1.2583999634 1.4954458475
 3078.6811523 7.0000000000 8.5522003174 8.5000000000 174.61613464 -0.006400000 8.8537998199 0.2318000048 2.3924002647 4.4640998840 84.802398682 -1.330841780 85.721717834 134.33459473 1.7922408581 41.237701416 0.9909999967 1.4207177162
 3078.8334961 7.0000000000 8.5534000397 8.5000000000 174.61613464 -0.004500000 9.3886995316 0.2393999994 2.3742001057 4.4734001160 90.113998413 -0.890506744 85.680099487 136.05140686 1.6605113745 41.395500183 0.8112000227 1.2696423531
 3078.9858398 7.0000000000 8.5543003082 8.5000000000 213.86810303 -0.004000000 13.819499969 0.2408999950 2.3949000835 4.5075998306 103.01380157 0.1768756807 86.282699585 135.25190735 2.1830220222 41.520999908 0.8356999755 1.6154890060
 3079.1384277 7.0000000000 8.5761995316 8.5000000000 213.86810303 -0.000400000 12.841199875 0.2626999915 2.4482998848 4.3428997993 112.00399780 -0.267181724 85.849700928 132.39509583 5.4931893349 41.008701324 1.1486999989 3.8836610317
 3079.2907715 7.0000000000 8.5537004471 8.5000000000 213.86810303 -0.000600000 8.6851997375 0.2556000054 2.4774999619 4.1017999649 107.00569916 -0.925145030 83.587799072 132.53089905 3.9773416519 41.453399658 1.7014000416 2.8469698429
 3079.4431152 7.0000000000 8.5359001160 8.5000000000 213.86810303 -0.000900000 8.1236000061 0.2426999956 2.4640998840 3.8229999542 96.556297302 -1.316872954 82.377998352 131.65559387 2.1390469074 42.258201599 1.4895000458 1.5569679737
 3079.5954590 6.0000000000 8.5291996002 8.5000000000 213.86810303 -0.003300000 11.607099533 0.2308000028 2.4439001083 3.8099999428 94.348999023 -0.821795642 83.220207214 131.99540710 2.1411919594 42.008701324 1.0599999428 1.5505070686
 3079.7478027 6.0000000000 8.5361995697 8.5000000000 274.44226074 -0.002300000 16.519899368 0.2459000051 2.4572000504 3.7780001163 102.18800354 -0.992150486 81.221702576 132.28630066 2.8747451305 41.154701233 1.1345000267 2.0494980812
