# LAS format log file from PETREL
# Project units are specified as depth units
#==================================================================
~Version information
VERS.   2.0:
WRAP.   NO:
#==================================================================
~Well
STRT .m      989.00103760 :
STOP .m      3365.3732910 :
STEP .m     0.00000000 :
NULL .        -999.250000 :
COMP.           : COMPANY
WELL.  35/11-1   : WELL
FLD.            : FIELD
LOC.            : LOCATION
SRVC.           : SERVICE COMPANY
DATE.  2018-09-11 14:48:54   : Log Export Date {yyyy-MM-dd HH:mm:ss}
PROV.           : PROVINCE
UWI.   35/11-1   : UNIQUE WELL ID
API.            : API NUMBER
#==================================================================
~Curve
DEPT .m                   : DEPTH
Lithology_geolink ._      : Lithology_geolink
CALI .in                  : CALI
DRHO .g/cm3               : DRHO
NPHI .m3/m3               : NPHI
RHOB .g/cm3               : RHOB
PEF .b/e                  : PEF
GR .gAPI                  : GR
DTC .us/ft                : DTC
RDEP .ohm.m               : RDEP
SP .mV                    : SP
RSHA .ohm.m               : RSHA
RMED .ohm.m               : RMED
~Parameter
#==================================================================
~Ascii
 989.00103760  -999.250000 19.170000076 -0.734000027  -999.250000 2.0369999409 24.233999252 54.806678772 155.24819946 1.3918882608 80.503036499 1.4458990097 1.4458990097
 989.15344238  -999.250000 19.170000076 -0.725000024  -999.250000 2.0680000782 39.812999725 61.892932892 154.75540161 1.3608665466 80.239891052 1.4179422855 1.4179422855
 989.30584717  -999.250000 19.170000076 -0.708999991  -999.250000 2.0899999142 32.530998230 58.271087646 156.25903320 1.3238883018 80.762084961 1.4018918276 1.4018918276
 989.45825195  -999.250000 19.170000076 -0.726000011  -999.250000 2.0569999218 52.125000000 55.538093567 158.75451660 1.2929207087 80.785873413 1.3718414307 1.3718414307
 989.61065674  -999.250000 19.170000076 -0.728999972  -999.250000 2.0699999332 27.812999725 57.511600494 159.99639893 1.2709820271 81.026977539 1.3277584314 1.3277584314
 989.76306152  -999.250000 19.138000488 -0.726999998  -999.250000 2.1860001087 63.530998230 60.725646973 158.99459839 1.2659928799 81.020866394 1.2608739138 1.2608739138
 989.91540527  -999.250000 19.138000488 -0.722000003  -999.250000 2.3010001183 66.438003540 62.562999725 157.49679565 1.2639904022 81.261146545 1.2260384560 1.2260384560
 990.06781006  -999.250000 18.903999329 -0.677999973  -999.250000 2.4860000610 -960.5000000 62.564300537 156.49279785 1.2610096931 80.995178223 1.2381923199 1.2381923199
 990.22021484  -999.250000 19.215999603 -0.708999991  -999.250000 2.2969999313 143.12500000 62.967700958 154.25559998 1.2640353441 80.737953186 1.2981184721 1.2981184721
 990.37261963  -999.250000 19.215999603 -0.708999991  -999.250000 2.1930000782 274.75000000 62.551086426 155.98957825 1.2750768661 80.723747253 1.3350256681 1.3350256681
 990.52502441  -999.250000 19.215999603 -0.742999971  -999.250000 2.0490000248 75.625000000 58.845001221 152.75399780 1.2990865707 80.956924438 1.3430000544 1.3430000544
 990.67742920  -999.250000 19.215999603 -0.731999993  -999.250000 2.0490000248 58.812999725 59.172519684 153.99839783 1.3260641098 80.934844971 1.3430416584 1.3430416584
 990.82983398  -999.250000 19.201000214 -0.717000008  -999.250000 2.0629999638 48.405998230 64.317008972 153.49838257 1.3460352421 81.198249817 1.3560640812 1.3560640812
 990.98223877  -999.250000 19.201000214 -0.722000003  -999.250000 2.0529999733 43.312999725 65.568183899 153.00270081 1.3570359945 80.965980530 1.3759928942 1.3759928942
 991.13464355  -999.250000 19.215999603 -0.731000006  -999.250000 2.0550000668 71.688003540 66.985694885 153.75001526 1.3670252562 81.237045288 1.3739566803 1.3739566803
 991.28704834  -999.250000 19.215999603 -0.750999987  -999.250000 2.0450000763 58.344001770 63.025142670 153.74731445 1.3740323782 80.973052979 1.3619602919 1.3619602919
 991.43945313  -999.250000 19.201000214 -0.746999979  -999.250000 2.0720000267 69.375000000 61.404422760 152.99008179 1.3830252886 80.987976074 1.3510143757 1.3510143757
 991.59185791  -999.250000 19.170000076 -0.726999998  -999.250000 2.1210000515 35.375000000 60.965171814 150.25000000 1.3900071383 80.982749939 1.3550397158 1.3550397158
 991.74426270  -999.250000 19.170000076 -0.707000017  -999.250000 2.1879999638 82.313003540 59.905998230 150.24819946 1.3920215368 81.462348938 1.3660289049 1.3660289049
 991.89666748  -999.250000 19.170000076 -0.694999993  -999.250000 2.2620000839 68.625000000 59.891246796 149.74819946 1.3980396986 80.730941772 1.3739963770 1.3739963770
 992.04901123  -999.250000 19.170000076 -0.680000007  -999.250000 2.3220000267 174.12500000 55.820106506 149.25079346 1.4090224504 80.714942932 1.3730416298 1.3730416298
 992.20141602  -999.250000 19.170000076 -0.665000021  -999.250000 2.3770000935 45.594001770 58.044715881 149.50000000 1.4160256386 80.699851990 1.3860288858 1.3860288858
 992.35382080  -999.250000 19.170000076 -0.665000021  -999.250000 2.4019999504 94.563003540 62.332622528 149.50000000 1.4240096807 80.964248657 1.3950191736 1.3950191736
 992.50622559  -999.250000 19.170000076 -0.663999975  -999.250000 2.4260001183 47.280998230 68.434600830 149.50079346 1.4269903898 80.731750488 1.4010159969 1.4010159969
 992.65863037  -999.250000 19.170000076 -0.679000020  -999.250000 2.4079999924 80.125000000 67.369796753 149.75320435 1.4239871502 80.965744019 1.4060159922 1.4060159922
 992.81103516  -999.250000 19.170000076 -0.681999981  -999.250000 2.4100000858 100.50000000 65.741989136 150.75480652 1.4199839830 81.199050903 1.4110128880 1.4110128880
 992.96343994  -999.250000 19.170000076 -0.689000010  -999.250000 2.3789999485 122.87500000 63.240879059 152.25000000 1.4149495363 81.215843201 1.4149928093 1.4149928093
 993.11584473  -999.250000 19.170000076 -0.680000007  -999.250000 2.3710000515 35.125000000 60.719112396 152.24819946 1.4009315968 81.447250366 1.4129711390 1.4129711390
 993.26824951  -999.250000 19.170000076 -0.669000030  -999.250000 2.3459999561 18.218999863 60.756870270 151.75090027 1.3819315434 80.965957642 1.4048990011 1.4048990011
 993.42065430  -999.250000 19.153999329 -0.657999992  -999.250000 2.3650000095 19.156000137 62.675037384 151.99819946 1.3629423380 81.230941772 1.3768738508 1.3768738508
 993.57305908  -999.250000 19.153999329 -0.658999979  -999.250000 2.3710000515 19.952999115 67.928092957 151.50540161 1.3469603062 81.215057373 1.3419098854 1.3419098854
 993.72546387  -999.250000 19.153999329 -0.686999977  -999.250000 2.3359999657 24.593999863 65.192512512 153.00360107 1.3359566927 81.231086731 1.3169784546 1.3169784546
 993.87786865  -999.250000 19.153999329 -0.716000021  -999.250000 2.2790000439 26.702999115 66.428543091 154.00540161 1.3239603043 81.252136230 1.3109747171 1.3109747171
 994.03027344  -999.250000 19.153999329 -0.730000019  -999.250000 2.2360000610 27.531000137 63.819530487 155.49819946 1.3129711151 80.737976074 1.3040000200 1.3040000200
 994.18261719  -999.250000 19.153999329 -0.735000014  -999.250000 2.1679999828 42.655998230 65.603576660 154.99920654 1.3049646616 80.731750488 1.3039776087 1.3039776087
 994.33502197  -999.250000 19.153999329 -0.718999982  -999.250000 2.1289999485 39.094001770 58.934993744 154.74440002 1.2939584255 80.964920044 1.2969744205 1.2969744205
 994.48742676  -999.250000 19.153999329 -0.735000014  -999.250000 2.0629999638 64.500000000 57.994293213 152.99679565 1.2809711695 80.941246033 1.2889679670 1.2889679670
 994.63983154  -999.250000 19.153999329 -0.727999985  -999.250000 2.0720000267 42.905998230 56.210491180 152.00320435 1.2719807625 80.708557129 1.2789744139 1.2789744139
 994.79223633  -999.250000 19.153999329 -0.742999971  -999.250000 2.0759999752 21.516000748 53.565601349 153.00320435 1.2659903765 81.192848206 1.2709647417 1.2709647417
 994.94464111  -999.250000 19.138000488 -0.727999985  -999.250000 2.1310000420 15.140999794 54.387622833 153.99919128 1.2630096674 81.455451965 1.2599198818 1.2599198818
 995.09704590  -999.250000 19.153999329 -0.707000017  -999.250000 2.2170000076 12.241999626 58.336650848 153.75361633 1.2660000324 80.972038269 1.2349423170 1.2349423170
 995.24945068  -999.250000 19.153999329 -0.677999973  -999.250000 2.3139998913 15.305000305 64.873199463 154.75450134 1.2659928799 80.707061768 1.2190108299 1.2190108299
 995.40185547  -999.250000 19.138000488 -0.663999975  -999.250000 2.4019999504 20.141000748 64.361930847 155.99998474 1.2639929056 80.723846436 1.2220972776 1.2220972776
 995.55426025  -999.250000 19.138000488 -0.658999979  -999.250000 2.4409999847 25.187999725 60.742450714 156.00268555 1.2619999647 80.956947327 1.2490720749 1.2490720749
 995.70666504  -999.250000 19.138000488 -0.643000007  -999.250000 2.4690001011 30.875000000 58.667713165 156.75360107 1.2620179653 80.943855286 1.2690180540 1.2690180540
 995.85906982  -999.250000 19.138000488 -0.624000013  -999.250000 2.4920001030 19.797000885 61.906448364 157.74909973 1.2670252323 81.457962036 1.2739676237 1.2739676237
 996.01147461  -999.250000 19.138000488 -0.617999971  -999.250000 2.5020000935 21.812999725 62.023117065 157.49819946 1.2740180492 81.723052979 1.2649928331 1.2649928331
 996.16381836  -999.250000 19.138000488 -0.620000005  -999.250000 2.4920001030 25.562999725 59.831287384 156.99839783 1.2790000439 81.737953186 1.2629935741 1.2629935741
