# LAS format log file from PETREL
# Project units are specified as depth units
#==================================================================
~Version information
VERS.   2.0:
WRAP.   NO:
#==================================================================
~Well
STRT .m      2818.0771484 :
STOP .m      3213.0979004 :
STEP .m     0.00000000 :
NULL .        -999.250000 :
COMP.           : COMPANY
WELL.  35/11-15 S   : WELL
FLD.            : FIELD
LOC.            : LOCATION
SRVC.           : SERVICE COMPANY
DATE.  2018-09-11 14:48:55   : Log Export Date {yyyy-MM-dd HH:mm:ss}
PROV.           : PROVINCE
UWI.   35/11-15 S   : UNIQUE WELL ID
API.            : API NUMBER
#==================================================================
~Curve
DEPT .m                   : DEPTH
Lithology_geolink ._      : Lithology_geolink
CALI .in                  : CALI
BS .in                    : BS
ROP .m/h                  : ROP
DRHO .g/cm3               : DRHO
THOR .ppm                 : THOR
SGR .gAPI                 : SGR
RHOB .g/cm3               : RHOB
PEF .b/e                  : PEF
GR .gAPI                  : GR
URAN .ppm                 : URAN
DTC .us/ft                : DTC
DTS .us/ft                : DTS
RDEP .ohm.m               : RDEP
RMIC .ohm.m               : RMIC
RMED .ohm.m               : RMED
~Parameter
#==================================================================
~Ascii
# ...
 2919.5754395 6.0000000000 8.6674995422 8.5000000000 69942.593750 -0.008300160 13.345499992 0.0221011210 2.5161375999 2.8767640591 104.72815704 2.5367000103 82.636398315 139.63639832 3.1147789955 2.2751352787 3.1793999672
 2919.7277832 6.0000000000 8.6872997284 8.5000000000 74115.000000 -0.007203520 12.179100037 0.0202060789 2.5783007145 3.4659090042 95.842208862 2.3719000816 82.999992371 140.18179321 2.0703060627 2.0092418194 2.0989000797
 2919.8803711 6.0000000000 8.6957998276 8.5000000000 74820.960938 -0.004504327 11.223999977 0.0185027253 2.6367065907 3.8520832062 88.578208923 2.1954998970 82.909103394 140.54539490 3.8521347046 2.1442818642 3.8764998913
 2920.0327148 6.0000000000 8.6703996658 8.5000000000 73116.359375 -0.002303526 10.847499847 0.0181006417 2.5013175011 3.0075566769 85.650878906 2.1473000050 82.727302551 140.36360168 3.6523251534 7.3621249199 3.6631000042
 2920.1850586 6.0000000000 8.6787996292 8.5000000000 71637.843750 -0.001401442 10.878100395 0.0185991991 2.5046942234 3.0203773975 88.545745850 2.3320999146 81.454498291 139.72729492 5.4431252480 8.1838941574 5.6055002213
 2920.3374023 6.0000000000 8.6759996414 8.5000000000 75525.843750 -0.001898400 11.071499825 0.0191980805 2.5547392368 2.9819235802 93.214424133 2.6243000031 80.090896606 138.54550171 20.981826782 21.657949448 21.103000641
 2920.4899902 6.0000000000 8.6674995422 8.5000000000 81854.281250 -0.004096474 11.313899994 0.0193996802 2.5328354836 3.0475943089 96.015632629 2.8187999725 78.818199158 137.18179321 19.971401215 20.259513855 20.240800858
 2920.6423340 6.0000000000 8.6872997284 8.5000000000 89246.882813 -0.005597596 11.502400398 0.0194000006 2.5628519058 2.9730198383 98.538055420 3.0185999870 77.363601685 136.00000000 19.848295212 18.632307053 20.430999756
 2920.7946777 6.0000000000 8.6870002747 8.5000000000 87137.281250 -0.005799680 10.926500320 0.0198991988 2.5613026619 2.8429086208 98.033515930 3.0599999428 76.818191528 134.63639832 24.335695267 20.275058746 24.995199203
 2920.9470215 6.0000000000 8.6815996170 8.5000000000 81263.523438 -0.004603840 11.012200356 0.0201990400 2.5986800194 2.9434764385 97.857566833 2.9999001026 76.545501709 133.36360168 26.269216537 19.748199463 25.906200409
 2921.0996094 6.0000000000 8.6844997406 8.5000000000 81102.960938 -0.005099199 10.726499557 0.0203996804 2.5909125805 2.8853936195 95.398246765 2.8076000214 76.363601685 132.36360168 23.652608871 14.904472351 22.568000793
 2921.2519531 6.0000000000 8.6815996170 8.5000000000 82638.359375 -0.004001763 10.425800323 0.0207993593 2.5676374435 2.8373770714 94.751228333 2.6791999340 76.636398315 131.63639832 5.0466580391 4.2079572678 4.6173000336
 2921.4042969 6.0000000000 8.6900997162 8.5000000000 78411.960938 -0.001803526 10.303600311 0.0211993586 2.5956549644 3.2710037231 93.420234680 2.4361000061 76.636398315 131.27270508 5.1817355156 2.2550072670 4.7079000473
 2921.5566406 6.0000000000 8.6820001602 8.5000000000 73134.359375 0.0010953526 10.529600143 0.0211001597 2.6617939472 3.3982968330 93.753257751 2.4252998829 76.636398315 131.27270508 7.1434512138 2.1335899830 6.4685001373
 2921.7089844 6.0000000000 8.6815996170 8.5000000000 70954.921875 -0.001691040 9.9779996872 0.0207012799 2.5968089104 3.1425218582 92.366851807 2.5229001045 76.545501709 131.45449829 19.041114807 3.2735397816 17.291900635
 2921.8615723 6.0000000000 8.6815996170 8.5000000000 67853.164063 -0.005394071 10.264800072 0.0212990381 2.5884130001 3.0202949047 93.949455261 2.5553998947 76.636398315 131.63639832 22.032857895 15.566973686 19.849399567
 2922.0139160 6.0000000000 8.6815996170 8.5000000000 65633.039063 -0.007197115 10.590999603 0.0220987182 2.6279366016 3.1661655903 97.802619934 2.7967998981 76.000000000 131.27270508 22.999954224 17.294059753 20.781099319
 2922.1662598 6.0000000000 8.6731996536 8.5000000000 67197.601563 -0.005502725 10.618900299 0.0237972755 2.6309952736 3.2391831875 102.60649872 2.9651000500 75.363601685 130.72729492 27.268650055 16.646244049 24.665500641
 2922.3186035 6.0000000000 8.6759996414 8.5000000000 74130.484375 -0.005500000 11.529299736 0.0244977586 2.5940186977 3.0353546143 104.31195068 2.6937999725 74.818199158 130.45449829 28.360218048 21.799552917 25.467399597
 2922.4711914 6.0000000000 8.6646995544 8.5000000000 76134.234375 -0.005799519 11.524499893 0.0235016011 2.5778257847 2.9949638844 102.23175049 2.6967000961 74.363601685 130.00000000 22.760492325 8.4295873642 20.092699051
 2922.6235352 6.0000000000 8.6674995422 8.5000000000 66908.515625 -0.007397436 11.035799980 0.0229009613 2.5869851112 2.9077398777 101.84960938 2.9760000706 74.000000000 129.36360168 12.895120621 7.3309288025 11.071800232
 2922.7758789 6.0000000000 8.6928997040 8.5000000000 56757.238281 -0.004304968 11.047100067 0.0222011209 2.8485801220 3.9055981636 100.47789764 2.9372000694 73.454498291 128.54539490 18.443767548 7.2162814140 15.485199928
 2922.9282227 6.0000000000 8.6985998154 8.5000000000 48612.238281 -0.003701920 10.962699890 0.0219009593 2.6310994625 3.1303937435 99.393875122 2.9914000034 73.000000000 127.81819916 27.607809067 20.776466370 23.099700928
 2923.0808105 6.0000000000 8.7154998779 8.5000000000 45101.519531 -0.002202404 10.344900131 0.0210014414 2.5829761028 2.7715718746 97.248443604 3.1977000237 72.909103394 127.81819916 26.966077805 22.591058731 23.039800644
 2923.2331543 6.0000000000 8.7126998901 8.5000000000 45287.277344 -0.003697596 10.309100151 0.0210998394 2.6389100552 2.9720771313 96.219345093 3.0646998882 72.545501709 127.45449829 25.394121170 22.792881012 22.486900330
 2923.3854980 6.0000000000 8.7154998779 8.5000000000 49546.796875 -0.005297436 10.732000351 0.0214993600 2.6297149658 2.9675078392 96.923370361 2.9625000954 72.818199158 126.72730255 24.374832153 22.586132050 22.049400330
 2923.5378418 6.0000000000 8.7323999405 8.5000000000 53128.082031 -0.005899039 10.682499886 0.0216996800 2.6064374447 2.8838341236 95.783729553 2.7823998928 72.454498291 126.90910339 23.814296722 20.451725006 22.120700836
 2923.6904297 6.0000000000 8.7437000275 8.5000000000 50882.761719 -0.006798560 10.745699883 0.0213006400 2.6015079021 2.7815637589 95.226089478 2.7244000435 72.363601685 127.45449829 21.144378662 20.887296677 19.545999527
 2923.8427734 6.0000000000 8.7421998978 8.5000000000 47094.480469 -0.003704968 10.973699570 0.0208008010 2.6103856564 2.8186402321 93.115783691 2.5332999229 72.363601685 127.63639832 19.753725052 21.465372086 18.025800705
 2923.9951172 6.0000000000 8.7370996475 8.5000000000 46184.757813 -0.001004327 10.372200012 0.0206003208 2.6329636574 2.9325172901 90.683700562 2.5241000652 73.181800842 127.81819916 24.636157990 24.217782974 22.230800629
 2924.1474609 6.0000000000 8.7494001389 8.5000000000 47868.480469 0.0003977564 10.288100243 0.0210991986 2.6099369526 2.8653082848 89.850524902 2.2685000896 73.727302551 128.18179321 26.049243927 24.271421432 23.458400726
 2924.2998047 6.0000000000 8.7607002258 8.5000000000 50533.558594 -0.001792960 10.482000351 0.0215984005 2.5871729851 2.8382863998 89.309333801 2.0116999149 73.363601685 128.63639832 25.297321320 22.366815567 23.171300888
 2924.4523926 6.0000000000 8.7550001144 8.5000000000 50271.839844 -0.005294391 10.689299583 0.0218995195 2.5819082260 2.7977647781 89.975128174 1.9749000072 73.363601685 128.63639832 24.646640778 22.363794327 22.770700455
 2924.6047363 6.0000000000 8.7663002014 8.5000000000 47528.640625 -0.007496474 10.579899788 0.0218001604 2.5773074627 2.8694849014 89.974998474 2.0141000748 73.545501709 128.36360168 25.244739532 20.936191559 23.481899261
 2924.7570801 6.0000000000 8.7698001862 8.5000000000 48725.640625 -0.006900962 10.648099899 0.0217001606 2.5704109669 2.9059414864 90.270027161 2.0989999771 73.545501709 127.99999237 23.548723221 21.871494293 22.233200073
 2924.9094238 6.0000000000 8.7663002014 8.5000000000 52409.160156 -0.007498080 10.512700081 0.0220987201 2.5758824348 2.9001188278 90.617485046 2.1338999271 73.363601685 127.63639832 23.919403076 21.564590454 22.813299179
 2925.0620117 6.0000000000 8.7578001022 8.5000000000 54666.359375 -0.007100641 10.251999855 0.0221998394 2.5768983364 2.8639578819 91.157035828 2.2535998821 72.818199158 127.27270508 26.200639725 23.310895920 25.281000137
