# LAS format log file from PETREL
# Project units are specified as depth units
#==================================================================
~Version information
VERS.   2.0:
WRAP.   NO:
#==================================================================
~Well
STRT .m      989.00103760 :
STOP .m      3365.3732910 :
STEP .m     0.00000000 :
NULL .        -999.250000 :
COMP.           : COMPANY
WELL.  35/11-1   : WELL
FLD.            : FIELD
LOC.            : LOCATION
SRVC.           : SERVICE COMPANY
DATE.  2018-09-11 14:48:54   : Log Export Date {yyyy-MM-dd HH:mm:ss}
PROV.           : PROVINCE
UWI.   35/11-1   : UNIQUE WELL ID
API.            : API NUMBER
#==================================================================
~Curve
DEPT .m                   : DEPTH
Lithology_geolink ._      : Lithology_geolink
CALI .in                  : CALI
DRHO .g/cm3               : DRHO
NPHI .m3/m3               : NPHI
RHOB .g/cm3               : RHOB
PEF .b/e                  : PEF
GR .gAPI                  : GR
DTC .us/ft                : DTC
RDEP .ohm.m               : RDEP
SP .mV                    : SP
RSHA .ohm.m               : RSHA
RMED .ohm.m               : RMED
~Parameter
#==================================================================
~Ascii
# ...
 1303.5545654  -999.250000 19.153999329 0.0280000009  -999.250000 2.0999999046 5.9299998283 103.61558533 125.51602173 0.9479006529 58.750900269 1.2109807730 1.2109807730
 1303.7069092  -999.250000 17.497999191 0.0469999984  -999.250000 2.0759999752 5.0349998474 100.68080139 130.51121521 0.9173074365 58.720802307 1.2046413422 1.2046413422
 1303.8593750  -999.250000 17.951000214 0.0250000004  -999.250000 2.0959999561 4.8200001717 98.445816040 133.99118042 1.0129390955 58.969200134 1.0929263830 1.0929263830
 1304.0117188  -999.250000 19.919998169 0.0199999996  -999.250000 2.1189999580 4.2500000000 100.87360382 131.25961304 0.9938526750 58.721603394 1.0697758198 1.0697758198
 1304.1640625  -999.250000 19.701002121 0.0099999998  -999.250000 2.1089999676 4.1840000153 100.44070435 134.26141357 0.9480865598 59.216995239 0.9999927878 0.9999927878
 1304.3165283  -999.250000 19.482000351 0.0140000004  -999.250000 2.1089999676 3.9360001087 101.56520081 139.00320435 0.9839808345 57.968399048 0.9969551563 0.9969551563
 1304.4688721  -999.250000 18.701000214 0.0070000002  -999.250000 2.1040000916 3.7400000095 102.26638031 139.99879456 0.9778389335 57.470001221 0.9831730723 0.9831730723
 1304.6213379  -999.250000 18.559999466 0.0109999999  -999.250000 2.1210000515 3.6889998913 109.07761383 139.49760437 0.9109776020 57.470001221 1.0552401543 1.0552401543
 1304.7736816  -999.250000 18.434999466 0.0049999999  -999.250000 2.1070001125 4.0120000839 113.64933777 138.75000000 0.9041345716 57.473606110 1.1300336123 1.1300336123
 1304.9261475  -999.250000 19.028999329 0.0179999992  -999.250000 2.1170001030 4.4959998131 123.72998047 138.74198914 0.9600031972 58.970001221 1.1441217661 1.1441217661
 1305.0784912  -999.250000 18.763000488 0.0260000005  -999.250000 2.1040000916 4.6799998283 117.49624634 136.25059509 0.9610745311 58.968872070 1.1818342209 1.1818342209
 1305.2309570  -999.250000 18.482000351 0.0450000018  -999.250000 2.1150000095 4.5159997940 115.92038727 136.49198914 0.9920319915 58.502601624 1.1132273674 1.1132273674
 1305.3833008  -999.250000 18.638000488 0.0469999984  -999.250000 2.1040000916 4.5159997940 110.46324158 134.00601196 1.0019783974 59.002128601 1.1839302778 1.1839302778
 1305.5357666  -999.250000 19.826000214 0.0410000011  -999.250000 2.0550000668 5.2270002365 120.94561768 136.50401306 0.9931089282 59.469200134 1.1550159454 1.1550159454
 1305.6881104  -999.250000 19.403999329 0.0410000011  -999.250000 2.0230000019 5.4380002022 123.30239105 137.74038696 1.0270512104 59.221603394 1.1597918272 1.1597918272
 1305.8405762  -999.250000 19.528999329 0.0299999993  -999.250000 2.0039999485 5.3239998817 119.99339294 134.76281738 1.0429455042 59.716796875 1.0951410532 1.0951410532
 1305.9929199  -999.250000 18.951000214 0.0189999994  -999.250000 2.0290000439 4.8400001526 117.93780518 138.73078918 1.0261921883 58.721603394 1.1391793489 1.1391793489
 1306.1452637  -999.250000 20.263000488 0.0130000003  -999.250000 2.0529999733 4.8979997635 117.88671875 132.74639893 1.0858869553 59.218799591 1.1951298714 1.1951298714
 1306.2977295  -999.250000 19.215999603 0.0070000002  -999.250000 2.0429999828 5.0079998970 122.74159241 131.25801086 1.0389744043 58.720001221 1.2487982512 1.2487982512
 1306.4500732  -999.250000 19.107000351 0.0109999999  -999.250000 2.0269999504 4.8239998817 120.13101196 133.75540161 1.0310360193 58.719398499 1.1859543324 1.1859543324
 1306.6025391  -999.250000 19.559999466 0.0250000004  -999.250000 2.0099999905 5.3130002022 122.63000488 136.00961304 1.0460544825 58.465198517 1.1668815613 1.1668815613
 1306.7548828  -999.250000 20.465999603 0.0610000007  -999.250000 1.9989999533 5.2729997635 124.19190979 139.00300598 1.0627138615 56.973007202 1.1300384998 1.1300384998
 1306.9073486  -999.250000 20.528999329 0.0680000037  -999.250000 2.0020000935 5.6719999313 125.82080841 140.26681519 0.9440128207 58.217597961 1.1457309723 1.1457309723
 1307.0596924  -999.250000 18.809999466 0.0590000004  -999.250000 1.9989999533 5.3010001183 128.23992920 145.50480652 0.9480072260 57.469398499 1.0619471073 1.0619471073
 1307.2121582  -999.250000 19.795000076 0.0469999984  -999.250000 2.0529999733 5.1370000839 124.08081818 147.49679565 0.9507117271 57.215999603 1.0397469997 1.0397469997
 1307.3645020  -999.250000 20.184999466 0.0170000009  -999.250000 2.0759999752 4.2890000343 129.60847473 146.49819946 0.8608437777 55.968799591 0.9609399438 0.9609399438
 1307.5169678  -999.250000 18.215999603 0.0099999998  -999.250000 2.1329998970 3.6679999828 122.73117065 145.74198914 0.7959839702 55.466796875 0.9359359145 0.9359359145
 1307.6693115  -999.250000 18.420000076 -0.009000000  -999.250000 2.1389999390 3.5820000172 116.84938049 143.24839783 0.7908238769 54.470100403 0.9159615636 0.9159615636
 1307.8217773  -999.250000 18.107000351 -0.001000000  -999.250000 2.1410000324 3.6210000515 108.86779022 142.74839783 0.7359390855 54.500198364 0.9040223956 0.9040223956
 1307.9741211  -999.250000 18.622999191 -0.007000000  -999.250000 2.1229999065 3.9389998913 106.64781952 142.25239563 0.7170832753 54.248596191 0.9110416174 0.9110416174
 1308.1265869  -999.250000 18.013000488 -0.003000000  -999.250000 2.1050000191 4.0980000496 113.75841522 143.00721741 0.7430704832 53.499298096 0.9240000248 0.9240000248
 1308.2789307  -999.250000 18.013000488 0.0070000002  -999.250000 2.0880000591 4.3130002022 116.37860107 145.25079346 0.7649359107 52.970001221 0.9239839911 0.9239839911
 1308.4312744  -999.250000 18.045000076 0.0280000009  -999.250000 2.0940001011 3.7209999561 117.49128723 145.50241089 0.7450384498 52.967597961 0.9188990593 0.9188990593
 1308.5837402  -999.250000 17.965999603 0.0419999994  -999.250000 2.1389999390 3.3480000496 113.85798645 146.49519348 0.7609647512 51.965198517 0.8770256042 0.8770256042
 1308.7360840  -999.250000 18.013000488 0.0209999997  -999.250000 2.1679999828 3.0569999218 108.56105042 144.99819946 0.7499206662 50.470603943 0.8850192428 0.8850192428
 1308.8885498  -999.250000 19.045000076 0.0109999999  -999.250000 2.1860001087 3.0390000343 107.74539948 144.25079346 0.7169808149 50.719200134 0.8930288553 0.8930288553
 1309.0408936  -999.250000 18.107000351 0.0060000001  -999.250000 2.1779999733 2.9179999828 106.32983398 144.50059509 0.7110528946 50.467670441 0.9019783735 0.9019783735
 1309.1933594  -999.250000 18.497999191 0.0000000000  -999.250000 2.1600000858 2.7829999924 113.33361816 144.74440002 0.7329871655 49.500198364 0.8929423690 0.8929423690
 1309.3457031  -999.250000 18.153999329 -0.004000000  -999.250000 2.1559998989 2.7249999046 119.75255585 142.99819946 0.7289927602 49.252128601 0.8749687672 0.8749687672
 1309.4981689  -999.250000 18.153999329 -0.006000000  -999.250000 2.1679999828 2.7090001106 120.80238342 142.25080872 0.7260384560 49.716796875 0.8620640635 0.8620640635
 1309.6505127  -999.250000 18.153999329 -0.006000000  -999.250000 2.1860001087 2.7379999161 117.47518158 142.49279785 0.7380384207 48.723205566 0.8821345568 0.8821345568
 1309.8029785  -999.250000 18.122999191 -0.009000000  -999.250000 2.1889998913 2.7809998989 109.75801086 140.25401306 0.7499070764 49.718399048 0.9241666794 0.9241666794
 1309.9553223  -999.250000 18.153999329 -0.006000000  -999.250000 2.1559998989 3.1089999676 112.22778320 141.51040649 0.7210960984 49.225605011 0.9759743810 0.9759743810
 1310.1077881  -999.250000 18.153999329 0.0000000000  -999.250000 2.1170001030 3.3810000420 105.31039429 144.75401306 0.7510800958 50.966796875 0.9679807425 0.9679807425
 1310.2601318  -999.250000 18.184999466 0.0070000002  -999.250000 2.0880000591 3.4649999142 104.49319458 146.00320435 0.7760384679 49.970802307 0.9617310166 0.9617310166
 1310.4124756  -999.250000 18.090999603 0.0030000000  -999.250000 2.1040000916 3.0350000858 102.38220978 146.99758911 0.7880336642 50.218799591 0.8781058192 0.8781058192
 1310.5649414  -999.250000 18.215999603 -0.002000000  -999.250000 2.1349999905 2.8889999390 105.38000488 145.99519348 0.8020223975 49.720001221 0.9219743609 0.9219743609
 1310.7172852  -999.250000 18.090999603 -0.012000000  -999.250000 2.1700000763 2.8359999657 106.93304443 144.49519348 0.8089134693 49.722404480 0.9141345620 0.9141345620
