# LAS format log file from PETREL
# Project units are specified as depth units
#==================================================================
~Version information
VERS.   2.0:
WRAP.   NO:
#==================================================================
~Well
STRT .m      1150.0018311 :
STOP .m      2885.3808594 :
STEP .m     0.00000000 :
NULL .        -999.250000 :
COMP.           : COMPANY
WELL.  35/11-10   : WELL
FLD.            : FIELD
LOC.            : LOCATION
SRVC.           : SERVICE COMPANY
DATE.  2018-09-11 14:48:54   : Log Export Date {yyyy-MM-dd HH:mm:ss}
PROV.           : PROVINCE
UWI.   35/11-10   : UNIQUE WELL ID
API.            : API NUMBER
#==================================================================
~Curve
DEPT .m                   : DEPTH
Lithology_geolink ._      : Lithology_geolink
CALI .in                  : CALI
BS .in                    : BS
DRHO .g/cm3               : DRHO
NPHI .m3/m3               : NPHI
RHOB .g/cm3               : RHOB
GR .gAPI                  : GR
DTC .us/ft                : DTC
DTS .us/ft                : DTS
RDEP .ohm.m               : RDEP
SP .mV                    : SP
RSHA .ohm.m               : RSHA
RMIC .ohm.m               : RMIC
RMED .ohm.m               : RMED
~Parameter
#==================================================================
~Ascii
 1150.0018311  -999.250000 12.992999077 12.254204750 -0.145859003 0.6094589829 1.9930000305  -999.250000 89.681007385 500.62500000  -999.250000 -140.7500000  -999.250000 3.0816314220  -999.250000
 1150.1542969  -999.250000 13.019999504 12.250000954 -0.043983001 0.5757070184 1.9739999771 76.547996521 88.305000305 499.67401123 691.92034912 -141.6250000 0.8846634030 3.2265484333 0.8828222752
 1150.3066406  -999.250000 13.057000160 12.250000954 0.0051420000 0.5332679749 2.0120000839 80.304985046 89.204002380 563.60900879 729.22949219 -144.5000000 1.3865978718 2.6538429260 1.3853909969
 1150.4589844  -999.250000 13.058000565 12.250000954 -0.003491000 0.5177509785 1.9969999790 80.808593750 86.650001526 628.97698975 863.25811768 -143.1250000 1.3740208149 2.0773098469 1.3740520477
 1150.6114502  -999.250000 13.057000160 12.250000954 -0.001178000 0.4951890111 1.9889999628 83.272003174 87.490005493 606.16601563 8.9052991867 -138.8750000 1.6697627306 2.3600833416 1.6690512896
 1150.7637939  -999.250000 13.071998596 12.250000954 0.0012510000 0.4631519914 1.9700000286 85.510208130 95.029998779 618.60797119 3.9518454075 -139.3750000 1.6969567537 2.0074212551 1.6968919039
 1150.9162598  -999.250000 13.154999733 12.250000954 0.0062910002 0.5032879710 1.9509999752 91.013999939 114.05799866 618.60797119 2.2853307724 -142.1250000 1.4831714630 0.3891987205 1.4836859703
 1151.0686035  -999.250000 13.819000244 12.250000954 0.0085659996 0.5281649828 1.9340000153 101.68744659 115.07299805 618.21697998 1.6525063515 -140.1880035 1.2571810484 0.3999359608 1.2579046488
 1151.2210693  -999.250000 16.194999695 12.250000954 0.0268770009 0.5295060277 1.9379999638 114.61000061 115.89700317 617.43499756 1.2952858210 -138.3130035 1.0801417828 0.4867211282 1.0805673599
 1151.3734131  -999.250000 17.149000168 12.250000954 0.0474059992 0.4739480019 1.9429999590 114.32723236 114.91899872 646.48297119 1.2540328503 -137.6250000 1.0670104027 0.5976442099 1.0670417547
 1151.5258789  -999.250000 18.017999649 12.250000954 0.0678159967 0.4798769951 1.9750000238 115.64499664 114.40799713 646.48297119 1.3189479113 -138.3750000 1.1289503574 0.5092850327 1.1288013458
 1151.6782227  -999.250000 17.347999573 12.250000954 0.0891490057 0.4946790040 2.0069999695 118.21594238 133.41499329 644.90502930 1.4079287052 -137.9380035 1.2029407024 0.3395448625 1.2027627230
 1151.8306885  -999.250000 18.118000031 12.250000954 0.0781989992 0.4917829931 1.9199999571 117.66500092 152.36000061 646.48297119 1.4079999924 -137.6250000 1.2010015249 0.1525988728 1.2010064125
 1151.9830322  -999.250000 18.527000427 12.250000954 0.0618820004 0.4690639973 1.8400000334 115.73654938 151.37802124 645.11102295 1.3760256767 -136.0630035 1.1680264473 0.1689455062 1.1681057215
 1152.1354980  -999.250000 19.285999298 12.250000954 0.0553259999 0.4923270047 1.8009999990 115.72299957 158.31100464 644.90502930 1.3670071363 -134.0630035 1.1440192461 0.2736637294 1.1440769434
 1152.2878418  -999.250000 20.357000351 12.250000954 0.0606239997 0.5304690003 1.8580000401 118.25296783 160.41000366 643.25903320 1.4269520044 -134.5000000 1.1739759445 0.3268301189 1.1739038229
 1152.4401855  -999.250000 20.976001740 12.250000954 0.0402740017 0.5396440029 1.8400000334 119.85271454 160.56700134 643.73901367 1.4819118977 -134.3750000 1.2019551992 0.2234163433 1.2018879652
 1152.5926514  -999.250000 20.523000717 12.250000954 0.0521450005 0.5471389890 1.8420000076 117.57382202 155.44500732 644.08190918 1.5519438982 -134.8750000 1.2309767008 0.2329679430 1.2309069633
 1152.7449951  -999.250000 21.156999588 12.250000954 0.0338339992 0.5392130017 1.7849999666 118.96288300 150.80599976 644.28802490 1.6119039059 -136.0000000 1.2349935770 0.1712481976 1.2349840403
 1152.8974609  -999.250000 20.379999161 12.250000954 0.0124549996 0.5942530036 1.6929999590 121.25700378 153.16499329 644.76794434 1.6549655199 -138.1250000 1.2270064354 0.1610320508 1.2270256281
 1153.0498047  -999.250000 21.250000000 12.250000954 0.0061180000 0.5945540071 1.6289999485 117.98162079 152.98899841 644.56201172 1.6709743738 -141.8130035 1.2180144787 0.1799239516 1.2180360556
 1153.2022705  -999.250000 21.833999634 12.250000954 0.0015640000 0.5969619751 1.5839999914 114.48899841 152.23199463 644.28802490 1.6979783773 -145.1250000 1.1930199862 0.1451121718 1.1930800676
 1153.3546143  -999.250000 21.861000061 12.250000954 -0.001965000 0.5563989878 1.5789999962 113.54975891 150.84799194 643.94506836 1.7009975910 -145.7500000 1.1350464821 0.1420096159 1.1351858377
 1153.5070801  -999.250000 19.892997742 12.250000954 -0.000631000 0.5646510124 1.5839999914 114.84400177 148.49000549 644.56201172 1.6600327492 -145.2500000 1.0710512400 0.1489775926 1.0712049007
 1153.6594238  -999.250000 19.167999268 12.250000954 0.0066820001 0.5432029963 1.6180000305 118.35818481 147.97500610 644.42498779 1.6500079632 -147.3130035 1.0510159731 0.1589679420 1.0510641336
 1153.8118896  -999.250000 21.565000534 12.250000954 0.0060850000 0.5115479827 1.6660000086 118.65299988 146.87899780 642.91601563 1.6420063972 -150.1880035 1.0250208378 0.2038558871 1.0250831842
 1153.9642334  -999.250000 21.615999222 12.250000954 0.0048449999 0.5095199943 1.6770000458 117.44895935 144.85699463 642.43597412 1.6240143776 -149.5630035 0.9793705940 0.1750929505 0.9791474342
 1154.1166992  -999.250000 21.969999313 12.250000954 0.0050960002 0.5402330160 1.6540000439 115.85500336 146.88999939 672.11602783 1.6879487038 -148.5000000 0.9811095595 0.1570576578 0.9809936285
 1154.2690430  -999.250000 22.014999390 12.250000954 0.0047040000 0.5627779961 1.6469999552 116.50547791 146.59500122 672.11602783 1.7659375668 -149.1880035 0.9560071230 0.1829166710 0.9560800791
 1154.4213867  -999.250000 21.530000687 12.250000954 -0.003737000 0.5890319943 1.6260000467 115.22003174 145.91499329 672.11602783 1.7789791822 -152.3750000 0.8865813613 0.2337958366 0.8862801790
 1154.5738525  -999.250000 21.704000473 12.250000954 -0.007468000 0.6116449833 1.6019999981 118.69621277 145.72300720 672.11602783 1.8429487944 -151.6250000 0.8901320696 0.1702051312 0.8899871707
 1154.7261963  -999.250000 21.795000076 12.250000954 -0.002089000 0.5922899842 1.6100000143 115.38565826 147.45500183 672.11602783 1.8150448799 -149.7500000 0.8637972474 0.1460960805 0.8641040921
 1154.8786621  -999.250000 21.229999542 12.250000954 -0.002658000 0.5496630073 1.6360000372 118.42199707 145.62600708 672.11602783 1.7820264101 -150.7500000 0.8277229071 0.1489903927 0.8281154037
 1155.0310059  -999.250000 21.815000534 12.250000954 -0.007720000 0.5305929780 1.6510000229 122.05508423 143.78700256 672.11602783 1.8339167833 -151.5000000 0.8361623883 0.1669279337 0.8359680176
 1155.1834717  -999.250000 21.802000046 12.250000954 -0.002287000 0.5097060204 1.6540000439 122.10600281 143.38600159 672.60601807 1.8479888439 -151.6250000 0.8239657879 0.2098621726 0.8240384459
 1155.3358154  -999.250000 21.673999786 12.250000954 0.0093010003 0.5139849782 1.6799999475 119.74589539 143.41900635 672.60601807 1.8400064707 -153.8750000 0.8161482811 0.1631881595 0.8160319924
 1155.4882813  -999.250000 20.788000107 12.250000954 0.0096049998 0.5364639759 1.6900000572 116.72899628 143.82699585 672.60601807 1.8549879789 -153.9380035 0.8228835464 0.1839326918 0.8229776025
 1155.6406250  -999.250000 20.851999283 12.250000954 0.0045850002 0.5709120035 1.6799999475 117.61428833 143.57000732 724.41198730 1.8120344877 -152.1250000 0.8217759132 0.1620705128 0.8220032454
 1155.7930908  -999.250000 21.976999283 12.250000954 0.0115010003 0.5659199953 1.6720000505 117.57199860 146.38999939 724.64398193 1.8030071259 -153.1880035 0.8223525286 0.1450544447 0.8220000267
 1155.9454346  -999.250000 21.989000320 12.250000954 0.0113070002 0.5442399979 1.6900000572 116.33199310 146.16299438 724.41198730 1.8089952469 -154.0630035 0.8226637840 0.1390192360 0.8229967952
 1156.0979004  -999.250000 21.986999512 12.250000954 0.0038630001 0.5232210159 1.6849999428 116.32700348 146.77900696 622.32397461 1.7840200663 -154.2500000 0.8134004474 0.1968142539 0.8130320311
