# LAS format log file from PETREL
# Project units are specified as depth units
#==================================================================
~Version information
VERS.   2.0:
WRAP.   NO:
#==================================================================
~Well
STRT .m      963.35791016 :
STOP .m      4034.6738281 :
STEP .m     0.00000000 :
NULL .        -999.250000 :
COMP.           : COMPANY
WELL.  35/11-2   : WELL
FLD.            : FIELD
LOC.            : LOCATION
SRVC.           : SERVICE COMPANY
DATE.  2018-09-11 14:48:55   : Log Export Date {yyyy-MM-dd HH:mm:ss}
PROV.           : PROVINCE
UWI.   35/11-2   : UNIQUE WELL ID
API.            : API NUMBER
#==================================================================
~Curve
DEPT .m                   : DEPTH
Lithology_geolink ._      : Lithology_geolink
CALI .in                  : CALI
DRHO .g/cm3               : DRHO
NPHI .m3/m3               : NPHI
RHOB .g/cm3               : RHOB
GR .gAPI                  : GR
DTC .us/ft                : DTC
RDEP .ohm.m               : RDEP
SP .mV                    : SP
RSHA .ohm.m               : RSHA
RMED .ohm.m               : RMED
~Parameter
#==================================================================
~Ascii
# ...
 1810.5493164 5.0000000000 20.111999512 0.0049927882 0.5225393176 1.8738893270 33.562999725 140.37500000 0.8169399500 68.156997681 0.7620000243 0.7620000243
 1810.7016602 5.0000000000 20.233001709 0.0020096079 0.5539196134 1.9278270006 33.280998230 140.00000000 0.7919743657 64.156997681 0.7889999747 0.7889999747
 1810.8540039 5.0000000000 20.236999512 0.0069839745 0.5628685951 2.0177114010 29.156000137 152.62500000 0.7759968042 63.657001495 0.8379999995 0.8379999995
 1811.0064697 2.0000000000 20.485002518 0.0269359499 0.5503202081 2.0807983875 30.750000000 159.87498474 0.7740263939 61.157001495 0.8970000148 0.8970000148
 1811.1588135 2.0000000000 20.455999374 0.0579006411 0.5421397090 2.0780096054 29.202999115 157.87500000 0.7850416899 65.656997681 0.9269999862 0.9269999862
 1811.3112793 2.0000000000 19.802000046 0.0629879832 0.5648734570 2.0400912762 28.406000137 156.87500000 0.8110720515 67.156997681 0.9039999843 0.9039999843
 1811.4636230 2.0000000000 19.343999863 0.0610064045 0.5707459450 2.0230543613 26.516000748 155.62500000 0.8410640955 67.656997681 0.8970000148 0.8970000148
 1811.6160889 2.0000000000 19.541999817 0.0530192293 0.5510516763 1.9950673580 27.016000748 153.49998474 0.8811969161 69.656997681 0.8759999871 0.8759999871
 1811.7684326 2.0000000000 19.986000061 0.0559903942 0.5380113125 1.9411729574 27.531000137 146.00000000 0.9631265998 66.156997681 0.8650000095 0.8650000095
 1811.9208984 2.0000000000 20.172000885 0.0500144251 0.5530657768 1.8631875515 27.202999115 130.12500000 1.0420649052 64.156997681 0.8399999738 0.8399999738
 1812.0732422 2.0000000000 19.973999023 0.0440192148 0.5579682589 1.8350896835 25.266000748 123.12500763 1.0689727068 64.656997681 0.8840000033 0.8840000033
 1812.2257080 2.0000000000 19.172000885 0.0420048088 0.5560131669 1.8469711542 23.906000137 126.37500000 1.0519591570 62.157001495 1.0570000410 1.0570000410
 1812.3780518 2.0000000000 18.502000809 0.0410032049 0.5283067226 1.9068077803 24.483999252 135.50000000 1.0350047350 65.156997681 1.3049999475 1.3049999475
 1812.5305176 2.0000000000 18.547000885 0.0380072109 0.5233079195 1.9508942366 26.641000748 153.75001526 1.0380744934 66.656997681 1.2430000305 1.2430000305
 1812.6828613 5.0000000000 18.784000397 0.0360064022 0.5377867222 1.9819006920 29.437999725 160.25000000 1.0690480471 66.656997681 0.9890000224 0.9890000224
 1812.8352051 5.0000000000 18.989000320 0.0499551296 0.5149250627 2.0019359589 30.047000885 158.87500000 1.0989422798 68.156997681 0.8930000067 0.8930000067
 1812.9876709 5.0000000000 18.964000702 0.0480064042 0.5001636147 2.0169520378 33.094001770 155.12500000 1.0628269911 66.656997681 0.8690000176 0.8690000176
 1813.1400146 5.0000000000 18.774000168 0.0460064113 0.5078414679 2.0289616585 33.280998230 157.00000000 0.9909535050 64.156997681 0.9010000229 0.9010000229
 1813.2924805 5.0000000000 18.468999863 0.0410160124 0.5527279973 1.9990960360 34.812999725 154.75000000 0.9620000124 63.657001495 0.9499999881 0.9499999881
 1813.4448242 5.0000000000 18.031000137 0.0400032029 0.5760739446 1.9980032444 34.780998230 162.12500000 0.9620096087 63.157001495 1.0080000162 1.0080000162
 1813.5972900 5.0000000000 17.673000336 0.0340144262 0.5435223579 2.0299229622 36.155998230 161.87500000 0.9680288434 62.157001495 1.0679999590 1.0679999590
 1813.7496338 5.0000000000 17.711999893 0.0260256212 0.5238971114 2.0748560429 35.344001770 160.99998474 0.9799872041 66.656997681 1.1230000257 1.1230000257
 1813.9020996 5.0000000000 18.035999298 0.0449543297 0.5016756058 2.0819830894 33.500000000 163.87500000 0.9719135165 66.656997681 1.1269999743 1.1269999743
 1814.0544434 5.0000000000 18.166000366 0.0539711788 0.5364761353 2.0251827240 34.625000000 163.87500000 0.9359134436 68.656997681 1.0620000362 1.0620000362
 1814.2069092 5.0000000000 18.436000824 0.0430264436 0.5467137098 1.9402043819 36.530998230 155.12500000 0.8818390965 65.656997681 0.9860000014 0.9860000014
 1814.3592529 5.0000000000 18.783000946 0.0170832667 0.5849679112 1.8662370443 38.187999725 159.00000000 0.8149150610 63.657001495 0.8939999938 0.8939999938
 1814.5117188 5.0000000000 18.962999344 0.0050288462 0.5759845376 1.8460479975 38.844001770 155.12500000 0.7619447708 63.657001495 0.8029999733 0.8029999733
 1814.6640625 5.0000000000 19.218000412 0.0069935950 0.5725654960 1.8709199429 40.780998230 158.49998474 0.7390112281 65.156997681 0.7260000110 0.7260000110
 1814.8164063 5.0000000000 19.715002060 0.0099903848 0.5638310313 1.8999069929 39.969001770 159.62500000 0.7460576296 65.156997681 0.6489999890 0.6489999890
 1814.9688721 5.0000000000 20.312000275 0.0060128104 0.5551539063 1.8990032673 40.405998230 159.50000000 0.7821282148 65.156997681 0.6119999886 0.6119999886
 1815.1212158 5.0000000000 20.871999741 0.0030096155 0.5469596982 1.9637916088 36.780998230 140.75000000 0.8622003198 63.157001495 0.6340000033 0.6340000033
 1815.2736816 5.0000000000 20.179000854 0.0039967978 0.5054565668 2.0696604252 38.905998230 119.12500000 0.9873434901 63.657001495 0.7440000176 0.7440000176
 1815.4260254 5.0000000000 18.073999405 0.0259294882 0.4980277121 2.2085545063 33.187999725 97.750000000 1.1302964687 64.656997681 1.0000000000 1.0000000000
 1815.5784912 5.0000000000 16.747999191 0.0539326929 0.4903423190 2.2598774433 32.969001770 91.625000000 1.3156414032 64.656997681 1.6480000019 1.6480000019
 1815.7308350 5.0000000000 16.420000076 0.0450288244 0.4855914116 2.2111568451 30.827999115 88.625000000 1.5823878050 66.156997681 2.6250000000 2.6250000000
 1815.8833008 5.0000000000 16.263000488 0.0230528843 0.4924190342 2.1521418095 30.891000748 99.875000000 1.8242977858 61.657001495 2.8519999981 2.8519999981
 1816.0356445 5.0000000000 16.097999573 0.0010704565 0.5255402923 2.1051504612 30.906000137 121.74999237 1.9478316307 61.157001495 2.0940001011 2.0940001011
 1816.1881104 5.0000000000 16.172000885 -0.001992789 0.5569297671 2.0810577869 31.422000885 131.37500000 1.8423635960 60.657001495 1.6280000210 1.6280000210
 1816.3404541 5.0000000000 16.702999115 -0.005987190 0.5820795894 2.0102274418 34.344001770 142.50000000 1.5776410103 60.657001495 1.4850000143 1.4850000143
 1816.4929199 5.0000000000 17.934000015 -0.012983173 0.5717766285 1.9032572508 35.687999725 155.12500000 1.3535412550 66.156997681 1.2519999743 1.2519999743
 1816.6452637 5.0000000000 19.740999222 -0.020974379 0.5780698657 1.8132882118 33.219001770 171.37500000 1.1628012657 66.156997681 0.9160000086 0.9160000086
 1816.7977295 5.0000000000 20.798000336 -0.013019231 0.5703623891 1.7930480242 33.500000000 179.87498474 1.0388175249 68.656997681 0.7580000162 0.7580000162
 1816.9500732 5.0000000000 20.666000366 0.0009551642 0.5801243186 1.8288847208 33.405998230 176.75000000 0.9628910422 66.156997681 0.7220000029 0.7220000029
 1817.1024170 5.0000000000 20.110002518 0.0149551276 0.5670614839 1.8977788687 35.344001770 168.12500000 0.8949310780 62.656997681 0.7580000162 0.7580000162
 1817.2548828 5.0000000000 19.191999435 0.0070256209 0.5487293601 1.9518270493 33.437999725 160.12500000 0.8519783616 65.156997681 0.7670000196 0.7670000196
 1817.4072266 5.0000000000 18.038999557 0.0010192308 0.5431034565 2.0138013363 34.937999725 162.25000000 0.8430208564 63.157001495 0.7879999876 0.7879999876
 1817.5596924 5.0000000000 17.367000580 0.0019975964 0.5576566458 2.1077740192 36.250000000 170.62500000 0.8560768962 66.156997681 0.8069999814 0.8069999814
 1817.7120361 5.0000000000 17.353000641 0.0089775817 0.5607526302 2.2126638889 37.969001770 174.50000000 0.8880609274 66.656997681 0.8640000224 0.8640000224
 1817.8645020 5.0000000000 17.340000153 0.0060072117 0.5299693942 2.2189857960 37.344001770 169.37500000 0.9260888696 66.156997681 0.9559999704 0.9559999704
 1818.0168457 5.0000000000 17.733999252 0.0030096078 0.5228570104 2.1332752705 36.780998230 165.75000000 0.9630609155 67.156997681 1.0049999952 1.0049999952
 1818.1693115 5.0000000000 18.149000168 0.0139735583 0.5282713175 2.0831201077 37.312999725 162.12500000 1.0010360479 69.156997681 0.9689999819 0.9689999819
