# LAS format log file from PETREL
# Project units are specified as depth units
#==================================================================
~Version information
VERS.   2.0:
WRAP.   NO:
#==================================================================
~Well
STRT .m      998.18890381 :
STOP .m      3019.4697266 :
STEP .m     0.00000000 :
NULL .        -999.250000 :
COMP.           : COMPANY
WELL.  35/12-1   : WELL
FLD.            : FIELD
LOC.            : LOCATION
SRVC.           : SERVICE COMPANY
DATE.  2018-09-11 14:48:57   : Log Export Date {yyyy-MM-dd HH:mm:ss}
PROV.           : PROVINCE
UWI.   35/12-1   : UNIQUE WELL ID
API.            : API NUMBER
#==================================================================
~Curve
DEPT .m                   : DEPTH
Lithology_geolink ._      : Lithology_geolink
CALI .in                  : CALI
BS .in                    : BS
DRHO .g/cm3               : DRHO
NPHI .m3/m3               : NPHI
RHOB .g/cm3               : RHOB
PEF .b/e                  : PEF
GR .gAPI                  : GR
DTC .us/ft                : DTC
RDEP .ohm.m               : RDEP
SP .mV                    : SP
RSHA .ohm.m               : RSHA
RMIC .ohm.m               : RMIC
RMED .ohm.m               : RMED
~Parameter
#==================================================================
~Ascii
# ...
 3016.4216309  -999.250000 12.373999596 12.250000954 0.0399999991 0.1810673028 2.5999999046 4.4489998817 151.15333557  -999.250000  -999.250000 -78.81494141  -999.250000  -999.250000 0.0309999995
 3016.5742188  -999.250000 12.357000351 12.250000954 0.0480000004 0.1740224361 2.6280000210 4.5929999352 156.48545837  -999.250000  -999.250000 -79.17028809  -999.250000  -999.250000 0.0309999995
 3016.7265625  -999.250000 12.350999832 12.250000954 0.0529999994 0.1690160185 2.6389999390 4.5729999542 157.10002136  -999.250000  -999.250000 -78.34134674  -999.250000  -999.250000 0.0309999995
 3016.8789063  -999.250000 12.345001221 12.250000954 0.0549999997 0.1759663969 2.6259999275 4.5809998512 159.26652527  -999.250000  -999.250000 -79.07424164  -999.250000  -999.250000 0.0309999995
 3017.0312500  -999.250000 12.340000153 12.250000954 0.0610000007 0.1720192432 2.6050000191 4.5370001793 159.65177917  -999.250000  -999.250000 -79.66124725  -999.250000  -999.250000 0.0309999995
 3017.1838379  -999.250000 12.329000473 12.250000954 0.0710000023 0.1769839823 2.5899999142 4.5850000381 157.51843262  -999.250000  -999.250000 -80.07601929  -999.250000  -999.250000 0.0309999995
 3017.3361816  -999.250000 12.355998993 12.250000954 0.0810000002 0.1799903959 2.5840001106 4.7039999962 153.48246765  -999.250000  -999.250000 -79.90383911  -999.250000  -999.250000 0.0309999995
 3017.4885254  -999.250000 12.430000305 12.250000954 0.0850000009 0.1899679452 2.5789999962 5.0789999962 150.52572632  -999.250000  -999.250000 -79.91690826  -999.250000  -999.250000 0.0309999995
 3017.6408691  -999.250000 12.489999771 12.250000954 0.0850000009 0.1880095899 2.5780000687 5.2779998779 151.47348022  -999.250000  -999.250000 -80.28761292  -999.250000  -999.250000 0.0309999995
 3017.7932129  -999.250000 12.477000237 12.250000954 0.0790000036 0.1770528853 2.5750000477 5.2129998207 148.66801453  -999.250000  -999.250000 -81.92445374  -999.250000  -999.250000 0.0309999995
 3017.9458008  -999.250000 12.447999001 12.250000954 0.0719999969 0.1670320481 2.5729999542 5.0209999084 145.08673096  -999.250000  -999.250000 -82.72817230  -999.250000  -999.250000 0.0309999995
 3018.0981445  -999.250000 12.409000397 12.250000954 0.0680000037 0.1669999957 2.5820000172 4.8699998856 142.99136353  -999.250000  -999.250000 -81.81391144  -999.250000  -999.250000 0.0309999995
 3018.2504883  -999.250000 12.390000343 12.250000954 0.0680000037 0.1719760001 2.5880000591 4.9840002060 146.22779846  -999.250000  -999.250000 -81.26550293  -999.250000  -999.250000 0.0309999995
 3018.4028320  -999.250000 12.406000137 12.250000954 0.0700000003 0.1710048169 2.5899999142 5.0920000076 152.07524109  -999.250000  -999.250000 -82.17212677  -999.250000  -999.250000 0.0309999995
 3018.5554199  -999.250000 12.449000359 12.250000954 0.0719999969 0.1660160124 2.5880000591 5.2329998016 156.21438599  -999.250000  -999.250000 -83.94347382  -999.250000  -999.250000 0.0309999995
 3018.7077637  -999.250000 12.463000298 12.250000954 0.0780000016 0.1650032103 2.5950000286 5.2369999886 155.77371216  -999.250000  -999.250000 -84.52629852  -999.250000  -999.250000 0.0309999995
 3018.8601074  -999.250000 12.435000420 12.250000954 0.0820000023 0.1679856032 2.5989999771 5.3200001717 155.25483704  -999.250000  -999.250000 -85.73423004  -999.250000  -999.250000 0.0309999995
 3019.0124512  -999.250000 12.446000099 12.250000954 0.0829999968 0.1759615391 2.5950000286 5.4670000076 154.04788208  -999.250000  -999.250000 -85.69828033  -999.250000  -999.250000 0.0309999995
 3019.1650391  -999.250000 12.465999603 12.250000954 0.0790000036 0.1680256426 2.5850000381 5.4439997673 154.93457031  -999.250000  -999.250000 -85.42532349  -999.250000  -999.250000 0.0309999995
 3019.3173828  -999.250000 12.465000153 12.250000954 0.0740000010 0.1709903926 2.5799999237 5.1799998283 155.21055603  -999.250000  -999.250000 -85.56432343  -999.250000  -999.250000 0.0309999995
 3019.4697266  -999.250000 12.416000366 12.250000954 0.0659999996 0.1610320508 2.5729999542 4.9380002022 154.96139526  -999.250000  -999.250000 -85.19240570  -999.250000  -999.250000 0.0309999995
