# LAS format log file from PETREL
# Project units are specified as depth units
#==================================================================
~Version information
VERS.   2.0:
WRAP.   NO:
#==================================================================
~Well
STRT .m      963.35791016 :
STOP .m      4034.6738281 :
STEP .m     0.00000000 :
NULL .        -999.250000 :
COMP.           : COMPANY
WELL.  35/11-2   : WELL
FLD.            : FIELD
LOC.            : LOCATION
SRVC.           : SERVICE COMPANY
DATE.  2018-09-11 14:48:55   : Log Export Date {yyyy-MM-dd HH:mm:ss}
PROV.           : PROVINCE
UWI.   35/11-2   : UNIQUE WELL ID
API.            : API NUMBER
#==================================================================
~Curve
DEPT .m                   : DEPTH
Lithology_geolink ._      : Lithology_geolink
CALI .in                  : CALI
DRHO .g/cm3               : DRHO
NPHI .m3/m3               : NPHI
RHOB .g/cm3               : RHOB
GR .gAPI                  : GR
DTC .us/ft                : DTC
RDEP .ohm.m               : RDEP
SP .mV                    : SP
RSHA .ohm.m               : RSHA
RMED .ohm.m               : RMED
~Parameter
#==================================================================
~Ascii
# ...
 3621.5178223 2.0000000000 8.9219999313 -0.028000001 0.1945599914 2.3680000305 41.923000336 86.619003296 5.3350000381 173.49400330 4.0830001831 4.0830001831
 3621.6704102 2.0000000000 8.9809999466 -0.020000000 0.1974799931 2.3900001049 42.191001892 84.724990845 5.5640001297 172.99400330 5.0409998894 5.0409998894
 3621.8227539 5.0000000000 9.0609998703 -0.011000000 0.2080499977 2.3959999084 42.666000366 84.430000305 5.5910000801 172.64399719 5.3660001755 5.3660001755
 3621.9750977 5.0000000000 9.2150001526 -0.004000000 0.2156699896 2.3929998875 42.368999481 85.137001038 5.8270001411 174.23500061 5.1630001068 5.1630001068
 3622.1274414 5.0000000000 9.4490003586 -0.001000000 0.2149600089 2.3919999599 42.283000946 84.338996887 6.1519999504 173.61000061 5.2890000343 5.2890000343
 3622.2800293 5.0000000000 9.6420001984 -0.002000000 0.2104499936 2.3970000744 42.203998566 82.949996948 6.5100002289 173.10000610 5.8909997940 5.8909997940
 3622.4323730 5.0000000000 9.7569999695 -0.006000000 0.2104499936 2.4119999409 40.519001007 82.993995667 6.8949999809 174.20899963 6.5180001259 6.5180001259
 3622.5847168 5.0000000000 9.8389997482 -0.015000000 0.2166500092 2.4230000973 38.611000061 81.153999329 6.8049998283 174.99299622 6.5929999352 6.5929999352
 3622.7370605 5.0000000000 9.8990001678 -0.021000000 0.2297599912 2.4249999523 39.333999634 81.541000366 6.2160000801 174.60200500 6.1189999580 6.1189999580
 3622.8894043 5.0000000000 9.9340000153 -0.026000001 0.2311100066 2.4200000763 40.243000031 81.056999207 6.0409998894 175.65199280 5.5419998169 5.5419998169
 3623.0419922 5.0000000000 9.9340000153 -0.024000000 0.2164900005 2.4260001183 42.693000793 78.248001099 6.5789999962 175.56900024 5.4330000877 5.4330000877
 3623.1943359 5.0000000000 9.9340000153 -0.021000000 0.1913599968 2.4609999657 41.921001434 76.160003662 7.8410000801 174.47700500 5.8649997711 5.8649997711
 3623.3466797 5.0000000000 9.9370002747 -0.018999999 0.1697699875 2.5179998875 42.865001678 72.165000916 9.3620004654 175.49299622 6.7639999390 6.7639999390
 3623.4990234 5.0000000000 9.9340000153 -0.018999999 0.1655599922 2.5710000992 47.386001587 70.111999512 8.9659996033 175.14999390 7.9549999237 7.9549999237
 3623.6516113 6.0000000000 9.9340000153 -0.021000000 0.1756399870 2.5840001106 51.995998383 70.047996521 8.6890001297 176.95100403 8.5410003662 8.5410003662
 3623.8039551 6.0000000000 9.9370002747 -0.017999999 0.1979500055 2.5690000057 53.740001678 71.670997620 8.4790000916 177.59300232 8.0310001373 8.0310001373
 3623.9562988 6.0000000000 9.8599996567 -0.017999999 0.2162000090 2.5559999943 54.212001801 72.456001282 8.3170003891 176.72599792 7.5060000420 7.5060000420
 3624.1086426 6.0000000000 9.6960000992 -0.017000001 0.2222499996 2.5580000877 56.837001801 74.491989136 8.1180000305 176.11099243 7.4510002136 7.4510002136
 3624.2612305 5.0000000000 9.5089998245 -0.016000001 0.2287599891 2.5599999428 58.332000732 75.278999329 7.7620000839 177.26800537 7.6859998703 7.6859998703
 3624.4135742 5.0000000000 9.2989997864 -0.014000000 0.2395000011 2.5590000153 56.125000000 75.926002502 6.8639998436 177.13499451 7.5780000687 7.5780000687
 3624.5659180 5.0000000000 9.0830001831 -0.012000000 0.2274099886 2.5230000019 51.422000885 79.443000793 5.8289999962 176.75000000 6.4800000191 6.4800000191
 3624.7182617 5.0000000000 8.9219999313 -0.014000000 0.2173399925 2.4670000076 47.527000427 81.417999268 5.3940000534 174.62600708 5.2950000763 5.2950000763
 3624.8706055 5.0000000000 8.8579998016 -0.018999999 0.2115800083 2.4230000973 44.316001892 83.724998474 5.3239998817 174.42500305 4.6729998589 4.6729998589
 3625.0231934 5.0000000000 8.8660001755 -0.023000000 0.2176100016 2.4089999199 42.638999939 83.349998474 5.2719998360 176.50199890 4.8280000687 4.8280000687
 3625.1755371 5.0000000000 8.9069995880 -0.028999999 0.2131900042 2.4179999828 42.844001770 82.978996277 5.3750000000 176.16799927 5.1779999733 5.1779999733
 3625.3278809 5.0000000000 8.9650001526 -0.022000000 0.2009299994 2.4309999943 42.778999329 82.501998901 5.7969999313 176.30099487 5.3740000725 5.3740000725
 3625.4802246 5.0000000000 9.0509996414 -0.027000001 0.1689399928 2.4340000153 41.861999512 79.726997375 6.2309999466 175.01699829 5.5640001297 5.5640001297
 3625.6328125 5.0000000000 9.1529998779 -0.017999999 0.1643499881 2.4600000381 41.831001282 76.513000488 7.2690000534 176.57800293 6.3899998665 6.3899998665
 3625.7851563 5.0000000000 9.2180004120 -0.016000001 0.1741399914 2.5120000839 43.978000641 72.178001404 8.9779996872 175.53500366 8.3299999237 8.3299999237
 3625.9375000 5.0000000000 9.2340002060 -0.009000000 0.2047699988 2.5699999332 45.481998444 71.246002197 8.2349996567 175.70199585 10.321000099 10.321000099
 3626.0898438 5.0000000000 9.2340002060 -0.009000000 0.2105199993 2.5820000172 46.438999176 72.361000061 7.3270001411 176.39300537 10.071999550 10.071999550
 3626.2424316 5.0000000000 9.2600002289 -0.011000000 0.2142499983 2.5239999294 45.215000153 76.802009583 6.6110000610 176.29299927 7.5749998093 7.5749998093
 3626.3947754 5.0000000000 9.3649997711 -0.009000000 0.2068600059 2.4649999142 46.076000214 81.089996338 5.7800002098 176.54299927 5.5409998894 5.5409998894
 3626.5471191 5.0000000000 9.5329999924 -0.014000000 0.2106500119 2.4189999104 46.779998779 82.366996765 5.3909997940 176.74299622 5.2189998627 5.2189998627
 3626.6994629 5.0000000000 9.6759996414 -0.012000000 0.2089200020 2.4370000362 47.644001007 82.107002258 5.6779999733 176.25999451 5.9419999123 5.9419999123
 3626.8518066 5.0000000000 9.7620000839 -0.015000000 0.2162700146 2.4660000801 48.063999176 80.041000366 6.9770002365 176.07600403 6.8909997940 6.8909997940
 3627.0043945 5.0000000000 9.8059997559 -0.014000000 0.2147199959 2.4990000725 50.340000153 78.800994873 8.4989995956 176.84199524 7.8020000458 7.8020000458
 3627.1567383 5.0000000000 9.8440008163 -0.017999999 0.2031999975 2.5190000534 51.602001190 77.627998352 9.6829996109 177.75100708 8.5710000992 8.5710000992
 3627.3090820 5.0000000000 9.8879995346 -0.018999999 0.1921100020 2.5290000439 51.180000305 75.836997986 10.480999947 177.35899353 9.3260002136 9.3260002136
 3627.4614258 5.0000000000 9.9060001373 -0.016000001 0.1734700054 2.5559999943 49.703998566 74.164001465 11.196000099 176.87500000 9.9989995956 9.9989995956
 3627.6140137 5.0000000000 9.9060001373 -0.017999999 0.1603899896 2.5720000267 48.465000153 70.308998108 12.088999748 178.23500061 10.972000122 10.972000122
 3627.7663574 5.0000000000 9.9060001373 -0.015000000 0.1591899991 2.5929999352 46.255001068 69.430000305 12.713000298 177.69400024 12.578000069 12.578000069
 3627.9187012 5.0000000000 9.9060001373 -0.018999999 0.1723100096 2.5959999561 47.394001007 70.234001160 12.147999763 178.33500671 13.281000137 13.281000137
 3628.0710449 5.0000000000 9.9209995270 -0.020000000 0.1915699989 2.5789999962 50.465000153 71.111000061 11.788999557 179.17700195 12.241999626 12.241999626
 3628.2236328 5.0000000000 9.9580001831 -0.024000000 0.2027599961 2.5629999638 53.240001678 74.479995728 10.965000153 179.50999451 10.815999985 10.815999985
 3628.3759766 5.0000000000 9.9860000610 -0.021000000 0.2063899934 2.5510001183 50.182998657 75.870002747 9.2869997025 179.25199890 9.7089996338 9.7089996338
 3628.5283203 5.0000000000 9.9890003204 -0.018999999 0.2073699981 2.5360000134 45.609001160 74.958999634 8.5780000687 178.78399658 8.8940000534 8.8940000534
 3628.6806641 5.0000000000 9.9809999466 -0.016000001 0.1948900074 2.5130000114 43.206001282 75.253997803 8.0799999237 177.32800293 8.3929996490 8.3929996490
 3628.8330078 5.0000000000 9.9619998932 -0.017000001 0.1886499971 2.4949998856 43.140998840 75.313011169 8.1499996185 179.71099854 8.2320003510 8.2320003510
 3628.9855957 5.0000000000 9.9290008545 -0.020000000 0.1896499991 2.4879999161 44.705001831 75.269996643 8.3009996414 178.83399963 8.2299995422 8.2299995422
 3629.1379395 5.0000000000 9.8990001678 -0.021000000 0.1946199983 2.5050001144 45.479999542 74.653999329 8.3800001144 179.64300537 8.2519998550 8.2519998550
