# LAS format log file from PETREL
# Project units are specified as depth units
#==================================================================
~Version information
VERS.   2.0:
WRAP.   NO:
#==================================================================
~Well
STRT .m      998.18890381 :
STOP .m      3019.4697266 :
STEP .m     0.00000000 :
NULL .        -999.250000 :
COMP.           : COMPANY
WELL.  35/12-1   : WELL
FLD.            : FIELD
LOC.            : LOCATION
SRVC.           : SERVICE COMPANY
DATE.  2018-09-11 14:48:57   : Log Export Date {yyyy-MM-dd HH:mm:ss}
PROV.           : PROVINCE
UWI.   35/12-1   : UNIQUE WELL ID
API.            : API NUMBER
#==================================================================
~Curve
DEPT .m                   : DEPTH
Lithology_geolink ._      : Lithology_geolink
CALI .in                  : CALI
BS .in                    : BS
DRHO .g/cm3               : DRHO
NPHI .m3/m3               : NPHI
RHOB .g/cm3               : RHOB
PEF .b/e                  : PEF
GR .gAPI                  : GR
DTC .us/ft                : DTC
RDEP .ohm.m               : RDEP
SP .mV                    : SP
RSHA .ohm.m               : RSHA
RMIC .ohm.m               : RMIC
RMED .ohm.m               : RMED
~Parameter
#==================================================================
~Ascii
# ...
 1941.6971436  -999.250000 17.812999725 17.500000000 -0.074000001  -999.250000 2.4630000591 4.2090001106 84.872779846 80.950996399 6.1997594833 181.25000000 4.4148173332 7.6932320595 0.0370000005
 1941.8496094  -999.250000 17.812999725 17.500000000 -0.075000003  -999.250000 2.4530000687 4.0289998055 89.202529907 84.196998596 5.3162655830 181.25000000 4.0109500885 8.7251739502 0.0370000005
 1942.0019531  -999.250000 17.812999725 17.500000000 -0.077000000  -999.250000 2.4319999218 3.7939999104 92.132652283 87.541999817 4.3596010208 181.25000000 3.4875190258 6.3578991890 0.0370000005
 1942.1544189  -999.250000 17.819999695 17.500000000 -0.078000002  -999.250000 2.4130001068 3.5260000229 94.124404907 89.609001160 3.8972096443 181.25000000 3.2312250137 4.0598397255 0.0370000005
 1942.3067627  -999.250000 17.861999512 17.500000000 -0.077000000  -999.250000 2.4130001068 3.5109999180 94.685546875 89.218002319 3.8661394119 181.25000000 3.2011394501 3.2926137447 0.0370000005
 1942.4591064  -999.250000 17.913999557 17.500000000 -0.075000003  -999.250000 2.4309999943 3.8389999866 93.956169128 84.479995728 4.2776799202 181.25000000 3.4217557907 4.5579695702 0.0370000005
 1942.6115723  -999.250000 17.916999817 17.500000000 -0.074000001  -999.250000 2.4470000267 4.2290000916 90.568717957 79.938003540 5.0910816193 181.25000000 3.8588943481 5.7450494766 0.0370000005
 1942.7639160  -999.250000 17.843000412 17.500000000 -0.074000001  -999.250000 2.4600000381 4.4840002060 87.408065796 79.112991333 5.9100623131 181.25000000 4.2550959587 6.2422041893 0.0370000005
 1942.9163818  -999.250000 17.815000534 17.500000000 -0.075999998  -999.250000 2.4630000591 4.3189997673 85.396606445 79.552001953 6.2772464752 181.25000000 4.4152359962 7.5149798393 0.0370000005
 1943.0687256  -999.250000 17.812999725 17.500000000 -0.077000000  -999.250000 2.4690001011 4.1890001297 85.065528870 79.931999207 6.3178124428 181.25000000 4.4518270493 7.9952311516 0.0370000005
 1943.2211914  -999.250000 17.812999725 17.500000000 -0.077000000  -999.250000 2.4719998837 4.0970001221 85.060005188 80.334999084 6.1189608574 181.25000000 4.3723845482 6.7180247307 0.0370000005
 1943.3735352  -999.250000 17.812999725 17.500000000 -0.075000003  -999.250000 2.4809999466 4.0279998779 84.329589844 80.113998413 5.9040336609 181.25000000 4.2386441231 6.6670398712 0.0370000005
 1943.5260010  -999.250000 17.812999725 17.500000000 -0.074000001  -999.250000 2.4879999161 4.1859998703 86.892944336 78.814002991 5.7129173279 182.19770813 4.1723170280 7.4173989296 0.0370000005
 1943.6783447  -999.250000 17.812999725 17.500000000 -0.074000001  -999.250000 2.4849998951 4.2280001640 88.305870056 79.813003540 5.5537643433 186.06558228 4.1252260208 7.3900222778 0.0359999985
 1943.8308105  -999.250000 17.812999725 17.500000000 -0.075999998  -999.250000 2.4749999046 4.2100000381 87.386741638 81.512001038 5.3509750366 186.55984497 4.0682735443 6.3927993774 0.0359999985
 1943.9831543  -999.250000 17.812999725 17.500000000 -0.078000002  -999.250000 2.4670000076 4.1690001488 87.802665710 82.022003174 5.2166442871 186.23104858 3.9724614620 5.9803299904 0.0359999985
 1944.1356201  -999.250000 17.812999725 17.500000000 -0.079999998  -999.250000 2.4590001106 4.0380001068 92.412307739 83.903999329 4.9681963921 185.91575623 3.8655140400 5.6822385788 0.0359999985
 1944.2879639  -999.250000 17.812999725 17.500000000 -0.082000002  -999.250000 2.4449999332 3.7739999294 97.889610291 87.460990906 4.6385865211 185.53024292 3.6749181747 6.0846772194 0.0359999985
 1944.4403076  -999.250000 17.812999725 17.500000000 -0.083999999  -999.250000 2.4309999943 3.5759999752 99.629219055 89.402000427 4.2889618874 184.71760559 3.4651768208 5.3112411499 0.0359999985
 1944.5927734  -999.250000 17.812999725 17.500000000 -0.082999997  -999.250000 2.4240000248 3.5190000534 98.028289795 88.322998047 4.0232739449 185.34098816 3.3067595959 4.1998901367 0.0359999985
 1944.7451172  -999.250000 17.812999725 17.500000000 -0.082000002  -999.250000 2.4249999523 3.4500000477 93.345504761 86.013999939 4.3762884140 185.73175049 3.5159854889 4.0861806870 0.0359999985
 1944.8975830  -999.250000 17.815000534 17.500000000 -0.079999998  -999.250000 2.4330000877 3.4679999352 89.149360657 84.145004272 4.8109107018 187.04478455 3.7757508755 4.1539454460 0.0359999985
 1945.0499268  -999.250000 17.822999954 17.500000000 -0.079999998  -999.250000 2.4430000782 3.4830000401 87.508621216 82.678001404 4.9921345711 185.68139648 3.8705480099 6.8666491508 0.0359999985
 1945.2023926  -999.250000 17.815000534 17.500000000 -0.079999998  -999.250000 2.4470000267 3.5869998932 89.793167114 80.807998657 5.2517509460 184.77218628 3.9675340652 8.8923788071 0.0359999985
 1945.3547363  -999.250000 17.805000305 17.500000000 -0.075000003  -999.250000 2.4600000381 3.8440001011 89.011627197 81.097999573 5.5465817451 184.27160645 4.1132979393 7.6589903831 0.0359999985
 1945.5072021  -999.250000 17.766000748 17.500000000 -0.064000003  -999.250000 2.4779999256 4.1440000534 84.168884277 78.463996887 5.7997846603 184.13832092 4.2334237099 5.0191144943 0.0359999985
 1945.6595459  -999.250000 17.718999863 17.500000000 -0.046000000  -999.250000 2.5069999695 4.5570001602 78.394630432 75.280998230 6.7762885094 184.72012329 4.6480002403 5.8063669205 0.0359999985
 1945.8120117  -999.250000 17.679000854 17.500000000 -0.033000000  -999.250000 2.5169999599 4.4770002365 79.117416382 73.113998413 8.9644603729 184.15936279 5.5327391624 11.163707733 0.0359999985
 1945.9643555  -999.250000 17.673999786 17.500000000 -0.022000000  -999.250000 2.5250000954 4.3569998741 81.054443359 73.905998230 9.5979900360 184.61453247 5.7629084587 13.180386543 0.0359999985
 1946.1168213  -999.250000 17.700000763 17.500000000 -0.015000000  -999.250000 2.5230000019 4.1649999619 81.664512634 76.680999756 8.7829494476 185.92784119 5.4913158417 11.992952347 0.0359999985
 1946.2691650  -999.250000 17.770999908 17.500000000 -0.012000000  -999.250000 2.5150001049 4.0199999809 82.126625061 80.164001465 7.1936583519 185.74659729 4.8550677299 11.017781258 0.0359999985
 1946.4215088  -999.250000 17.806999207 17.500000000 -0.012000000  -999.250000 2.4909999371 3.7290000916 87.360610962 84.501998901 5.6088886261 185.64532471 4.1529402733 9.5803041458 0.0359999985
 1946.5739746  -999.250000 17.812999725 17.500000000 -0.015000000  -999.250000 2.4560000896 3.3480000496 93.748878479 90.209999084 4.7789664268 185.70979309 3.7459471226 7.9483070374 0.0359999985
 1946.7263184  -999.250000 17.799999237 17.500000000 -0.016000001  -999.250000 2.4360001087 3.1359999180 94.907150269 92.358001709 4.2032222748 185.60533142 3.4059054852 6.5682115555 0.0359999985
 1946.8787842  -999.250000 17.736999512 17.500000000 -0.016000001  -999.250000 2.4430000782 3.2750000954 91.071075439 90.099998474 3.9074132442 185.65682983 3.2169039249 4.2808322906 0.0359999985
 1947.0311279  -999.250000 17.681999207 17.500000000 -0.014000000  -999.250000 2.4760000706 3.6010000706 86.321617126 85.241996765 4.5130672455 186.53019714 3.5702884197 3.0869119167 0.0359999985
 1947.1835938  -999.250000 17.672000885 17.500000000 -0.012000000  -999.250000 2.5090000629 3.9189999104 87.272232056 81.141998291 5.9441065788 186.45219421 4.3442721367 4.6117753983 0.0359999985
 1947.3359375  -999.250000 17.672000885 17.500000000 -0.009000000  -999.250000 2.5280001163 4.1100001335 87.534790039 78.782997131 6.4336681366 186.69322205 4.6067500114 6.5444512367 0.0359999985
 1947.4884033  -999.250000 17.652000427 17.500000000 -0.007000000  -999.250000 2.5380001068 4.2940001488 88.187477112 78.667999268 6.2926917076 186.33587646 4.5373411179 7.2574300766 0.0359999985
 1947.6407471  -999.250000 17.563999176 17.500000000 -0.003000000  -999.250000 2.5450000763 4.3309998512 86.969978333 79.028999329 6.2492070198 185.62727356 4.5141105652 8.6728649139 0.0359999985
 1947.7932129  -999.250000 17.541000366 17.500000000 -0.002000000  -999.250000 2.5469999313 4.2509999275 89.546936035 79.916000366 6.2649230957 184.89675903 4.4980769157 7.6098527908 0.0359999985
