# LAS format log file from PETREL
# Project units are specified as depth units
#==================================================================
~Version information
VERS.   2.0:
WRAP.   NO:
#==================================================================
~Well
STRT .m      1150.0018311 :
STOP .m      2885.3808594 :
STEP .m     0.00000000 :
NULL .        -999.250000 :
COMP.           : COMPANY
WELL.  35/11-10   : WELL
FLD.            : FIELD
LOC.            : LOCATION
SRVC.           : SERVICE COMPANY
DATE.  2018-09-11 14:48:54   : Log Export Date {yyyy-MM-dd HH:mm:ss}
PROV.           : PROVINCE
UWI.   35/11-10   : UNIQUE WELL ID
API.            : API NUMBER
#==================================================================
~Curve
DEPT .m                   : DEPTH
Lithology_geolink ._      : Lithology_geolink
CALI .in                  : CALI
BS .in                    : BS
DRHO .g/cm3               : DRHO
NPHI .m3/m3               : NPHI
RHOB .g/cm3               : RHOB
GR .gAPI                  : GR
DTC .us/ft                : DTC
DTS .us/ft                : DTS
RDEP .ohm.m               : RDEP
SP .mV                    : SP
RSHA .ohm.m               : RSHA
RMIC .ohm.m               : RMIC
RMED .ohm.m               : RMED
~Parameter
#==================================================================
~Ascii
# ...
 1381.1926270  -999.250000 13.314000130 12.250000954 -0.001960000 0.4824480116 2.0989999771 96.269302368 149.75399780 442.57299805 1.0739976168 -181.6880035 0.8281056881 1.1649999619 0.8279839754
 1381.3450928  -999.250000 13.274000168 12.250000954 0.0015850000 0.4808740020 2.0969998837 96.514801025 149.98800659 445.67599487 1.0809943676 -182.0000000 0.8271906972 1.0873122215 0.8270024061
 1381.4974365  -999.250000 13.251000404 12.250000954 0.0045030001 0.4937500060 2.0929999352 99.039978027 150.60400391 444.88400269 1.0770032406 -182.0000000 0.8221360445 1.1427756548 0.8220160604
 1381.6499023  -999.250000 13.052000046 12.250000954 0.0034250000 0.5154680014 2.0910000801 95.520820618 151.07699585 444.22198486 1.0670080185 -182.0630035 0.8148388267 1.0941569805 0.8150168061
 1381.8022461  -999.250000 12.883000374 12.250000954 0.0058579999 0.5307149887 2.0810000896 98.053962708 151.84100342 462.30300903 1.0490144491 -181.6880035 0.8049169183 1.1119279861 0.8050320148
 1381.9547119  -999.250000 12.585000038 12.250000954 0.0077709998 0.4980500042 2.0699999332 97.945091248 152.78999329 465.34100342 1.0350111723 -182.4380035 0.7952457666 1.2625160217 0.7950240374
 1382.1070557  -999.250000 12.454999924 12.250000954 0.0076410002 0.4684939981 2.0680000782 95.195205688 153.43099976 469.94400024 1.0330015421 -182.1880035 0.7910153866 1.2410881519 0.7910128236
 1382.2593994  -999.250000 12.447999001 12.250000954 0.0056179999 0.4690479934 2.0739998817 95.361732483 153.62699890 466.45999146 1.0549646616 -181.8750000 0.8056365252 1.2987676859 0.8059518933
 1382.4118652  -999.250000 12.456000328 12.250000954 0.0049069999 0.4737159908 2.0940001011 100.08021545 152.56300354 444.21798706 1.0949679613 -182.6250000 0.8340921998 1.3577638865 0.8339103460
 1382.5642090  -999.250000 12.493000031 12.250000954 -0.000055000 0.4606519938 2.0999999046 99.597778320 151.83500671 444.73001099 1.1259504557 -182.3750000 0.8578619361 1.3520240784 0.8579230309
 1382.7166748  -999.250000 12.506999969 12.250000954 0.0009330000 0.4355340004 2.1029999256 98.005271912 150.37300110 437.86300659 1.1629703045 -182.1880035 0.8824063540 1.3131561279 0.8819423318
 1382.8690186  -999.250000 12.564999580 12.250000954 0.0001400000 0.4366700053 2.1010000706 98.820686340 150.13800049 436.86999512 1.1520175934 -182.6880035 0.8735103011 1.0391017199 0.8730288744
 1383.0214844  -999.250000 12.812999725 12.250000954 -0.002541000 0.4758409858 2.0920000076 97.975677490 150.22599792 447.73800659 1.1300176382 -182.3750000 0.8520112038 1.2989511490 0.8520504832
 1383.1738281  -999.250000 12.949999809 12.250000954 -0.001866000 0.5016390085 2.0969998837 95.436035156 150.72099304 459.06100464 1.1110152006 -182.0000000 0.8339324594 1.3019920588 0.8340576291
 1383.3262939  -999.250000 13.048000336 12.250000954 -0.000707000 0.5277580023 2.0940001011 92.828086853 151.74600220 470.60800171 1.0900168419 -182.2500000 0.8149592280 1.2452281713 0.8150456548
 1383.4786377  -999.250000 13.088999748 12.250000954 -0.005232000 0.5161049962 2.0859999657 100.60076904 152.04699707 470.87701416 1.0750120878 -183.2500000 0.7948191762 1.2390240431 0.7950640917
 1383.6311035  -999.250000 13.128000259 12.250000954 -0.007485000 0.5247480273 2.0810000896 98.995292664 152.03799438 463.92001343 1.0730015039 -182.4380035 0.7936668992 1.1831794977 0.7940024137
 1383.7834473  -999.250000 13.189999580 12.250000954 -0.003228000 0.4897339940 2.0899999142 99.164863586 151.48699951 485.32501221 1.0849903822 -182.3750000 0.7946831584 1.1690560579 0.7949967980
 1383.9359131  -999.250000 13.203000069 12.250000954 0.0035679999 0.4957340062 2.0850000381 96.849853516 150.89100647 522.99298096 1.0160552263 -182.0630035 0.7478145361 0.9397372007 0.7481130362
 1384.0882568  -999.250000 13.248998642 12.250000954 0.0051620002 0.4935440123 2.0469999313 93.565635681 151.89698792 519.65899658 0.9945851564 -182.0630035 0.7339180708 0.3025580645 0.7340448499
 1384.2406006  -999.250000 13.522999763 12.250000954 0.0053260000 0.5115560293 2.0130000114 91.655059814 153.04600525 505.81900024 0.9987832904 -181.7500000 0.7394081950 0.8477964997 0.7389839888
 1384.3930664  -999.250000 13.138999939 12.250000954 0.0059520002 0.5078769922 2.0139999390 99.379806519 152.89700317 501.94601440 0.9929447174 -182.3130035 0.7348816395 1.0213114023 0.7350128293
 1384.5454102  -999.250000 12.832999229 12.250000954 0.0086909998 0.4884400070 2.0510001183 99.548744202 153.04100037 473.52801514 1.0259470940 -182.1880035 0.7569496036 1.2441065311 0.7569295168
 1384.6978760  -999.250000 12.553001404 12.250000954 0.0056820000 0.4842030108 2.0840001106 100.00963593 150.77099609 479.78900146 1.1029382944 -181.6250000 0.8062235713 1.2091441154 0.8058430552
 1384.8502197  -999.250000 12.543999672 12.250000954 0.0010950000 0.4799169898 2.0969998837 100.87860107 150.38699341 480.09298706 1.0970096588 -181.8750000 0.8059524894 1.1841001511 0.8059999943
 1385.0026855  -999.250000 12.548999786 12.250000954 -0.001023000 0.4855599999 2.1040000916 102.13699341 148.68099976 588.74597168 1.1009967327 -182.1880035 0.8090015650 1.1969479322 0.8089928031
 1385.1550293  -999.250000 12.566999435 12.250000954 -0.002324000 0.4762679935 2.1019999981 102.25990295 147.70300293 697.14599609 1.1119911671 -181.6250000 0.8147883415 1.2418197393 0.8149808049
 1385.3074951  -999.250000 12.574999809 12.250000954 -0.006340000 0.4582130015 2.0989999771 101.67946625 149.31799316 697.14599609 1.1389784813 -181.6250000 0.8303225636 1.2011641264 0.8299639225
 1385.4598389  -999.250000 12.574999809 12.250000954 -0.006754000 0.4541450143 2.0999999046 100.26712799 148.41999817 697.14599609 1.1449952126 -182.6250000 0.8360204697 1.2906394005 0.8359808326
 1385.6123047  -999.250000 12.576000214 12.250000954 -0.004738000 0.4784879982 2.0969998837 96.532989502 146.43699646 697.14599609 1.1689808369 -181.5630035 0.8514695764 1.2382122278 0.8509639502
 1385.7646484  -999.250000 12.668000221 12.250000954 -0.002471000 0.4835329950 2.0859999657 95.166091919 146.18600464 697.14599609 1.1919815540 -181.6880035 0.8677160144 1.2808277607 0.8679455519
 1385.9171143  -999.250000 12.576000214 12.250000954 0.0049370001 0.4878900051 2.0559999943 94.501533508 146.19000244 697.14599609 1.1580271721 -181.6250000 0.8421595097 0.5164583325 0.8420625329
 1386.0694580  -999.250000 12.578000069 12.250000954 0.0075550000 0.4739240110 2.0179998875 94.691848755 146.32600403 671.76098633 1.1779839993 -181.2500000 0.8513965607 0.4761521220 0.8509711623
 1386.2218018  -999.250000 12.689000130 12.250000954 0.0110569987 0.4683969915 1.9670000076 102.48450470 147.71099854 646.34399414 1.1730079651 -181.3130035 0.8366396427 0.4859599471 0.8370448947
 1386.3742676  -999.250000 12.640999794 12.250000954 0.0085250000 0.4663409889 1.8669999838 101.73661041 149.62399292 645.93499756 1.0690833330 -180.3130035 0.7593159676 0.2111048847 0.7592498064
 1386.5266113  -999.250000 13.377999306 12.250000954 0.0055590002 0.4658499956 1.7250000238 100.67869568 152.21200562 513.68298340 0.9904659390 -181.6880035 0.7008246779 0.1701602638 0.7011858821
 1386.6790771  -999.250000 14.975999832 12.250000954 -0.003035000 0.5107839704 1.6269999743 104.27011871 153.79299927 517.32598877 0.9462843537 -181.3750000 0.6693901420 0.1719920039 0.6691024899
 1386.8314209  -999.250000 13.130000114 12.250000954 -0.001451000 0.5384730101 1.5789999962 102.40200043 155.56799316 499.11099243 0.9532068372 -180.5630035 0.6704632044 0.1580560952 0.6699967980
 1386.9838867  -999.250000 13.199999809 12.250000954 0.0030720001 0.5712289810 1.6219999790 104.36541748 156.46899414 499.11099243 1.0349344015 -180.6880035 0.7213451862 0.2307077795 0.7208774090
 1387.1362305  -999.250000 13.755999565 12.250000954 0.0074970000 0.5688920021 1.6870000362 105.00749207 157.47900391 500.58499146 1.0589808226 -180.5630035 0.7448811531 0.1891682595 0.7449231148
 1387.2886963  -999.250000 14.331999779 12.250000954 0.0165289994 0.5360479951 1.7730000019 101.89449310 153.76600647 506.35699463 1.0639959574 -181.0000000 0.7524009943 0.4479591548 0.7519831657
