# LAS format log file from PETREL
# Project units are specified as depth units
#==================================================================
~Version information
VERS.   2.0:
WRAP.   NO:
#==================================================================
~Well
STRT .m      989.00103760 :
STOP .m      3365.3732910 :
STEP .m     0.00000000 :
NULL .        -999.250000 :
COMP.           : COMPANY
WELL.  35/11-1   : WELL
FLD.            : FIELD
LOC.            : LOCATION
SRVC.           : SERVICE COMPANY
DATE.  2018-09-11 14:48:54   : Log Export Date {yyyy-MM-dd HH:mm:ss}
PROV.           : PROVINCE
UWI.   35/11-1   : UNIQUE WELL ID
API.            : API NUMBER
#==================================================================
~Curve
DEPT .m                   : DEPTH
Lithology_geolink ._      : Lithology_geolink
CALI .in                  : CALI
DRHO .g/cm3               : DRHO
NPHI .m3/m3               : NPHI
RHOB .g/cm3               : RHOB
PEF .b/e                  : PEF
GR .gAPI                  : GR
DTC .us/ft                : DTC
RDEP .ohm.m               : RDEP
SP .mV                    : SP
RSHA .ohm.m               : RSHA
RMED .ohm.m               : RMED
~Parameter
#==================================================================
~Ascii
# ...
 1464.4887695 19.000000000 17.513000488 -0.021000000  -999.250000 2.1429998875 5.2890000343 110.25420380 135.99699402 0.6540167928 65.252731323 0.6249951720 0.6249951720
 1464.6412354 19.000000000 17.497999191 -0.022000000  -999.250000 2.1410000324 4.8590002060 111.98577881 134.73878479 0.6610096097 65.972457886 0.6230865717 0.6230865717
 1464.7935791 19.000000000 17.513000488 -0.026000001  -999.250000 2.1270000935 4.7500000000 107.55319214 131.25559998 0.6639999747 66.735145569 0.6499263048 0.6499263048
 1464.9460449 19.000000000 17.513000488 -0.029999999  -999.250000 2.1089999676 4.8130002022 104.49519348 133.00961304 0.6640480757 66.473258972 0.6270160079 0.6270160079
 1465.0983887 19.000000000 17.497999191 -0.028000001  -999.250000 2.1089999676 4.8709998131 103.00160217 135.99119568 0.6789584160 67.486045837 0.6320224404 0.6320224404
 1465.2508545 19.000000000 17.528999329 -0.028999999  -999.250000 2.1070001125 4.8280000687 103.50661469 133.24758911 0.6659647226 67.501800537 0.6390512586 0.6390512586
 1465.4031982 19.000000000 17.513000488 -0.026000001  -999.250000 2.1150000095 4.8239998817 105.57000732 132.49839783 0.6550256014 67.745391846 0.6550191641 0.6550191641
 1465.5555420 19.000000000 17.513000488 -0.028000001  -999.250000 2.1070001125 4.9730000496 107.74699402 131.99940491 0.6630312204 66.001602173 0.6609879732 0.6609879732
 1465.7080078 19.000000000 17.513000488 -0.026000001  -999.250000 2.1089999676 5.0430002213 106.48779297 131.75961304 0.6761184931 66.248596191 0.6559776068 0.6559776068
 1465.8603516 19.000000000 17.513000488 -0.028000001  -999.250000 2.0999999046 5.6129999161 102.69175720 134.76683044 0.7130817175 65.492507935 0.6490167975 0.6490167975
 1466.0128174 19.000000000 17.638000488 -0.023000000  -999.250000 2.1050000191 5.7930002213 104.26801300 141.76600647 0.7468398213 61.968399048 0.6559327841 0.6559327841
 1466.1651611 19.000000000 17.903999329 -0.022000000  -999.250000 2.1089999676 5.9530000687 109.88070679 146.75961304 0.6968942285 61.462863922 0.6350167990 0.6350167990
 1466.3176270 19.000000000 18.107000351 -0.016000001  -999.250000 2.1189999580 4.6409997940 112.25640869 150.75079346 0.6528975368 58.500999451 0.6420640945 0.6420640945
 1466.4699707 19.000000000 18.247999191 -0.017999999  -999.250000 2.1229999065 3.6019999981 114.24849701 150.99938965 0.6208966374 58.497993469 0.6620408893 0.6620408893
 1466.6224365 19.000000000 18.278999329 -0.016000001  -999.250000 2.1170001030 3.8320000172 113.63381195 150.75401306 0.5777692199 57.244590759 0.6790801287 0.6790801287
 1466.7747803 19.000000000 18.295000076 -0.020000000  -999.250000 2.0409998894 4.7769999504 116.36439514 152.01200867 0.5060288310 55.252601624 0.7037693858 0.7037693858
 1466.9272461 19.000000000 18.420000076 -0.012000000  -999.250000 1.9119999409 6.0040001869 113.05619049 155.75881958 0.5151185989 55.749496460 0.6318429708 0.6318429708
 1467.0795898 19.000000000 18.232000351 -0.013000000  -999.250000 1.8470000029 5.6989998817 110.93859863 158.49838257 0.5519871712 55.279499054 0.5828078389 0.5828078389
 1467.2320557 19.000000000 19.357000351 -0.006000000  -999.250000 1.8999999762 4.3130002022 111.14723969 157.98718262 0.5480480790 54.500099182 0.5231217742 0.5231217742
 1467.3843994 19.000000000 18.184999466 -0.006000000  -999.250000 2.0160000324 4.0430002213 118.06760406 153.97598267 0.5628719330 54.218399048 0.5611473322 0.5611473322
 1467.5367432 19.000000000 18.809999466 -0.003000000  -999.250000 2.0880000591 4.6640000343 119.50450897 146.49639893 0.5228942037 53.721202850 0.6071177721 0.6071177721
 1467.6892090 19.000000000 18.184999466 -0.003000000  -999.250000 2.0720000267 5.0549998283 121.34157562 145.00640869 0.4791985750 54.220802307 0.6559743881 0.6559743881
 1467.8415527 19.000000000 18.107000351 -0.002000000  -999.250000 2.0550000668 5.0739998817 110.92839050 146.99758911 0.5411731005 54.469398499 0.6480023861 0.6480023861
 1467.9940186 19.000000000 18.247999191 0.0000000000  -999.250000 2.0629999638 4.6560001373 106.92559052 145.99359131 0.6131408811 54.222404480 0.6492530107 0.6492530107
 1468.1463623 19.000000000 18.997999191 0.0000000000  -999.250000 2.0859999657 4.6719999313 103.06675720 143.99879456 0.6571058035 54.969398499 0.7280216217 0.7280216217
 1468.2988281 19.000000000 17.982000351 -0.004000000  -999.250000 2.1050000191 5.3750000000 104.63440704 143.49839783 0.7010704279 54.720802307 0.7370448112 0.7370448112
 1468.4511719 19.000000000 17.826000214 -0.008000000  -999.250000 2.1150000095 5.8159999847 107.57546997 143.00360107 0.7229446769 54.970001221 0.7509927750 0.7509927750
 1468.6036377 19.000000000 18.013000488 -0.008000000  -999.250000 2.1229999065 6.1370000839 112.75019836 144.49279785 0.6999167204 54.972404480 0.7481248975 0.7481248975
 1468.7559814 19.000000000 18.013000488 0.0000000000  -999.250000 2.1329998970 5.8090000153 112.79347229 142.24098206 0.6740000248 55.722404480 0.7869567275 0.7869567275
 1468.9084473 19.000000000 17.795000076 0.0000000000  -999.250000 2.1370000839 5.4530000687 104.65956116 138.48957825 0.6740801334 56.720802307 0.7687211633 0.7687211633
 1469.0607910 19.000000000 17.590999603 -0.008000000  -999.250000 2.1310000420 4.9770002365 95.813400269 135.24760437 0.6990800500 56.971603394 0.6817245483 0.6817245483
 1469.2132568 19.000000000 17.638000488 -0.020000000  -999.250000 2.1229999065 5.3049998283 95.960838318 134.50801086 0.7239006162 57.471603394 0.5959487557 0.5959487557
 1469.3656006 19.000000000 17.715999603 -0.021000000  -999.250000 2.1210000515 6.1599998474 103.06880951 137.01600647 0.6929007173 57.966796875 0.5800928473 0.5800928473
 1469.5179443 19.000000000 17.747999191 -0.016000001  -999.250000 2.1210000515 6.7579998970 104.88687134 142.01081848 0.6619927883 56.970603943 0.6092043519 0.6092043519
 1469.6704102 19.000000000 17.715999603 -0.007000000  -999.250000 2.1270000935 6.3670001030 109.81880951 146.50480652 0.6590319872 57.220802307 0.6941505075 0.6941505075
 1469.8227539 19.000000000 18.184999466 -0.012000000  -999.250000 2.1089999676 5.3979997635 111.64332581 148.00360107 0.6691105962 57.468124390 0.7409904003 0.7409904003
 1469.9752197 19.000000000 18.107000351 -0.008000000  -999.250000 2.1070001125 5.3439998627 119.25621033 149.49920654 0.7151473165 56.688198090 0.7370191813 0.7370191813
 1470.1275635 19.000000000 18.247999191 -0.015000000  -999.250000 2.0899999142 5.5900001526 121.19446564 149.24639893 0.7609471083 56.438999176 0.7430288196 0.7430288196
 1470.2800293 19.000000000 17.795000076 -0.003000000  -999.250000 2.0980000496 4.9840002060 123.86439514 147.74519348 0.7388367057 56.438999176 0.7549583912 0.7549583912
 1470.4323730 19.000000000 18.153999329 -0.002000000  -999.250000 2.0959999561 3.9509999752 120.54512024 146.25059509 0.6878510118 56.437797546 0.7419639230 0.7419639230
 1470.5848389 19.000000000 19.090999603 0.0000000000  -999.250000 2.0680000782 4.1449999809 113.09437561 146.49920654 0.6258623004 55.938999176 0.7270160317 0.7270160317
 1470.7371826 19.000000000 17.982000351 0.0030000000  -999.250000 2.0209999084 5.1329998970 103.56540680 146.25660706 0.5829278827 55.940200806 0.7318822145 0.7318822145
 1470.8896484 19.000000000 18.497999191 0.0120000001  -999.250000 1.8849999905 6.8239998817 104.57041168 149.01281738 0.5529999733 56.441402435 0.6827820539 0.6827820539
 1471.0419922 19.000000000 19.028999329 0.0230000000  -999.250000 1.8179999590 7.7189998627 106.89801788 153.00961304 0.5530447960 57.187397003 0.6147662401 0.6147662401
 1471.1944580 19.000000000 19.153999329 0.0199999996  -999.250000 1.7680000067 7.6209998131 114.05098724 155.99998474 0.5670127869 56.688999176 0.5419102311 0.5419102311
 1471.3468018 19.000000000 20.840999603 0.0109999999  -999.250000 1.7760000229 6.9530000687 110.30960083 155.98716736 0.5709230900 56.689800262 0.5140768886 0.5140768886
 1471.4992676 19.000000000 19.809999466 0.0089999996  -999.250000 1.8129999638 6.4650001526 109.25521088 151.99118042 0.5468621850 56.943805695 0.5380288363 0.5380288363
 1471.6516113 19.000000000 20.934999466 0.0020000001  -999.250000 1.8530000448 6.4380002022 110.87880707 149.24279785 0.5039135218 58.438198090 0.5470992923 0.5470992923
