# LAS format log file from PETREL
# Project units are specified as depth units
#==================================================================
~Version information
VERS.   2.0:
WRAP.   NO:
#==================================================================
~Well
STRT .m      1150.0018311 :
STOP .m      2885.3808594 :
STEP .m     0.00000000 :
NULL .        -999.250000 :
COMP.           : COMPANY
WELL.  35/11-10   : WELL
FLD.            : FIELD
LOC.            : LOCATION
SRVC.           : SERVICE COMPANY
DATE.  2018-09-11 14:48:54   : Log Export Date {yyyy-MM-dd HH:mm:ss}
PROV.           : PROVINCE
UWI.   35/11-10   : UNIQUE WELL ID
API.            : API NUMBER
#==================================================================
~Curve
DEPT .m                   : DEPTH
Lithology_geolink ._      : Lithology_geolink
CALI .in                  : CALI
BS .in                    : BS
DRHO .g/cm3               : DRHO
NPHI .m3/m3               : NPHI
RHOB .g/cm3               : RHOB
GR .gAPI                  : GR
DTC .us/ft                : DTC
DTS .us/ft                : DTS
RDEP .ohm.m               : RDEP
SP .mV                    : SP
RSHA .ohm.m               : RSHA
RMIC .ohm.m               : RMIC
RMED .ohm.m               : RMED
~Parameter
#==================================================================
~Ascii
# ...
 2768.3376465 4.0000000000 8.3170003891 8.5000000000 0.0127975745 0.2319351733 2.3641121387 43.499000549 84.684005737 156.33299255 1.0386784077 -128.3130035 0.6762313247 0.5369359255 0.6759134531
 2768.4899902 4.0000000000 8.3360004425 8.5000000000 0.0101752244 0.2372657061 2.3990464211 59.818000793 84.898002625 154.17300415 1.2501922846 -128.0630035 0.7701668143 0.6705704927 0.7698493600
 2768.6423340 5.0000000000 8.3330001831 8.5000000000 0.0115584778 0.2349634618 2.4279758930 56.585998535 84.235000610 150.69200134 1.3699231148 -128.6880035 0.8173598051 0.7716763020 0.8169246316
 2768.7946777 5.0000000000 8.3039999008 8.5000000000 0.0099767456 0.2401171029 2.4129199982 55.172000885 84.507003784 149.84300232 1.3218172789 -128.6880035 0.7872523665 0.6356576085 0.7870960236
 2768.9472656 5.0000000000 8.3039999008 8.5000000000 0.0035841728 0.2212517411 2.3628687859 55.412998199 84.301002502 151.22900391 1.2078239918 -128.7500000 0.7413090467 0.4167019427 0.7410737276
 2769.0996094 5.0000000000 8.2989997864 8.5000000000 0.0023958557 0.2162957340 2.3220047951 56.692001343 85.072998047 151.24099731 1.1530176401 -128.5000000 0.7154618502 0.5077051520 0.7150416374
 2769.2519531 4.0000000000 8.2939996719 8.5000000000 0.0048042885 0.2263276875 2.3249824047 60.126998901 86.075996399 152.90299988 1.1639246941 -127.3750076 0.7184113264 0.8249807358 0.7179951668
 2769.4042969 4.0000000000 8.3009996414 8.5000000000 0.0087214904 0.2336687446 2.3139486313 47.851001740 86.917999268 155.14199829 1.1169534922 -127.2500000 0.6756147146 0.4617567956 0.6760672927
 2769.5566406 4.0000000000 8.2989997864 8.5000000000 0.0084043974 0.2422875315 2.2819406986 43.967998505 88.435997009 161.20100403 1.0878273249 -127.0000076 0.6541558504 0.3515240550 0.6540703773
 2769.7092285 4.0000000000 8.2919998169 8.5000000000 0.0086556477 0.2549454272 2.2449550629 46.105998993 89.323997498 161.08999634 0.9798074365 -126.3750076 0.5915483832 0.3420288563 0.5920993686
 2769.8615723 4.0000000000 8.2989997864 8.5000000000 0.0097921602 0.2673612237 2.2310206890 44.625000000 89.755996704 163.28100586 0.8450549841 -125.0630035 0.5193852782 0.3589455187 0.5191169977
 2770.0139160 4.0000000000 8.2989997864 8.5000000000 0.0098935813 0.2758383155 2.2440431118 45.541000366 89.204002380 161.94299316 0.8346642256 -124.9380035 0.5115398169 0.4027887881 0.5110127926
 2770.1662598 4.0000000000 8.2939996719 8.5000000000 0.0108838314 0.2594523728 2.2710545063 51.951999664 87.722000122 160.71899414 0.9576635957 -125.0000000 0.5606909990 0.5632259846 0.5608400106
 2770.3188477 4.0000000000 8.2959995270 8.5000000000 0.0138933538 0.2480254918 2.3050224781 51.247001648 86.522003174 158.83599854 1.0442016125 -124.8130035 0.5869128704 0.4742884636 0.5869583488
 2770.4711914 4.0000000000 8.3039999008 8.5000000000 0.0136921844 0.2516791523 2.3119840622 53.407001495 86.067993164 157.67399597 1.1069695950 -125.3129959 0.6049180627 0.3962500095 0.6049711704
 2770.6235352 4.0000000000 8.3009996414 8.5000000000 0.0138036907 0.2559415102 2.3019695282 49.353000641 86.063003540 154.69500732 1.0878878832 -126.1880112 0.5955555439 0.3989855945 0.5960144401
 2770.7758789 4.0000000000 8.3009996414 8.5000000000 0.0117279403 0.2491877228 2.2829806805 53.874000549 86.083000183 153.52400208 1.0179759264 -126.0630035 0.5622455478 0.3771057725 0.5621087551
 2770.9284668 4.0000000000 8.3009996414 8.5000000000 0.0029624975 0.2418853790 2.2709968090 52.604999542 85.801002502 153.59802246 1.0030256510 -125.9379959 0.5557610393 0.4178686142 0.5560095906
 2771.0808105 4.0000000000 8.3009996414 8.5000000000 0.0009367708 0.2380851507 2.2700159550 52.480998993 86.347999573 153.78498840 1.0110015869 -124.8750000 0.5604369640 0.4030480683 0.5599935651
 2771.2331543 2.0000000000 8.3129997253 8.5000000000 0.0007920609 0.2395263165 2.2799999714 57.158000946 84.981010437 155.69000244 1.0119855404 -124.2500000 0.5616623759 0.4139647484 0.5619967580
 2771.3854980 2.0000000000 8.3360004425 8.5000000000 -0.000412393 0.2449627966 2.2800064087 41.233001709 84.794998169 155.65499878 1.0031025410 -124.3750000 0.5588335395 0.4448511899 0.5590048432
 2771.5378418 2.0000000000 8.3360004425 8.5000000000 0.0018476987 0.2373230308 2.2840063572 43.035999298 84.000000000 155.23500061 1.0670224428 -124.2500000 0.5897024274 0.4678894281 0.5899007916
 2771.6904297 2.0000000000 8.3360004425 8.5000000000 0.0097578857 0.2400879860 2.2879936695 47.090000153 84.291999817 156.72900391 1.0809711218 -124.0000000 0.5955620408 0.3952339888 0.5959904194
 2771.8427734 2.0000000000 8.3559999466 8.5000000000 0.0094083715 0.2201022953 2.2859616280 47.548999786 86.337997437 156.06700134 1.0719070435 -124.2500000 0.5877528787 0.3940032125 0.5880128145
 2771.9951172 2.0000000000 8.3649997711 8.5000000000 0.0077658137 0.2345321029 2.2619919777 45.687999725 86.093002319 155.33799744 1.0138708353 -125.6250000 0.5683110356 0.4069375992 0.5680320859
 2772.1474609 2.0000000000 8.3610000610 8.5000000000 0.0045414823 0.2446196079 2.2569904327 42.765998840 86.179000854 154.76600647 0.9333425164 -125.1880112 0.5303071737 0.3880913556 0.5301215649
 2772.3000488 2.0000000000 8.3380002975 8.5000000000 0.0085796388 0.2451992929 2.2510287762 39.316001892 86.635002136 156.34500122 0.9193568826 -125.4999924 0.5260736346 0.4009583294 0.5260064602
 2772.4523926 2.0000000000 8.3360004425 8.5000000000 0.0084633026 0.2339312434 2.2600016594 35.444000244 87.855003357 156.58201599 0.9230775833 -125.2500000 0.5318983197 0.3760801256 0.5319904089
 2772.6047363 2.0000000000 8.3330001831 8.5000000000 0.0061615175 0.2277028561 2.2610142231 49.571998596 88.040000916 157.71499634 0.9340284467 -124.8130035 0.5401749611 0.3630624115 0.5399872065
 2772.7570801 4.0000000000 8.3500003815 8.5000000000 0.0071121571 0.2382280082 2.2700016499 51.520000458 86.599998474 157.57400513 0.9261714220 -123.5630035 0.5426176786 0.4137548208 0.5429903865
 2772.9096680 4.0000000000 8.3680000305 8.5000000000 0.0103116650 0.2544390261 2.2709550858 53.969001770 87.026000977 157.49899292 0.9095932245 -123.8750000 0.5411977768 0.3721346259 0.5410032272
 2773.0620117 4.0000000000 8.3680000305 8.5000000000 0.0061546904 0.2566351295 2.2569918633 50.317001343 86.685989380 157.63000488 0.9027888775 -124.2500000 0.5442358851 0.3779807687 0.5439952016
 2773.2143555 4.0000000000 8.3680000305 8.5000000000 0.0040925499 0.2641398907 2.2520000935 49.681999207 85.831001282 157.29800415 0.8821409345 -124.1250000 0.5429646969 0.4009262621 0.5430015922
 2773.3666992 4.0000000000 8.3680000305 8.5000000000 0.0038081971 0.2692295611 2.2520112991 49.951999664 86.111000061 156.30900574 0.8846291900 -123.8750000 0.5515327454 0.4029904008 0.5509871840
 2773.5190430 4.0000000000 8.3680000305 8.5000000000 0.0014395289 0.2675681412 2.2590112686 49.886001587 84.870002747 153.51300049 0.9015711546 -124.1250000 0.5731976628 0.4617163539 0.5729296207
 2773.6716309 4.0000000000 8.3680000305 8.5000000000 0.0017641232 0.2627803683 2.2660255432 49.499000549 83.813003540 150.99398804 0.9078658223 -123.6880035 0.5861377716 0.4191378057 0.5859791636
 2773.8239746 4.0000000000 8.3680000305 8.5000000000 0.0002448590 0.2404996008 2.2740046978 53.046001434 83.247001648 149.99699402 0.9067705274 -124.3130035 0.6012827754 0.4668461680 0.6009759903
 2773.9763184 4.0000000000 8.3680000305 8.5000000000 0.0001619696 0.2417277247 2.2770383358 52.282001495 80.450996399 146.88099670 0.8354707956 -123.8130035 0.5800094604 0.4062927961 0.5800336599
 2774.1286621 4.0000000000 8.3680000305 8.5000000000 0.0032608588 0.2312436849 2.3010721207 50.483001709 78.299003601 139.74499512 0.8562166691 -123.6880035 0.6117023826 0.5343798399 0.6109008193
 2774.2812500 4.0000000000 8.3950004578 8.5000000000 0.0050574788 0.2091209739 2.3461952209 43.292999268 75.624000549 133.53399658 1.0571455956 -123.8750000 0.7635922432 1.4500576258 0.7627564073
 2774.4335938 4.0000000000 8.3999996185 8.5000000000 0.0098883631 0.1700165123 2.4070577621 43.383998871 71.149002075 129.07800293 1.4151650667 -124.3750000 1.0308846235 1.8457372189 1.0295721292
