# LAS format log file from PETREL
# Project units are specified as depth units
#==================================================================
~Version information
VERS.   2.0:
WRAP.   NO:
#==================================================================
~Well
STRT .m      2818.0771484 :
STOP .m      3213.0979004 :
STEP .m     0.00000000 :
NULL .        -999.250000 :
COMP.           : COMPANY
WELL.  35/11-15 S   : WELL
FLD.            : FIELD
LOC.            : LOCATION
SRVC.           : SERVICE COMPANY
DATE.  2018-09-11 14:48:55   : Log Export Date {yyyy-MM-dd HH:mm:ss}
PROV.           : PROVINCE
UWI.   35/11-15 S   : UNIQUE WELL ID
API.            : API NUMBER
#==================================================================
~Curve
DEPT .m                   : DEPTH
Lithology_geolink ._      : Lithology_geolink
CALI .in                  : CALI
BS .in                    : BS
ROP .m/h                  : ROP
DRHO .g/cm3               : DRHO
THOR .ppm                 : THOR
SGR .gAPI                 : SGR
RHOB .g/cm3               : RHOB
PEF .b/e                  : PEF
GR .gAPI                  : GR
URAN .ppm                 : URAN
DTC .us/ft                : DTC
DTS .us/ft                : DTS
RDEP .ohm.m               : RDEP
RMIC .ohm.m               : RMIC
RMED .ohm.m               : RMED
~Parameter
#==================================================================
~Ascii
# ...
 2947.7695313 2.0000000000 8.3965997696 8.5000000000 101876.76563 -0.010100000 3.0899999142 0.0144014424 2.3976998329 1.9527000189 45.351501465 0.9986999631 80.363601685 132.54550171 123.64800262 1.7352999449 56.559200287
 2947.9218750 2.0000000000 8.3965997696 8.5000000000 96890.398438 -0.010700000 2.7351000309 0.0122070396 2.3889000416 1.9203000069 39.087001801 0.8521999717 79.818199158 132.36360168 127.56919861 1.6591999531 60.797298431
 2948.0744629 1.0000000000 8.3937997818 8.5000000000 93350.523438 -0.010800000 2.6126000881 0.0111017628 2.4035000801 1.9703999758 36.608501434 0.8823000193 79.545501709 132.54550171 117.15959930 1.6576000452 61.189899445
 2948.2268066 1.0000000000 8.3965997696 8.5000000000 84978.000000 -0.009600000 2.4602999687 0.0110999998 2.4058001041 1.9562000036 35.710399628 0.8280000091 79.727302551 133.09089661 113.58509827 1.7516000271 61.626499176
 2948.3791504 1.0000000000 8.3908996582 8.5000000000 76216.679688 -0.008100000 2.5843000412 0.0112996800 2.4012000561 1.9682999849 36.166900635 0.7218000293 79.818199158 133.45449829 122.11080170 1.7854000330 65.841499329
 2948.5314941 1.0000000000 8.3934001923 8.5000000000 71118.718750 -0.007900000 2.3208999634 0.0113998400 2.3801999092 2.0148000717 36.114700317 0.7627999783 80.000000000 133.72729492 143.37379456 1.8035000563 78.855400085
 2948.6838379 1.0000000000 8.3965997696 8.5000000000 74201.765625 -0.008500000 2.1435999870 0.0116990395 2.3807001114 1.9988000393 36.258899689 0.7487000227 80.545501709 134.27270508 150.46820068 1.7166999578 88.171798706
 2948.8364258 1.0000000000 8.3937997818 8.5000000000 85072.679688 -0.008100000 2.2490000725 0.0116001600 2.3749001026 1.9635000229 35.448398590 0.6463000178 81.090888977 135.54539490 121.70770264 1.5770000219 77.151901245
 2948.9887695 1.0000000000 8.4021997452 8.5000000000 94480.562500 -0.008300000 2.2007000446 0.0114003206 2.3901998997 2.0051999092 34.924198151 0.6999999881 81.636398315 137.27270508 91.775398254 1.4467999935 62.815399170
 2949.1411133 1.0000000000 8.3965997696 8.5000000000 93619.804688 -0.010600000 2.0931999683 0.0113001605 2.3434998989 2.0485999584 34.777198792 0.7518000007 82.818199158 138.54539490 83.265701294 1.2546000481 59.762798309
 2949.2934570 2.0000000000 8.3937997818 8.5000000000 84333.601563 -0.011400000 2.0123999119 0.0119977603 2.3273999691 2.0722999573 36.150299072 0.7583000064 84.636398315 140.00000000 86.800102234 1.0920000076 63.169399261
 2949.4460449 2.0000000000 8.3937997818 8.5000000000 72590.398438 -0.005900000 1.9884998798 0.0126988776 2.3845000267 2.3777999878 39.174598694 0.9691999555 86.000000000 142.18179321 127.12400055 0.9552999735 88.517097473
 2949.5983887 2.0000000000 8.3937997818 8.5000000000 64062.355469 -0.001100000 2.2636001110 0.0137982368 2.5204999447 3.3803999424 42.037601471 0.9411000013 86.454498291 144.00000000 143.90469360 0.9024999738 98.162399292
 2949.7507324 2.0000000000 8.3965997696 8.5000000000 62939.164063 -0.000500000 2.3110001087 0.0150979171 2.3417000771 2.1217999458 43.523101807 0.8251000047 86.818191528 145.27270508 123.77880096 0.9376000166 86.188903809
 2949.9030762 2.0000000000 8.3937997818 8.5000000000 74775.601563 -0.006300000 2.3176999092 0.0147012798 2.3517999649 2.0497999191 43.057498932 0.8483999968 87.000000000 146.45449829 101.32260132 0.9433000088 71.634300232
 2950.0556641 2.0000000000 8.4021997452 8.5000000000 83113.554688 -0.009500000 2.2518999577 0.0146001605 2.3392999172 1.9442000389 42.749801636 0.8385000229 87.272689819 148.09089661 75.919998169 0.9539999962 55.157600403
 2950.2080078 1.0000000000 8.3965997696 8.5000000000 96672.601563 -0.010000000 2.1373000145 0.0142006408 2.3492000103 1.9848999977 41.662101746 0.8914999962 86.909103394 150.36360168 54.690498352 0.9111999869 40.712200165
 2950.3603516 1.0000000000 8.4010000229 8.5000000000 104757.48438 -0.008600000 2.1930999756 0.0142998397 2.3680999279 2.1010000706 41.457500458 0.8500999808 86.636398315 152.27270508 47.959800720 1.0183000565 36.155300140
 2950.5126953 1.0000000000 8.3908996582 8.5000000000 102836.15625 -0.007500000 2.1998999119 0.0144996792 2.3640000820 2.0337998867 41.733798981 0.8403000236 87.090896606 153.27270508 61.699798584 1.2542999983 47.038700104
 2950.6652832 1.0000000000 8.3965997696 8.5000000000 99929.882813 -0.005400000 2.0411999226 0.0144999996 2.3213000298 2.0601000786 40.912700653 0.8546000123 88.272697449 153.72729492 126.54119873 1.4371000528 96.961502075
 2950.8176270 1.0000000000 8.3965997696 8.5000000000 95279.398438 -0.006400000 1.8600000143 0.0141006410 2.3039000034 2.1459000111 39.381198883 0.8051999807 90.363601685 153.72729492 213.76960754 1.6701999903 151.32240295
 2950.9699707 1.0000000000 8.3937997818 8.5000000000 94457.164063 -0.009100000 1.8395999670 0.0137006408 2.2836000919 2.1029999256 38.236198425 0.7993999720 91.636398315 152.45460510 261.48471069 1.7668999434 174.99479675
 2951.1223145 1.0000000000 8.4021997452 8.5000000000 105987.60156 -0.013100000 2.0826001167 0.0139995199 2.3036999702 2.1858999729 37.542800903 0.5654000044 92.999992371 150.72729492 211.72419739 1.7846000195 139.50450134
 2951.2746582 1.0000000000 8.3908996582 8.5000000000 118130.75781 -0.012200000 2.0532999039 0.0142990397 2.3248999119 2.1684999466 38.386501312 0.6330999732 93.363601685 150.36360168 188.09590149 1.5497000217 121.13420105
 2951.4272461 1.0000000000 8.4021997452 8.5000000000 120653.64063 -0.005400000 2.0060000420 0.0138008008 2.3215000629 2.1407999992 36.628299713 0.5655999780 92.909103394 151.09089661 201.95239258 1.3266999722 122.07240295
 2951.5795898 1.0000000000 8.3993997574 8.5000000000 112853.88281 -0.002800000 2.2397999763 0.0143990386 2.3122000694 2.1136999130 37.487201691 0.4483999908 91.545501709 151.72729492 210.61560059 1.0860999823 118.95279694
 2951.7319336 1.0000000000 8.3965997696 8.5000000000 100383.11719 -0.004800000 2.1986000538 0.0141004808 2.3199999332 2.0929000378 37.272300720 0.5758000016 90.363601685 151.72729492 172.27630615 0.8945000172 93.691596985
 2951.8842773 1.0000000000 8.4021997452 8.5000000000 93397.320313 -0.010100000 2.3789000511 0.0146980798 2.3375999928 2.0666999817 38.858299255 0.5602999926 89.818199158 151.72729492 121.14040375 0.8248000145 69.385803223
 2952.0368652 1.0000000000 8.4106998444 8.5000000000 91959.835938 -0.010700000 2.5174000263 0.0147000002 2.3345999718 2.0095999241 39.856700897 0.6301000118 89.818199158 151.54539490 73.484001160 0.7935000062 48.247001648
 2952.1892090 1.0000000000 8.4078998566 8.5000000000 91096.921875 -0.009600000 2.6356999874 0.0145003200 2.3375999928 1.9839999676 40.898399353 0.7807000279 89.181800842 150.18179321 50.054500580 0.8094000220 36.157501221
 2952.3415527 1.0000000000 8.4078998566 8.5000000000 87514.921875 -0.009700001 2.7541999817 0.0142004807 2.3499999046 2.1489000320 41.676498413 0.8655999899 88.636398315 148.27270508 31.684299469 0.8546000123 25.543899536
 2952.4938965 1.0000000000 8.4219999313 8.5000000000 90502.921875 -0.009800000 3.0966999531 0.0148977600 2.3533000946 2.2534000874 44.949501038 1.0160000324 87.999992371 147.09089661 23.641300201 0.9898999929 20.530000687
 2952.6464844 1.0000000000 8.4219999313 8.5000000000 95978.515625 -0.008000000 3.6108999252 0.0177953523 2.4212999344 2.5013000965 53.244899750 1.1605000496 87.000000000 146.90910339 22.986900330 1.4752000570 20.927999496
 2952.7988281 1.0000000000 8.4286003113 8.5000000000 90787.679688 -0.006700000 3.9614996910 0.0213942323 2.3945999146 2.3847000599 64.461898804 1.6175999641 86.000000000 146.90910339 25.482700348 2.3896000385 23.365100861
 2952.9511719 1.0000000000 8.4474000931 8.5000000000 81252.000000 -0.001300000 4.5518999100 0.0250940714 2.4542000294 2.7114000320 74.463897705 1.7994999886 85.363601685 147.45449829 31.152399063 3.5281000137 28.166200638
 2953.1035156 1.0000000000 8.4247999191 8.5000000000 73747.437500 0.0020000001 4.6152000427 0.0254993588 2.3252000809 2.3185000420 77.648696899 1.9907000065 85.454498291 148.81820679 44.160198212 2.3866000175 38.569400787
 2953.2558594 1.0000000000 8.4305000305 8.5000000000 74413.078125 0.0008000000 4.2140998840 0.0246028788 2.2999000549 2.1754999161 74.891899109 1.9893000126 87.363601685 150.45451355 42.909999847 1.7661999464 35.587398529
