# LAS format log file from PETREL
# Project units are specified as depth units
#==================================================================
~Version information
VERS.   2.0:
WRAP.   NO:
#==================================================================
~Well
STRT .m      2901.5925293 :
STOP .m      3271.0102539 :
STEP .m     0.00000000 :
NULL .        -999.250000 :
COMP.           : COMPANY
WELL.  35/11-13   : WELL
FLD.            : FIELD
LOC.            : LOCATION
SRVC.           : SERVICE COMPANY
DATE.  2018-09-11 14:48:55   : Log Export Date {yyyy-MM-dd HH:mm:ss}
PROV.           : PROVINCE
UWI.   35/11-13   : UNIQUE WELL ID
API.            : API NUMBER
#==================================================================
~Curve
DEPT .m                   : DEPTH
Lithology_geolink ._      : Lithology_geolink
CALI .in                  : CALI
BS .in                    : BS
ROP .m/h                  : ROP
DRHO .g/cm3               : DRHO
NPHI .m3/m3               : NPHI
RHOB .g/cm3               : RHOB
PEF .b/e                  : PEF
GR .gAPI                  : GR
DTC .us/ft                : DTC
DTS .us/ft                : DTS
RDEP .ohm.m               : RDEP
RMIC .ohm.m               : RMIC
RMED .ohm.m               : RMED
~Parameter
#==================================================================
~Ascii
# ...
 2976.5732422 16.000000000 8.4449996948 8.5000000000 48.448162079 -0.005200000 0.4720999897 2.4109001160 2.9561998844 174.12210083 104.94930267 202.02156067 9.5309000015 10.679699898 9.9663000107
 2976.7255859 16.000000000 8.4316997528 8.5000000000 43.854984283 -0.005800000 0.4456000030 2.4302000999 3.0432000160 180.25030518 105.65769958 200.58230591 9.6912002563 10.411999702 10.144300461
 2976.8779297 16.000000000 8.4449996948 8.5000000000 39.242126465 -0.006500000 0.4115999937 2.4077000618 3.1108000278 180.20919800 106.88880920 200.30458069 9.3210000992 10.671799660 9.8035001755
 2977.0305176 16.000000000 8.4406003952 8.5000000000 39.232284546 -0.007500000 0.4205000103 2.3455998898 2.8694999218 180.86689758 106.95558929 200.21365356 10.013699532 11.187899590 10.617799759
 2977.1828613 16.000000000 8.4516000748 8.5000000000 39.202758789 -0.008500000 0.4447000027 2.3698999882 2.8566000462 173.55000305 107.18250275 197.87483215 9.7638998032 11.505599976 10.487099648
 2977.3352051 16.000000000 8.4493999481 8.5000000000 40.285434723 -0.008800000 0.4756000042 2.3522000313 2.8333001137 174.19270325 107.88780975 196.98083496 9.6274003983 11.160599709 10.352299690
 2977.4875488 16.000000000 8.4316997528 8.5000000000 42.447505951 -0.006100000 0.4788999856 2.3942000866 2.7558000088 175.01489258 108.15720367 197.51705933 9.2518997192 9.3032999039 9.9920997620
 2977.6401367 16.000000000 8.4316997528 8.5000000000 44.225719452 -0.004700000 0.4742000103 2.4518001080 2.9855000973 178.30340576 108.11390686 199.21308899 8.3076000214 9.3268995285 8.9713001251
 2977.7924805 16.000000000 8.4384002686 8.5000000000 47.782154083 -0.001500000 0.4751000106 2.3942000866 2.8313000202 182.10009766 108.02890015 200.49922180 9.6402997971 9.5216999054 10.456700325
 2977.9448242 16.000000000 8.4316997528 8.5000000000 46.230312347 -0.003100000 0.4925999939 2.3735001087 2.8046000004 178.89379883 108.04149628 200.75920105 8.6317996979 10.889699936 9.3934001923
 2978.0971680 16.000000000 8.4384002686 8.5000000000 43.129920959 -0.004500000 0.4596999884 2.3947999477 2.9502999783 173.10530090 106.94989777 200.39179993 9.3395996094 10.819999695 10.178299904
 2978.2495117 16.000000000 8.4406003952 8.5000000000 42.355644226 -0.008400000 0.4663000107 2.3806002140 2.9428999424 167.84370422 106.61029816 201.14219666 9.5258998871 10.725799561 10.416999817
 2978.4020996 16.000000000 8.4449996948 8.5000000000 40.810367584 -0.009300000 0.4548999965 2.3640000820 2.9114999771 163.40429688 106.03760529 201.44932556 9.4211997986 10.093199730 10.308300018
 2978.5544434 16.000000000 8.4406003952 8.5000000000 38.152885437 -0.007000000 0.4670999944 2.4798998833 3.1189999580 162.45140076 105.98190308 201.21459961 7.8076000214 8.3212995529 8.5501003265
 2978.7067871 16.000000000 8.4516000748 8.5000000000 32.837924957 -0.006200000 0.4548000097 2.4732999802 3.1726999283 159.32730103 105.61408997 201.25718689 7.7161002159 8.2062997818 8.4673004150
 2978.8591309 16.000000000 8.4493999481 8.5000000000 32.837924957 -0.005900000 0.4645999968 2.4414999485 2.9093000889 160.56050110 104.91490173 201.48179626 8.9379997253 8.8312997818 9.8263998032
 2979.0117188 16.000000000 8.4582996368 8.5000000000 32.837924957 -0.007800000 0.4648000002 2.3606998920 2.8731000423 165.55299377 106.08360291 201.44380188 8.8311996460 10.467399597 9.7178001404
 2979.1640625 16.000000000 8.4384002686 8.5000000000 32.837924957 -0.008400000 0.4683000147 2.3661000729 2.9128000736 170.15690613 105.88179779 201.23611450 8.8680000305 10.594099998 9.7663002014
 2979.3164063 16.000000000 8.4516000748 8.5000000000 34.471786499 -0.011500000 0.4760999978 2.3524999619 2.8447000980 170.96780396 105.43540955 198.77542114 9.4884996414 10.628199577 10.493100166
 2979.4687500 16.000000000 8.4449996948 8.5000000000 35.285434723 -0.014400000 0.4760000110 2.3966999054 2.9198000431 170.33250427 105.44619751 197.80520630 7.9748997688 2.6210000515 8.8234996796
 2979.6213379 16.000000000 8.4384002686 8.5000000000 36.843830109 -0.014500000 0.4850000143 2.5448000431 3.4344999790 166.71519470 105.42940521 198.00610352 7.5967998505 2.5738000870 8.3885002136
 2979.7736816 16.000000000 8.4493999481 8.5000000000 42.362205505 -0.011500000 0.4683000147 2.4054000378 3.0957000256 169.60380554 105.55268860 197.74620056 8.1064996719 2.5332000256 8.9062995911
 2979.9260254 16.000000000 8.4516000748 8.5000000000 47.099739075 -0.008800000 0.4659000039 2.3819999695 2.9716000557 168.43420410 105.57140350 199.06381226 8.5156002045 9.1117000580 9.2960996628
 2980.0783691 16.000000000 8.4493999481 8.5000000000 57.509841919 -0.009000000 0.4551999867 2.3740999699 2.8073000908 168.18750000 105.38339996 198.30650330 8.4535999298 9.4335002899 9.0937995911
 2980.2307129 16.000000000 8.4449996948 8.5000000000 63.179130554 -0.010400000 0.4918999970 2.3829998970 2.7869000435 166.05000305 105.23660278 197.18110657 8.2799997330 9.2561998367 8.7980003357
 2980.3833008 16.000000000 8.4316997528 8.5000000000 69.629264832 -0.012200000 0.4952999949 2.3671998978 2.8842000961 168.12399292 102.15010071 190.26210022 8.5263004303 9.1456003189 8.9160003662
 2980.5356445 16.000000000 8.4449996948 8.5000000000 70.403541565 -0.012500000 0.4851000011 2.3831000328 3.1077001095 171.16589355 98.677207947 179.14360046 10.986399651 10.237700462 11.369600296
 2980.6879883 16.000000000 8.4493999481 8.5000000000 71.177818298 -0.012100000 0.4526000023 2.5717000961 3.9514999390 167.66439819 96.105102539 176.05760193 29.026199341 16.006299973 29.500600815
 2980.8403320 16.000000000 8.4449996948 8.5000000000 68.982940674 -0.007700000 0.3792999983 2.7211000919 4.6609997749 158.21000671 91.351707458 172.24209595 58.464298248 29.155799866 54.547100067
 2980.9929199 16.000000000 8.4516000748 8.5000000000 64.589897156 -0.006000000 0.3339000046 2.5841999054 4.1403999329 144.39830017 88.765197754 164.25430298 16.625499725 24.295799255 16.021999359
 2981.1452637 16.000000000 8.4848003387 8.5000000000 66.938980103 -0.005500000 0.3490999937 2.5527999401 3.2604000568 132.11509705 86.571296692 162.25210571 13.917300224 16.388399124 13.546500206
 2981.2976074 16.000000000 8.4780998230 8.5000000000 71.633857727 -0.008000000 0.3659000099 2.5567998886 3.0917000771 121.36019897 87.082603455 164.43240356 14.329999924 13.685299873 14.050900459
 2981.4499512 16.000000000 8.4758996964 8.5000000000 77.319549561 -0.008300000 0.3919999897 2.5501999855 3.0039999485 117.82510376 87.421401978 167.18130493 13.429599762 14.223299980 13.314900398
 2981.6025391 16.000000000 8.4848003387 8.5000000000 88.694229126 -0.007400000 0.3772999942 2.5515999794 3.1085999012 121.19580078 89.002296448 168.31048584 12.659999847 12.775799751 12.610300064
 2981.7548828 16.000000000 8.4758996964 8.5000000000 95.971130371 -0.007200000 0.4117999971 2.5566999912 3.2228999138 132.44389343 91.737197876 172.09060669 8.7321996689 10.812500000 8.7215003967
 2981.9072266 16.000000000 8.4848003387 8.5000000000 110.53149414 -0.007600000 0.4020999968 2.4830999374 3.1817998886 144.92520142 92.436599731 173.57110596 7.8828001022 9.0841999054 7.9516000748
 2982.0595703 16.000000000 8.4715003967 8.5000000000 113.14960480 -0.007700000 0.4174000025 2.4670999050 3.1254000664 156.92820740 94.873596191 180.08200073 6.8422999382 7.6792998314 6.9140000343
 2982.2119141 16.000000000 8.4671001434 8.5000000000 118.38911438 -0.007200000 0.4217999876 2.4890999794 3.0996000767 160.29139709 95.466300964 178.44740295 6.5086002350 6.9496998787 6.5788002014
 2982.3645020 16.000000000 8.4848003387 8.5000000000 118.07414246 -0.005600000 0.4102999866 2.5404000282 3.1454999447 160.05979919 95.542106628 179.02729797 6.4889001846 6.6210999489 6.5254998207
 2982.5168457 16.000000000 8.4649000168 8.5000000000 117.44750977 -0.004100000 0.4054999948 2.5381000042 3.2053999901 155.20919800 94.800506592 180.21490479 6.1205000877 6.3533000946 6.1343998909
 2982.6691895 16.000000000 8.4582996368 8.5000000000 114.03871918 -0.003000000 0.3892000020 2.5167996883 3.1963000298 155.95660400 94.637702942 181.42538452 6.0987000465 6.3935999870 6.1022000313
