# LAS format log file from PETREL
# Project units are specified as depth units
#==================================================================
~Version information
VERS.   2.0:
WRAP.   NO:
#==================================================================
~Well
STRT .m      1245.0043945 :
STOP .m      3214.9267578 :
STEP .m     0.00000000 :
NULL .        -999.250000 :
COMP.           : COMPANY
WELL.  35/11-11   : WELL
FLD.            : FIELD
LOC.            : LOCATION
SRVC.           : SERVICE COMPANY
DATE.  2018-09-11 14:48:54   : Log Export Date {yyyy-MM-dd HH:mm:ss}
PROV.           : PROVINCE
UWI.   35/11-11   : UNIQUE WELL ID
API.            : API NUMBER
#==================================================================
~Curve
DEPT .m                   : DEPTH
Lithology_geolink ._      : Lithology_geolink
CALI .in                  : CALI
BS .in                    : BS
ROP .m/h                  : ROP
DRHO .g/cm3               : DRHO
THOR .ppm                 : THOR
NPHI .m3/m3               : NPHI
RHOB .g/cm3               : RHOB
PEF .b/e                  : PEF
GR .gAPI                  : GR
URAN .ppm                 : URAN
DTC .us/ft                : DTC
DTS .us/ft                : DTS
RDEP .ohm.m               : RDEP
SP .mV                    : SP
RMIC .ohm.m               : RMIC
RMED .ohm.m               : RMED
~Parameter
#==================================================================
~Ascii
# ...
 2813.2004395 7.0000000000 8.6449003220 8.5000000000 115.83005524 -0.003500000 11.147600174 0.3048999906 2.5613999367 3.6584000587 112.38950348 -1.101699948 77.069892883 142.95329285 14.519000053 43.849899292 18.677000046 16.910299301
 2813.3527832 7.0000000000 8.6434001923 8.5000000000 115.83005524 -0.004300000 11.204600334 0.3091999888 2.5564000607 3.7402000427 112.22080231 -1.161299944 77.513397217 142.89860535 14.693099976 44.170600891 18.852300644 17.150400162
 2813.5051270 7.0000000000 8.6443004608 8.5000000000 115.83005524 -0.004700000 11.137700081 0.3312000036 2.5555999279 3.7880001068 110.81790161 -1.271900058 78.074394226 143.23269653 14.823300362 44.408298492 18.966800690 17.328500748
 2813.6574707 7.0000000000 8.6401996613 8.5000000000 115.83005524 -0.004900000 11.145700455 0.3398999870 2.5592000484 3.7776000500 110.25070190 -1.386299968 78.465797424 145.07229614 14.940600395 44.171100616 19.126100540 17.442899704
 2813.8100586 7.0000000000 8.6445999146 8.5000000000 115.83005524 -0.004100000 11.612999916 0.3305999935 2.5608000755 3.7342000008 109.20249939 -0.938799977 79.101196289 144.46189880 14.723400116 43.970798492 19.228700638 17.253000259
 2813.9624023 7.0000000000 8.6422004700 8.5000000000 115.83005524 -0.003900000 11.542599678 0.3341000080 2.5592999458 3.7193999290 109.13610077 -0.991100013 79.205406189 144.98249817 14.944399834 44.199798584 19.615299225 17.564599991
 2814.1147461 7.0000000000 8.6416997910 8.5000000000 115.83005524 -0.003800000 11.600299835 0.3474999964 2.5585999489 3.7320001125 111.08039856 -0.830699980 79.217300415 146.18780518 15.472599983 44.474899292 19.886600494 18.226499557
 2814.2670898 7.0000000000 8.6357002258 8.5000000000 93.635177612 -0.003400000 11.364800453 0.3734000027 2.5648999214 3.7042000294 112.79329681 -0.908900023 79.136901855 145.60330200 15.674500465 44.296100616 20.219800949 18.466999054
 2814.4196777 7.0000000000 8.6416997910 8.5000000000 93.635177612 -0.002700000 11.369999886 0.3675999939 2.5752999783 3.6463999748 112.00540161 -0.983399987 79.145805359 145.23449707 15.781499863 44.062500000 20.472200394 18.652200699
 2814.5720215 7.0000000000 8.6372003555 8.5000000000 93.635177612 -0.002900000 11.228500366 0.3707000017 2.5778999329 3.6301999092 107.06469727 -1.103099942 79.230705261 145.82730103 15.712200165 44.229000092 20.311000824 18.608800888
 2814.7243652 7.0000000000 8.6476001740 8.5000000000 93.635177612 -0.003700000 10.931900024 0.3826000094 2.5717000961 3.6686999798 105.45330048 -1.568500042 79.367599487 145.53250122 15.383000374 44.474899292 20.400699615 18.247900009
 2814.8767090 7.0000000000 8.6461000443 8.5000000000 93.635177612 -0.004500000 11.644100189 0.3637999892 2.5622999668 3.7177000046 105.67590332 -1.259899974 79.494003296 146.85490417 15.401900291 44.462600708 20.314199448 18.324100494
 2815.0292969 7.0000000000 8.6447000504 8.5000000000 93.635177612 -0.004500000 11.560999870 0.3499000072 2.5571000576 3.7390999794 107.35610199 -1.293499947 79.290199280 147.73030090 15.682200432 44.275100708 20.783199310 18.685800552
 2815.1816406 7.0000000000 8.6414003372 8.5000000000 77.568893433 -0.003600000 12.221199989 0.3352999985 2.5587999821 3.7204999924 104.89550018 -1.089400053 79.093803406 145.07989502 16.079399109 44.187500000 21.045299530 19.181800842
 2815.3339844 7.0000000000 8.6372003555 8.5000000000 77.568893433 -0.003400000 12.231100082 0.3490000069 2.5604999065 3.7056999207 104.74030304 -1.039499998 78.793197632 144.71180725 15.804900169 44.220798492 20.933900833 18.921600342
 2815.4863281 7.0000000000 8.6435003281 8.5000000000 77.568893433 -0.003400000 12.472000122 0.3488000035 2.5625000000 3.6842999458 104.51850128 -0.987600088 78.694900513 145.73530579 15.315699577 44.316600800 20.459499359 18.401599884
 2815.6386719 7.0000000000 8.6412000656 8.5000000000 77.568893433 -0.004200000 11.646300316 0.3425999880 2.5618999004 3.7093000412 105.28150177 -1.171599984 79.017906189 144.49279785 15.238499641 44.341701508 20.283100128 18.298000336
 2815.7912598 7.0000000000 8.6354999542 8.5000000000 77.568893433 -0.004200000 11.493599892 0.3404999971 2.5646998882 3.7153000832 105.65129852 -1.022799969 78.976196289 144.48609924 15.277700424 44.379100800 19.335599899 18.374799728
 2815.9436035 7.0000000000 8.6445999146 8.5000000000 77.568893433 -0.003600000 11.334600449 0.3598999977 2.5699000359 3.6995000839 106.37840271 -1.059900045 79.194892883 145.68519592 15.574000359 44.404201508 19.745800018 18.769699097
 2816.0959473 7.0000000000 8.6401996613 8.5000000000 77.568893433 -0.004300000 11.576100349 0.3619000018 2.5648999214 3.6947000027 108.96410370 -0.827799976 79.224693298 143.73699951 15.866700172 44.474899292 20.080799103 19.151899338
 2816.2482910 7.0000000000 8.6457004547 8.5000000000 137.94290161 -0.004600000 11.423500061 0.3495000005 2.5606000423 3.6658000946 105.41179657 -0.912400007 79.325889587 144.04769897 15.917400360 44.795600891 21.364299774 19.227800369
 2816.4008789 7.0000000000 8.6438999176 8.5000000000 137.94290161 -0.005400000 11.256199837 0.3341000080 2.5502998829 3.6795001030 108.82740021 -0.987500012 79.075897217 144.55009460 16.079299927 44.567100525 21.242500305 19.482900620
 2816.5532227 7.0000000000 8.6542997360 8.5000000000 137.94290161 -0.005000000 11.032099724 0.3185999990 2.5476999283 3.6726999283 110.94100189 -1.069300056 79.324401855 144.89430237 15.796500206 43.987701416 20.780799866 19.182699203
 2816.7055664 7.0000000000 8.6367998123 8.5000000000 137.94290161 -0.004700000 10.901399612 0.3181000054 2.5446999073 3.6914000511 113.46530151 -1.003200054 79.567001343 144.43609619 15.844300270 44.245399475 20.538299561 19.292400360
 2816.8579102 7.0000000000 8.6406002045 8.5000000000 137.94290161 -0.004500000 11.214699745 0.3298000097 2.5450000763 3.6823999882 110.48799896 -0.824299991 79.611595154 144.84570313 15.834600449 44.958000183 20.622200012 19.336500168
 2817.0104980 7.0000000000 8.6476001740 8.5000000000 137.94290161 -0.004100000 11.147700310 0.3458000124 2.5460000038 3.6647000313 110.93139648 -0.920799971 79.031196594 145.56579590 15.837300301 45.083499908 20.983600616 19.436000824
 2817.1628418 7.0000000000 8.6483001709 8.5000000000 135.16075134 -0.003300000 11.465999603 0.3452000022 2.5490000248 3.6329998970 111.84249878 -0.724900007 78.741104126 144.55479431 15.920700073 44.537899017 21.028299332 19.633499146
 2817.3151855 7.0000000000 8.6463003159 8.5000000000 135.16075134 -0.003200000 11.634200096 0.3312999904 2.5506000519 3.6298000813 109.46260071 -0.608799994 78.307998657 144.08819580 16.031600952 44.453899384 19.989200592 19.797100067
 2817.4675293 7.0000000000 8.6549997330 8.5000000000 135.16075134 -0.003800000 11.147899628 0.3064000010 2.5518999100 3.6493000984 106.46479797 -0.870299995 77.751502991 141.71409607 15.901200294 45.053798676 20.024000168 19.772199631
 2817.6201172 7.0000000000 8.6496000290 8.5000000000 135.16075134 -0.004700000 11.457400322 0.3055000007 2.5527000427 3.6807999611 110.87930298 -0.787800014 77.260398865 141.53660583 15.939200401 45.408298492 20.268999100 19.987600327
 2817.7724609 7.0000000000 8.6450996399 8.5000000000 135.16075134 -0.004800000 11.612799644 0.3109999895 2.5534999371 3.7042999268 114.76889801 -0.907700002 77.607093811 139.06239319 16.172599792 45.004600525 21.500600815 20.366500854
 2817.9248047 7.0000000000 8.6422004700 8.5000000000 135.16075134 -0.004200000 11.489100456 0.3152999878 2.5564999580 3.6877000332 112.50759888 -0.930000007 76.486602783 140.31010437 16.488199234 44.625000000 22.209800720 20.887100220
 2818.0771484 7.0000000000 8.6483001709 8.5000000000 135.16075134 -0.004100000 11.459300041 0.3246000111 2.5518000126 3.7095999718 108.70890045 -0.851199985 76.901802063 138.73699951 16.686700821 44.858100891 23.091199875 21.104400635
 2818.2294922 7.0000000000 8.6445999146 8.5000000000 135.16075134 -0.003900000 11.372599602 0.3327000141 2.5490999222 3.7091000080 105.97180176 -0.731000006 75.041702271 138.02110291 16.914100647 45.262298584 24.246200562 21.377700806
 2818.3820801 7.0000000000 8.6487998962 8.5000000000 103.94685364 -0.004600000 11.322299957 0.3203999996 2.5443999767 3.7390999794 106.29669952 -0.680000007 73.050598145 136.36210632 17.643499374 45.670600891 25.450700760 22.172599792
