# LAS format log file from PETREL
# Project units are specified as depth units
#==================================================================
~Version information
VERS.   2.0:
WRAP.   NO:
#==================================================================
~Well
STRT .m      359.96881104 :
STOP .m      3380.8413086 :
STEP .m     0.00000000 :
NULL .        -999.250000 :
COMP.           : COMPANY
WELL.  35/11-12   : WELL
FLD.            : FIELD
LOC.            : LOCATION
SRVC.           : SERVICE COMPANY
DATE.  2018-09-11 14:48:55   : Log Export Date {yyyy-MM-dd HH:mm:ss}
PROV.           : PROVINCE
UWI.   35/11-12   : UNIQUE WELL ID
API.            : API NUMBER
#==================================================================
~Curve
DEPT .m                   : DEPTH
Lithology_geolink ._      : Lithology_geolink
CALI .in                  : CALI
BS .in                    : BS
ROP .m/h                  : ROP
DRHO .g/cm3               : DRHO
NPHI .m3/m3               : NPHI
RHOB .g/cm3               : RHOB
PEF .b/e                  : PEF
GR .gAPI                  : GR
DTC .us/ft                : DTC
RDEP .ohm.m               : RDEP
RMED .ohm.m               : RMED
~Parameter
#==================================================================
~Ascii
# ...
 2181.4536133 12.000000000  -999.250000 12.250000954 74.146980286  -999.250000  -999.250000  -999.250000  -999.250000 129.43115234 102.50100708 1.2852001190 1.3395402431
 2181.6059570 12.000000000  -999.250000 12.250000954 73.884513855  -999.250000  -999.250000  -999.250000  -999.250000 122.79840088 103.05700684 1.3354148865 1.3891291618
 2181.7583008 12.000000000  -999.250000 12.250000954 74.376632690  -999.250000  -999.250000  -999.250000  -999.250000 124.52604675 103.65000916 1.3721916676 1.3506398201
 2181.9106445 12.000000000  -999.250000 12.250000954 71.751968384  -999.250000  -999.250000  -999.250000  -999.250000 128.77026367 104.28100586 1.3723797798 1.3677220345
 2182.0629883 12.000000000  -999.250000 12.250000954 75.524932861  -999.250000  -999.250000  -999.250000  -999.250000 128.90551758 105.44701385 1.3844540119 1.3384556770
 2182.2155762 12.000000000  -999.250000 12.250000954 79.855644226  -999.250000  -999.250000  -999.250000  -999.250000 128.50592041 107.03601074 1.3563952446 1.3914139271
 2182.3679199 12.000000000  -999.250000 12.250000954 87.303153992  -999.250000  -999.250000  -999.250000  -999.250000 127.49537659 108.88400269 1.3606827259 1.3130753040
 2182.5202637 12.000000000  -999.250000 12.250000954 87.335952759  -999.250000  -999.250000  -999.250000  -999.250000 134.12802124 110.92601013 1.2746675014 1.2911765575
 2182.6726074 12.000000000  -999.250000 12.250000954 88.320205688  -999.250000  -999.250000  -999.250000  -999.250000 142.01977539 112.37599945 1.2320415974 1.1835403442
 2182.8251953 12.000000000  -999.250000 12.250000954 82.578735352  -999.250000  -999.250000  -999.250000  -999.250000 146.59744263 111.93400574 1.2136120796 1.0110833645
 2182.9775391 12.000000000  -999.250000 12.250000954 81.200790405  -999.250000  -999.250000  -999.250000  -999.250000 144.13784790 109.53100586 1.2043116093 1.0646300316
 2183.1298828 12.000000000  -999.250000 12.250000954 84.251968384  -999.250000  -999.250000  -999.250000  -999.250000 139.90512085 107.15400696 1.2467465401 1.1949460506
 2183.2822266 12.000000000  -999.250000 12.250000954 84.120735168  -999.250000  -999.250000  -999.250000  -999.250000 135.60507202 106.00700378 1.2632873058 1.3020579815
 2183.4348145 12.000000000  -999.250000 12.250000954 88.976371765  -999.250000  -999.250000  -999.250000  -999.250000 137.32827759 105.07600403 1.2989494801 1.2466473579
 2183.5871582 12.000000000  -999.250000 12.250000954 92.093177795  -999.250000  -999.250000  -999.250000  -999.250000 137.96078491 103.74800110 1.3125724792 1.1989302635
 2183.7395020 12.000000000  -999.250000 12.250000954 91.240150452  -999.250000  -999.250000  -999.250000  -999.250000 137.13619995 103.27600098 1.3415732384 1.2253687382
 2183.8918457 12.000000000  -999.250000 12.250000954 92.979003906  -999.250000  -999.250000  -999.250000  -999.250000 137.62808228 104.91900635 1.3363645077 1.3690776825
 2184.0441895 12.000000000  -999.250000 12.250000954 95.013122559  -999.250000  -999.250000  -999.250000  -999.250000 139.26000977 107.57701111 1.3311910629 1.4907674789
 2184.1965332 12.000000000  -999.250000 12.250000954 85.531494141  -999.250000  -999.250000  -999.250000  -999.250000 142.62814331 108.63400269 1.3237733841 1.4311964512
 2184.3488770 12.000000000  -999.250000 12.250000954 84.383193970  -999.250000  -999.250000  -999.250000  -999.250000 141.43826294 107.79400635 1.2927403450 1.2834017277
 2184.5014648 12.000000000  -999.250000 12.250000954 81.856956482  -999.250000  -999.250000  -999.250000  -999.250000 143.79522705 107.63501740 1.2309393883 1.1586158276
 2184.6538086 12.000000000  -999.250000 12.250000954 78.379264832  -999.250000  -999.250000  -999.250000  -999.250000 147.72100830 109.13999939 1.2042813301 1.3435282707
 2184.8061523 12.000000000  -999.250000 12.250000954 69.094490051  -999.250000  -999.250000  -999.250000  -999.250000 152.05435181 110.69500732 1.1619827747 1.0944614410
 2184.9584961 12.000000000  -999.250000 12.250000954 65.879257202  -999.250000  -999.250000  -999.250000  -999.250000 152.20169067 111.29600525 1.1198837757 0.9740384817
 2185.1108398 12.000000000  -999.250000 12.250000954 61.909446716  -999.250000  -999.250000  -999.250000  -999.250000 149.35131836 111.04299927 1.1359529495 1.0795350075
 2185.2634277 12.000000000  -999.250000 12.250000954 64.960624695  -999.250000  -999.250000  -999.250000  -999.250000 145.41342163 110.19000244 1.1471073627 1.1246583462
 2185.4157715 12.000000000  -999.250000 12.250000954 61.712585449  -999.250000  -999.250000  -999.250000  -999.250000 145.74645996 109.17601013 1.1751265526 1.1711146832
 2185.5681152 12.000000000  -999.250000 12.250000954 59.481620789  -999.250000  -999.250000  -999.250000  -999.250000 143.62811279 108.72501373 1.2251083851 1.1195774078
 2185.7204590 12.000000000  -999.250000 12.250000954 58.005252838  -999.250000  -999.250000  -999.250000  -999.250000 146.15997314 109.63600159 1.2363216877 1.2439906597
 2185.8730469 12.000000000  -999.250000 12.250000954 45.013126373  -999.250000  -999.250000  -999.250000  -999.250000 145.98458862 111.76600647 1.2394065857 1.2467024326
 2186.0253906 12.000000000  -999.250000 12.250000954 40.157478333  -999.250000  -999.250000  -999.250000  -999.250000 155.87997437 113.59500122 1.2142336369 1.1353356838
 2186.1777344 12.000000000  -999.250000 12.250000954 39.370079041  -999.250000  -999.250000  -999.250000  -999.250000 162.35900879 114.18499756 1.1784572601 1.1018633842
 2186.3300781 12.000000000  -999.250000 12.250000954 41.207347870  -999.250000  -999.250000  -999.250000  -999.250000 162.68991089 114.24999237 1.1689043045 1.0848503113
 2186.4826660 12.000000000  -999.250000 12.250000954 41.896327972  -999.250000  -999.250000  -999.250000  -999.250000 155.55682373 114.39601135 1.2466044426 1.1040637493
 2186.6350098 12.000000000  -999.250000 12.250000954 42.782154083  -999.250000  -999.250000  -999.250000  -999.250000 152.69393921 114.35000610 1.1109855175 1.0557045937
 2186.7873535 12.000000000  -999.250000 12.250000954 41.535434723  -999.250000  -999.250000  -999.250000  -999.250000 157.78134155 114.09300232 1.1131889820 1.0642220974
 2186.9396973 12.000000000  -999.250000 12.250000954 42.224411011  -999.250000  -999.250000  -999.250000  -999.250000 158.67767334 113.93199921 1.1264379025 1.0320758820
 2187.0920410 12.000000000  -999.250000 12.250000954 43.274272919  -999.250000  -999.250000  -999.250000  -999.250000 156.33282471 113.86499786 1.1250445843 1.0928399563
 2187.2446289 12.000000000  -999.250000 12.250000954 45.045928955  -999.250000  -999.250000  -999.250000  -999.250000 152.47293091 113.82200623 1.0900764465 1.1060426235
 2187.3969727 12.000000000  -999.250000 12.250000954 60.892379761  -999.250000  -999.250000  -999.250000  -999.250000 154.29428101 113.96800232 1.0994026661 1.1356852055
 2187.5493164 12.000000000  -999.250000 12.250000954 71.883201599  -999.250000  -999.250000  -999.250000  -999.250000 156.10339355 114.76600647 1.0861082077 1.0967853069
 2187.7016602 12.000000000  -999.250000 12.250000954 73.228347778  -999.250000  -999.250000  -999.250000  -999.250000 158.31365967 116.38400269 1.0520203114 0.9321305752
 2187.8542480 12.000000000  -999.250000 12.250000954 74.737525940  -999.250000  -999.250000  -999.250000  -999.250000 162.89093018 118.24900818 0.9295177460 0.9068994522
 2188.0065918 12.000000000  -999.250000 12.250000954 73.359580994  -999.250000  -999.250000  -999.250000  -999.250000 167.32885742 119.30500793 0.9188939333 0.8891817331
 2188.1589355 12.000000000  -999.250000 12.250000954 70.242782593  -999.250000  -999.250000  -999.250000  -999.250000 169.53250122 119.02101135 0.9120953083 0.8587390184
 2188.3112793 12.000000000  -999.250000 12.250000954 71.981620789  -999.250000  -999.250000  -999.250000  -999.250000 170.85354614 118.07200623 0.9016435146 0.8433643579
 2188.4638672 12.000000000  -999.250000 12.250000954 74.967185974  -999.250000  -999.250000  -999.250000  -999.250000 168.34811401 117.09700012 0.9529651403 0.8414416313
 2188.6162109 12.000000000  -999.250000 12.250000954 76.640419006  -999.250000  -999.250000  -999.250000  -999.250000 165.64291382 116.24900818 0.9800096750 0.8412201405
