# LAS format log file from PETREL
# Project units are specified as depth units
#==================================================================
~Version information
VERS.   2.0:
WRAP.   NO:
#==================================================================
~Well
STRT .m      1242.0020752 :
STOP .m      2811.1123047 :
STEP .m     0.00000000 :
NULL .        -999.250000 :
COMP.           : COMPANY
WELL.  35/11-9   : WELL
FLD.            : FIELD
LOC.            : LOCATION
SRVC.           : SERVICE COMPANY
DATE.  2018-09-11 14:48:57   : Log Export Date {yyyy-MM-dd HH:mm:ss}
PROV.           : PROVINCE
UWI.   35/11-9   : UNIQUE WELL ID
API.            : API NUMBER
#==================================================================
~Curve
DEPT .m                   : DEPTH
Lithology_geolink ._      : Lithology_geolink
CALI .in                  : CALI
BS .in                    : BS
DRHO .g/cm3               : DRHO
NPHI .m3/m3               : NPHI
RHOB .g/cm3               : RHOB
GR .gAPI                  : GR
DTC .us/ft                : DTC
DTS .us/ft                : DTS
RDEP .ohm.m               : RDEP
SP .mV                    : SP
RMIC .ohm.m               : RMIC
~Parameter
#==================================================================
~Ascii
 1242.0020752  -999.250000 12.371000290 12.250000954 -0.993300021 0.5847280025 1.7879999876 44.288467407 115.48300171 629.92498779 0.1180960014 80.481002808 1220.8010254
 1242.1544189  -999.250000 12.388999939 12.250000954 -0.999275982 0.5869079828 1.8580000401 42.374191284 114.46299744 629.92498779 0.1256989986 78.512001038 1220.8010254
 1242.3068848  -999.250000 12.439999580 12.250000954 -1.008000016 0.5273870230 2.0569999218 40.129985809 109.52700043 629.92498779 0.0821650028 72.956001282 1219.8238525
 1242.4592285  -999.250000 12.609000206 12.250000954 -0.739748001 0.5404549837 2.1029999256 53.823951721 105.88700104 629.92498779 0.0704350024 67.268997192 0.3470000029
 1242.6116943  -999.250000 12.772000313 12.250000954 -0.405909985 0.5424219966 2.1489999294 45.049888611 92.125999451 629.92498779 0.0543200001 63.286998749 0.2779671848
 1242.7640381  -999.250000 13.279001236 12.250000954 -0.248668998 0.5633190274 1.8409999609 76.091590881 97.187004089 629.92498779 0.0655680001 59.700000763 0.2370000035
 1242.9165039  -999.250000 13.348999977 12.250000954 -0.111000001 0.5505539775 1.6779999733 83.039901733 95.940002441 629.92498779 0.2429399937 58.430999756 0.1360968798
 1243.0688477  -999.250000 13.237999916 12.250000954 -0.022276999 0.5754020214 1.6790000200 68.635810852 94.986000061 647.47900391 0.7936419845 56.594001770 0.2569999993
 1243.2213135  -999.250000 13.361001015 12.250000954 0.0060060001 0.5869579911 1.7599999905 65.903053284 94.375999451 665.03302002 1.3750000000 51.387001038 1.7250689268
 1243.3736572  -999.250000 13.541000366 12.250000954 0.0093909996 0.5847740173 1.9179999828 64.049667358 80.787002563 610.18103027 1.2380000353 46.180999756 1.8109567165
 1243.5261230  -999.250000 13.503999710 12.250000954 0.0070000002 0.5700269938 1.9529999495 43.667766571 85.288002014 716.54998779 1.8120000362 41.062999725 1.7568925619
 1243.6784668  -999.250000 13.367999077 12.250000954 0.0013689999 0.5338429809 1.9509999752 37.294460297 90.204002380 716.54998779 2.3420000076 38.569000244 1.6230616570
 1243.8308105  -999.250000 13.206999779 12.250000954 0.0011210000 0.5144330263 1.9539999962 47.857780457 102.40399933 716.54998779 2.6960000992 35.286998749 1.7000000477
 1243.9832764  -999.250000 13.097999573 12.250000954 0.0019710001 0.4786559939 1.9249999523 65.068244934 112.21099854 710.25598145 3.5120000839 36.950000763 0.1679303348
 1244.1356201  -999.250000 13.659000397 12.250000954 -0.011687000 0.5088539720 1.6779999733 81.613914490 147.10000610 703.96197510 2.8970000744 36.775001526 0.0810000002
 1244.2880859  -999.250000 16.937999725 12.250000954 -0.021547999 0.5222560167 1.4520000219 117.73818207 148.58700562 691.37408447 1.7200000286 35.944000244 0.0799999982
 1244.4404297  -999.250000 18.045000076 12.250000954 -0.022615001 0.5443469882 1.3129999638 166.61343384 150.75199890 691.37408447 1.1280000210 35.112998962 0.0799999982
 1244.5928955  -999.250000 20.765001297 12.250000954 -0.017526999 0.5974370241 1.2779999971 187.13293457 161.11900330 731.23297119 0.9828500152 34.719001770 0.0799999982
 1244.7452393  -999.250000 21.381999969 12.250000954 -0.023731999 0.6180980206 1.2730000019 194.52754211 149.27099609 731.56799316 0.9604099989 36.905998230 0.0799999982
 1244.8977051  -999.250000 21.382999420 12.250000954 -0.020904001 0.6282230020 1.2719999552 196.45724487 147.42100525 729.08599854 1.0679999590 35.724998474 0.0799999982
 1245.0500488  -999.250000 21.354999542 12.250000954 -0.022159001 0.5550310016 1.2749999762 196.61244202 141.39399719 726.94000244 1.2610000372 34.237998962 0.0799999982
 1245.2025146  -999.250000 21.326000214 12.250000954 -0.019622000 0.5478309989 1.2810000181 194.67381287 144.82000732 730.26599121 1.3420000076 34.062999725 0.0800016001
 1245.3548584  -999.250000 21.326000214 12.250000954 -0.018331001 0.5400230289 1.2849999666 200.78906250 134.13000488 722.05102539 1.3960000277 32.530998230 0.0810016021
 1245.5073242  -999.250000 21.326000214 12.250000954 -0.017276000 0.5702289939 1.2849999666 197.12142944 138.36399841 708.44799805 1.4060000181 35.243999481 0.0829967931
 1245.6596680  -999.250000 21.322999954 12.250000954 -0.020099999 0.5587540269 1.2819999456 198.62399292 135.04899597 702.91101074 1.4249999523 34.719001770 0.0809991956
 1245.8120117  -999.250000 21.326000214 12.250000954 -0.022568000 0.5857419968 1.2799999714 191.12567139 130.69999695 701.04498291 1.3710000515 34.719001770 0.0799999982
 1245.9644775  -999.250000 21.305999756 12.250000954 -0.026719000 0.5786650181 1.2760000229 185.72235107 122.77799988 699.17999268 1.2920000553 34.980998993 0.0799999982
 1246.1168213  -999.250000 21.291999817 12.250000954 -0.028392000 0.6122469902 1.2730000019 193.62545776 119.55299377 700.51800537 1.2410000563 34.762001038 0.0799999982
 1246.2692871  -999.250000 21.283000946 12.250000954 -0.026704000 0.6019780040 1.2779999971 189.20413208 118.62899780 701.85400391 1.1890000105 32.137001038 0.0800048038
 1246.4216309  -999.250000 21.290000916 12.250000954 -0.016590001 0.5723760128 1.3029999733 183.14143372 117.47599792 704.52905273 1.1640000343 31.218999863 0.0859984010
 1246.5740967  -999.250000 21.275999069 12.250000954 -0.006455000 0.5532060266 1.3350000381 188.69108582 116.65200043 703.76800537 1.1970000267 32.355998993 0.0839975923
 1246.7264404  -999.250000 21.250000000 12.250000954 -0.004462000 0.5261650085 1.3500000238 190.03747559 115.07299805 711.04699707 1.2280000448 32.793998718 0.0810016021
 1246.8789063  -999.250000 21.232999802 12.250000954 -0.007172000 0.5588459969 1.3580000401 190.62831116 116.87599945 711.04699707 1.1770000458 32.312999725 0.0829983950
 1247.0312500  -999.250000 21.222999573 12.250000954 -0.007396000 0.5604500175 1.3420000076 195.18750000 124.09700012 704.68200684 1.1000000238 31.350002289 0.0820008069
 1247.1837158  -999.250000 21.200000763 12.250000954 -0.017666001 0.5846229792 1.3200000525 203.28388977 131.27400208 707.33203125 1.0750000477 31.918998718 0.0830032006
 1247.3360596  -999.250000 21.174997330 12.250000954 -0.027573001 0.5909759998 1.2940000296 200.10212708 113.65000153 695.44897461 1.0149999857 32.400001526 0.0849967971
 1247.4885254  -999.250000 21.167001724 12.250000954 -0.016432000 0.5810449719 1.3400000334 206.48861694 147.36999512 686.21697998 0.9850909710 31.087999344 0.0810112059
 1247.6408691  -999.250000 21.142999649 12.250000954 -0.007946000 0.5777410269 1.4259999990 200.62780762 149.94000244 654.12799072 1.0559999943 30.606000900 0.0879967958
 1247.7932129  -999.250000 21.115999222 12.250000954 -0.008508000 0.5792109966 1.4639999866 192.91102600 153.93098450 622.04003906 1.0479999781 29.424999237 0.0839975998
 1247.9456787  -999.250000 21.094999313 12.250000954 -0.008244000 0.6209260225 1.4170000553 192.93708801 154.68499756 697.16699219 1.0659999847 31.393997192 0.0809991956
 1248.0980225  -999.250000 21.075000763 12.250000954 -0.005744000 0.6133090258 1.3359999657 189.30786133 155.66900635 720.40795898 1.0319999456 33.187999725 0.0800007954
 1248.2504883  -999.250000 21.049999237 12.250000954 -0.016971000 0.6217510104 1.2849999666 194.12376404 155.71998596 718.71697998 0.9809700251 32.049999237 0.0810008049
 1248.4028320  -999.250000 21.017002106 12.250000954 -0.019173000 0.5741170049 1.3009999990 193.83383179 155.62098694 717.02697754 0.9862250090 30.343999863 0.0820016041
 1248.5552979  -999.250000 20.978000641 12.250000954 -0.007846000 0.5754140019 1.3960000277 199.87132263 159.44599915 717.15698242 1.0099999905 27.761999130 0.0840120167
 1248.7076416  -999.250000 20.947999954 12.250000954 -0.008223000 0.5620470047 1.4900000095 197.78614807 160.32499695 715.82293701 1.0240000486 26.886999130 0.0989871919
 1248.8601074  -999.250000 20.902000427 12.250000954 -0.006622000 0.5791620016 1.5520000458 196.71479797 159.22500610 714.61999512 1.0089999437 28.986999512 0.0829999968
 1249.0124512  -999.250000 20.851999283 12.250000954 -0.006810000 0.5960289836 1.5030000210 192.72760010 158.96400452 715.75097656 0.9593279958 33.844001770 0.0829983950
 1249.1649170  -999.250000 20.792001724 12.250000954 -0.003151000 0.5581600070 1.4520000219 193.46086121 159.30000305 715.83801270 0.9396579862 33.799999237 0.0810240209
