# LAS format log file from PETREL
# Project units are specified as depth units
#==================================================================
~Version information
VERS.   2.0:
WRAP.   NO:
#==================================================================
~Well
STRT .m      2901.5925293 :
STOP .m      3271.0102539 :
STEP .m     0.00000000 :
NULL .        -999.250000 :
COMP.           : COMPANY
WELL.  35/11-13   : WELL
FLD.            : FIELD
LOC.            : LOCATION
SRVC.           : SERVICE COMPANY
DATE.  2018-09-11 14:48:55   : Log Export Date {yyyy-MM-dd HH:mm:ss}
PROV.           : PROVINCE
UWI.   35/11-13   : UNIQUE WELL ID
API.            : API NUMBER
#==================================================================
~Curve
DEPT .m                   : DEPTH
Lithology_geolink ._      : Lithology_geolink
CALI .in                  : CALI
BS .in                    : BS
ROP .m/h                  : ROP
DRHO .g/cm3               : DRHO
NPHI .m3/m3               : NPHI
RHOB .g/cm3               : RHOB
PEF .b/e                  : PEF
GR .gAPI                  : GR
DTC .us/ft                : DTC
DTS .us/ft                : DTS
RDEP .ohm.m               : RDEP
RMIC .ohm.m               : RMIC
RMED .ohm.m               : RMED
~Parameter
#==================================================================
~Ascii
 2901.5925293 13.000000000 8.5577001572 12.250000954 67.224411011 1.7643001080 0.5228000283  -999.250000  -999.250000 66.324096680 89.222221375 185.04469299 1.8609758615  -999.250000 1.7272499800
 2901.7448730 13.000000000 8.5643997192 12.250000954 66.604331970 1.7643001080 0.5228000283  -999.250000  -999.250000 68.386802673 88.176818848 205.84289551 1.8458445072  -999.250000 1.8828669786
 2901.8974609 13.000000000 8.5555000305 12.250000954 67.329391479 1.7643001080 0.5497000217  -999.250000  -999.250000 74.775703430 88.263397217 189.98379517 1.7488431931  -999.250000 1.7994174957
 2902.0498047 13.000000000 8.5577001572 12.250000954 68.671257019 1.7643001080 0.5471000075  -999.250000  -999.250000 79.818099976 89.510566711 191.44799805 1.6999487877  -999.250000 1.6175240278
 2902.2021484 13.000000000 8.5555000305 12.250000954 71.332023621 1.7643001080 0.5612999797  -999.250000  -999.250000 79.187797546 91.547332764 193.75140381 1.6679582596  -999.250000 1.3208574057
 2902.3544922 13.000000000 8.5643997192 12.250000954 72.650917053 1.7643001080 0.6212096214  -999.250000  -999.250000 81.078697205 93.497741699 205.90550232 1.6419022083  -999.250000 1.2321554422
 2902.5070801 13.000000000 8.5643997192 12.250000954 77.929794312 1.7643001080 0.6893089414  -999.250000  -999.250000 79.660499573 95.336418152 202.67990112 1.5810127258  -999.250000 1.3291504383
 2902.6594238 13.000000000 8.5643997192 12.250000954 81.748687744 1.7643001080 0.6296923161  -999.250000  -999.250000 80.634597778 96.964324951 201.85099792 1.5850256681  -999.250000 1.3760192394
 2902.8117676 13.000000000 8.5643997192 12.250000954 89.386489868 1.7643001080 0.5625467896  -999.250000  -999.250000 78.815299988 97.036674500 192.55619812 1.6010255814  -999.250000 1.3880224228
 2902.9641113 13.000000000 8.5510997772 12.250000954 89.842521667 1.7643001080 0.5293551087  -999.250000  -999.250000 79.603202820 95.585868835 191.06008911 1.6169438362  -999.250000 1.4020464420
 2903.1164551 13.000000000 8.5577001572 12.250000954 90.757873535 1.7643001080 0.5013988614  -999.250000  -999.250000 83.385002136 94.384613037 187.35008240 1.5820000172  -999.250000 1.4310032129
 2903.2690430 13.000000000 8.5643997192 12.250000954 90.777565002 1.7643001080 0.5007848144  -999.250000  -999.250000 86.063697815 93.773155212 181.34950256 1.5819040537  -999.250000 1.4328048229
 2903.4213867 13.000000000 8.5643997192 12.250000954 90.823493958 1.7643001080 0.5272121429  -999.250000  -999.250000 87.839996338 94.973541260 181.28669739 1.5520097017  -999.250000 1.3719871044
 2903.5737305 13.000000000 8.5643997192 12.250000954 83.969818115 1.7643001080 0.5347958207  -999.250000  -999.250000 88.126502991 95.624107361 190.89190674 1.5580272675  -999.250000 1.3639726639
 2903.7260742 13.000000000 8.5577001572 12.250000954 80.541336060 1.7627999783 0.5322031975  -999.250000  -999.250000 88.599197388 97.189910889 174.34939575 1.5749903917  -999.250000 1.3469278812
 2903.8786621 13.000000000 8.5643997192 12.250000954 73.900917053 1.7523000240 0.5342268944  -999.250000  -999.250000 89.630599976 97.065490723 183.11920166 1.5689232349  -999.250000 1.3017504215
 2904.0310059 13.000000000 8.5643997192 12.250000954 70.580711365 1.7484999895 0.5426514149  -999.250000  -999.250000 93.727500916 97.005470276  -999.250000 1.5449919701  -999.250000 1.2238541842
 2904.1833496 13.000000000 8.5643997192 12.250000954 77.181755066 1.7460000515 0.5746597648  -999.250000  -999.250000 90.160598755 100.91366577  -999.250000 1.5399278402  -999.250000 1.1331522465
 2904.3356934 13.000000000 8.5643997192 12.250000954 80.485565186 1.7558000088 0.5496762991  -999.250000  -999.250000 94.443801880 101.70938873  -999.250000 1.4952099323  -999.250000 1.2279759645
 2904.4882813 13.000000000 8.5643997192 12.250000954 72.007873535 1.7712999582 0.5974153280  -999.250000  -999.250000 94.701599121 104.45222473  -999.250000 1.6260224581  -999.250000 1.2133072615
 2904.6406250 13.000000000 8.5643997192 12.250000954 67.769027710 1.7891000509 0.6646354198  -999.250000  -999.250000 102.05030060 107.01741791  -999.250000 1.6330304146  -999.250000 1.3091522455
 2904.7929688 13.000000000 8.5555000305 12.250000954 65.022964478 1.7970000505 0.7488413453  -999.250000  -999.250000 102.68049622 109.08318329  -999.250000 1.6521713734  -999.250000 1.4046186209
 2904.9453125 13.000000000 8.5643997192 12.250000954 64.721130371 1.7960000038 0.6499696970  -999.250000  -999.250000 102.33670044 109.25909424  -999.250000 1.7591024637  -999.250000 1.7899069786
 2905.0976563 13.000000000 8.5555000305 12.250000954 66.860237122 1.7946000099 0.6310915351  -999.250000  -999.250000 99.815597534 110.25249481  -999.250000 1.8230479956  -999.250000 1.7319166660
 2905.2502441 13.000000000 8.5466995239 12.250000954 67.903549194 1.7908999920 0.6257523298  -999.250000  -999.250000 93.827796936 109.93043518  -999.250000 1.8524528742  -999.250000 1.6791934967
 2905.4025879 13.000000000 8.5555000305 12.250000954 69.986877441 1.7898999453 0.6109331846  -999.250000  -999.250000 90.905502319 107.13963318  -999.250000 1.6819407940  -999.250000 1.4279919863
 2905.5549316 13.000000000 8.5555000305 12.250000954 70.685699463 1.7960000038 0.6315976381  -999.250000  -999.250000 87.753997803 107.84676361  -999.250000 1.6450047493  -999.250000 1.4228862524
 2905.7072754 13.000000000 8.5643997192 12.250000954 72.086616516 1.8121999502 0.6301416755  -999.250000  -999.250000 87.453201294 106.57788086  -999.250000 1.6480064392  -999.250000 1.3518493176
 2905.8598633 13.000000000 8.5466995239 12.250000954 73.520339966 1.8233000040 0.6559659243  -999.250000  -999.250000 87.625099182 106.25424194  -999.250000 1.6516799927  -999.250000 1.2581375837
 2906.0122070 13.000000000 8.5466995239 12.250000954 76.391075134 1.8289999962 0.6141999960  -999.250000  -999.250000 92.653099060 105.61672211  -999.250000 1.5520144701  -999.250000 1.3009390831
 2906.1645508 13.000000000 8.5466995239 12.250000954 73.996063232 1.8294999599 0.6142831445  -999.250000  -999.250000 89.329803467 106.07166290  -999.250000 1.5609679222  -999.250000 1.2629214525
 2906.3168945 13.000000000 8.5555000305 12.250000954 69.206039429 1.8322999477 0.6660895944  -999.250000  -999.250000 90.905502319 106.73360443  -999.250000 1.5409711599  -999.250000 1.2140496969
 2906.4694824 13.000000000 8.5510997772 12.250000954 66.571525574 1.8375999928 0.6596793532  -999.250000  -999.250000 86.264297485 108.35498810  -999.250000 1.5230575800  -999.250000 1.2450256348
 2906.6218262 13.000000000 8.5466995239 12.250000954 61.299213409 1.8380999565 0.6843559742  -999.250000  -999.250000 94.142898560 107.91554260  -999.250000 1.5410256386  -999.250000 1.2529903650
 2906.7741699 13.000000000 8.5555000305 12.250000954 62.762462616 1.8181999922 0.6569153666  -999.250000  -999.250000 89.415702820 108.62826538  -999.250000 1.5570288897  -999.250000 1.2470223904
 2906.9265137 13.000000000 8.5555000305 12.250000954 63.490810394 1.7618000507 0.6665153503  -999.250000  -999.250000 93.025596619 108.79372406  -999.250000 1.5750577450  -999.250000 1.2611714602
 2907.0788574 13.000000000 8.5466995239 12.250000954 61.643699646 1.7196999788 0.6760410666  -999.250000  -999.250000 90.189300537 108.80620575  -999.250000 1.6110047102  -999.250000 1.3680497408
 2907.2314453 13.000000000 8.5466995239 12.250000954 60.718505859 1.7020000219 0.6395553350  -999.250000  -999.250000 91.793701172 108.61687469  -999.250000 1.6139807701  -999.250000 1.3991632462
 2907.3837891 13.000000000 8.5510997772 12.250000954 61.538711548 1.7094999552 0.7192043066  -999.250000  -999.250000 90.318199158 108.05046844  -999.250000 1.6080112457  -999.250000 1.4498605728
 2907.5361328 13.000000000 8.5555000305 12.250000954 61.948814392 1.7460999489 0.7842306495  -999.250000  -999.250000 89.802497864 109.83769226  -999.250000 1.6149663925  -999.250000 1.3629167080
 2907.6884766 13.000000000 8.5466995239 12.250000954 58.146320343 1.8075000048 0.8031008244  -999.250000  -999.250000 92.452598572 110.95708466  -999.250000 1.5939487219  -999.250000 1.3110945225
