# LAS format log file from PETREL
# Project units are specified as depth units
#==================================================================
~Version information
VERS.   2.0:
WRAP.   NO:
#==================================================================
~Well
STRT .m      998.18890381 :
STOP .m      3019.4697266 :
STEP .m     0.00000000 :
NULL .        -999.250000 :
COMP.           : COMPANY
WELL.  35/12-1   : WELL
FLD.            : FIELD
LOC.            : LOCATION
SRVC.           : SERVICE COMPANY
DATE.  2018-09-11 14:48:57   : Log Export Date {yyyy-MM-dd HH:mm:ss}
PROV.           : PROVINCE
UWI.   35/12-1   : UNIQUE WELL ID
API.            : API NUMBER
#==================================================================
~Curve
DEPT .m                   : DEPTH
Lithology_geolink ._      : Lithology_geolink
CALI .in                  : CALI
BS .in                    : BS
DRHO .g/cm3               : DRHO
NPHI .m3/m3               : NPHI
RHOB .g/cm3               : RHOB
PEF .b/e                  : PEF
GR .gAPI                  : GR
DTC .us/ft                : DTC
RDEP .ohm.m               : RDEP
SP .mV                    : SP
RSHA .ohm.m               : RSHA
RMIC .ohm.m               : RMIC
RMED .ohm.m               : RMED
~Parameter
#==================================================================
~Ascii
# ...
 2878.9570313 2.0000000000 11.968999863 12.250000954 0.0120000001 0.2059839815 2.4079999924 5.2589998245 89.375015259 77.281997681 1.7809615135 -80.17561340 1.4581682682 1.2193670273 0.0309999995
 2879.1093750 2.0000000000 11.967000961 12.250000954 0.0130000003 0.2040064037 2.3900001049 5.1770000458 89.601631165 78.388000488 1.6498384476 -80.43434906 1.3944032192 0.7197980881 0.0309999995
 2879.2617188 2.0000000000 11.961999893 12.250000954 0.0130000003 0.2109663934 2.3719999790 5.0219998360 89.938461304 79.002998352 1.5446730852 -78.68629456 1.4248012304 0.7589359283 0.0309999995
 2879.4140625 2.0000000000 11.961999893 12.250000954 0.0120000001 0.2219471186 2.3719999790 4.8489999771 88.998023987 79.245002747 1.4655064344 -77.80063629 1.4736858606 0.7081632018 0.0309999995
 2879.5666504 2.0000000000 11.968999863 12.250000954 0.0099999998 0.2140256464 2.3880000114 4.8600001335 89.789726257 79.626998901 1.4570385218 -77.23371124 1.5068413019 0.7619134784 0.0309999995
 2879.7189941 2.0000000000 11.974000931 12.250000954 0.0070000002 0.2189839780 2.3970000744 4.8870000839 87.488693237 78.680999756 1.4769037962 -77.86991119 1.5179470778 0.9207451940 0.0309999995
 2879.8713379 2.0000000000 11.968999863 12.250000954 0.0040000002 0.2209935933 2.3970000744 4.9200000763 85.794715881 77.780998230 1.4849488735 -78.84474182 1.5189936161 0.9998733997 0.0309999995
 2880.0236816 2.0000000000 11.963998795 12.250000954 0.0030000000 0.2130383998 2.3940000534 4.8819999695 87.398841858 77.332000732 1.5505769253 -78.90862274 1.5120447874 0.9182623625 0.0309999995
 2880.1762695 2.0000000000 11.968000412 12.250000954 0.0040000002 0.1880801171 2.3929998875 4.7659997940 88.544166565 77.115997314 1.7938269377 -78.19744110 1.5368797779 1.0368092060 0.0309999995
 2880.3286133 2.0000000000 11.968999863 12.250000954 0.0060000001 0.1481282115 2.3949999809 4.6300001144 86.810783386 76.694000244 2.2955818176 -77.25354004 1.7778365612 0.9571282268 0.0309999995
 2880.4809570 2.0000000000 11.967000961 12.250000954 0.0080000004 0.1240769178 2.3980000019 4.6729998589 81.321807861 74.468002319 2.9249615669 -78.46019745 2.4457056522 0.8611538410 0.0309999995
 2880.6333008 4.0000000000 11.961000443 12.250000954 0.0089999996 0.1001152024 2.3940000534 4.7820000648 75.540267944 69.412002563 3.4595770836 -78.98069000 3.3064744473 0.8759759665 0.0309999995
 2880.7856445 4.0000000000 11.975999832 12.250000954 0.0099999998 0.0791009665 2.4189999104 4.9000000954 72.706069946 63.172000885 3.9289934635 -78.81806946 3.9200768471 3.4786448479 0.0309999995
 2880.9382324 4.0000000000 12.067000389 12.250000954 0.0170000009 0.0670384616 2.4939999580 4.7709999084 72.998519897 59.194999695 4.4495000839 -79.20910645 4.8137016296 16.969358444 0.0309999995
 2881.0905762 4.0000000000 12.126999855 12.250000954 0.0299999993 0.0829487145 2.5989999771 5.0120000839 74.920921326 56.889999390 5.6383581161 -79.49417877 6.8916435242 35.345539093 0.0309999995
 2881.2429199 4.0000000000 12.074999809 12.250000954 0.0419999994 0.1208176017 2.6600000858 5.7290000916 76.964729309 56.193000793 8.1806468964 -80.15276337 11.731858253 52.226951599 0.0309999995
 2881.3952637 4.0000000000 12.034000397 12.250000954 0.0410000011 0.1637932807 2.6300001144 6.6770000458 78.919738770 56.874000549 11.243345261 -80.75812531 15.630050659 50.841537476 0.0309999995
 2881.5478516 4.0000000000 12.034999847 12.250000954 0.0450000018 0.1889198720 2.5889999866 7.2979998589 84.062751770 59.422000885 11.103769302 -81.05259705 11.823510170 40.617404938 0.0309999995
 2881.7001953 4.0000000000 12.031000137 12.250000954 0.0560000017 0.2129230797 2.5639998913 7.4289999008 92.938766479 64.014999390 10.018239975 -81.02015686 7.5933461189 27.200510025 0.0309999995
 2881.8525391 5.0000000000 12.026000023 12.250000954 0.0740000010 0.2149904072 2.5710000992 7.4450001717 101.99748230 67.225997925 9.0571565628 -81.19983673 6.2972178459 33.161399841 0.0309999995
 2882.0048828 5.0000000000 12.036000252 12.250000954 0.0860000029 0.2259471118 2.5880000591 7.4720001221 108.44136047 68.448997498 8.1796216965 -81.92333984 6.4340639114 9.2816915512 0.0309999995
 2882.1574707 5.0000000000 12.100999832 12.250000954 0.0909999982 0.2160320580 2.6229999065 7.3379998207 110.10136414 67.454002380 7.3380384445 -81.44334412 7.3386344910 4.4266700745 0.0309999995
 2882.3098145 5.0000000000 12.296999931 12.250000954 0.0939999968 0.2060320526 2.6809999943 7.6160001755 108.84901428 65.992996216 7.0404181480 -80.64086914 10.203183174 10.503233910 0.0309999995
 2882.4621582 5.0000000000 12.348999023 12.250000954 0.1019999981 0.2189583331 2.7390000820 7.5869998932 107.64691925 65.236000061 7.4881072044 -80.96389771 16.665464401 10.743630409 0.0309999995
 2882.6145020 5.0000000000 12.216000557 12.250000954 0.0989999995 0.2329327911 2.7139999866 7.0219998360 105.49745178 64.463996887 8.9466094971 -81.50054932 15.570333481 8.1681337357 0.0309999995
 2882.7668457 5.0000000000 12.170999527 12.250000954 0.0900000036 0.2738028765 2.6549999714 6.1690001488 104.00976563 64.222000122 10.969013214 -80.45973969 8.5542173386 12.292745590 0.0309999995
 2882.9194336 5.0000000000 12.177000046 12.250000954 0.0820000023 0.2969262600 2.6119999886 5.6380000114 105.16613770 65.386001587 12.686763763 -79.85887146 6.5823078156 20.268218994 0.0309999995
 2883.0717773 5.0000000000 12.178001404 12.250000954 0.0850000009 0.3199262619 2.6189999580 5.4600000381 107.69194794 67.107002258 14.082065582 -80.63994598 6.6107568741 20.843097687 0.0309999995
 2883.2241211 6.0000000000 12.171998978 12.250000954 0.0860000029 0.3239808083 2.6329998970 5.2659997940 113.67539978 69.616996765 15.082602501 -80.83477783 6.7600388527 14.548106194 0.0309999995
 2883.3764648 6.0000000000 12.161001205 12.250000954 0.0780000016 0.3090721071 2.6270000935 4.9349999428 119.18035889 70.175003052 15.669257164 -78.32221985 7.9572820663 24.285707474 0.0309999995
 2883.5290527 5.0000000000 12.145999908 12.250000954 0.0689999983 0.3109935820 2.6329998970 4.7899999619 122.97693634 69.624000549 15.614283562 -79.85650635 13.051427841 22.799436569 0.0309999995
 2883.6813965 5.0000000000 12.145999908 12.250000954 0.0659999996 0.3119967878 2.6519999504 4.7930002213 123.67588806 70.136001587 15.347715378 -80.22566986 43.239707947 23.607698441 0.0309999995
 2883.8337402 5.0000000000 12.142000198 12.250000954 0.0630000010 0.3129951954 2.6710000038 4.9299998283 123.09294128 70.908996582 15.323147774 -81.05764771 3303.5817871 30.229373932 0.0309999995
 2883.9860840 5.0000000000 12.138999939 12.250000954 0.0520000011 0.3239471018 2.6659998894 4.7239999771 121.52502441 72.081001282 14.038288116 -80.99842072 16694.919922 34.717624664 0.0309999995
 2884.1386719 5.0000000000 12.125000000 12.250000954 0.0390000008 0.3479230702 2.6480000019 4.6479997635 120.64141083 71.876998901 12.945240021 -80.94525146 19984.525391 26.929523468 0.0309999995
 2884.2910156 5.0000000000 12.089999199 12.250000954 0.0320000015 0.3440128267 2.6310000420 4.6770000458 119.74942780 71.887001038 12.360797882 -81.19876862 16815.423828 29.582721710 0.0309999995
 2884.4433594 5.0000000000 12.072999001 12.250000954 0.0340000018 0.2851890922 2.6250000000 4.7820000648 118.25240326 71.502998352 11.078243256 -81.46231079 3411.5363770 28.374944687 0.0309999995
 2884.5957031 5.0000000000 12.069001198 12.250000954 0.0379999988 0.2123503983 2.6199998856 4.8070001602 114.64778137 70.825996399 9.2845191956 -81.69649506 70.235404968 32.155925751 0.0309999995
 2884.7480469 5.0000000000 12.055000305 12.250000954 0.0410000011 0.1771682650 2.6129999161 4.8359999657 114.06086731 71.208999634 8.1114940643 -80.20463562 21.922212601 37.376262665 0.0309999995
 2884.9006348 6.0000000000 12.010999680 12.250000954 0.0399999991 0.1620480716 2.5710000992 5.2350001335 118.10450745 72.570999146 7.4282646179 -80.88566589 11.324346542 30.127660751 0.0309999995
 2885.0529785 6.0000000000 11.982000351 12.250000954 0.0350000001 0.1719679534 2.5199999809 5.6360001564 123.55027008 73.552001953 7.1875295639 -81.37586212 7.4079022408 7.4184327126 0.0309999995
