# LAS format log file from PETREL
# Project units are specified as depth units
#==================================================================
~Version information
VERS.   2.0:
WRAP.   NO:
#==================================================================
~Well
STRT .m      2818.0771484 :
STOP .m      3213.0979004 :
STEP .m     0.00000000 :
NULL .        -999.250000 :
COMP.           : COMPANY
WELL.  35/11-15 S   : WELL
FLD.            : FIELD
LOC.            : LOCATION
SRVC.           : SERVICE COMPANY
DATE.  2018-09-11 14:48:55   : Log Export Date {yyyy-MM-dd HH:mm:ss}
PROV.           : PROVINCE
UWI.   35/11-15 S   : UNIQUE WELL ID
API.            : API NUMBER
#==================================================================
~Curve
DEPT .m                   : DEPTH
Lithology_geolink ._      : Lithology_geolink
CALI .in                  : CALI
BS .in                    : BS
ROP .m/h                  : ROP
DRHO .g/cm3               : DRHO
THOR .ppm                 : THOR
SGR .gAPI                 : SGR
RHOB .g/cm3               : RHOB
PEF .b/e                  : PEF
GR .gAPI                  : GR
URAN .ppm                 : URAN
DTC .us/ft                : DTC
DTS .us/ft                : DTS
RDEP .ohm.m               : RDEP
RMIC .ohm.m               : RMIC
RMED .ohm.m               : RMED
~Parameter
#==================================================================
~Ascii
# ...
 3207.1542969  -999.250000 8.5461997986 8.5000000000 117532.18750 -0.078701764  -999.250000  -999.250000 2.5982964039 4.8002910614 111.17898560  -999.250000 70.727302551 122.90910339 22.524341583 54.731266022 22.634300232
 3207.3066406  -999.250000 8.5432996750 8.5000000000 107831.96094 -0.075505123  -999.250000  -999.250000 2.5982003212 4.8127799034 108.55951691  -999.250000 70.545791626 122.45449829 22.614156723 54.587429047 22.647399902
 3207.4589844  -999.250000 8.5489997864 8.5000000000 103276.25781 -0.072609283  -999.250000  -999.250000 2.5974025726 4.8336334229 104.10597992  -999.250000 70.001747131 122.18180084 23.016307831 54.703125000 23.334499359
 3207.6115723  -999.250000 8.5432996750 8.5000000000 103002.17969 -0.071701445  -999.250000  -999.250000 2.5986979008 4.8254132271 94.430213928  -999.250000 69.727737427 122.00000000 23.521591187 54.772487640 23.673099518
 3207.7639160  -999.250000 8.5439996719 8.5000000000 102857.27344 -0.073696800  -999.250000  -999.250000 2.6006968021 4.8179121017 90.604316711  -999.250000 69.545791626 121.81819153 23.943624496 53.294174194 23.687299728
 3207.9162598  -999.250000 8.5432996750 8.5000000000 104431.67188 -0.073700003  -999.250000  -999.250000 2.6029963493 4.8052206039 87.540306091  -999.250000 69.000877380 121.63639832 24.295038223 49.205856323 24.282199860
 3208.0686035  -999.250000 8.5465002060 8.5000000000 106759.53125 -0.071407363  -999.250000  -999.250000 2.6028006077 4.7847657204 93.120674133  -999.250000 69.000000000 122.00000000 24.453294754 47.073825836 25.063100815
 3208.2211914  -999.250000 8.5439996719 8.5000000000 104831.87500 -0.067406408  -999.250000  -999.250000 2.6078917980 4.7258944511 97.522666931  -999.250000 69.544624329 122.36360168 24.552442551 45.711273193 25.651500702
 3208.3735352  -999.250000 8.5389995575 8.5000000000 101724.78906 -0.065303370  -999.250000  -999.250000 2.6119933128 4.6889591217 105.05152130  -999.250000 69.545501709 122.36360168 24.529436111 44.598979950 25.237699509
 3208.5258789  -999.250000 8.5461997986 8.5000000000 99226.476563 -0.067097120  -999.250000  -999.250000 2.6175909042 4.7187523842 103.28695679  -999.250000 69.545501709  -999.250000 24.625644684 47.028797150 25.570100784
 3208.6782227  -999.250000 8.5465002060 8.5000000000 94962.593750 -0.072591186  -999.250000  -999.250000 2.6158027649 4.7426619530 96.394462585  -999.250000 69.727012634  -999.250000 24.317693710 49.162883759 25.324300766
 3208.8305664  -999.250000 8.5489997864 8.5000000000 89401.867188 -0.079079196  -999.250000  -999.250000 2.6101183891 4.7697134018 98.917068481  -999.250000 69.817909241  -999.250000 24.341321945 49.443805695 25.349100113
 3208.9831543  -999.250000 8.5545997620 8.5000000000 88340.273438 -0.082095191  -999.250000  -999.250000 2.6021127701 4.8047437668 102.89232635  -999.250000 69.818199158  -999.250000 24.366659164 47.901576996 25.174200058
 3209.1354980  -999.250000 8.5545997620 8.5000000000 90530.000000 -0.082099997  -999.250000  -999.250000 2.5973076820 4.8021044731 99.897911072  -999.250000 69.999710083  -999.250000 24.355916977 46.109973907 24.889200211
 3209.2878418  -999.250000 8.5658998489 8.5000000000 91708.835938 -0.080502562  -999.250000  -999.250000 2.5982983112 4.8165764809 99.363746643  -999.250000 70.181510925  -999.250000 24.291202545 45.371578217 25.057699203
 3209.4401855  -999.250000 8.5515003204 8.5000000000 96128.140625 -0.081696160  -999.250000  -999.250000 2.6022872925 4.8154039383 103.26477051  -999.250000 70.363021851  -999.250000 24.300369263 46.743488312 24.997499466
 3209.5927734  -999.250000 8.5539999008 8.5000000000 98116.265625 -0.084395669  -999.250000  -999.250000 2.6081907749 4.8142018318 106.06443024  -999.250000 70.545211792  -999.250000 24.547603607 50.444267273 24.813600540
 3209.7451172  -999.250000 8.5539999008 8.5000000000 105977.50781 -0.085897595  -999.250000  -999.250000 2.6078007221 4.7910370827 105.87241364  -999.250000 70.363891602  -999.250000 24.627471924 51.818202972 24.933399200
 3209.8974609  -999.250000 8.5565004349 8.5000000000 113678.53125 -0.085600488  -999.250000  -999.250000 2.6062026024 4.7825136185 99.398788452  -999.250000 70.545211792  -999.250000 24.495811462 49.910766602 25.037200928
 3210.0498047  -999.250000 8.5574998856 8.5000000000 110868.48438 -0.081812158  -999.250000  -999.250000 2.6006178856 4.8037319183 101.50889587  -999.250000 70.545501709  -999.250000 24.195861816 48.125720978 24.812099457
 3210.2023926  -999.250000 8.5640001297 8.5000000000 95826.601563 -0.079004489  -999.250000  -999.250000 2.5997014046 4.8140830994 102.10495758  -999.250000 70.545501709  -999.250000 23.995321274 43.574596405 24.661300659
 3210.3547363  -999.250000 8.5790996552 8.5000000000 68001.117188 -0.076304331  -999.250000  -999.250000 2.5964050293 4.7744636536 95.925819397  -999.250000 70.182380676  -999.250000 23.985216141 40.943710327 24.444299698
 3210.5070801  -999.250000 8.5799999237 8.5000000000 46735.917969 -0.073804006  -999.250000  -999.250000 2.5987961292 4.7099032402 104.33348846  -999.250000 70.181800842  -999.250000 23.817268372 40.130798340 24.537500381
 3210.6594238  -999.250000 8.5829000473 8.5000000000 32115.958984 -0.069806404  -999.250000  -999.250000 2.6042912006 4.6586818695 101.05249023  -999.250000 70.181800842  -999.250000 23.664045334 39.112731934 24.374200821
 3210.8117676  -999.250000 8.5799999237 8.5000000000 24637.320313 -0.065613441  -999.250000  -999.250000 2.6130719185 4.6559085846 99.999664307  -999.250000  -999.250000  -999.250000 23.858076096 41.117259979 24.285400391
 3210.9643555  -999.250000 8.5743999481 8.5000000000 23607.000000 -0.062205449  -999.250000  -999.250000 2.6131997108 4.6479129791 100.31149292  -999.250000  -999.250000  -999.250000 23.710237503 42.922611237 24.211000443
 3211.1166992  -999.250000 8.5747995377 8.5000000000 29163.238281 -0.063198395  -999.250000  -999.250000 2.6115026474 4.6375164986 100.55400848  -999.250000  -999.250000  -999.250000 23.464992523 47.014736176 24.236000061
 3211.2690430  -999.250000 8.5799999237 8.5000000000 39128.042969 -0.065496311  -999.250000  -999.250000 2.6108012199 4.6421923637 102.17140961  -999.250000  -999.250000  -999.250000 23.341398239 48.531772614 24.030199051
 3211.4213867  -999.250000 8.5771999359 8.5000000000 46561.320313 -0.066895522  -999.250000  -999.250000 2.6131923199 4.7286224365 93.952194214  -999.250000  -999.250000  -999.250000 23.392734528 49.523124695 23.879400253
 3211.5739746  -999.250000 8.5885000229 8.5000000000 53661.960938 -0.065202728  -999.250000  -999.250000 2.6084077358 4.7539601326 88.227249146  -999.250000  -999.250000  -999.250000 23.078504562 47.894420624 24.025999069
 3211.7263184  -999.250000 8.5885000229 8.5000000000 51947.640625 -0.063003525  -999.250000  -999.250000 2.5985159874 4.7186565399 96.767578125  -999.250000  -999.250000  -999.250000 22.989641190 39.742279053 23.849599838
 3211.8786621  -999.250000 8.5766000748 8.5000000000 39893.761719 -0.064797118  -999.250000  -999.250000 2.5967028141 4.6916432381 103.56820679  -999.250000  -999.250000  -999.250000 22.748586655 31.801824570 23.529399872
 3212.0310059  -999.250000 8.5715999603 8.5000000000 34725.238281 -0.069883682  -999.250000  -999.250000 2.6004879475 4.6690726280 104.61647034  -999.250000  -999.250000  -999.250000 22.594293594 27.875463486 23.027900696
 3212.1835938  -999.250000 8.5743999481 8.5000000000 36973.441406 -0.074492633  -999.250000  -999.250000 2.6076886654 4.7033448219 97.329200745  -999.250000  -999.250000  -999.250000 22.382339478 25.835056305 23.032300949
 3212.3359375  -999.250000 8.5715999603 8.5000000000 48530.878906 -0.075398557  -999.250000  -999.250000 2.6077997684 4.6994061470 101.30609894  -999.250000  -999.250000  -999.250000 22.033161163 24.646303177 22.718700409
 3212.4882813  -999.250000 8.5630998611 8.5000000000 66949.554688 -0.074501447  -999.250000  -999.250000 2.6075005531 4.6971039772 101.16383362  -999.250000  -999.250000  -999.250000 21.822437286 23.910379410 22.182899475
 3212.6406250  -999.250000 8.5665998459 8.5000000000 76743.000000 -0.074500002  -999.250000  -999.250000 2.6055030823 4.7140727043 100.82993317  -999.250000  -999.250000  -999.250000 21.467370987 23.468606949 21.833299637
