# LAS format log file from PETREL
# Project units are specified as depth units
#==================================================================
~Version information
VERS.   2.0:
WRAP.   NO:
#==================================================================
~Well
STRT .m      359.96881104 :
STOP .m      3380.8413086 :
STEP .m     0.00000000 :
NULL .        -999.250000 :
COMP.           : COMPANY
WELL.  35/11-12   : WELL
FLD.            : FIELD
LOC.            : LOCATION
SRVC.           : SERVICE COMPANY
DATE.  2018-09-11 14:48:55   : Log Export Date {yyyy-MM-dd HH:mm:ss}
PROV.           : PROVINCE
UWI.   35/11-12   : UNIQUE WELL ID
API.            : API NUMBER
#==================================================================
~Curve
DEPT .m                   : DEPTH
Lithology_geolink ._      : Lithology_geolink
CALI .in                  : CALI
BS .in                    : BS
ROP .m/h                  : ROP
DRHO .g/cm3               : DRHO
NPHI .m3/m3               : NPHI
RHOB .g/cm3               : RHOB
PEF .b/e                  : PEF
GR .gAPI                  : GR
DTC .us/ft                : DTC
RDEP .ohm.m               : RDEP
RMED .ohm.m               : RMED
~Parameter
#==================================================================
~Ascii
# ...
 2715.4628906 12.000000000  -999.250000 12.250000954 98.326766968  -999.250000  -999.250000  -999.250000  -999.250000 161.61367798 100.49200439 1.2625026703 1.2125010490
 2715.6154785 12.000000000  -999.250000 12.250000954 99.835960388  -999.250000  -999.250000  -999.250000  -999.250000 163.24835205 100.93901062 1.2357442379 1.2260057926
 2715.7678223 12.000000000  -999.250000 12.250000954 99.212593079  -999.250000  -999.250000  -999.250000  -999.250000 164.45578003 100.96800232 1.2619559765 1.2122473717
 2715.9201660 12.000000000  -999.250000 12.250000954 101.41075897  -999.250000  -999.250000  -999.250000  -999.250000 168.29513550 100.52799988 1.2683732510 1.1914565563
 2716.0725098 12.000000000  -999.250000 12.250000954 104.13385010  -999.250000  -999.250000  -999.250000  -999.250000 167.61871338 99.910003662 1.2512948513 1.1616773605
 2716.2250977 12.000000000  -999.250000 12.250000954 110.49868774  -999.250000  -999.250000  -999.250000  -999.250000 168.27658081 99.579010010 1.2435951233 1.1475257874
 2716.3774414 12.000000000  -999.250000 12.250000954 112.23753357  -999.250000  -999.250000  -999.250000  -999.250000 168.40975952 99.628005981 1.2596421242 1.1527736187
 2716.5297852 12.000000000  -999.250000 12.250000954 117.61809540  -999.250000  -999.250000  -999.250000  -999.250000 167.60269165 99.757003784 1.2147450447 1.2012112141
 2716.6821289 12.000000000  -999.250000 12.250000954 115.58397675  -999.250000  -999.250000  -999.250000  -999.250000 166.49075317 99.898010254 1.2637739182 1.1906595230
 2716.8344727 12.000000000  -999.250000 12.250000954 110.92518616  -999.250000  -999.250000  -999.250000  -999.250000 162.93557739 100.12400818 1.2545795441 1.1818702221
 2716.9870605 12.000000000  -999.250000 12.250000954 108.26771545  -999.250000  -999.250000  -999.250000  -999.250000 163.52038574 100.41000366 1.2399666309 1.1838645935
 2717.1394043 12.000000000  -999.250000 12.250000954 106.82414246  -999.250000  -999.250000  -999.250000  -999.250000 160.67507935 100.75399780 1.2068996429 1.1780583858
 2717.2917480 12.000000000  -999.250000 12.250000954 103.14961243  -999.250000  -999.250000  -999.250000  -999.250000 161.40176392 101.13900757 1.2075281143 1.1659889221
 2717.4440918 12.000000000  -999.250000 12.250000954 99.311027527  -999.250000  -999.250000  -999.250000  -999.250000 162.79367065 101.44300842 1.2005767822 1.1466677189
 2717.5966797 12.000000000  -999.250000 12.250000954 99.278213501  -999.250000  -999.250000  -999.250000  -999.250000 166.64566040 101.54400635 1.2219066620 1.1243982315
 2717.7490234 12.000000000  -999.250000 12.250000954 96.587921143  -999.250000  -999.250000  -999.250000  -999.250000 166.86602783 101.44300842 1.1955564022 1.1249289513
 2717.9013672 12.000000000  -999.250000 12.250000954 88.517059326  -999.250000  -999.250000  -999.250000  -999.250000 165.65405273 101.09899902 1.1759345531 1.1280622482
 2718.0537109 12.000000000  -999.250000 12.250000954 87.729652405  -999.250000  -999.250000  -999.250000  -999.250000 162.14889526 100.07600403 1.1462934017 1.1167111397
 2718.2062988 12.000000000  -999.250000 12.250000954 91.765083313  -999.250000  -999.250000  -999.250000  -999.250000 161.64138794 97.986007690 1.2350761890 1.1185605526
 2718.3586426 12.000000000  -999.250000 12.250000954 95.898948669  -999.250000  -999.250000  -999.250000  -999.250000 162.16867065 94.964996338 1.2897660732 1.1108446121
 2718.5109863 12.000000000  -999.250000 12.250000954 100.52493286  -999.250000  -999.250000  -999.250000  -999.250000 161.53649902 91.630996704 1.3316941261 1.1917183399
 2718.6633301 12.000000000  -999.250000 12.250000954 103.01836395  -999.250000  -999.250000  -999.250000  -999.250000 163.08978271 88.917999268 1.4891464710 1.3944487572
 2718.8156738 12.000000000  -999.250000 12.250000954 105.44618988  -999.250000  -999.250000  -999.250000  -999.250000 158.66522217 87.352005005 1.5419125557 1.4561116695
 2718.9682617 12.000000000  -999.250000 12.250000954 106.46324921  -999.250000  -999.250000  -999.250000  -999.250000 153.18380737 86.783996582 1.7665557861 1.9838335514
 2719.1206055 12.000000000  -999.250000 12.250000954 104.88844299  -999.250000  -999.250000  -999.250000  -999.250000 149.13058472 86.900009155 1.8766684532 2.2571120262
 2719.2729492 12.000000000  -999.250000 12.250000954 107.51311493  -999.250000  -999.250000  -999.250000  -999.250000 148.46911621 87.754997253 1.9031367302 2.1377973557
 2719.4252930 12.000000000  -999.250000 12.250000954 124.34384155  -999.250000  -999.250000  -999.250000  -999.250000 152.00088501 89.382003784 1.9598069191 1.8605036736
 2719.5778809 12.000000000  -999.250000 12.250000954 113.51705170  -999.250000  -999.250000  -999.250000  -999.250000 154.24017334 91.451004028 1.8857972622 2.2588777542
 2719.7302246 12.000000000  -999.250000 12.250000954 100.26245880  -999.250000  -999.250000  -999.250000  -999.250000 155.05953979 92.537002563 1.8883965015 2.0529208183
 2719.8825684 12.000000000  -999.250000 12.250000954 99.704719543  -999.250000  -999.250000  -999.250000  -999.250000 155.00189209 91.139007568 1.8759400845 1.4905071259
 2720.0349121 12.000000000  -999.250000 12.250000954 99.048553467  -999.250000  -999.250000  -999.250000  -999.250000 154.20272827 87.611007690 1.8382058144 1.4333009720
 2720.1875000 12.000000000  -999.250000 12.250000954 92.782157898  -999.250000  -999.250000  -999.250000  -999.250000 154.27960205 83.014999390 1.8509588242 1.5840418339
 2720.3398438 12.000000000  -999.250000 12.250000954 93.602355957  -999.250000  -999.250000  -999.250000  -999.250000 144.82266235 79.541007996 2.0617637634 1.9812572002
 2720.4921875 12.000000000  -999.250000 12.250000954 98.195541382  -999.250000  -999.250000  -999.250000  -999.250000 132.46984863 78.884002686 2.0891032219 2.5292491913
 2720.6445313 12.000000000  -999.250000 12.250000954 102.88713837  -999.250000  -999.250000  -999.250000  -999.250000 121.75265503 80.285003662 2.0880794525 2.8444418907
 2720.7968750 12.000000000  -999.250000 12.250000954 101.21390533  -999.250000  -999.250000  -999.250000  -999.250000 124.42144775 82.249008179 2.2519350052 2.6507520676
 2720.9494629 12.000000000  -999.250000 12.250000954 81.988182068  -999.250000  -999.250000  -999.250000  -999.250000 126.31056213 83.008003235 2.2611236572 2.2836108208
 2721.1018066 12.000000000  -999.250000 12.250000954 80.282142639  -999.250000  -999.250000  -999.250000  -999.250000 125.16784668 82.197006226 2.2201766968 1.9255628586
 2721.2541504 12.000000000  -999.250000 12.250000954 76.115486145  -999.250000  -999.250000  -999.250000  -999.250000 124.05749512 80.415000916 2.4009060860 1.9944677353
 2721.4064941 12.000000000  -999.250000 12.250000954 67.880577087  -999.250000  -999.250000  -999.250000  -999.250000 124.19671631 77.977996826 2.3807749748 2.2791814804
 2721.5590820 12.000000000  -999.250000 12.250000954 64.337272644  -999.250000  -999.250000  -999.250000  -999.250000 127.94865417 75.995010376 2.5141596794 2.3337278366
 2721.7114258 12.000000000  -999.250000 12.250000954 65.321525574  -999.250000  -999.250000  -999.250000  -999.250000 128.44052124 75.014007568 2.6117968559 2.4039478302
 2721.8637695 12.000000000  -999.250000 12.250000954 56.003936768  -999.250000  -999.250000  -999.250000  -999.250000 127.01063538 74.908012390 2.7283062935 2.9879603386
 2722.0161133 12.000000000  -999.250000 12.250000954 54.363517761  -999.250000  -999.250000  -999.250000  -999.250000 122.08894348 75.955001831 2.7286543846 3.2792100906
 2722.1687012 12.000000000  -999.250000 12.250000954 51.870079041  -999.250000  -999.250000  -999.250000  -999.250000 120.70288086 77.917007446 2.7517027855 3.2123751640
 2722.3210449 12.000000000  -999.250000 12.250000954 49.803150177  -999.250000  -999.250000  -999.250000  -999.250000 122.86332703 80.003997803 2.6746230125 2.9845566750
 2722.4733887 12.000000000  -999.250000 12.250000954 51.738845825  -999.250000  -999.250000  -999.250000  -999.250000 128.04513550 81.802009583 2.5527434349 2.7815046310
 2722.6257324 12.000000000  -999.250000 12.250000954 51.312335968  -999.250000  -999.250000  -999.250000  -999.250000 128.34671021 83.311996460 2.5503673553 2.5445022583
