# LAS format log file from PETREL
# Project units are specified as depth units
#==================================================================
~Version information
VERS.   2.0:
WRAP.   NO:
#==================================================================
~Well
STRT .m      359.96881104 :
STOP .m      3380.8413086 :
STEP .m     0.00000000 :
NULL .        -999.250000 :
COMP.           : COMPANY
WELL.  35/11-12   : WELL
FLD.            : FIELD
LOC.            : LOCATION
SRVC.           : SERVICE COMPANY
DATE.  2018-09-11 14:48:55   : Log Export Date {yyyy-MM-dd HH:mm:ss}
PROV.           : PROVINCE
UWI.   35/11-12   : UNIQUE WELL ID
API.            : API NUMBER
#==================================================================
~Curve
DEPT .m                   : DEPTH
Lithology_geolink ._      : Lithology_geolink
CALI .in                  : CALI
BS .in                    : BS
ROP .m/h                  : ROP
DRHO .g/cm3               : DRHO
NPHI .m3/m3               : NPHI
RHOB .g/cm3               : RHOB
PEF .b/e                  : PEF
GR .gAPI                  : GR
DTC .us/ft                : DTC
RDEP .ohm.m               : RDEP
RMED .ohm.m               : RMED
~Parameter
#==================================================================
~Ascii
# ...
 1866.8999023 19.000000000  -999.250000 12.250000954 87.598426819  -999.250000  -999.250000  -999.250000  -999.250000 145.52188110 121.59300232 0.7852643728 0.7326732874
 1867.0522461 19.000000000  -999.250000 12.250000954 88.221786499  -999.250000  -999.250000  -999.250000  -999.250000 149.64746094 129.38400269 0.7474068403 0.6838319302
 1867.2047119 19.000000000  -999.250000 12.250000954 88.648292542  -999.250000  -999.250000  -999.250000  -999.250000 153.57498169 133.38400269 0.7147841454 0.6548856497
 1867.3570557 19.000000000  -999.250000 12.250000954 91.272964478  -999.250000  -999.250000  -999.250000  -999.250000 155.72753906 138.06900024 0.6986770630 0.6654182673
 1867.5095215 19.000000000  -999.250000 12.250000954 98.818893433  -999.250000  -999.250000  -999.250000  -999.250000 160.80178833 144.25100708 0.7101204395 0.6414523125
 1867.6618652 19.000000000  -999.250000 12.250000954 101.54199982  -999.250000  -999.250000  -999.250000  -999.250000 156.79116821 143.38201904 0.7146302462 0.6611479521
 1867.8142090 19.000000000  -999.250000 12.250000954 107.44750977  -999.250000  -999.250000  -999.250000  -999.250000 154.37728882 136.36801147 0.7002688646 0.6777466536
 1867.9666748 19.000000000  -999.250000 12.250000954 116.50260925  -999.250000  -999.250000  -999.250000  -999.250000 145.78207397 131.31600952 0.7483890057 0.7394077778
 1868.1190186 19.000000000  -999.250000 12.250000954 140.22309875  -999.250000  -999.250000  -999.250000  -999.250000 143.87353516 131.16702271 0.7237643003 0.7366230488
 1868.2714844 19.000000000  -999.250000 12.250000954 150.49211121  -999.250000  -999.250000  -999.250000  -999.250000 140.65469360 133.85202026 0.7286430597 0.6534363031
 1868.4238281 19.000000000  -999.250000 12.250000954 152.32939148  -999.250000  -999.250000  -999.250000  -999.250000 142.91717529 133.57501221 0.7228828669 0.6362307072
 1868.5762939 19.000000000  -999.250000 12.250000954 141.96192932  -999.250000  -999.250000  -999.250000  -999.250000 145.66854858 129.88699341 0.7172751427 0.6464630365
 1868.7286377 19.000000000  -999.250000 12.250000954 135.82678223  -999.250000  -999.250000  -999.250000  -999.250000 144.93969727 124.65899658 0.7279005051 0.6669943333
 1868.8811035 19.000000000  -999.250000 12.250000954 151.80445862  -999.250000  -999.250000  -999.250000  -999.250000 142.47006226 117.26300049 0.8229148388 0.7488757372
 1869.0334473 19.000000000  -999.250000 12.250000954 151.47637939  -999.250000  -999.250000  -999.250000  -999.250000 137.88638306 118.03601074 0.8523013592 1.1434454918
 1869.1859131 19.000000000  -999.250000 12.250000954 145.80050659  -999.250000  -999.250000  -999.250000  -999.250000 141.02987671 130.00701904 0.8575848341 1.0844898224
 1869.3382568 19.000000000  -999.250000 12.250000954 139.37007141  -999.250000  -999.250000  -999.250000  -999.250000 144.61508179 139.28601074 0.8287308216 0.7120438814
 1869.4907227 19.000000000  -999.250000 12.250000954 136.74540710  -999.250000  -999.250000  -999.250000  -999.250000 150.31912231 143.02301025 0.7795351744 0.6773713827
 1869.6430664 19.000000000  -999.250000 12.250000954 114.69816589  -999.250000  -999.250000  -999.250000  -999.250000 153.36981201 145.01300049 0.7736337185 0.7404959202
 1869.7954102 19.000000000  -999.250000 12.250000954 106.43042755  -999.250000  -999.250000  -999.250000  -999.250000 156.07870483 145.00100708 0.8229688406 0.7342084646
 1869.9478760 19.000000000  -999.250000 12.250000954 110.10498047  -999.250000  -999.250000  -999.250000  -999.250000 157.27395630 143.42800903 0.7863669395 0.7452900410
 1870.1002197 19.000000000  -999.250000 12.250000954 114.92781830  -999.250000  -999.250000  -999.250000  -999.250000 157.44134521 141.48300171 0.7939395905 0.7548526525
 1870.2526855 19.000000000  -999.250000 12.250000954 119.02886963  -999.250000  -999.250000  -999.250000  -999.250000 157.09774780 140.22900391 0.8292174339 0.8361306190
 1870.4050293 19.000000000  -999.250000 12.250000954 120.99737549  -999.250000  -999.250000  -999.250000  -999.250000 157.74121094 141.94799805 0.8583500385 0.8397488594
 1870.5574951 19.000000000  -999.250000 12.250000954 120.53805542  -999.250000  -999.250000  -999.250000  -999.250000 158.19528198 143.66500854 0.8472698927 0.8473691940
 1870.7098389 19.000000000  -999.250000 12.250000954 122.99867249  -999.250000  -999.250000  -999.250000  -999.250000 157.91699219 138.86599731 0.8406108618 0.8262376785
 1870.8623047 19.000000000  -999.250000 12.250000954 118.86481476  -999.250000  -999.250000  -999.250000  -999.250000 163.44689941 135.22302246 0.8139659166 0.8011907339
 1871.0146484 19.000000000  -999.250000 12.250000954 120.14433289  -999.250000  -999.250000  -999.250000  -999.250000 163.39114380 139.21200562 0.7955319881 0.7647035122
 1871.1671143 19.000000000  -999.250000 12.250000954 142.42124939  -999.250000  -999.250000  -999.250000  -999.250000 167.19918823 142.93899536 0.7566552162 0.7247855663
 1871.3194580 19.000000000  -999.250000 12.250000954 157.67715454  -999.250000  -999.250000  -999.250000  -999.250000 163.85971069 144.27902222 0.7264156342 0.6954460144
 1871.4719238 19.000000000  -999.250000 12.250000954 147.30972290  -999.250000  -999.250000  -999.250000  -999.250000 169.58767700 144.53500366 0.6569296122 0.6051667929
 1871.6242676 19.000000000  -999.250000 12.250000954 146.32545471  -999.250000  -999.250000  -999.250000  -999.250000 172.05731201 138.95800781 0.6486922503 0.4924232364
 1871.7767334 19.000000000  -999.250000 12.250000954 148.03147888  -999.250000  -999.250000  -999.250000  -999.250000 176.56362915 128.11801147 0.7308515310 0.6128489971
 1871.9290771 19.000000000  -999.250000 12.250000954 147.11286926  -999.250000  -999.250000  -999.250000  -999.250000 168.99630737 120.31301117 0.8354910612 0.9489656687
 1872.0814209 19.000000000  -999.250000 12.250000954 146.81758118  -999.250000  -999.250000  -999.250000  -999.250000 157.79528809 114.97700500 1.0131468773 1.2038190365
 1872.2338867 19.000000000  -999.250000 12.250000954 149.01574707  -999.250000  -999.250000  -999.250000  -999.250000 146.85372925 109.05200195 1.0940241814 1.4387161732
 1872.3862305 19.000000000  -999.250000 12.250000954 161.77821350  -999.250000  -999.250000  -999.250000  -999.250000 142.45498657 111.16700745 1.1281313896 1.7737803459
 1872.5386963 19.000000000  -999.250000 12.250000954 169.35693359  -999.250000  -999.250000  -999.250000  -999.250000 145.96826172 121.23400879 1.1277177334 1.3618955612
 1872.6910400 19.000000000  -999.250000 12.250000954 178.01835632  -999.250000  -999.250000  -999.250000  -999.250000 153.26580811 127.08999634 0.9839091301 1.0756211281
 1872.8435059 19.000000000  -999.250000 12.250000954 178.37925720  -999.250000  -999.250000  -999.250000  -999.250000 162.18783569 127.86801910 0.9071470499 0.8077062368
 1872.9958496 19.000000000  -999.250000 12.250000954 149.93437195  -999.250000  -999.250000  -999.250000  -999.250000 167.27136230 129.56100464 0.7901219130 0.6921982765
 1873.1483154 19.000000000  -999.250000 12.250000954 143.50393677  -999.250000  -999.250000  -999.250000  -999.250000 167.14389038 131.76699829 0.7607988119 0.6577235460
 1873.3006592 19.000000000  -999.250000 12.250000954 143.50393677  -999.250000  -999.250000  -999.250000  -999.250000 166.73043823 134.48800659 0.7819662094 0.6563630104
 1873.4531250 19.000000000  -999.250000 12.250000954 140.25590515  -999.250000  -999.250000  -999.250000  -999.250000 162.72622681 139.48199463 0.7490997314 0.6982153654
 1873.6054688 19.000000000  -999.250000 12.250000954 140.71522522  -999.250000  -999.250000  -999.250000  -999.250000 163.42031860 145.16101074 0.7876232862 0.7107119560
 1873.7579346 19.000000000  -999.250000 12.250000954 137.79527283  -999.250000  -999.250000  -999.250000  -999.250000 166.90966797 149.32603455 0.7822446823 0.7279986143
 1873.9102783 19.000000000  -999.250000 12.250000954 136.67977905  -999.250000  -999.250000  -999.250000  -999.250000 174.63052368 150.93000793 0.8120981455 0.7632218599
 1874.0626221 19.000000000  -999.250000 12.250000954 134.84251404  -999.250000  -999.250000  -999.250000  -999.250000 175.05148315 150.72900391 0.8269126415 0.8298231363
