# LAS format log file from PETREL
# Project units are specified as depth units
#==================================================================
~Version information
VERS.   2.0:
WRAP.   NO:
#==================================================================
~Well
STRT .m      2901.5925293 :
STOP .m      3271.0102539 :
STEP .m     0.00000000 :
NULL .        -999.250000 :
COMP.           : COMPANY
WELL.  35/11-13   : WELL
FLD.            : FIELD
LOC.            : LOCATION
SRVC.           : SERVICE COMPANY
DATE.  2018-09-11 14:48:55   : Log Export Date {yyyy-MM-dd HH:mm:ss}
PROV.           : PROVINCE
UWI.   35/11-13   : UNIQUE WELL ID
API.            : API NUMBER
#==================================================================
~Curve
DEPT .m                   : DEPTH
Lithology_geolink ._      : Lithology_geolink
CALI .in                  : CALI
BS .in                    : BS
ROP .m/h                  : ROP
DRHO .g/cm3               : DRHO
NPHI .m3/m3               : NPHI
RHOB .g/cm3               : RHOB
PEF .b/e                  : PEF
GR .gAPI                  : GR
DTC .us/ft                : DTC
DTS .us/ft                : DTS
RDEP .ohm.m               : RDEP
RMIC .ohm.m               : RMIC
RMED .ohm.m               : RMED
~Parameter
#==================================================================
~Ascii
# ...
 3020.3120117 16.000000000 8.4316997528 8.5000000000 97.673881531 -0.004100000 0.3939000070 2.5267999172 2.9602000713 120.27649689 81.125015259 143.46820068 24.461599350 25.674999237 26.298799515
 3020.4645996 16.000000000 8.4449996948 8.5000000000 97.618110657 -0.004900000 0.3833000064 2.5190999508 2.9493000507 114.27500153 80.822044373 144.10659790 29.865600586 27.232299805 32.036899567
 3020.6169434 16.000000000 8.4493999481 8.5000000000 97.739501953 -0.003800000 0.3682000041 2.5483000278 3.1029000282 117.31680298 80.524475098 145.14379883 31.447900772 28.108499527 33.620098114
 3020.7692871 16.000000000 8.4316997528 8.5000000000 97.919952393 -0.002600000 0.3544000089 2.5441999435 3.0371000767 116.22940063 80.133087158 145.00039673 31.947200775 26.972999573 34.075801849
 3020.9216309 16.000000000 8.4449996948 8.5000000000 89.596458435 -0.001700000 0.3364000022 2.5257999897 2.9474999905 114.74960327 79.876945496 143.38479614 31.568199158 28.334699631 33.579498291
 3021.0742188 16.000000000 8.4449996948 8.5000000000 82.480316162 -0.001900000 0.3350000083 2.5362000465 2.8259999752 115.16059875 79.716590881 141.48640442 29.262699127 28.503700256 31.156700134
 3021.2265625 16.000000000 8.4516000748 8.5000000000 79.619422913 -0.003000000 0.3265999854 2.5611999035 2.8090999126 110.65760040 79.121803284 140.56660461 29.657899857 30.315599442 31.573400497
 3021.3789063 16.000000000 8.4384002686 8.5000000000 73.339897156 -0.003900000 0.3221000135 2.5634999275 2.8196001053 111.16960144 78.749389648 136.61909485 36.149898529 30.239099503 38.272800446
 3021.5312500 16.000000000 8.4406003952 8.5000000000 69.921264648 -0.005800000 0.3197999895 2.5206000805 2.9114999771 107.55229950 78.242935181 134.41239929 35.472099304 29.899200439 37.407600403
 3021.6835938 16.000000000 8.4384002686 8.5000000000 65.744750977 -0.005900000 0.3265999854 2.5315999985 2.8780999184 107.63449860 78.074623108 132.95950317 34.005199432 25.976100922 35.870498657
 3021.8361816 16.000000000 8.4406003952 8.5000000000 64.983596802 -0.005800000 0.3181999922 2.5343999863 2.7995998859 103.42299652 77.404258728 132.41459656 33.373298645 24.944400787 35.221199036
 3021.9885254 16.000000000 8.4316997528 8.5000000000 64.767059326 -0.005700000 0.3091999888 2.5552999973 2.7888000011 99.491699219 76.611465454 132.08610535 32.344600677 23.416799545 34.077201843
 3022.1408691 16.000000000 8.4229001999 8.5000000000 65.311676025 -0.007400000 0.3046000004 2.5285000801 2.7284998894 99.327301025 76.214965820 130.33180237 31.264099121 24.964799881 32.770500183
 3022.2932129 16.000000000 8.4316997528 8.5000000000 66.633857727 -0.008100000 0.3169000149 2.5171000957 2.7502999306 99.985000610 76.001564026 130.08520508 33.708198547 27.396799088 35.008998871
 3022.4458008 16.000000000 8.4251003265 8.5000000000 67.411422729 -0.009500000 0.3231000006 2.4981999397 2.7999999523 103.99839783 76.789192200 131.01220703 38.020198822 32.730201721 39.218498230
 3022.5981445 16.000000000 8.4251003265 8.5000000000 71.404197693 -0.009200000 0.3262999952 2.5143001080 2.7755000591 103.68450165 76.787635803 131.61320496 38.498298645 35.176799774 39.283901215
 3022.7504883 16.000000000 8.4316997528 8.5000000000 74.625984192 -0.011600000 0.3337000012 2.4995999336 2.7827000618 104.99649811 76.992568970 130.48899841 38.074699402 36.463600159 38.447299957
 3022.9028320 16.000000000 8.4406003952 8.5000000000 77.762466431 -0.010300000 0.3330000043 2.5092000961 2.8108999729 102.70210266 75.473945618 128.47740173 38.141498566 36.983200073 38.457901001
 3023.0554199 16.000000000 8.4493999481 8.5000000000 77.677169800 -0.011600000 0.3208000064 2.5376000404 3.1026000977 95.288002014 73.495819092 127.72879791 44.359699249 38.931800842 45.193901062
 3023.2077637 5.0000000000 8.4316997528 8.5000000000 81.391075134 -0.008100000 0.2969999909 2.7874999046 4.3773999214 84.439399719 69.789527893 123.91619110 73.329597473 50.191200256 73.824897766
 3023.3601074 16.000000000 8.4449996948 8.5000000000 85.187011719 -0.004500000 0.2736999989 2.8445000648 4.8987998962 69.222702026 66.189834595 119.60510254 147.18479919 70.966400146 145.26550293
 3023.5124512 16.000000000 8.4384002686 8.5000000000 82.542655945 0.0011000000 0.2527000010 2.8661999702 5.0855998993 62.727901459 64.529548645 118.51650238 152.16259766 96.386398315 148.50289917
 3023.6647949 16.000000000 8.4406003952 8.5000000000 76.105644226 0.0033000000 0.2483000010 2.8329000473 4.6094999313 58.456600189 64.127761841 119.26129913 104.08799744 73.153701782 102.29460144
 3023.8173828 16.000000000 8.4384002686 8.5000000000 67.214569092 0.0018000000 0.2687000036 2.6656000614 3.8756999969 65.937896729 65.796394348 121.60879517 47.778499603 48.827301025 48.723598480
 3023.9697266 6.0000000000 8.4582996368 8.5000000000 64.760498047 -0.001200000 0.3075999916 2.5429000854 3.1026000977 78.163597107 69.040641785 125.59809875 33.406700134 36.263401031 34.152999878
 3024.1220703 6.0000000000 8.4384002686 8.5000000000 59.799861908 -0.003700000 0.3289999962 2.5336000919 2.8945000172 89.336997986 73.117851257 127.21859741 32.837100983 32.187301636 33.677799225
 3024.2744141 7.0000000000 8.4449996948 8.5000000000 54.786743164 -0.004200000 0.3300999999 2.5192999840 2.7801001072 98.215896606 76.018417358 132.57710266 33.477001190 32.444999695 34.482200623
 3024.4270020 7.0000000000 8.4384002686 8.5000000000 55.823490143 -0.003500000 0.3274999857 2.5355000496 2.7641000748 98.925003052 78.208305359 134.92109680 33.473701477 34.417098999 34.757400513
 3024.5793457 7.0000000000 8.4406003952 8.5000000000 57.896984100 -0.004100000 0.3222999871 2.5218000412 2.7637000084 100.32630157 79.799118042 136.61819458 34.262001038 35.361400604 36.063701630
 3024.7316895 7.0000000000 8.4493999481 8.5000000000 56.814304352 -0.005900000 0.3235000074 2.5250999928 2.7230999470 98.065498352 79.807090759 138.69099426 33.757198334 33.319801331 35.970100403
 3024.8840332 7.0000000000 8.4582996368 8.5000000000 54.950790405 -0.005300000 0.3388000131 2.4732999802 2.7065999508 97.873596191 80.050796509 138.76579285 32.755901337 32.293598175 35.407798767
 3025.0366211 7.0000000000 8.4516000748 8.5000000000 55.252624512 -0.004900000 0.3463999927 2.5339999199 2.7827000618 99.846702576 80.171615601 138.61689758 34.259300232 32.296199799 37.354301453
 3025.1889648 7.0000000000 8.4582996368 8.5000000000 56.312335968 -0.005700000 0.3630999923 2.5573000908 2.8396999836 100.70999908 81.300682068 139.13999939 30.683799744 32.356700897 33.243099213
 3025.3413086 7.0000000000 8.4516000748 8.5000000000 57.070213318 -0.007700000 0.3783000112 2.4637999535 2.8208000660 104.90280151 82.346611023 141.65119934 18.819900513 19.656000137 20.432800293
 3025.4936523 7.0000000000 8.4582996368 8.5000000000 59.858924866 -0.008400000 0.4241999984 2.4572999477 2.7974998951 113.04550171 83.350296021 144.76429749 23.562999725 16.176900864 25.462499619
 3025.6459961 7.0000000000 8.4649000168 8.5000000000 61.889766693 -0.006700000 0.4406000078 2.4521000385 2.7862999439 118.64279938 83.851837158 145.33129883 24.746900558 15.510399818 26.684200287
 3025.7985840 7.0000000000 8.4582996368 8.5000000000 64.963912964 -0.005700000 0.4016000032 2.4574000835 2.7588000298 118.80719757 84.248580933 145.47129822 26.491399765 19.461500168 28.420499802
 3025.9509277 7.0000000000 8.4582996368 8.5000000000 66.010505676 -0.004000000 0.3957000077 2.4640998840 2.8387000561 117.32369995 83.583000183 145.20219421 27.198400497 23.002199173 29.153699875
 3026.1032715 7.0000000000 8.4449996948 8.5000000000 68.385826111 -0.003800000 0.3571000099 2.5088999271 2.8870999813 115.84819794 82.269973755 142.16369629 29.821100235 23.901500702 31.998800278
 3026.2556152 7.0000000000 8.4493999481 8.5000000000 69.711280823 -0.001800000 0.3671000004 2.5234000683 2.9642000198 112.97080231 80.578796387 141.07279968 35.812099457 25.758600235 38.140998840
 3026.4082031 7.0000000000 8.4582996368 8.5000000000 71.466537476 -0.001400000 0.3490999937 2.4646999836 3.0764000416 104.99620056 79.951461792 139.36430359 39.211601257 24.702199936 41.372200012
