# LAS format log file from PETREL
# Project units are specified as depth units
#==================================================================
~Version information
VERS.   2.0:
WRAP.   NO:
#==================================================================
~Well
STRT .m      1150.0018311 :
STOP .m      2885.3808594 :
STEP .m     0.00000000 :
NULL .        -999.250000 :
COMP.           : COMPANY
WELL.  35/11-10   : WELL
FLD.            : FIELD
LOC.            : LOCATION
SRVC.           : SERVICE COMPANY
DATE.  2018-09-11 14:48:54   : Log Export Date {yyyy-MM-dd HH:mm:ss}
PROV.           : PROVINCE
UWI.   35/11-10   : UNIQUE WELL ID
API.            : API NUMBER
#==================================================================
~Curve
DEPT .m                   : DEPTH
Lithology_geolink ._      : Lithology_geolink
CALI .in                  : CALI
BS .in                    : BS
DRHO .g/cm3               : DRHO
NPHI .m3/m3               : NPHI
RHOB .g/cm3               : RHOB
GR .gAPI                  : GR
DTC .us/ft                : DTC
DTS .us/ft                : DTS
RDEP .ohm.m               : RDEP
SP .mV                    : SP
RSHA .ohm.m               : RSHA
RMIC .ohm.m               : RMIC
RMED .ohm.m               : RMED
~Parameter
#==================================================================
~Ascii
# ...
 2649.6179199 6.0000000000 9.1709995270 8.5000000000 0.0533404797 0.2954796255 2.6099662781 93.445999146 80.115364075 145.55860901 8.7298727036 -147.6240997 10.853040695 7.0440869331 10.843885422
 2649.7705078 6.0000000000 9.1940002441 8.5000000000 0.0336393155 0.2915312648 2.5889616013 85.056999207 77.855735779 145.94017029 9.8986549377 -147.0610046 12.749211311 6.7698783875 12.743959427
 2649.9228516 6.0000000000 9.2299995422 8.5000000000 0.0137932245 0.3153677285 2.5769934654 80.352996826 79.958038330 145.99391174 10.414287567 -146.4371948 13.438345909 7.3600993156 13.436892509
 2650.0751953 6.0000000000 9.2329998016 8.5000000000 0.0083234608 0.3336617053 2.5729806423 92.727996826 82.478240967 147.17918396 10.594310760 -145.9376984 13.654360771 9.2838201523 13.653654099
 2650.2275391 6.0000000000 9.2620000839 8.5000000000 0.0067353975 0.3364640772 2.5609695911 96.776000977 85.119430542 147.30459595 10.788523674 -145.7503967 13.879385948 8.2181701660 13.878279686
 2650.3801270 6.0000000000 9.2519998550 8.5000000000 0.0026241695 0.3408819437 2.5419392586 97.366996765 84.165054321 153.29269409 11.116228104 -146.0010071 14.120857239 8.8459644318 14.119613647
 2650.5324707 7.0000000000 9.2049999237 8.5000000000 0.0033125945 0.3288573027 2.5229904652 98.291999817 91.039710999 156.31208801 11.499212265 -146.3121033 14.387434006 9.7321567535 14.387570381
 2650.6848145 7.0000000000 9.1960000992 8.5000000000 0.0111583173 0.3405981362 2.5169727802 98.016998291 93.975471497 156.39427185 11.631170273 -145.7487030 14.032943726 10.681955338 14.035565376
 2650.8371582 7.0000000000 9.1660003662 8.5000000000 0.0107402289 0.3517481089 2.5000064373 110.76899719 94.902343750 171.56896973 11.118385315 -144.9383087 12.755493164 8.3701648712 12.754055977
 2650.9895020 7.0000000000 9.1250000000 8.5000000000 0.0152468141 0.3900321424 2.5037772655 111.80100250 100.11563110 201.47918701 13.854025841 -145.1224976 14.936152458 6.7368364334 14.925024033
 2651.1420898 7.0000000000 9.0319995880 8.5000000000 0.0169168133 0.4549779594 2.3637521267 84.875000000 104.88457489 215.39476013 16.364902496 -143.5673981 17.530511856 11.585384369 17.518848419
 2651.2944336 6.0000000000 8.7829999924 8.5000000000 -0.009022136 0.5005979538 1.9744727612 77.557998657 110.09352875 245.60882568 17.278907776 -144.9391022 19.875698090 25.150432587 19.866239548
 2651.4467773 6.0000000000 8.6269998550 8.5000000000 -0.025291402 0.5638476014 1.6457035542 38.117000580 137.83815002 290.97970581 23.461725235 -145.6251984 23.431873322 24.668535233 23.419301987
 2651.5991211 6.0000000000 8.6250000000 8.5000000000 -0.016808975 0.5373703241 1.4608621597 36.895999908 139.80258179 289.57833862 29.528121948 -145.7505035 27.718957901 11.144322395 27.700275421
 2651.7517090 2.0000000000 8.6250000000 8.5000000000 -0.009943027 0.5499675870 1.3748751879 19.087999344 140.70573425 302.94454956 33.973167419 -146.0622101 30.825002670 17.448518753 30.802042007
 2651.9040527 2.0000000000 8.6250000000 8.5000000000 -0.010886511 0.5328654647 1.3359726667 20.188999176 114.45249176 329.27487183 36.532363892 -145.8135071 36.447528839 18.259456635 36.423984528
 2652.0563965 2.0000000000 8.6250000000 8.5000000000 -0.011208364 0.5684139132 1.3189840317 11.053000450 111.62382507 320.41824341 46.107067108 -146.1246948 45.499328613 24.975618362 45.486469269
 2652.2087402 2.0000000000 8.6639995575 8.5000000000 -0.013318868 0.5866855383 1.3091009855 19.229000092 98.426063538 299.37222290 48.004615784 -145.9389038 44.448936462 28.525009155 44.461338043
 2652.3613281 2.0000000000 8.7349996567 8.5000000000 -0.022578172 0.5316573977 1.3725824356 38.359001160 96.581329346 283.90786743 40.256637573 -146.4987946 38.773303986 5.0116600990 38.812065125
 2652.5136719 2.0000000000 8.8219995499 8.5000000000 -0.021360723 0.4630200267 1.5545785427 69.719001770 92.623291016 275.99246216 29.542037964 -146.1258087 29.514514923 17.274326324 29.537872314
 2652.6660156 2.0000000000 8.9580001831 8.5000000000 -0.005551176 0.3647924960 1.9156490564 101.33300018 85.953826904 225.12139893 22.708705902 -146.6235046 24.225973129 12.478548050 24.236486435
 2652.8183594 7.0000000000 9.1129999161 8.5000000000 0.0336127728 0.3568884134 2.3202242851 115.13500214 87.717994690 186.10008240 20.033521652 -145.6885071 22.960447311 11.929573059 22.965026855
 2652.9707031 7.0000000000 9.1829996109 8.5000000000 0.0490593947 0.3346084952 2.4600625038 93.343002319 87.087738037 176.75703430 19.729341507 -145.9996948 21.363998413 9.5355529785 21.375099182
 2653.1232910 6.0000000000 9.0889997482 8.5000000000 0.0573577881 0.3208869100 2.4989104271 73.615997314 86.312385559 150.58937073 16.196044922 -145.8122101 17.617290497 7.3420162201 17.631002426
 2653.2756348 6.0000000000 9.0740003586 8.5000000000 0.0426193811 0.2711847425 2.4709181786 67.896003723 88.617424011 142.91891479 13.718779564 -145.5628052 15.217491150 2.2234358788 15.219860077
 2653.4279785 6.0000000000 9.0719995499 8.5000000000 0.0222779103 0.2260892540 2.4198462963 62.370998383 91.376663208 142.86357117 14.205802917 -145.4378052 16.150106430 1.5571343899 16.145507813
 2653.5803223 6.0000000000 9.0419998169 8.5000000000 0.0097524971 0.1968486458 2.3238587379 56.630001068 94.283493042 144.48295593 15.337968826 -145.3124084 18.095390320 2.4118556976 18.079795837
 2653.7329102 4.0000000000 9.0310001373 8.5000000000 0.0038185313 0.1747253537 2.2357792854 47.278999329 96.470947266 151.92219543 20.932765961 -144.9385986 23.953664780 2.6452627182 23.935609818
 2653.8852539 4.0000000000 8.9680004120 8.5000000000 -0.000375994 0.1744364053 2.1669504642 43.256000519 99.259292603 147.94087219 23.340219498 -145.1244049 26.638584137 1.9492404461 26.648660660
 2654.0375977 4.0000000000 8.8100004196 8.5000000000 0.0002561827 0.1738888770 2.1360142231 40.200000763 99.435867310 151.61691284 15.995398521 -144.7501984 17.652399063 1.4991599321 17.672416687
 2654.1899414 4.0000000000 8.7790002823 8.5000000000 0.0034874552 0.2005434185 2.1450688839 63.230998993 95.609207153 164.02095032 12.504233360 -144.8739014 14.161660194 0.8740096092 14.174183846
 2654.3425293 6.0000000000 8.8299999237 8.5000000000 0.0050548208 0.2355988622 2.1883232594 66.373001099 95.728797913 163.97874451 11.405817986 -144.1884003 13.329787254 2.5805032253 13.328339577
 2654.4948730 6.0000000000 8.9980001450 8.5000000000 0.0168872830 0.2918168604 2.2892324924 94.597999573 93.166709900 159.22570801 11.975386620 -144.3123016 14.202319145 10.312156677 14.196603775
 2654.6472168 7.0000000000 9.1070003510 8.5000000000 0.0488426983 0.3337278962 2.4341747761 99.497001648 87.995559692 158.41995239 14.087769508 -143.8744049 16.896850586 9.9372854233 16.888681412
 2654.7995605 7.0000000000 9.1389999390 8.5000000000 0.0530100651 0.3727844059 2.5430719852 98.045997620 84.603393555 157.14863586 15.813647270 -143.4991913 19.297252655 9.5369243622 19.292148590
 2654.9519043 7.0000000000 9.1389999390 8.5000000000 0.0493002161 0.3649922013 2.5880064964 110.74099731 83.604209900 157.56262207 16.212310791 -143.0014038 20.072017670 10.727240562 20.075496674
 2655.1044922 7.0000000000 9.1619997025 8.5000000000 0.0406170860 0.3640913963 2.5918719769 110.42500305 88.104301453 160.46435547 13.279413223 -143.8753967 16.329732895 8.8560352325 16.350980759
 2655.2568359 7.0000000000 9.1260004044 8.5000000000 0.0104161892 0.3827071190 2.5518991947 114.30300140 91.948020935 168.05273438 9.6677503586 -144.0010986 11.571381569 4.6973524094 11.581645966
 2655.4091797 7.0000000000 8.9980001450 8.5000000000 0.0030489808 0.3926790655 2.4886522293 114.67700195 100.06202698 171.63507080 8.2667036057 -144.6869049 9.9402685165 5.6165022850 9.9426183701
 2655.5615234 7.0000000000 8.8590002060 8.5000000000 -0.002592917 0.4599859715 2.2714040279 112.16699982 100.71722412 178.55966187 8.7073268890 -144.0001068 10.109123230 7.7337932587 10.107461929
 2655.7141113 6.0000000000 8.7629995346 8.5000000000 -0.016892064 0.5120927095 1.8994719982 107.57900238 108.95806885 190.18928528 10.171658516 -144.0586090 10.823988914 22.711872101 10.807876587
