# LAS format log file from PETREL
# Project units are specified as depth units
#==================================================================
~Version information
VERS.   2.0:
WRAP.   NO:
#==================================================================
~Well
STRT .m      998.18890381 :
STOP .m      3019.4697266 :
STEP .m     0.00000000 :
NULL .        -999.250000 :
COMP.           : COMPANY
WELL.  35/12-1   : WELL
FLD.            : FIELD
LOC.            : LOCATION
SRVC.           : SERVICE COMPANY
DATE.  2018-09-11 14:48:57   : Log Export Date {yyyy-MM-dd HH:mm:ss}
PROV.           : PROVINCE
UWI.   35/12-1   : UNIQUE WELL ID
API.            : API NUMBER
#==================================================================
~Curve
DEPT .m                   : DEPTH
Lithology_geolink ._      : Lithology_geolink
CALI .in                  : CALI
BS .in                    : BS
DRHO .g/cm3               : DRHO
NPHI .m3/m3               : NPHI
RHOB .g/cm3               : RHOB
PEF .b/e                  : PEF
GR .gAPI                  : GR
DTC .us/ft                : DTC
RDEP .ohm.m               : RDEP
SP .mV                    : SP
RSHA .ohm.m               : RSHA
RMIC .ohm.m               : RMIC
RMED .ohm.m               : RMED
~Parameter
#==================================================================
~Ascii
# ...
 2072.9135742  -999.250000 17.391000748 17.500000000 -0.079000004  -999.250000 2.4379999638 3.8180000782 92.709999084 82.387001038 5.1281971931 183.91362000 4.0986394882 6.0830001831 0.0359999985
 2073.0659180  -999.250000 17.391000748 17.500000000 -0.078000002  -999.250000 2.4449999332 3.9619998932 90.571426392 81.089996338 5.4295482635 182.89028931 4.2333512306 5.6886320114 0.0359999985
 2073.2182617  -999.250000 17.391000748 17.500000000 -0.078000002  -999.250000 2.4489998817 3.9790000916 89.763290405 80.931999207 5.5872449875 182.51779175 4.3126201630 6.8381538391 0.0359999985
 2073.3706055  -999.250000 17.391000748 17.500000000 -0.075000003  -999.250000 2.4539999962 3.8450000286 88.092674255 81.505996704 5.5512371063 182.79763794 4.3070387840 8.0620384216 0.0359999985
 2073.5231934  -999.250000 17.398000717 17.500000000 -0.072999999  -999.250000 2.4560000896 3.6570000648 91.263999939 83.110000610 5.3877887726 182.55677795 4.2174324989 6.1339998245 0.0359999985
 2073.6755371  -999.250000 17.430000305 17.500000000 -0.068999998  -999.250000 2.4649999142 3.6510000229 92.948295593 83.638999939 5.2496633530 182.91384888 4.1343989372 6.2687840462 0.0359999985
 2073.8278809  -999.250000 17.430000305 17.500000000 -0.068000004  -999.250000 2.4709999561 3.7290000916 94.457580566 83.328994751 5.2052116394 183.48126221 4.1031494141 6.0184025764 0.0359999985
 2073.9802246  -999.250000 17.398000717 17.500000000 -0.070000000  -999.250000 2.4660000801 3.7780001163 89.622764587 83.205001831 5.3065099716 183.66114807 4.1477832794 6.3714327812 0.0359999985
 2074.1328125  -999.250000 17.391000748 17.500000000 -0.072999999  -999.250000 2.4590001106 3.7290000916 84.902000427 82.528999329 5.3298892975 184.19229126 4.1599421501 7.4949998856 0.0359999985
 2074.2851563  -999.250000 17.391000748 17.500000000 -0.075000003  -999.250000 2.4519999027 3.7379999161 82.352996826 82.392997742 5.3459234238 184.10528564 4.1808991432 6.4720001221 0.0359999985
 2074.4375000  -999.250000 17.391000748 17.500000000 -0.075999998  -999.250000 2.4509999752 3.6919999123 85.705627441 82.990997314 5.4007353783 183.93183899 4.2098608017 6.5628547668 0.0359999985
 2074.5898438  -999.250000 17.388000488 17.500000000 -0.074000001  -999.250000 2.4530000687 3.7119998932 88.384704590 83.045997620 5.3641777039 184.69929504 4.1930813789 6.4112434387 0.0359999985
 2074.7424316  -999.250000 17.379999161 17.500000000 -0.072999999  -999.250000 2.4519999027 3.7690000534 90.499000549 83.402999878 5.2346243858 185.99185181 4.1253266335 6.7940001488 0.0359999985
 2074.8947754  -999.250000 17.388000488 17.500000000 -0.072999999  -999.250000 2.4440000057 3.7699999809 88.341003418 83.500000000 5.1454277039 185.47766113 4.0752401352 5.8639998436 0.0359999985
 2075.0471191  -999.250000 17.391000748 17.500000000 -0.072999999  -999.250000 2.4400000572 3.8729999065 85.908897400 83.515998840 4.9957208633 184.99754333 3.9894134998 5.6393599510 0.0359999985
 2075.1994629  -999.250000 17.391000748 17.500000000 -0.072999999  -999.250000 2.4349999428 3.9149999619 83.117469788 83.648002625 4.9820623398 184.92422485 3.9671058655 6.0133991241 0.0359999985
 2075.3520508  -999.250000 17.391000748 17.500000000 -0.072999999  -999.250000 2.4360001087 4.0349998474 84.251998901 83.952003479 4.9829950333 184.40782166 3.9709806442 5.6620001793 0.0359999985
 2075.5043945  -999.250000 17.391000748 17.500000000 -0.071999997  -999.250000 2.4349999428 3.9679999352 88.429000854 84.148002625 4.9521493912 184.73294067 3.9560720921 5.9109997749 0.0359999985
 2075.6567383  -999.250000 17.391000748 17.500000000 -0.071999997  -999.250000 2.4379999638 3.9119999409 91.367294312 84.290000916 4.9291105270 184.83068848 3.9490334988 5.9519343376 0.0359999985
 2075.8090820  -999.250000 17.391000748 17.500000000 -0.071000002  -999.250000 2.4449999332 3.9549999237 89.920326233 83.583999634 4.9797549248 184.88383484 3.9878125191 5.7443332672 0.0359999985
 2075.9614258  -999.250000 17.391000748 17.500000000 -0.071999997  -999.250000 2.4440000057 4.0170001984 85.530044556 82.712997437 5.0864853859 184.38659668 4.0676150322 5.7819390297 0.0359999985
 2076.1140137  -999.250000 17.391000748 17.500000000 -0.074000001  -999.250000 2.4470000267 3.9939999580 82.629997253 82.413002014 5.2382702827 184.68551636 4.1396541595 5.9889998436 0.0359999985
 2076.2663574  -999.250000 17.391000748 17.500000000 -0.077000000  -999.250000 2.4449999332 3.9170000553 83.837059021 82.683998108 5.3176198006 183.30642700 4.1608986855 6.2156367302 0.0359999985
 2076.4187012  -999.250000 17.391000748 17.500000000 -0.079000004  -999.250000 2.4430000782 4.0549998283 85.426452637 82.871002197 5.3488507271 182.68698120 4.1769232750 6.3308157921 0.0359999985
 2076.5710449  -999.250000 17.391000748 17.500000000 -0.082000002  -999.250000 2.4330000877 4.1430001259 87.383865356 82.418998718 5.3231248856 182.54446411 4.1660528183 6.4927406311 0.0359999985
 2076.7236328  -999.250000 17.391000748 17.500000000 -0.083999999  -999.250000 2.4319999218 4.2630000114 87.487998962 81.709999084 5.3289713860 182.18557739 4.1789374352 7.0590000153 0.0359999985
 2076.8759766  -999.250000 17.391000748 17.500000000 -0.082999997  -999.250000 2.4370000362 4.2680001259 89.000999451 81.703010559 5.4444422722 182.28169250 4.2715525627 7.1719999313 0.0359999985
 2077.0283203  -999.250000 17.391000748 17.500000000 -0.082000002  -999.250000 2.4489998817 4.2300000191 87.972648621 81.355003357 5.5982594490 183.62069702 4.3665432930 6.6618175507 0.0359999985
 2077.1806641  -999.250000 17.391000748 17.500000000 -0.079999998  -999.250000 2.4590001106 4.1859998703 87.792289734 80.495002747 5.7482790947 184.84208679 4.4416394234 7.1322436333 0.0359999985
 2077.3332520  -999.250000 17.391000748 17.500000000 -0.079000004  -999.250000 2.4639999866 4.0590000153 87.369003296 79.897003174 5.8544912338 184.33583069 4.4997215271 7.3860001564 0.0359999985
 2077.4855957  -999.250000 17.391000748 17.500000000 -0.077000000  -999.250000 2.4730000496 4.0260000229 88.787002563 78.170997620 6.1256923676 183.61531067 4.6243991852 7.2369999886 0.0359999985
 2077.6379395  -999.250000 17.391000748 17.500000000 -0.075000003  -999.250000 2.4760000706 4.0789999962 86.260047913 77.568000793 6.3976926804 184.33268738 4.7663173676 8.1435480118 0.0359999985
 2077.7902832  -999.250000 17.391000748 17.500000000 -0.074000001  -999.250000 2.4700000286 4.1339998245 83.844871521 77.361000061 6.5194182396 185.08659363 4.8257164955 10.214678764 0.0359999985
 2077.9426270  -999.250000 17.391000748 17.500000000 -0.074000001  -999.250000 2.4630000591 4.1680002213 83.336807251 77.945999146 6.4015722275 185.12487793 4.7722592354 8.7563457489 0.0359999985
 2078.0952148  -999.250000 17.391000748 17.500000000 -0.075000003  -999.250000 2.4570000172 4.1319999695 85.711997986 79.186996460 6.0835309029 184.96054077 4.6406335831 8.4370002747 0.0359999985
 2078.2475586  -999.250000 17.391000748 17.500000000 -0.075999998  -999.250000 2.4590001106 4.0830001831 87.144706726 80.019004822 5.9675526619 184.70680237 4.5733222961 7.4256205559 0.0359999985
 2078.3999023  -999.250000 17.391000748 17.500000000 -0.079000004  -999.250000 2.4560000896 3.9479999542 87.162979126 80.319007874 5.8754425049 184.60929871 4.5172696114 7.4968833923 0.0359999985
 2078.5522461  -999.250000 17.391000748 17.500000000 -0.081000000  -999.250000 2.4530000687 3.8719999790 87.819946289 80.216003418 5.7874231339 184.18338013 4.4801778793 7.3602194786 0.0359999985
 2078.7048340  -999.250000 17.391000748 17.500000000 -0.082999997  -999.250000 2.4530000687 3.8069999218 90.046997070 80.052001953 5.7790384293 184.47552490 4.4809951782 6.9190001488 0.0359999985
 2078.8571777  -999.250000 17.391000748 17.500000000 -0.082999997  -999.250000 2.4560000896 3.7390000820 89.435997009 79.636001587 5.8188076019 184.97041321 4.5038895607 6.9980001450 0.0359999985
 2079.0095215  -999.250000 17.391000748 17.500000000 -0.082000002  -999.250000 2.4590001106 3.5620000362 88.501495361 79.013000488 5.9006056786 184.28022766 4.5686874390 7.3244767189 0.0359999985
