# LAS format log file from PETREL
# Project units are specified as depth units
#==================================================================
~Version information
VERS.   2.0:
WRAP.   NO:
#==================================================================
~Well
STRT .m      359.96881104 :
STOP .m      3380.8413086 :
STEP .m     0.00000000 :
NULL .        -999.250000 :
COMP.           : COMPANY
WELL.  35/11-12   : WELL
FLD.            : FIELD
LOC.            : LOCATION
SRVC.           : SERVICE COMPANY
DATE.  2018-09-11 14:48:55   : Log Export Date {yyyy-MM-dd HH:mm:ss}
PROV.           : PROVINCE
UWI.   35/11-12   : UNIQUE WELL ID
API.            : API NUMBER
#==================================================================
~Curve
DEPT .m                   : DEPTH
Lithology_geolink ._      : Lithology_geolink
CALI .in                  : CALI
BS .in                    : BS
ROP .m/h                  : ROP
DRHO .g/cm3               : DRHO
NPHI .m3/m3               : NPHI
RHOB .g/cm3               : RHOB
PEF .b/e                  : PEF
GR .gAPI                  : GR
DTC .us/ft                : DTC
RDEP .ohm.m               : RDEP
RMED .ohm.m               : RMED
~Parameter
#==================================================================
~Ascii
# ...
 2927.6040039 13.000000000 8.8683986664 8.5000000000 91.404205322 0.0314063430 0.4482001066 2.4190840721 7.3414773941 199.96331787 118.65936279 1.3011293411 1.3023946285
 2927.7563477 13.000000000 8.8683986664 8.5000000000 96.292655945 0.0311622545 0.4698881507 2.4192714691 7.2501068115 201.05380249 118.39230347 1.2841043472 1.2478237152
 2927.9086914 13.000000000 8.8683986664 8.5000000000 101.01706696 0.0297747590 0.4579410553 2.4128556252 7.1637849808 203.02044678 119.32009888 1.2277922630 1.2298069000
 2928.0607910 13.000000000 8.8683986664 8.5000000000 94.619422913 0.0321068019 0.4489395618 2.4160518646 7.1038703918 201.26742554 119.70870209 1.2018222809 1.2232253551
 2928.2131348 13.000000000 8.8683986664 8.5000000000 93.290687561 0.0297623165 0.4514375329 2.4126300812 7.1201286316 201.62673950 120.02171326 1.2100698948 1.2048242092
 2928.3657227 13.000000000 8.8683967590 8.5000000000 91.961936951 0.0274178348 0.4539355040 2.4092078209 7.1363868713 201.98602295 119.91804504 1.2183172703 1.1864230633
 2928.5180664 13.000000000 8.8683967590 8.5000000000 94.258529663 0.0301013961 0.4630540609 2.4160075188 7.1072635651 205.91934204 120.26119995 1.2261288166 1.2264616489
 2928.6704102 13.000000000 8.8683986664 8.5000000000 93.077423096 0.0353232920 0.4645282626 2.4163393974 7.3426866531 217.65649414 120.50473022 1.2865741253 1.1963758469
 2928.8227539 13.000000000 8.8683986664 8.5000000000 94.685043335 0.0405752435 0.4574556351 2.4204621315 7.3789978027 221.05828857 120.30144501 1.1919770241 1.1657812595
 2928.9750977 13.000000000 8.8683967590 8.5000000000 96.358268738 0.0376372486 0.4504307508 2.4139909744 7.3107881546 219.52026367 120.44245911 1.1872341633 1.1927325726
 2929.1276855 13.000000000 8.8683967590 8.5000000000 97.801826477 0.0304829627 0.4653520584 2.4073438644 7.0201578140 213.46948242 120.14289856 1.1619300842 1.1758656502
 2929.2800293 13.000000000 8.8683986664 8.5000000000 103.90419769 0.0259707272 0.4418553114 2.4057188034 6.8455467224 212.00915527 120.30122375 1.2060770988 1.2007255554
 2929.4323730 13.000000000 8.8683986664 8.5000000000 103.57611847 0.0241556242 0.4231500626 2.4055113792 7.0101661682 210.62545776 120.60231018 1.1678202152 1.1719529629
 2929.5847168 13.000000000 8.8683986664 8.5000000000 103.31365204 0.0242031179 0.4194618464 2.4055013657 7.1537837982 212.84426880 120.61926270 1.1746602058 1.1553518772
 2929.7373047 13.000000000 8.8683967590 8.5000000000 108.82545471 0.0267674588 0.4363751411 2.4061384201 7.2082853317 213.70782471 121.13290405 1.1844391823 1.1728482246
 2929.8896484 13.000000000 8.8683986664 8.5000000000 112.46718597 0.0306183361 0.4621633887 2.3964352608 7.2677164078 215.63992310 121.37050629 1.1498107910 1.1611237526
 2930.0419922 13.000000000 8.8772468567 8.5000000000 109.74408722 0.0274509490 0.4460712075 2.3854131699 7.3018589020 213.42114258 121.47763062 1.1634807587 1.1603112221
 2930.1943359 13.000000000 8.8837909698 8.5000000000 107.84121704 0.0292709805 0.4426337481 2.3891849518 7.3779630661 213.42428589 120.81450653 1.1686782837 1.1567709446
 2930.3469238 13.000000000 8.8903331757 8.5000000000 105.93832397 0.0310910121 0.4391962886 2.3929567337 7.4540672302 213.42742920 121.29907227 1.1738755703 1.1532304287
 2930.4992676 13.000000000 8.8683986664 8.5000000000 109.97373962 0.0286454037 0.4387757182 2.4014987946 7.5525159836 210.59719849 120.96128845 1.1542878151 1.1440868378
 2930.6516113 13.000000000 8.8683967590 8.5000000000 109.64566040 0.0276310705 0.4508409500 2.4044241905 7.5006189346 214.44857788 121.75827789 1.1699781418 1.1603529453
 2930.8039551 13.000000000 8.8683967590 8.5000000000 112.43437195 0.0221051499 0.4565348029 2.3894557953 7.1904220581 220.29815674 122.03501892 1.2029061317 1.1836481094
 2930.9562988 13.000000000 8.8683967590 8.5000000000 114.20603180 0.0163278617 0.4404087067 2.3791451454 6.6045866013 228.05133057 121.97404480 1.2060463428 1.2349362373
 2931.1088867 13.000000000 8.8683986664 8.5000000000 113.77951813 0.0218746252 0.4227478504 2.3810086250 6.2125091553 224.77355957 122.16258240 1.2449193001 1.2325351238
 2931.2612305 13.000000000 8.8683986664 8.5000000000 114.00918579 0.0226668380 0.4217350483 2.3785028458 6.2012462616 223.34899902 122.21066284 1.2088890076 1.2462432384
 2931.4135742 13.000000000 8.8683967590 8.5000000000 118.27426147 0.0305965282 0.4353031516 2.3824591637 6.4110336304 220.69116211 122.18823242 1.2632129192 1.2562980652
 2931.5659180 13.000000000 8.8683986664 8.5000000000 122.80184174 0.0340911970 0.4441753626 2.3822870255 7.3488559723 231.07287598 121.25601959 1.2572841644 1.2422156334
 2931.7185059 13.000000000 8.8719081879 8.5000000000 117.38844299 0.0320601165 0.4332351089 2.3786392212 7.7580451965 239.03378296 121.53118896 1.2302587032 1.2525651455
 2931.8708496 13.000000000 8.9283065796 8.5000000000 110.17060852 0.0352013335 0.4271984696 2.3753743172 7.7671689987 233.96582031 120.54425812 1.2597661018 1.2663152218
 2932.0231934 13.000000000 8.9350986481 8.5000000000 103.18241882 0.0266083404 0.4089040756 2.3555231094 7.3814096451 213.94427490 120.49763489 1.2559137344 1.2197558880
 2932.1755371 13.000000000 8.9350986481 8.5000000000 101.96849823 0.0228392035 0.4251285195 2.3557889462 7.1488685608 217.04553223 120.28991699 1.2331726551 1.2141308784
 2932.3281250 13.000000000 8.9350986481 8.5000000000 100.75459290 0.0267740823 0.4300217628 2.3714919090 6.8272914886 220.97888184 120.27842712 1.2683837414 1.2341775894
 2932.4804688 13.000000000 8.9350986481 8.5000000000 96.883201599 0.0224592537 0.4302492738 2.3783035278 6.8180456161 224.19992065 120.22676849 1.2659003735 1.2357072830
 2932.6328125 13.000000000 8.9162158966 8.5000000000 94.324150085 0.0267139897 0.4181622863 2.3872251511 6.7234869003 222.64166260 121.07946777 1.2431972027 1.2337160110
 2932.7851563 13.000000000 8.8867492676 8.5000000000 88.845138550 0.0190314576 0.4050458074 2.3793687820 6.8295736313 221.05200195 121.24067688 1.2379105091 1.2474429607
 2932.9375000 13.000000000 8.8683986664 8.5000000000 89.041992188 0.0290282629 0.4000808001 2.3924808502 6.7133216858 222.94302368 121.95464325 1.2131299973 1.2502949238
 2933.0900879 13.000000000 8.8683967590 8.5000000000 93.110237122 0.0174814444 0.4156519771 2.3851099014 6.8916521072 233.56176758 121.78021240 1.2291204929 1.2423970699
 2933.2424316 13.000000000 8.8739414215 8.5000000000 98.129920959 0.0230790935 0.4256639481 2.3892984390 7.0882120132 244.98477173 121.78287506 1.2581002712 1.2318785191
 2933.3947754 13.000000000 8.8871726990 8.5000000000 93.733596802 0.0180434585 0.4661059976 2.3716964722 7.3975782394 249.69342041 122.27047729 1.2707724571 1.2727286816
 2933.5471191 13.000000000 8.8683967590 8.5000000000 96.259841919 0.0287915990 0.4455782771 2.3665351868 7.4188528061 244.83102417 122.73680115 1.2706542015 1.2517485619
 2933.6997070 13.000000000 8.8683986664 8.5000000000 92.257225037 0.0349407569 0.4632331133 2.3558731079 7.4788961411 242.56903076 123.70678711 1.2746984959 1.2799105644
 2933.8520508 13.000000000 8.8683986664 8.5000000000 90.879264832 0.0307180099 0.4486217499 2.3426973820 7.2615470886 242.60055542 123.51916504 1.3371474743 1.2958774567
 2934.0043945 13.000000000 8.8683986664 8.5000000000 92.913383484 0.0240792111 0.4557132125 2.3353471756 7.0909500122 244.88052368 123.55921936 1.3254916668 1.3130111694
 2934.1567383 13.000000000 8.8683986664 8.5000000000 93.963256836 0.0145815760 0.4376872778 2.3301301003 6.8174228668 243.83319092 122.97596741 1.3758203983 1.3192391396
 2934.3093262 13.000000000 8.8683967590 8.5000000000 91.601043701 0.0134901870 0.4218659401 2.3325514793 6.6317043304 238.51312256 122.11744690 1.3742308617 1.3416209221
 2934.4616699 13.000000000 8.8683986664 8.5000000000 89.041992188 0.0165797099 0.4339912534 2.3357083797 6.7222929001 232.13589478 122.93801880 1.3405797482 1.3657705784
 2934.6140137 13.000000000 8.8683986664 8.5000000000 90.419937134 0.0192343555 0.4470059276 2.3380460739 6.9077663422 221.93066406 122.74928284 1.3598160744 1.3817360401
 2934.7663574 13.000000000 8.8683967590 8.5000000000 85.137802124 0.0295839719 0.4365398884 2.3423509598 7.4177474976 214.71954346 122.76380920 1.3496255875 1.3581206799
