# LAS format log file from PETREL
# Project units are specified as depth units
#==================================================================
~Version information
VERS.   2.0:
WRAP.   NO:
#==================================================================
~Well
STRT .m      963.35791016 :
STOP .m      4034.6738281 :
STEP .m     0.00000000 :
NULL .        -999.250000 :
COMP.           : COMPANY
WELL.  35/11-2   : WELL
FLD.            : FIELD
LOC.            : LOCATION
SRVC.           : SERVICE COMPANY
DATE.  2018-09-11 14:48:55   : Log Export Date {yyyy-MM-dd HH:mm:ss}
PROV.           : PROVINCE
UWI.   35/11-2   : UNIQUE WELL ID
API.            : API NUMBER
#==================================================================
~Curve
DEPT .m                   : DEPTH
Lithology_geolink ._      : Lithology_geolink
CALI .in                  : CALI
DRHO .g/cm3               : DRHO
NPHI .m3/m3               : NPHI
RHOB .g/cm3               : RHOB
GR .gAPI                  : GR
DTC .us/ft                : DTC
RDEP .ohm.m               : RDEP
SP .mV                    : SP
RSHA .ohm.m               : RSHA
RMED .ohm.m               : RMED
~Parameter
#==================================================================
~Ascii
# ...
 1608.4669189  -999.250000 17.599000931 0.0060000001 0.5621677637 2.0841178894 36.280120850 127.49308777 0.7289687395 51.658603668 0.9479631782 0.9479631782
 1608.6192627  -999.250000 17.666000366 0.0050032022 0.5718767643 2.0202050209 37.467098236 145.34637451 0.7159951925 49.660205841 0.8361793756 0.8361793756
 1608.7717285  -999.250000 17.839000702 0.0079927891 0.5669080019 1.9741106033 38.062522888 150.74569702 0.7129880190 53.154197693 0.7270873189 0.7270873189
 1608.9240723  -999.250000 17.906000137 0.0109903924 0.5519559979 1.9231632948 35.657928467 149.75080872 0.7079711556 54.156200409 0.6880312562 0.6880312562
 1609.0765381  -999.250000 17.568000793 0.0169855785 0.5579203367 1.8900792599 35.531097412 147.37690735 0.6899615526 54.656600952 0.6880000234 0.6880000234
 1609.2288818  -999.250000 17.156000137 0.0179967973 0.5831692219 1.8909968138 36.593151093 143.12840271 0.6739968061 56.655399323 0.6820048094 0.6820048094
 1609.3813477  -999.250000 16.927000046 0.0130120199 0.5938230157 1.9269134998 39.185924530 141.50129700 0.6720167994 51.661003113 0.6949895620 0.6949895620
 1609.5336914  -999.250000 16.916000366 0.0050256206 0.5762423873 1.9519199133 37.876052856 143.37350464 0.6790368557 54.154998779 0.6940007806 0.6940007806
 1609.6861572  -999.250000 17.023000717 0.0010096155 0.5239338875 1.9699567556 40.528873444 145.24850464 0.7020961046 50.659805298 0.7089880109 0.7089880109
 1609.8385010  -999.250000 17.173999786 0.0019967975 0.5015557408 1.9929263592 37.752227783 146.62390137 0.7420881391 51.156600952 0.7109984159 0.7109984159
 1609.9908447  -999.250000 17.273000717 0.0039935899 0.4886310399 2.0278878212 36.096652985 144.00419617 0.7970913649 54.152198792 0.7409519553 0.7409519553
 1610.1433105  -999.250000 17.266000748 0.0010096077 0.4816212058 2.0499293804 30.910156250 139.62850952 0.8541032672 53.657402039 0.8069471121 0.8069471121
 1610.2956543  -999.250000 17.252000809 -0.000993590 0.5034872890 2.0639550686 31.499048233 131.88740540 0.8970400691 54.156200409 0.9657453895 0.9657453895
 1610.4481201  -999.250000 17.104999542 0.0019903923 0.5273018479 2.0779552460 33.967021942 127.75330353 0.9220191836 55.156200409 1.1638413668 1.1638413668
 1610.6004639  -999.250000 17.006999969 0.0059871795 0.5598616600 2.0819871426 35.372749329 131.11959839 0.9300256371 51.163406372 1.2648382187 1.2648382187
 1610.7529297  -999.250000 17.163999557 0.0079951929 0.5501656532 2.0750169754 34.500701904 137.36999512 0.9460023642 50.657402039 1.1840648651 1.1840648651
 1610.9052734  -999.250000 17.319999695 0.0080000004 0.5378595591 2.0630383492 36.997997284 146.86738586 0.9469679594 51.156600952 0.9901554585 0.9901554585
 1611.0577393  -999.250000 17.385999680 0.0070024040 0.5518275499 2.0480360985 41.215625763 152.99510193 0.9269111156 50.157802582 0.8531096578 0.8531096578
 1611.2100830  -999.250000 17.308000565 0.0070000002 0.5808801055 2.0210864544 43.217399597 153.49958801 0.8899150491 50.656600952 0.7790592909 0.7790592909
 1611.3625488  -999.250000 17.035999298 0.0089951921 0.5935597420 2.0170094967 40.440227509 153.12530518 0.8368943334 53.654598236 0.7480248213 0.7480248213
 1611.5148926  -999.250000 17.011999130 0.0169743802 0.5574270487 2.0479009151 36.284328461 154.87358093 0.7929663062 54.656200409 0.7410055995 0.7410055995
 1611.6673584  -999.250000 17.045000076 0.0170000009 0.5331488252 2.0879039764 37.062374115 153.00149536 0.7719832063 54.657001495 0.7529904246 0.7529904246
 1611.8197021  -999.250000 16.940000534 0.0120160133 0.5402185917 2.0899934769 36.250652313 153.49958801 0.7649935484 55.156600952 0.7779799700 0.7779799700
 1611.9720459  -999.250000 16.885999680 0.0100064101 0.5829172134 2.0561089516 40.711845398 154.49839783 0.7610063553 56.155399323 0.7849888206 0.7849888206
 1612.1245117  -999.250000 16.840999603 0.0109967971 0.5938326120 2.0211119652 40.155998230 153.37500000 0.7650144100 51.657001495 0.8000000119 0.8000000119
 1612.2768555  -999.250000 16.809000015 0.0100032045 0.5852506757 1.9940865040 43.719001770 152.12500000 0.7740160227 50.657001495 0.8029999733 0.8029999733
 1612.4293213  -999.250000 16.768999100 0.0080064051 0.5705635548 1.9800448418 43.250000000 150.99998474 0.7840191722 52.157001495 0.8130000234 0.8130000234
 1612.5816650  -999.250000 16.725999832 0.0070032054 0.5716971755 1.9800000191 42.375000000 150.25000000 0.7920064330 50.657001495 0.8119999766 0.8119999766
 1612.7341309  -999.250000 16.718999863 0.0079975966 0.5820832849 1.9879808426 40.500000000 151.25001526 0.7960096002 52.657001495 0.7960000038 0.7960000038
 1612.8864746  -999.250000 16.722000122 0.0099935951 0.5863797069 1.9999616146 42.562999725 152.87500000 0.8000064492 53.157001495 0.8109999895 0.8109999895
 1613.0389404  -999.250000 16.753000259 0.0109975962 0.5840537548 2.0129687786 43.062999725 152.37498474 0.8040000200 53.657001495 0.8240000010 0.8240000010
 1613.1912842  -999.250000 16.780000687 0.0149871893 0.5686770082 2.0219712257 42.780998230 152.12500000 0.8040080070 55.657001495 0.8420000076 0.8420000076
 1613.3437500  -999.250000 16.767000198 0.0120072113 0.5405051708 2.0180094242 39.500000000 150.75000000 0.8090096116 52.657001495 0.8069999814 0.8069999814
 1613.4960938  -999.250000 16.784000397 0.0080128107 0.5033194423 2.0140128136 40.562999725 150.25000000 0.8130064607 50.157001495 0.7919999957 0.7919999957
 1613.6485596  -999.250000 16.812999725 0.0060048075 0.4900112152 2.0149977207 43.094001770 150.25000000 0.8170095682 50.657001495 0.7799999714 0.7799999714
 1613.8009033  -999.250000 16.815000534 0.0050032022 0.4896006286 2.0229744911 46.375000000 148.75000000 0.8210111856 53.657001495 0.7559999824 0.7559999824
 1613.9533691  -999.250000 16.847999573 0.0040024039 0.5171158910 2.0339734554 45.719001770 148.00000000 0.8280384541 54.657001495 0.7459999919 0.7459999919
 1614.1057129  -999.250000 16.886999130 0.0010096077 0.5364190936 2.0409774780 46.500000000 147.87500000 0.8440464735 52.657001495 0.7419999838 0.7419999838
 1614.2580566  -999.250000 16.847000122 0.0000032051 0.5724034309 2.0529615879 42.125000000 146.87500000 0.8730609417 50.157001495 0.7710000277 0.7710000277
 1614.4105225  -999.250000 16.799999237 0.0019935949 0.5903512836 2.0639646053 39.405998230 148.62500000 0.9111369252 52.657001495 0.7979999781 0.7979999781
 1614.5628662  -999.250000 16.742000580 0.0079807695 0.5603123903 2.0799486637 33.812999725 147.25000000 0.9680945277 47.657001495 0.8379999995 0.8379999995
 1614.7153320  -999.250000 16.652000427 0.0070024040 0.5056975484 2.0919711590 32.655998230 140.75000000 1.0271272659 51.657001495 0.8930000067 0.8930000067
 1614.8676758  -999.250000 16.510000229 0.0000224179 0.4551714659 2.1009712219 31.827999115 135.12500000 1.0800801516 49.657001495 1.0000000000 1.0000000000
 1615.0201416  -999.250000 16.364000320 -0.005985577 0.4640854895 2.1079831123 31.062999725 127.37500000 1.1301128864 49.657001495 1.1549999714 1.1549999714
 1615.1724854  -999.250000 16.327999115 -0.006996798 0.4943970442 2.1070032120 31.608999252 122.87500000 1.1770480871 52.157001495 1.2430000305 1.2430000305
 1615.3249512  -999.250000 16.327999115 -0.006002404 0.5321395993 2.1050047874 31.516000748 124.37500763 1.2070840597 49.157001495 1.2439999580 1.2439999580
 1615.4772949  -999.250000 16.330999374 -0.009987189 0.5269825459 2.0950319767 32.594001770 123.62500000 1.2420047522 46.657001495 1.1670000553 1.1670000553
 1615.6297607  -999.250000 16.371000290 -0.014987980 0.5119640827 2.0840265751 31.781000137 122.99999237 1.2449543476 46.157001495 1.1210000515 1.1210000515
 1615.7821045  -999.250000 16.419000626 -0.017990392 0.4884366095 2.0760254860 30.983999252 120.87500000 1.2259486914 45.657001495 1.0959999561 1.0959999561
 1615.9345703  -999.250000 16.481000900 -0.016004808 0.5088670850 2.0779953003 30.125000000 119.24999237 1.1939495802 46.157001495 1.0839999914 1.0839999914
 1616.0869141  -999.250000 16.520000458 -0.010019215 0.5275201201 2.0839807987 30.797000885 121.00000000 1.1729823351 49.657001495 1.0549999475 1.0549999475
