# LAS format log file from PETREL
# Project units are specified as depth units
#==================================================================
~Version information
VERS.   2.0:
WRAP.   NO:
#==================================================================
~Well
STRT .m      1245.0043945 :
STOP .m      3214.9267578 :
STEP .m     0.00000000 :
NULL .        -999.250000 :
COMP.           : COMPANY
WELL.  35/11-11   : WELL
FLD.            : FIELD
LOC.            : LOCATION
SRVC.           : SERVICE COMPANY
DATE.  2018-09-11 14:48:54   : Log Export Date {yyyy-MM-dd HH:mm:ss}
PROV.           : PROVINCE
UWI.   35/11-11   : UNIQUE WELL ID
API.            : API NUMBER
#==================================================================
~Curve
DEPT .m                   : DEPTH
Lithology_geolink ._      : Lithology_geolink
CALI .in                  : CALI
BS .in                    : BS
ROP .m/h                  : ROP
DRHO .g/cm3               : DRHO
THOR .ppm                 : THOR
NPHI .m3/m3               : NPHI
RHOB .g/cm3               : RHOB
PEF .b/e                  : PEF
GR .gAPI                  : GR
URAN .ppm                 : URAN
DTC .us/ft                : DTC
DTS .us/ft                : DTS
RDEP .ohm.m               : RDEP
SP .mV                    : SP
RMIC .ohm.m               : RMIC
RMED .ohm.m               : RMED
~Parameter
#==================================================================
~Ascii
# ...
 1378.3543701  -999.250000 12.583900452 12.250000954 264.13058472 -0.000700000  -999.250000 0.4319895804 2.0534999371 3.0067000389 85.861808777  -999.250000 146.93229675 390.59628296 1.0387883186 73.345802307 0.9922000170 1.1077852249
 1378.5067139  -999.250000 12.589500427 12.250000954 264.13058472 0.0027000001  -999.250000 0.4505999982 2.0504999161 2.9249000549 83.726806641  -999.250000 146.24169922 380.66711426 1.0496913195 73.541496277 0.9821000099 1.1223883629
 1378.6591797  -999.250000 12.584400177 12.250000954 264.13058472 0.0038999999  -999.250000 0.4444999993 2.0504000187 2.9077000618 84.377372742  -999.250000 146.36419678 388.84860229 1.0348119736 73.720802307 0.9886000156 1.0996181965
 1378.8115234  -999.250000 12.584600449 12.250000954 264.13058472 0.0024000001  -999.250000 0.4447000027 2.0543999672 2.9377000332 85.741706848  -999.250000 146.37710571 393.39932251 1.0281053782 73.783302307 0.9855999947 1.0923058987
 1378.9639893  -999.250000 12.579501152 12.250000954 228.03479004 0.0001000000  -999.250000 0.4487000108 2.0664000511 3.0327000618 87.496093750  -999.250000 146.58399963 393.09320068 1.0182079077 73.745903015 1.0104999542 1.0765126944
 1379.1163330  -999.250000 12.577800751 12.250000954 228.03479004 -0.001400000  -999.250000 0.4779999852 2.0871999264 3.1614999771 93.423645020  -999.250000 146.56100464 393.03799438 1.0045109987 73.620903015 1.0124000311 1.0630108118
 1379.2687988  -999.250000 12.589500427 12.250000954 228.03479004 -0.003200000  -999.250000 0.4650999904 2.1078999043 3.2771999836 94.542709351  -999.250000 147.03390503 381.58200073 0.9723258018 73.795600891 1.0197999477 1.0228321552
 1379.4211426  -999.250000 12.501799583 12.250000954 228.03479004 -0.002100000  -999.250000 0.4505999982 2.1117000580 3.3131000996 93.189285278  -999.250000 146.51930237 379.96826172 0.9786948562 74.133201599 1.0226000547 1.0330917835
 1379.5734863  -999.250000 12.492699623 12.250000954 228.03479004 -0.001900000  -999.250000 0.4359000027 2.1024999619 3.2651998997 89.988433838  -999.250000 146.22070313 394.28799438 1.0011639595 74.316596985 1.0385999680 1.0518698692
 1379.7259521  -999.250000 12.496700287 12.250000954 228.03479004 -0.002000000  -999.250000 0.4307000041 2.0887999535 3.1968998909 88.677642822  -999.250000 146.47399902 390.79519653 1.0055963993 74.741302490 1.0470999479 1.0585945845
 1379.8782959  -999.250000 12.534000397 12.250000954 213.92060852 -0.004000000  -999.250000 0.4318999946 2.0829999447 3.0852999687 90.336936951  -999.250000 146.62910461 393.74520874 1.0225728750 75.728500366 0.9354000092 1.0749738216
 1380.0307617  -999.250000 12.554900169 12.250000954 213.92060852 -0.003600000  -999.250000 0.4507000148 2.0852999687 2.9899001122 91.419631958  -999.250000 147.52879333 377.50119019 0.9714410305 76.245903015 0.8300999999 1.0238410234
 1380.1831055  -999.250000 12.521200180 12.250000954 213.92060852 -0.003300000  -999.250000 0.4771000147 2.0885000229 2.8933000565 93.742973328  -999.250000 149.36770630 369.34909058 0.9868751764 76.021003723 0.8102999926 1.0261962414
 1380.3355713  -999.250000 11.466300011 12.250000954 213.92060852 -0.003200000  -999.250000 0.5419999957 2.0747001171 2.9398999214 94.832130432  -999.250000 152.45869446 371.77914429 0.9704132080 75.675201416 0.9059000015 1.0060162544
 1380.4879150  -999.250000 12.542900085 12.250000954 213.92060852 -0.001600000  -999.250000 0.5400000215 2.0330998898 3.1686000824 96.754058838  -999.250000 153.67349243 388.69531250 0.9055519700 75.433403015 0.7281000018 0.9408522844
 1380.6403809  -999.250000 12.551799774 12.250000954 213.92060852 0.0111999996  -999.250000 0.5590999722 1.9941999912 3.5162000656 95.808753967  -999.250000 153.96549988 442.17065430 0.9151922464 75.175201416 0.5473999977 0.9464954138
 1380.7927246  -999.250000 12.483598709 12.250000954 237.18176270 0.0282000005  -999.250000 0.5697000027 1.9733999968 3.7565999031 95.664215088  -999.250000 152.77909851 446.46258545 0.9098043442 74.966697693 0.4636999965 0.9390060306
 1380.9451904  -999.250000 12.199398994 12.250000954 237.18176270 0.0428000018  -999.250000 0.5655000210 1.9907000065 3.7049000263 93.296897888  -999.250000 152.86450195 480.70669556 0.9549638033 75.137298584 0.3689000010 0.9842637777
 1381.0975342  -999.250000 12.620199203 12.250000954 237.18176270 0.0439999998  -999.250000 0.5565000176 2.0211999416 3.4396998882 90.861450195  -999.250000 152.89700317 459.21780396 0.9209272861 75.312500000 0.3734000027 0.9530251026
 1381.2500000  -999.250000 12.651800156 12.250000954 237.18176270 0.0281000007  -999.250000 0.5414000154 2.0531001091 3.0820999146 90.123489380  -999.250000 151.51269531 444.61468506 0.9096090794 74.813003540 0.4140999913 0.9421086907
 1381.4023438  -999.250000 12.587300301 12.250000954 237.18176270 0.0115000000  -999.250000 0.5066000223 2.0701000690 2.8248000145 89.698440552  -999.250000 151.04449463 461.31259155 1.0025254488 74.375000000 0.6772000194 1.0335266590
 1381.5548096  -999.250000 12.639299393 12.250000954 237.18176270 -0.001500000  -999.250000 0.5087000132 2.0513999462 2.7832000256 91.475669861  -999.250000 150.40080261 442.70480347 1.0215847492 74.408302307 0.8923000097 1.0533841848
 1381.7071533  -999.250000 12.596500397 12.250000954 237.18176270 -0.001500000  -999.250000 0.5044000149 2.0032999516 3.0248000622 92.986183167  -999.250000 149.78869629 441.63751221 1.0069117546 74.703903198 0.7865999937 1.0367133617
 1381.8594971  -999.250000 12.552300453 12.250000954 260.45605469 0.0041999999  -999.250000 0.5726000071 1.9702999592 3.3782999516 95.425582886  -999.250000 150.28729248 433.41830444 0.9691604972 75.103996277 0.3413999975 0.9956657887
 1382.0119629  -999.250000 12.532300949 12.250000954 260.45605469 0.0137000000  -999.250000 0.5864999890 1.9950000048 3.5457999706 95.665603638  -999.250000 149.95948792 436.69488525 0.8590882421 75.383201599 0.3163999915 0.8759958744
 1382.1643066  -999.250000 12.539501190 12.250000954 260.45605469 0.0126999998  -999.250000 0.5885999799 2.0487000942 3.5429000854 92.541999817  -999.250000 150.31811523 429.64050293 0.9611362219 75.433403015 0.3619000018 0.9774371386
 1382.3167725  -999.250000 12.566199303 12.250000954 260.45605469 0.0076000001  -999.250000 0.5292000175 2.0850000381 3.4684000015 90.470901489  -999.250000 149.79690552 411.00973511 1.0480304956 75.275100708 0.7170000076 1.0660290718
 1382.4691162  -999.250000 12.555000305 12.250000954 260.45605469 -0.003000000  -999.250000 0.4934999943 2.0875999928 3.4040000439 89.257202148  -999.250000 147.14480591 425.88003540 0.9473615885 75.187500000 0.7807999849 0.9706530571
 1382.6215820  -999.250000 12.559499741 12.250000954 260.45605469 -0.003400000  -999.250000 0.5109999776 2.0868000984 3.3052000999 91.765800476  -999.250000 146.51159668 388.65768433 0.9685828090 75.120903015 0.7950999737 0.9939811826
 1382.7739258  -999.250000 12.550100327 12.250000954 242.25720215 -0.003400000  -999.250000 0.5205000043 2.0878999233 3.0841999054 96.370903015  -999.250000 145.99040222 377.12719727 0.9852865934 75.062500000 0.9028999805 1.0065898895
 1382.9263916  -999.250000 12.545100212 12.250000954 242.25720215 -0.002900000  -999.250000 0.5691999793 2.0857999325 2.9342999458 94.867500305  -999.250000 146.09440613 357.47961426 0.9758076072 75.029197693 0.9039999843 1.0050013065
 1383.0787354  -999.250000 12.561699867 12.250000954 242.25720215 -0.002300000  -999.250000 0.5580999851 2.0741000175 2.9089000225 94.219100952  -999.250000 148.52650452 366.03540039 0.9974825978 75.099899292 0.8805000186 1.0273820162
 1383.2312012  -999.250000 12.574900627 12.250000954 242.25720215 -0.003700000  -999.250000 0.5324000120 2.0215001106 3.1893999577 93.050903320  -999.250000 151.15060425 392.13919067 1.0014967918 74.887802124 0.8237000108 1.0283991098
 1383.3835449  -999.250000 12.545100212 12.250000954 242.25720215 -0.002200000  -999.250000 0.5131000280 1.9585000277 3.6477000713 93.345497131  -999.250000 153.53550720 429.97805786 1.0050971508 74.724899292 0.4178999960 1.0229043961
 1383.5360107  -999.250000 12.567299843 12.250000954 242.25720215 0.0006000000  -999.250000 0.5540000200 1.9178999662 4.0472002029 94.097702026  -999.250000 155.26501465 441.65368652 0.8601161838 74.779197693 0.2615999877 0.8748186827
