# LAS format log file from PETREL
# Project units are specified as depth units
#==================================================================
~Version information
VERS.   2.0:
WRAP.   NO:
#==================================================================
~Well
STRT .m      1242.0020752 :
STOP .m      2811.1123047 :
STEP .m     0.00000000 :
NULL .        -999.250000 :
COMP.           : COMPANY
WELL.  35/11-9   : WELL
FLD.            : FIELD
LOC.            : LOCATION
SRVC.           : SERVICE COMPANY
DATE.  2018-09-11 14:48:57   : Log Export Date {yyyy-MM-dd HH:mm:ss}
PROV.           : PROVINCE
UWI.   35/11-9   : UNIQUE WELL ID
API.            : API NUMBER
#==================================================================
~Curve
DEPT .m                   : DEPTH
Lithology_geolink ._      : Lithology_geolink
CALI .in                  : CALI
BS .in                    : BS
DRHO .g/cm3               : DRHO
NPHI .m3/m3               : NPHI
RHOB .g/cm3               : RHOB
GR .gAPI                  : GR
DTC .us/ft                : DTC
DTS .us/ft                : DTS
RDEP .ohm.m               : RDEP
SP .mV                    : SP
RMIC .ohm.m               : RMIC
~Parameter
#==================================================================
~Ascii
# ...
 1966.2067871 16.000000000 12.159000397 12.250000954 0.0056880000 0.3652502894 2.3759999275 82.289405823 116.50599670 277.70599365 1.0989999771 12.668999672 1.1970000267
 1966.3592529 16.000000000 12.156999588 12.250000954 0.0074829999 0.3766406775 2.3680000305 82.794700623 117.16200256 279.59399414 1.0779999495 13.805999756 1.1740000248
 1966.5115967 16.000000000 12.158000946 12.250000954 0.0096479999 0.3694339097 2.3680000305 84.914642334 117.29699707 279.78100586 1.0759999752 12.800000191 1.1829999685
 1966.6640625 16.000000000 12.159000397 12.250000954 0.0093010003 0.3612834811 2.3719999790 81.984603882 117.34700775 278.49798584 1.0829999447 11.836999893 1.2389999628
 1966.8164063 16.000000000 12.158000946 12.250000954 0.0094929999 0.3602274358 2.3829998970 86.721893311 116.59300232 274.38299561 1.1219999790 11.050000191 1.2680000067
 1966.9688721 16.000000000 12.156999588 12.250000954 0.0110470001 0.3586262465 2.3910000324 81.598777771 114.64299774 265.63699341 1.1699999571 14.637999535 1.3639999628
 1967.1212158 16.000000000 12.156999588 12.250000954 0.0091169998 0.3553782701 2.3880000114 78.335113525 113.29000092 259.95800781 1.2220000029 15.380999565 1.4520000219
 1967.2736816 16.000000000 12.158000946 12.250000954 0.0097639998 0.3355551362 2.4000000954 68.492485046 111.07398987 257.32699585 1.2760000229 14.375000000 1.3719999790
 1967.4260254 16.000000000 12.156999588 12.250000954 0.0097559998 0.3173328042 2.4089999199 65.676605225 109.78599548 254.97500610 1.2920000553 13.937999725 1.3880000114
 1967.5783691 16.000000000 12.156999588 12.250000954 0.0084100002 0.3122255802 2.4119999409 66.428665161 109.39600372 253.20199585 1.2890000343 13.281000137 1.3969999552
 1967.7308350 16.000000000 12.156999588 12.250000954 0.0046179998 0.3076113462 2.4130001068 62.271644592 109.19499969 251.52401733 1.3289999962 12.755999565 1.5609999895
 1967.8831787 16.000000000 12.156999588 12.250000954 0.0062630000 0.3090025187 2.4149999619 64.321250916 109.26999664 249.77598572 1.3259999752 13.062999725 1.5319999456
 1968.0356445 16.000000000 12.156999588 12.250000954 0.0082069999 0.3124786615 2.4210000038 65.874649048 108.86599731 248.87699890 1.3339999914 14.244000435 1.4459999800
 1968.1879883 16.000000000 12.158000946 12.250000954 0.0089280000 0.3289546669 2.4140000343 60.441833496 108.73200226 248.24000549 1.3580000401 14.418999672 1.4680000544
 1968.3404541 16.000000000 12.159000397 12.250000954 0.0089360001 0.3262648880 2.4140000343 51.499095917 109.56400299 248.64199829 1.3259999752 12.975000381 1.5290000439
 1968.4927979 16.000000000 12.156999588 12.250000954 0.0121210003 0.3270521462 2.4149999619 54.123512268 109.91400909 250.34101868 1.3190000057 12.100000381 1.4769999981
 1968.6452637 16.000000000 12.158000946 12.250000954 0.0132790003 0.3309063613 2.4130001068 69.720405579 109.97000122 252.00000000 1.2949999571 12.274999619 1.4240000248
 1968.7976074 16.000000000 12.158000946 12.250000954 0.0133079998 0.3464478850 2.4010000229 65.614532471 110.69300079 253.10000610 1.2669999599 12.012999535 1.3990000486
 1968.9500732 16.000000000 12.156999588 12.250000954 0.0118420003 0.3562879264 2.3910000324 70.017829895 111.41500092 253.36999512 1.2430000305 11.750000000 1.3999999762
 1969.1024170 16.000000000 12.156999588 12.250000954 0.0126999998 0.3367324769 2.3910000324 71.159812927 111.77200317 256.52899170 1.2239999771 14.199999809 1.4010000229
 1969.2548828 16.000000000 12.156999588 12.250000954 0.0109519996 0.3351282477 2.3859999180 70.920463562 111.97200012 255.46800232 1.2180000544 14.375000000 1.3480000496
 1969.4072266 16.000000000 12.158000946 12.250000954 0.0063270000 0.3273525834 2.3810000420 67.471023560 111.94999695 253.99800110 1.2239999771 12.668999672 1.4060000181
 1969.5595703 16.000000000 12.158000946 12.250000954 0.0011030000 0.3364281058 2.3759999275 69.990165710 111.72000122 253.05299377 1.2359999418 11.269000053 1.4550000429
 1969.7120361 16.000000000 12.159000397 12.250000954 -0.000992000 0.3283706307 2.3800001144 70.204544067 109.77400208 253.03599548 1.2920000553 10.394000053 1.5000000000
 1969.8643799 16.000000000 12.158000946 12.250000954 -0.000427000 0.3223961890 2.3940000534 72.119735718 108.84999847 248.13699341 1.3329999447 11.137999535 1.5789999962
 1970.0168457 16.000000000 12.159000397 12.250000954 0.0005520000 0.3163039386 2.4019999504 69.282669067 107.46499634 241.63999939 1.3639999628 13.062999725 1.6610000134
 1970.1691895 16.000000000 12.161001205 12.250000954 0.0041149999 0.3220962286 2.4059998989 61.387825012 107.75599670 239.10499573 1.3949999809 14.725000381 1.6019999981
 1970.3216553 16.000000000 12.156999588 12.250000954 0.0058849999 0.3191193938 2.4070000648 64.919364929 107.65300751 242.87599182 1.3990000486 15.119000435 1.5099999905
 1970.4739990 16.000000000 12.161001205 12.250000954 0.0059090001 0.3188708425 2.3989999294 67.873840332 108.76599884 246.50999451 1.3580000401 11.880999565 1.5930000544
 1970.6264648 16.000000000 12.158000946 12.250000954 0.0063080001 0.3150401711 2.3940000534 73.918228149 109.08999634 247.52999878 1.2879999876 11.093999863 1.4589999914
 1970.7788086 16.000000000 12.158000946 12.250000954 0.0061880001 0.3176190853 2.3800001144 83.414352417 110.07900238 251.11700439 1.2159999609 12.100000381 1.4069999456
 1970.9312744 16.000000000 12.158000946 12.250000954 0.0048230002 0.3257885873 2.3759999275 85.105743408 112.95200348 256.83801270 1.1579999924 13.411999702 1.2979999781
 1971.0836182 16.000000000 12.159000397 12.250000954 0.0046299999 0.3364201188 2.3770000935 91.181610107 113.30999756 263.59298706 1.1180000305 14.244000435 1.2829999924
 1971.2360840 16.000000000 12.156999588 12.250000954 0.0081219999 0.3383417726 2.3849999905 94.426757813 112.08100128 259.50698853 1.1820000410 13.586999893 1.3960000277
 1971.3884277 16.000000000 12.158000946 12.250000954 0.0072980002 0.3274439871 2.4030001163 91.154426575 110.56500244 251.04299927 1.3380000591 12.668999672 2.0209999084
 1971.5407715 16.000000000 12.156999588 12.250000954 0.0075449999 0.3237008154 2.4479999542 87.944328308 108.91400146 246.99499512 1.4520000219 11.706000328 2.1559998989
 1971.6932373 16.000000000 12.159000397 12.250000954 0.0112460004 0.3236096799 2.4939999580 87.107826233 105.64600372 239.92797852 1.5629999638 11.005999565 1.9450000525
 1971.8455811 16.000000000 12.156999588 12.250000954 0.0121579999 0.3371013701 2.5090000629 85.635101318 104.59700012 235.57402039 1.6909999847 14.987000465 1.7289999723
 1971.9980469 16.000000000 12.156999588 12.250000954 0.0097260000 0.3379881084 2.4869999886 79.531158447 104.18299103 233.07299805 1.5690000057 14.069000244 1.5549999475
 1972.1503906 16.000000000 12.156999588 12.250000954 0.0109200003 0.3546697795 2.4849998951 88.454292297 105.52700043 235.53901672 1.5060000420 13.105999947 1.6330000162
 1972.3028564 16.000000000 12.156999588 12.250000954 0.0142569998 0.3670504689 2.4809999466 83.832023621 109.14700317 240.78300476 1.4170000553 11.399999619 1.6990000010
 1972.4552002 16.000000000 12.159000397 12.250000954 0.0141949998 0.3862948120 2.4539999962 86.348243713 108.75599670 241.10299683 1.2640000582 11.050000191 1.2879999876
 1972.6076660 16.000000000 12.158000946 12.250000954 0.0114960000 0.3498642445 2.4240000248 84.151931763 103.02100372 231.13800049 1.3320000172 12.362000465 1.8289999962
 1972.7600098 16.000000000 12.156999588 12.250000954 0.0107600000 0.2717283666 2.4430000782 81.553039551 97.849998474 210.14399719 1.6349999905 15.862001419 5.8850002289
 1972.9124756 16.000000000 12.156999588 12.250000954 0.0130599998 0.1764978319 2.4969999790 54.117870331 95.069999695 201.48699951 2.4530000687 13.281000137 5.2810001373
 1973.0648193 16.000000000 12.156999588 12.250000954 0.0139009999 0.1257487983 2.5480000973 22.230455399 86.091011047 161.81799316 3.8650000095 12.230999947 5.8220000267
 1973.2172852 16.000000000 12.156999588 12.250000954 0.0078630000 0.1206538454 2.5460000038 10.330726624 70.785003662 140.34599304 5.7670001984 11.312999725 4.3969998360
 1973.3696289 16.000000000 12.156999588 12.250000954 0.0029940000 0.1268468052 2.5320000648 11.417091370 69.017997742 137.97799683 7.1729998589 11.355999947 4.2410001755
