# LAS format log file from PETREL
# Project units are specified as depth units
#==================================================================
~Version information
VERS.   2.0:
WRAP.   NO:
#==================================================================
~Well
STRT .m      1242.0020752 :
STOP .m      2811.1123047 :
STEP .m     0.00000000 :
NULL .        -999.250000 :
COMP.           : COMPANY
WELL.  35/11-9   : WELL
FLD.            : FIELD
LOC.            : LOCATION
SRVC.           : SERVICE COMPANY
DATE.  2018-09-11 14:48:57   : Log Export Date {yyyy-MM-dd HH:mm:ss}
PROV.           : PROVINCE
UWI.   35/11-9   : UNIQUE WELL ID
API.            : API NUMBER
#==================================================================
~Curve
DEPT .m                   : DEPTH
Lithology_geolink ._      : Lithology_geolink
CALI .in                  : CALI
BS .in                    : BS
DRHO .g/cm3               : DRHO
NPHI .m3/m3               : NPHI
RHOB .g/cm3               : RHOB
GR .gAPI                  : GR
DTC .us/ft                : DTC
DTS .us/ft                : DTS
RDEP .ohm.m               : RDEP
SP .mV                    : SP
RMIC .ohm.m               : RMIC
~Parameter
#==================================================================
~Ascii
# ...
 2375.8579102 5.0000000000 8.6289997101 8.5000000000 0.0057238140 0.1919606477 2.5550208092 40.963001251 79.311004639 164.12301636 2.6847660542 15.248807907 2.6129999161
 2376.0102539 5.0000000000 8.6110000610 8.5000000000 0.0048254309 0.1993412673 2.5440175533 44.944999695 81.164009094 172.40899658 2.5182659626 15.468648911 2.5050001144
 2376.1628418 5.0000000000 8.6110000610 8.5000000000 0.0066080000 0.2082517892 2.5269999504 49.324733734 85.128997803 174.23599243 2.4479999542 14.461999893 2.3169999123
 2376.3151855 5.0000000000 8.6020002365 8.5000000000 0.0082480004 0.2159465551 2.5130000114 49.761405945 87.163002014 179.69700623 2.4189999104 13.281000137 2.6329998970
 2376.4675293 5.0000000000 8.5860004425 8.5000000000 0.0108588152 0.2114712149 2.5090065002 38.185703278 87.630996704 181.66700745 2.4349744320 13.805159569 2.7279999256
 2376.6198730 5.0000000000 8.6239995956 8.5000000000 0.0160656497 0.2158988714 2.5199823380 42.368000031 88.447998047 183.13298035 2.3102002144 14.460948944 2.2780001163
 2376.7724609 5.0000000000 8.6420001984 8.5000000000 0.0158500001 0.2186734527 2.5160000324 40.359275818 89.147003174 186.90298462 2.2839999199 14.637999535 2.1259999275
 2376.9248047 5.0000000000 8.6339998245 8.5000000000 0.0135570001 0.2231322825 2.5130000114 45.520526886 88.446998596 186.61000061 2.2149999142 14.244000435 2.5789999962
 2377.0771484 5.0000000000 8.5850000381 8.5000000000 0.0115771731 0.2120345533 2.5070095062 49.582973480 87.404998779 185.60200500 2.2289776802 13.501190186 2.4010000229
 2377.2294922 5.0000000000 8.5810003281 8.5000000000 0.0161536485 0.2153263092 2.5209774971 46.445999146 87.918998718 186.97999573 2.2539598942 13.718648911 2.4719998837
 2377.3818359 5.0000000000 8.5880002975 8.5000000000 0.0113916555 0.2185532749 2.5209999084 49.219001770 88.007003784 182.57200623 2.3538398743 14.460808754 2.5069999695
 2377.5344238 5.0000000000 8.6110000610 8.5000000000 0.0101680001 0.2280626595 2.5220000744 47.321456909 88.249000549 183.37600708 2.4639999866 15.425000191 2.5880000591
 2377.6867676 5.0000000000 8.6110000610 8.5000000000 0.0119022205 0.2267019749 2.5319840908 46.356201172 88.227996826 185.78500366 2.4240639210 14.201959610 2.3459999561
 2377.8391113 5.0000000000 8.5959997177 8.5000000000 0.0123502854 0.2235294878 2.5320000648 44.608001709 87.235000610 177.55000305 2.5048704147 11.623136520 2.6770000458
 2377.9914551 5.0000000000 8.5810003281 8.5000000000 0.0087587656 0.2065289617 2.5339968204 41.033000946 86.696998596 179.74299622 2.5968525410 12.842036247 2.7899999619
 2378.1440430 5.0000000000 8.5810003281 8.5000000000 0.0141960001 0.1933970898 2.5450000763 38.095016479 85.958999634 179.77699280 2.6559998989 14.418999672 2.9600000381
 2378.2963867 5.0000000000 8.6020002365 8.5000000000 0.0173719991 0.1853437126 2.5569999218 36.862934113 84.234001160 176.59500122 2.7149999142 14.944000244 2.9690001011
 2378.4487305 5.0000000000 8.6110000610 8.5000000000 0.0149478847 0.1874243915 2.5659856796 39.313186646 82.889999390 181.42300415 2.9086894989 14.201189995 3.0060000420
 2378.6010742 5.0000000000 8.6110000610 8.5000000000 0.0111710560 0.1866116822 2.5590112209 39.430000305 81.801002502 177.99201965 2.9988558292 13.195611954 2.9089999199
 2378.7536621 5.0000000000 8.6110000610 8.5000000000 0.0091180000 0.1855503023 2.5569999218 39.228641510 81.786003113 171.85200500 3.0720000267 13.324999809 3.0439999104
 2378.9060059 5.0000000000 8.6110000610 8.5000000000 0.0065580001 0.1775303930 2.5559999943 39.617172241 81.746002197 173.44200134 3.2400000095 14.944000244 3.5420000553
 2379.0583496 5.0000000000 8.6110000610 8.5000000000 0.0040949476 0.1692556739 2.5619904995 33.495231628 80.297996521 169.36801147 3.1950719357 17.040639877 3.2630000114
 2379.2106934 5.0000000000 8.6110000610 8.5000000000 0.0054707853 0.1695243567 2.5709857941 33.016998291 82.029998779 173.33200073 3.1410865784 17.087928772 2.7000000477
 2379.3630371 5.0000000000 8.6110000610 8.5000000000 0.0065382901 0.1886673123 2.5729968548 32.758998871 81.468002319 155.03201294 3.0960719585 16.606773376 2.9340000153
 2379.5156250 5.0000000000 8.6110000610 8.5000000000 0.0064909998 0.2075708956 2.5610001087 41.612033844 81.751998901 168.63600159 3.0380001068 15.161999702 3.0959999561
 2379.6679688 5.0000000000 8.6110000610 8.5000000000 0.0039680433 0.2140574604 2.5490193367 51.588790894 81.844001770 171.23802185 2.9641184807 14.463119507 3.2730000019
 2379.8203125 5.0000000000 8.6110000610 8.5000000000 0.0046369196 0.2114382684 2.5440080166 43.970001221 84.194000244 172.64898682 3.0368828773 15.728965759 4.3579998016
 2379.9726563 5.0000000000 8.6110000610 8.5000000000 0.0057781697 0.2221199572 2.5469951630 46.515998840 85.004997253 171.73199463 3.1438286304 19.138528824 2.8919999599
 2380.1252441 5.0000000000 8.6110000610 8.5000000000 0.0063809999 0.2258057445 2.5420000553 53.040184021 84.337997437 167.11199951 3.2899999619 22.118999481 3.4140000343
 2380.2775879 5.0000000000 8.6110000610 8.5000000000 0.0093850000 0.2182095796 2.5490000248 50.667343140 81.976997375 166.43098450 3.7330000401 20.761999130 3.5710000992
 2380.4299316 5.0000000000 8.5939998627 8.5000000000 0.0119239306 0.2018634379 2.5609807968 52.740451813 80.971992493 164.25099182 4.2831182480 18.185129166 4.9200000763
 2380.5822754 5.0000000000 8.5810003281 8.5000000000 0.0157318935 0.1889002919 2.5889551640 46.782001495 78.258995056 158.36199951 4.3918271065 15.123907089 4.5549998283
 2380.7348633 5.0000000000 8.5889997482 8.5000000000 0.0182089992 0.1791083962 2.5980000496 50.098781586 78.376998901 157.52400208 4.4200000763 17.919000626 3.5450000763
 2380.8872070 5.0000000000 8.6239995956 8.5000000000 0.0442549996 0.1759147644 2.5940001011 49.966197968 78.463996887 157.03900146 4.0110001564 21.243999481 1.0279999971
 2381.0395508 5.0000000000 8.6610002518 8.5000000000 0.0501914844 0.2090367526 2.5560607910 51.971614838 81.705001831 153.10000610 2.2178735733 21.286931992 0.3030000031
 2381.1918945 5.0000000000 8.9040002823 8.5000000000 0.0380534977 0.2798178494 2.4851136208 60.466999054 71.060997009 171.10299683 1.6089727879 20.413402557 0.3240000010
 2381.3442383 5.0000000000 8.8500003815 8.5000000000 0.0411619768 0.3608146608 2.4869968891 100.01799774 81.637001038 200.47599792 1.2435849905 20.194349289 1.3700000048
 2381.4968262 5.0000000000 8.6420001984 8.5000000000 0.0568070002 0.3929760456 2.5209999084 193.23646545 81.781990051 217.48500061 1.1360000372 19.319000244 1.4010000229
 2381.6491699 5.0000000000 8.6420001984 8.5000000000 0.0788926110 0.3909029663 2.5459599495 196.02499390 85.226997375 228.64598083 1.1899136305 17.833379745 0.8519999981
 2381.8015137 5.0000000000 8.6129999161 8.5000000000 0.0720430464 0.4186792672 2.4721183777 199.14300537 89.403999329 243.34199524 1.3487452269 17.132122040 0.6420000196
 2381.9538574 7.0000000000 8.6250000000 8.5000000000 0.0671208799 0.4518096745 2.4100995064 201.16900635 89.906997681 253.57299805 1.4318670034 19.096845627 2.6710000038
 2382.1064453 7.0000000000 8.6110000610 8.5000000000 0.0687509999 0.4683699608 2.4110000134 195.28201294 89.014999390 253.96099854 1.9769999981 21.725000381 2.2899999619
 2382.2587891 7.0000000000 8.6110000610 8.5000000000 0.0744500011 0.4512872100 2.4539999962 202.74311829 90.370002747 245.05299377 2.4809999466 23.606000900 2.2539999485
 2382.4111328 7.0000000000 8.6110000610 8.5000000000 0.0326489881 0.4635280371 2.4420192242 189.09451294 91.216003418 239.60499573 2.4410638809 21.684080124 2.2009999752
 2382.5634766 7.0000000000 8.6110000610 8.5000000000 0.0101350304 0.4778674841 2.4240288734 178.18200684 92.009010315 235.62300110 2.4310159683 21.244699478 2.9089999199
 2382.7160645 7.0000000000 8.6110000610 8.5000000000 0.0064139999 0.4762649238 2.4260001183 168.74885559 85.008003235 231.89099121 2.3289999962 18.750000000 2.2750000954
 2382.8684082 7.0000000000 8.6400003433 8.5000000000 0.0401900001 0.4615299404 2.4010000229 166.15687561 84.328002930 224.73800659 2.1189999580 16.694000244 1.0039999485
 2383.0207520 7.0000000000 8.6420001984 8.5000000000 0.0653906167 0.4323134720 2.3231246471 161.09698486 82.356002808 228.13400269 1.9882096052 21.236719131 0.3370000124
