# LAS format log file from PETREL
# Project units are specified as depth units
#==================================================================
~Version information
VERS.   2.0:
WRAP.   NO:
#==================================================================
~Well
STRT .m      359.96881104 :
STOP .m      3380.8413086 :
STEP .m     0.00000000 :
NULL .        -999.250000 :
COMP.           : COMPANY
WELL.  35/11-12   : WELL
FLD.            : FIELD
LOC.            : LOCATION
SRVC.           : SERVICE COMPANY
DATE.  2018-09-11 14:48:55   : Log Export Date {yyyy-MM-dd HH:mm:ss}
PROV.           : PROVINCE
UWI.   35/11-12   : UNIQUE WELL ID
API.            : API NUMBER
#==================================================================
~Curve
DEPT .m                   : DEPTH
Lithology_geolink ._      : Lithology_geolink
CALI .in                  : CALI
BS .in                    : BS
ROP .m/h                  : ROP
DRHO .g/cm3               : DRHO
NPHI .m3/m3               : NPHI
RHOB .g/cm3               : RHOB
PEF .b/e                  : PEF
GR .gAPI                  : GR
DTC .us/ft                : DTC
RDEP .ohm.m               : RDEP
RMED .ohm.m               : RMED
~Parameter
#==================================================================
~Ascii
# ...
 2291.1813965 12.000000000  -999.250000 12.250000954 118.07742310  -999.250000  -999.250000  -999.250000  -999.250000 164.21643066 115.23400879 1.0735230446 1.0067772865
 2291.3337402 12.000000000  -999.250000 12.250000954 124.08135986  -999.250000  -999.250000  -999.250000  -999.250000 168.53317261 115.63100433 1.0730481148 1.0374665260
 2291.4863281 12.000000000  -999.250000 12.250000954 133.89106750  -999.250000  -999.250000  -999.250000  -999.250000 168.18225098 115.58599854 1.0776021481 1.0278534889
 2291.6386719 12.000000000  -999.250000 12.250000954 126.83724976  -999.250000  -999.250000  -999.250000  -999.250000 172.32208252 115.22700500 1.0793530941 1.0227370262
 2291.7910156 12.000000000  -999.250000 12.250000954 119.25852203  -999.250000  -999.250000  -999.250000  -999.250000 172.26205444 114.85900879 1.0792474747 1.0117399693
 2291.9433594 12.000000000  -999.250000 12.250000954 108.85826874  -999.250000  -999.250000  -999.250000  -999.250000 171.25149536 114.81800842 1.0956363678 1.0243773460
 2292.0957031 12.000000000  -999.250000 12.250000954 106.20077515  -999.250000  -999.250000  -999.250000  -999.250000 167.81771851 115.14500427 1.0959615707 1.0917336941
 2292.2482910 12.000000000  -999.250000 12.250000954 100.82020569  -999.250000  -999.250000  -999.250000  -999.250000 167.51931763 115.53500366 1.0952544212 1.0697317123
 2292.4006348 12.000000000  -999.250000 12.250000954 101.83727264  -999.250000  -999.250000  -999.250000  -999.250000 166.41574097 115.54001617 1.0977070332 1.0158777237
 2292.5529785 12.000000000  -999.250000 12.250000954 99.671905518  -999.250000  -999.250000  -999.250000  -999.250000 167.19659424 115.11900330 1.0761833191 0.9824718237
 2292.7053223 12.000000000  -999.250000 12.250000954 98.129920959  -999.250000  -999.250000  -999.250000  -999.250000 166.38003540 114.86500549 1.0736184120 0.9909352064
 2292.8579102 12.000000000  -999.250000 12.250000954 95.177169800  -999.250000  -999.250000  -999.250000  -999.250000 167.22842407 115.11799622 1.0886452198 1.0507102013
 2293.0102539 12.000000000  -999.250000 12.250000954 95.702095032  -999.250000  -999.250000  -999.250000  -999.250000 167.95407104 115.40600586 1.0955021381 1.0477573872
 2293.1625977 12.000000000  -999.250000 12.250000954 88.582679749  -999.250000  -999.250000  -999.250000  -999.250000 169.12905884 115.28800964 1.0876026154 1.0336656570
 2293.3149414 12.000000000  -999.250000 12.250000954 89.566925049  -999.250000  -999.250000  -999.250000  -999.250000 170.48428345 115.02900696 1.0890326500 1.0302505493
 2293.4675293 12.000000000  -999.250000 12.250000954 94.750648499  -999.250000  -999.250000  -999.250000  -999.250000 171.45034790 114.88199615 1.0795278549 1.0203130245
 2293.6198730 12.000000000  -999.250000 12.250000954 102.82152557  -999.250000  -999.250000  -999.250000  -999.250000 170.79608154 114.54901123 1.0799617767 1.0227546692
 2293.7722168 12.000000000  -999.250000 12.250000954 107.21784973  -999.250000  -999.250000  -999.250000  -999.250000 171.80368042 114.08900452 1.0719482899 1.0334541798
 2293.9245605 12.000000000  -999.250000 12.250000954 103.44487762  -999.250000  -999.250000  -999.250000  -999.250000 173.12307739 114.31100464 1.0674893856 1.0415339470
 2294.0769043 12.000000000  -999.250000 12.250000954 101.50918579  -999.250000  -999.250000  -999.250000  -999.250000 173.48226929 115.32701111 1.0950238705 1.0515341759
 2294.2294922 12.000000000  -999.250000 12.250000954 99.671905518  -999.250000  -999.250000  -999.250000  -999.250000 172.89773560 116.19000244 1.0976865292 1.0586407185
 2294.3818359 12.000000000  -999.250000 12.250000954 101.64041901  -999.250000  -999.250000  -999.250000  -999.250000 167.52838135 116.66200256 1.0613241196 1.0750155449
 2294.5341797 12.000000000  -999.250000 12.250000954 96.423881531  -999.250000  -999.250000  -999.250000  -999.250000 161.85171509 115.23800659 1.0768983364 1.0058889389
 2294.6865234 12.000000000  -999.250000 12.250000954 106.56166840  -999.250000  -999.250000  -999.250000  -999.250000 159.92150879 112.43699646 1.0985729694 1.0446898937
 2294.8391113 12.000000000  -999.250000 12.250000954 116.20735168  -999.250000  -999.250000  -999.250000  -999.250000 161.66650391 113.07600403 1.0812520981 1.1114232540
 2294.9914551 12.000000000  -999.250000 12.250000954 120.50522614  -999.250000  -999.250000  -999.250000  -999.250000 168.12377930 116.99299622 1.0601832867 1.1250064373
 2295.1437988 12.000000000  -999.250000 12.250000954 114.14042664  -999.250000  -999.250000  -999.250000  -999.250000 171.50939941 119.96701050 1.0204279423 0.9521009922
 2295.2961426 12.000000000  -999.250000 12.250000954 83.366142273  -999.250000  -999.250000  -999.250000  -999.250000 172.03811646 120.14101410 1.0096855164 0.9329134226
 2295.4487305 12.000000000  -999.250000 12.250000954 82.841209412  -999.250000  -999.250000  -999.250000  -999.250000 169.04382324 118.57600403 1.0067861080 0.9333823919
 2295.6010742 12.000000000  -999.250000 12.250000954 79.527549744  -999.250000  -999.250000  -999.250000  -999.250000 168.59399414 117.23899841 1.0045881271 0.9412511587
 2295.7534180 12.000000000  -999.250000 12.250000954 79.330711365  -999.250000  -999.250000  -999.250000  -999.250000 167.84500122 116.72500610 0.9971132278 0.9591810703
 2295.9057617 12.000000000  -999.250000 12.250000954 78.740158081  -999.250000  -999.250000  -999.250000  -999.250000 170.83419800 116.69799805 0.9787131548 0.9353525639
 2296.0583496 12.000000000  -999.250000 12.250000954 80.413383484  -999.250000  -999.250000  -999.250000  -999.250000 172.27520752 116.73600769 0.9862556458 0.9057805538
 2296.2106934 12.000000000  -999.250000 12.250000954 78.576118469  -999.250000  -999.250000  -999.250000  -999.250000 177.62786865 116.60900879 0.9975550175 0.9343353510
 2296.3630371 12.000000000  -999.250000 12.250000954 78.346450806  -999.250000  -999.250000  -999.250000  -999.250000 178.14331055 116.21200562 1.0008857250 0.9791136980
 2296.5153809 12.000000000  -999.250000 12.250000954 76.345146179  -999.250000  -999.250000  -999.250000  -999.250000 176.60226440 115.68400574 1.0191051960 0.9967527390
 2296.6677246 12.000000000  -999.250000 12.250000954 78.248023987  -999.250000  -999.250000  -999.250000  -999.250000 175.77947998 115.28601074 1.0292668343 1.0016405582
 2296.8203125 12.000000000  -999.250000 12.250000954 103.77295685  -999.250000  -999.250000  -999.250000  -999.250000 173.03530884 115.11000061 1.0266962051 1.0122692585
 2296.9726563 12.000000000  -999.250000 12.250000954 109.15353394  -999.250000  -999.250000  -999.250000  -999.250000 171.13415527 115.17800903 1.0256929398 1.0136649609
 2297.1250000 12.000000000  -999.250000 12.250000954 116.76509094  -999.250000  -999.250000  -999.250000  -999.250000 167.69564819 115.37001038 1.0226824284 0.9986238480
 2297.2773438 12.000000000  -999.250000 12.250000954 117.38844299  -999.250000  -999.250000  -999.250000  -999.250000 168.46377563 115.44999695 1.0075228214 0.9827629328
 2297.4299316 12.000000000  -999.250000 12.250000954 117.38844299  -999.250000  -999.250000  -999.250000  -999.250000 166.24304199 115.14601135 1.0036082268 0.9520617723
 2297.5822754 12.000000000  -999.250000 12.250000954 107.31626892  -999.250000  -999.250000  -999.250000  -999.250000 169.65374756 114.50399780 0.9955346584 0.9321464300
 2297.7346191 12.000000000  -999.250000 12.250000954 106.29921722  -999.250000  -999.250000  -999.250000  -999.250000 169.02127075 114.27700806 1.0062437057 0.9376689196
 2297.8869629 12.000000000  -999.250000 12.250000954 103.64173126  -999.250000  -999.250000  -999.250000  -999.250000 173.80007935 114.86399841 1.0288634300 0.9644579887
 2298.0395508 12.000000000  -999.250000 12.250000954 101.83727264  -999.250000  -999.250000  -999.250000  -999.250000 171.79058838 115.65200806 0.9769597054 0.9517967701
 2298.1918945 12.000000000  -999.250000 12.250000954 101.37794495  -999.250000  -999.250000  -999.250000  -999.250000 174.26480103 115.90800476 1.0060086250 0.9422338009
 2298.3442383 12.000000000  -999.250000 12.250000954 103.01836395  -999.250000  -999.250000  -999.250000  -999.250000 171.50125122 115.60000610 1.0260159969 0.9599159956
