# LAS format log file from PETREL
# Project units are specified as depth units
#==================================================================
~Version information
VERS.   2.0:
WRAP.   NO:
#==================================================================
~Well
STRT .m      2901.5925293 :
STOP .m      3271.0102539 :
STEP .m     0.00000000 :
NULL .        -999.250000 :
COMP.           : COMPANY
WELL.  35/11-13   : WELL
FLD.            : FIELD
LOC.            : LOCATION
SRVC.           : SERVICE COMPANY
DATE.  2018-09-11 14:48:55   : Log Export Date {yyyy-MM-dd HH:mm:ss}
PROV.           : PROVINCE
UWI.   35/11-13   : UNIQUE WELL ID
API.            : API NUMBER
#==================================================================
~Curve
DEPT .m                   : DEPTH
Lithology_geolink ._      : Lithology_geolink
CALI .in                  : CALI
BS .in                    : BS
ROP .m/h                  : ROP
DRHO .g/cm3               : DRHO
NPHI .m3/m3               : NPHI
RHOB .g/cm3               : RHOB
PEF .b/e                  : PEF
GR .gAPI                  : GR
DTC .us/ft                : DTC
DTS .us/ft                : DTS
RDEP .ohm.m               : RDEP
RMIC .ohm.m               : RMIC
RMED .ohm.m               : RMED
~Parameter
#==================================================================
~Ascii
# ...
 3214.0126953 7.0000000000 8.4848003387 8.5000000000 23.920602798 0.0059000002 0.3550089598 2.5851695538 2.9291260242 118.01470184 79.473518372 144.13999939 3.9945676327 5.3099999428 4.2088637352
 3214.1650391 7.0000000000 8.4848003387 8.5000000000 24.780183792 0.0060999999 0.3577718139 2.6378142834 3.4348218441 113.95719910 80.257942200 144.33329773 5.0068836212 3.2313001156 5.2819709778
 3214.3173828 7.0000000000 8.4980001450 8.5000000000 28.031496048 0.0038999999 0.3401838243 2.5221602917 2.9499447346 114.83959961 80.537559509 146.09069824 1.5697433949 1.7630000114 1.6502791643
 3214.4697266 7.0000000000 8.4935998917 8.5000000000 30.423227310 -0.003000000 0.3300761282 2.5598034859 2.9153614044 118.11710358 81.945602417 146.72790527 1.2883013487 1.7249000072 1.3912477493
 3214.6223145 7.0000000000 8.4582996368 8.5000000000 32.342517853 -0.001500000 0.3152332902 2.5620400906 2.8292074203 130.84899902 82.317527771 147.00590515 3.1650657654 2.8143000603 3.3598966599
 3214.7746582 7.0000000000 8.4715003967 8.5000000000 31.400918961 -0.001700000 0.3256288469 2.5744733810 2.8627264500 135.96339417 81.981063843 146.77229309 5.3363084793 5.6760997772 5.7275705338
 3214.9270020 7.0000000000 8.4671001434 8.5000000000 34.396327972 -0.000100000 0.3436290026 2.5579524040 2.8798000813 146.80439758 81.584045410 147.68449402 6.2161865234 8.0636997223 6.5217666626
 3215.0793457 7.0000000000 8.4758996964 8.5000000000 40.383857727 0.0044999998 0.3617136180 2.6528587341 3.2543280125 141.38389587 81.238250732 148.20150757 7.7021241188 7.8840999603 8.0570306778
 3215.2316895 7.0000000000 8.4758996964 8.5000000000 39.680118561 0.0052000000 0.3701596260 2.6891548634 3.6443278790 137.78219604 82.080909729 147.22720337 7.0925498009 8.6240997314 7.2020864487
 3215.3842773 7.0000000000 8.5024995804 8.5000000000 37.568897247 -0.001300000 0.3449804783 2.5365989208 2.8515682220 133.62229919 81.460098267 144.73190308 6.1945486069 7.1458997726 6.2638626099
 3215.5366211 7.0000000000 8.4848003387 8.5000000000 36.164699554 -0.002500000 0.3388572037 2.5675053596 2.8110268116 133.24409485 80.400688171 144.81190491 7.8265695572 6.4580001831 7.7133183479
 3215.6889648 7.0000000000 8.4935998917 8.5000000000 31.935695648 0.0054000001 0.3122065663 2.6333148479 3.1404700279 127.82360077 80.392517090 143.59339905 6.0632147789 5.7947001457 5.8555765152
 3215.8413086 7.0000000000 8.5113000870 8.5000000000 29.822834015 0.0104999999 0.3162876666 2.7047593594 3.8680615425 121.77279663 79.777847290 141.42460632 6.1370306015 6.1795001030 5.7805485725
 3215.9938965 7.0000000000 8.5113000870 8.5000000000 26.489501953 0.0066000000 0.3085536063 2.6168916225 3.0965309143 116.35220337 79.807006836 143.20559692 7.4677104950 7.1588001251 6.9977211952
 3216.1462402 7.0000000000 8.4848003387 8.5000000000 24.822834015 -0.003600000 0.2941169739 2.5831110477 3.1062662601 123.28549957 79.870613098 143.36529541 8.5601129532 7.6739997864 8.0624723434
 3216.2985840 7.0000000000 8.4715003967 8.5000000000 22.155511856 -0.007300000 0.3047128022 2.5898785591 3.1475691795 127.57150269 79.688606262 143.51400757 7.8821945190 7.7466001511 7.4210414886
 3216.4509277 7.0000000000 8.4935998917 8.5000000000 20.820211411 -0.009900000 0.3127347827 2.5764482021 3.1902966499 132.23570251 80.002540588 144.24090576 7.3760828972 7.3759999275 7.0067944527
 3216.6035156 7.0000000000 8.4715003967 8.5000000000 25.436351776 -0.008300000 0.3343737721 2.5443122387 3.0016372204 128.32780457 80.339530945 145.20329285 4.6951127052 5.9154000282 4.4571781158
 3216.7558594 7.0000000000 8.5113000870 8.5000000000 27.742782593 0.0015000000 0.3262088299 2.5794308186 3.0762987137 126.31089783 79.879852295 145.12899780 7.4133405685 5.8997001648 7.0395655632
 3216.9082031 7.0000000000 8.4671001434 8.5000000000 32.562335968 0.0060999999 0.3317006528 2.6609132290 3.5730056763 120.76429749 79.973632813 145.45210266 9.9945793152 5.4727001190 9.4497060776
 3217.0605469 7.0000000000 8.4715003967 8.5000000000 34.973754883 0.0044000000 0.3320966363 2.5444948673 3.0158815384 111.68810272 79.744178772 143.93170166 11.168138504 8.2420997620 10.515346527
 3217.2128906 7.0000000000 8.4980001450 8.5000000000 47.040683746 -0.005300000 0.3299996853 2.4790301323 3.0047504902 107.15000153 79.169509888 143.21690369 12.869026184 7.8832998276 12.158797264
 3217.3654785 7.0000000000 8.5024995804 8.5000000000 53.077426910 -0.008600000 0.3297456205 2.4978184700 3.1615328789 104.12449646 78.742904663 140.94439697 9.2600021362 5.8411998749 8.8443679810
 3217.5178223 7.0000000000 8.4848003387 8.5000000000 64.498031616 -0.008200000 0.3128055930 2.5035750866 3.3902404308 107.27600098 78.399757385 138.57380676 5.4870281219 5.6500000954 5.3414540291
 3217.6701660 7.0000000000 8.4935998917 8.5000000000 70.206695557 -0.006900000 0.3162966371 2.5501964092 3.6645083427 102.35970306 77.497497559 135.41960144 2.7631015778 2.5576999187 2.7580657005
 3217.8225098 7.0000000000 8.5024995804 8.5000000000 65.032814026 -0.006100000 0.3141677976 2.4858081341 3.6073927879 100.97309875 76.187339783 135.51800537 2.5238380432 2.8455998898 2.5593550205
 3217.9750977 7.0000000000 8.4582996368 8.5000000000 57.883861542 -0.005400000 0.2940654159 2.5539095402 3.5428512096 95.977996826 76.210327148 135.60209656 8.0870828629 2.9709999561 8.5061826706
 3218.1274414 7.0000000000 8.4715003967 8.5000000000 53.320213318 0.0048000002 0.2833190858 2.7745807171 4.2426271439 98.247100830 75.874832153 135.41929626 6.4893617630 5.5984001160 6.6281080246
 3218.2797852 7.0000000000 8.5024995804 8.5000000000 43.789371490 0.0044000000 0.2952169776 2.5757379532 3.3249411583 99.633697510 75.148193359 136.61920166 4.2199625969 4.2455000877 4.3252468109
 3218.4321289 7.0000000000 8.5290002823 8.5000000000 38.822177887 0.0035000001 0.3058261275 2.5993692875 3.3511528969 106.64569855 75.142768860 138.07859802 2.5145928860 3.1958000660 2.6100008488
 3218.5847168 7.0000000000 8.5643997192 8.5000000000 37.808399200 -0.005600000 0.3220625818 2.5802495480 3.6969683170 106.64569855 76.499778748 138.30650330 2.5754413605 1.3468999863 2.6758093834
 3218.7370605 7.0000000000 8.5377998352 8.5000000000 41.765090942 -0.001400000 0.3104515970 2.5956680775 4.1220083237 110.30139923 78.549118042 141.53559875 3.4927096367 1.0046000481 3.6141710281
 3218.8894043 7.0000000000 8.5555000305 8.5000000000 51.440288544 0.0005000000 0.3425935805 2.5757150650 3.3786561489 116.22619629 79.371429443 141.12539673 4.1219019890 1.1753000021 4.2191724777
 3219.0417480 7.0000000000 8.5246000290 8.5000000000 57.158794403 -0.001500000 0.3386155665 2.5228145123 2.8529379368 129.38349915 79.833473206 141.76890564 4.1876096725 2.2613000870 4.2040829659
 3219.1940918 7.0000000000 8.5377998352 8.5000000000 70.403541565 -0.006200000 0.3482948840 2.5319173336 2.8146314621 135.81260681 80.005340576 142.78770447 5.5742182732 4.4977998734 5.5748262405
 3219.3466797 7.0000000000 8.5113000870 8.5000000000 77.929794312 -0.008300000 0.3451588750 2.5430047512 3.0224056244 139.84640503 80.220359802 143.11560059 11.861155510 7.6421999931 12.302620888
 3219.4990234 7.0000000000 8.5246000290 8.5000000000 87.965881348 -0.006500000 0.3635221124 2.6068191528 3.4291679859 131.85749817 80.208129883 142.35820007 6.6130328178 8.6501998901 7.0123744011
 3219.6513672 7.0000000000 8.5290002823 8.5000000000 90.479003906 -0.004700000 0.3772967756 2.6186463833 3.4714682102 123.37999725 79.975708008 143.84359741 5.9462141991 6.8452000618 6.2465801239
 3219.8037109 7.0000000000 8.5466995239 8.5000000000 94.399612427 -0.003900000 0.3752565682 2.5851798058 3.4508931637 120.85890198 79.855865479 143.42649841 4.7106227875 5.6691999435 4.8027648926
 3219.9562988 7.0000000000 8.5466995239 8.5000000000 95.807083130 -0.005600000 0.3480994999 2.5104806423 2.9484825134 129.93510437 80.517601013 145.15690613 5.7178487778 5.6375999451 5.7737979889
 3220.1086426 7.0000000000 8.5466995239 8.5000000000 97.818244934 -0.005100000 0.3167903721 2.5668115616 3.0365562439 132.48779297 80.456604004 144.57640076 4.5450501442 6.5051999092 4.5540289879
