# LAS format log file from PETREL
# Project units are specified as depth units
#==================================================================
~Version information
VERS.   2.0:
WRAP.   NO:
#==================================================================
~Well
STRT .m      1242.0020752 :
STOP .m      2811.1123047 :
STEP .m     0.00000000 :
NULL .        -999.250000 :
COMP.           : COMPANY
WELL.  35/11-9   : WELL
FLD.            : FIELD
LOC.            : LOCATION
SRVC.           : SERVICE COMPANY
DATE.  2018-09-11 14:48:57   : Log Export Date {yyyy-MM-dd HH:mm:ss}
PROV.           : PROVINCE
UWI.   35/11-9   : UNIQUE WELL ID
API.            : API NUMBER
#==================================================================
~Curve
DEPT .m                   : DEPTH
Lithology_geolink ._      : Lithology_geolink
CALI .in                  : CALI
BS .in                    : BS
DRHO .g/cm3               : DRHO
NPHI .m3/m3               : NPHI
RHOB .g/cm3               : RHOB
GR .gAPI                  : GR
DTC .us/ft                : DTC
DTS .us/ft                : DTS
RDEP .ohm.m               : RDEP
SP .mV                    : SP
RMIC .ohm.m               : RMIC
~Parameter
#==================================================================
~Ascii
# ...
 2171.0324707 16.000000000 12.126000404 12.250000954 0.0120679997 0.3770725131 2.4330000877 108.44628906 109.32800293 257.22799683 1.1900000572 20.718999863 1.3969999552
 2171.1848145 16.000000000 12.126000404 12.250000954 0.0092630005 0.3681551814 2.4300000668 108.62223053 109.94100189 257.71701050 1.1950000525 22.250000000 1.4450000525
 2171.3371582 16.000000000 12.126000404 12.250000954 0.0100976629 0.3495976925 2.4359905720 106.27263641 110.08799744 258.49499512 1.1910064220 25.132379532 1.3789999485
 2171.4895020 16.000000000 12.126000404 12.250000954 0.0102547500 0.3629245162 2.4320063591 106.66699982 110.23300171 259.03601074 1.1890032291 26.317106247 1.3799999952
 2171.6420898 16.000000000 12.126000404 12.250000954 0.0087230001 0.3775827885 2.4240000248 106.94803619 110.52200317 259.55999756 1.1799999475 25.049999237 1.3940000534
 2171.7944336 16.000000000 12.126000404 12.250000954 0.0078830002 0.3787448704 2.4200000763 108.21927643 110.75099945 259.82299805 1.1629999876 20.937999725 1.3639999628
 2171.9467773 16.000000000 12.126000404 12.250000954 0.0087805623 0.3743738830 2.4239935875 109.00365448 111.05599976 265.31799316 1.1480239630 20.456769943 1.3559999466
 2172.0991211 16.000000000 12.126000404 12.250000954 0.0124151679 0.3809337318 2.4319870472 104.41699982 111.06499481 262.94100952 1.1460032463 20.587787628 1.2460000515
 2172.2514648 16.000000000 12.126000404 12.250000954 0.0107117435 0.4010786116 2.4280064106 103.98300171 110.88700104 260.13500977 1.1370143890 24.038461685 1.3359999657
 2172.4040527 16.000000000 12.126000404 12.250000954 0.0097880000 0.3889386952 2.4210000038 108.72411346 111.42500305 258.81900024 1.1369999647 26.756000519 1.3420000076
 2172.5563965 16.000000000 12.126000404 12.250000954 0.0094635198 0.3742027283 2.4219982624 111.90795898 111.26999664 258.49398804 1.1379984617 26.406560898 1.3600000143
 2172.7087402 16.000000000 12.126000404 12.250000954 0.0100091239 0.3666987419 2.4229984283 112.50800323 111.39099884 257.55700684 1.1270176172 22.518239975 1.3459999561
 2172.8610840 16.000000000 12.126000404 12.250000954 0.0084914370 0.3787637651 2.4349806309 109.47699738 111.23300171 256.01800537 1.1339887381 20.022994995 1.3339999914
 2173.0136719 16.000000000 12.126000404 12.250000954 0.0126149999 0.3748394251 2.4449999332 111.92679596 111.01599884 255.41999817 1.1380000114 19.231000900 1.3380000591
 2173.1660156 16.000000000 12.126000404 12.250000954 0.0128090000 0.3618860543 2.4479999542 114.27756500 110.48999786 255.61000061 1.1299999952 20.018999100 1.3009999990
 2173.3183594 16.000000000 12.126000404 12.250000954 0.0136935823 0.3554114699 2.4489982128 104.02500153 110.25799561 256.05899048 1.1230112314 21.983850479 1.3059999943
 2173.4707031 16.000000000 12.126000404 12.250000954 0.0123251984 0.3692738116 2.4450063705 110.38700104 110.12099457 253.60899353 1.1339823008 23.865983963 1.2890000343
 2173.6232910 16.000000000 12.126000404 12.250000954 0.0130620003 0.3784356713 2.4460000992 101.56200409 109.54299927 253.97099304 1.1349999905 22.162000656 1.2760000229
 2173.7756348 16.000000000 12.126000404 12.250000954 0.0093050003 0.3605208397 2.4409999847 103.43359375 109.37999725 254.86000061 1.1430000067 20.674999237 1.3459999561
 2173.9279785 16.000000000 12.126000404 12.250000954 0.0079421839 0.3346894681 2.4549775124 102.56304932 109.28900146 254.50801086 1.1859312057 19.277238846 1.3489999771
 2174.0803223 16.000000000 12.126000404 12.250000954 0.0080248639 0.3420625329 2.4689776897 105.71499634 108.37899780 248.91499329 1.1840032339 19.843088150 1.3910000324
 2174.2329102 16.000000000 12.126000404 12.250000954 0.0082200002 0.3672344387 2.4690001011 107.17806244 107.90699768 250.28799438 1.1909999847 22.294000626 1.3070000410
 2174.3852539 16.000000000 12.126000404 12.250000954 0.0025239999 0.3956006765 2.4539999962 109.09292603 107.88400269 247.98500061 1.2009999752 23.212999344 1.2549999952
 2174.5375977 16.000000000 12.126000404 12.250000954 -0.000438253 0.3730280995 2.4460129738 114.65043640 107.07800293 247.52799988 1.2379407883 21.247150421 1.3550000191
 2174.6899414 16.000000000 12.126000404 12.250000954 -0.000109535 0.3493617773 2.4440031052 112.42800140 106.74399567 249.09199524 1.2380000353 19.234226227 1.4620000124
 2174.8422852 16.000000000 12.126000404 12.250000954 -0.002543093 0.3303233385 2.4430017471 109.69799805 106.78600311 247.92700195 1.2589663267 20.585824966 1.4040000439
 2174.9948730 16.000000000 12.126000404 12.250000954 -0.000805000 0.3467634022 2.4409999847 118.82824707 106.67699432 239.89100647 1.2979999781 21.986999512 1.4420000315
 2175.1472168 16.000000000 12.126000404 12.250000954 0.0030218672 0.3559639156 2.4499857426 117.10971069 106.81300354 233.82899475 1.3049887419 22.511159897 1.4270000458
 2175.2995605 16.000000000 12.126000404 12.250000954 0.0049319440 0.3720788062 2.4519968033 114.43199921 106.84500122 235.79699707 1.3020048141 22.949298859 1.4869999886
 2175.4519043 16.000000000 12.126000404 12.250000954 0.0077814311 0.3626537323 2.4629824162 116.24900055 105.48300171 245.10801697 1.3059935570 22.512701035 1.4309999943
 2175.6044922 16.000000000 12.126000404 12.250000954 0.0116579998 0.3499587476 2.4700000286 119.71936798 103.03299713 248.14700317 1.3229999542 20.018999100 1.4309999943
 2175.7568359 16.000000000 12.126000404 12.250000954 0.0096330000 0.3284715116 2.4749999046 114.32801819 102.20999908 238.07600403 1.3439999819 20.325000763 1.5540000200
 2175.9091797 16.000000000 12.126000404 12.250000954 0.0091337999 0.3451584578 2.4710063934 104.97689056 102.21499634 227.62800598 1.3909248114 23.600751877 1.6720000505
 2176.0615234 16.000000000 12.126000404 12.250000954 0.0082564075 0.3586746454 2.4899694920 95.551002502 102.77200317 217.55799866 1.4568942785 20.592836380 1.8880000114
 2176.2141113 16.000000000 12.126000404 12.250000954 0.0075980001 0.3606308997 2.5139999390 91.999320984 98.734008789 219.17199707 1.5369999409 18.486999512 1.8229999542
 2176.3664551 16.000000000 12.126000404 12.250000954 0.0099330004 0.3254616261 2.5539999008 88.466331482 99.280998230 219.93901062 1.6590000391 17.044000626 2.0659999847
 2176.5187988 16.000000000 12.126000404 12.250000954 0.0110382289 0.3262624741 2.5569951534 91.158958435 98.026008606 222.00900269 1.7498544455 19.008850098 2.1199998856
 2176.6711426 16.000000000 12.126000404 12.250000954 0.0119864810 0.3227177560 2.5450193882 87.388999939 97.872001648 225.42199707 1.6751201153 21.808511734 1.7109999657
 2176.8234863 16.000000000 12.126000404 12.250000954 0.0172355771 0.3366793990 2.5320208073 93.803001404 98.084999084 228.35899353 1.6270768642 24.433792114 1.5490000248
 2176.9760742 16.000000000 12.126000404 12.250000954 0.0192760006 0.3506835401 2.5239999294 116.49691772 96.489997864 232.21400452 1.6430000067 21.419000626 1.5950000286
 2177.1284180 16.000000000 12.126000404 12.250000954 0.0215084217 0.3617466688 2.5399744511 117.69818878 97.828002930 215.99299622 1.6150448322 18.317970276 2.3039999008
 2177.2807617 16.000000000 12.126000404 12.250000954 0.0217615999 0.3644515872 2.5409982204 123.43099976 99.545997620 220.02900696 1.6279791594 15.604348183 1.6979999542
 2177.4331055 16.000000000 12.126000404 12.250000954 0.0145276114 0.3671187460 2.5210318565 129.97300720 101.86799622 220.49499512 1.6369855404 16.866966248 1.6369999647
 2177.5856934 16.000000000 12.126000404 12.250000954 0.0093400003 0.3644632101 2.4879999161 174.51991272 103.62200165 221.63400269 1.6310000420 21.287000656 1.5659999847
 2177.7380371 16.000000000 12.126000404 12.250000954 0.0101150004 0.3651057482 2.4690001011 195.03521729 104.11100006 222.82400513 1.5140000582 23.868999481 1.6139999628
 2177.8903809 16.000000000 12.126000404 12.250000954 0.0107859252 0.3517104387 2.4699983597 200.76060486 102.03800964 226.23399353 1.5020191669 23.563489914 1.5279999971
 2178.0427246 16.000000000 12.126000404 12.250000954 0.0104255807 0.3674724996 2.4600160122 190.53199768 103.69000244 231.89199829 1.5399390459 18.669855118 1.6490000486
 2178.1953125 16.000000000 12.126000404 12.250000954 0.0122440001 0.3909468055 2.4579999447 191.31442261 105.33599854 233.11000061 1.5290000439 15.862001419 1.5900000334
