# LAS format log file from PETREL
# Project units are specified as depth units
#==================================================================
~Version information
VERS.   2.0:
WRAP.   NO:
#==================================================================
~Well
STRT .m      1242.0020752 :
STOP .m      2811.1123047 :
STEP .m     0.00000000 :
NULL .        -999.250000 :
COMP.           : COMPANY
WELL.  35/11-9   : WELL
FLD.            : FIELD
LOC.            : LOCATION
SRVC.           : SERVICE COMPANY
DATE.  2018-09-11 14:48:57   : Log Export Date {yyyy-MM-dd HH:mm:ss}
PROV.           : PROVINCE
UWI.   35/11-9   : UNIQUE WELL ID
API.            : API NUMBER
#==================================================================
~Curve
DEPT .m                   : DEPTH
Lithology_geolink ._      : Lithology_geolink
CALI .in                  : CALI
BS .in                    : BS
DRHO .g/cm3               : DRHO
NPHI .m3/m3               : NPHI
RHOB .g/cm3               : RHOB
GR .gAPI                  : GR
DTC .us/ft                : DTC
DTS .us/ft                : DTS
RDEP .ohm.m               : RDEP
SP .mV                    : SP
RMIC .ohm.m               : RMIC
~Parameter
#==================================================================
~Ascii
# ...
 2485.5859375 16.000000000 8.8800001144 8.5000000000 0.0112669999 0.4013513923 2.4140000343 178.58865356 89.474998474 266.15798950 2.3959999084 15.380999565 2.5060000420
 2485.7382813 16.000000000 8.8620004654 8.5000000000 0.0074790702 0.4061795175 2.4050142765 170.89947510 89.890991211 247.34300232 2.3590590954 14.682119370 2.5299615860
 2485.8906250 16.000000000 8.8789997101 8.5000000000 0.0091523044 0.4206237197 2.4040017128 169.95100403 89.257003784 253.56199646 2.3520112038 15.817176819 2.5529630184
 2486.0429688 16.000000000 8.9139995575 8.5000000000 0.0115491571 0.4143361449 2.4179775715 172.44299316 89.240997314 253.39999390 2.3350272179 18.876092911 2.6178958416
 2486.1955566 16.000000000 8.9169998169 8.5000000000 0.0137750003 0.4280803204 2.4330000877 178.13357544 90.014999390 242.58299255 2.2880001068 21.636999130 1.8389999866
 2486.3479004 16.000000000 8.8929996490 8.5000000000 0.0153550003 0.4126197398 2.4460000992 175.37535095 90.203002930 236.37600708 2.2699999809 18.312999725 2.4549999237
 2486.5002441 16.000000000 8.8859996796 8.5000000000 0.0164742060 0.4081023335 2.4380128384 173.09919739 90.573997498 237.75100708 2.2889695168 15.909851074 2.7515249252
 2486.6525879 16.000000000 8.8859996796 8.5000000000 0.0162174162 0.3823695183 2.4310112000 171.97599792 90.970001221 235.96498108 2.2979857922 14.377453804 2.5702915192
 2486.8051758 16.000000000 8.8859996796 8.5000000000 0.0150769996 0.3970212042 2.4179999828 172.36384583 91.111999512 241.99899292 2.3310000896 17.044000626 2.4530000687
 2486.9575195 16.000000000 8.8859996796 8.5000000000 0.0124639999 0.3989329636 2.4149999619 179.74688721 91.193000793 239.39300537 2.3959999084 19.231000900 2.7269999981
 2487.1098633 16.000000000 8.8599996567 8.5000000000 0.0148781314 0.3945549428 2.4219887257 184.66017151 91.376991272 234.35299683 2.4069824219 19.493577957 2.8847472668
 2487.2622070 16.000000000 8.8559999466 8.5000000000 0.0175287519 0.3892798424 2.4279904366 186.64399719 91.667999268 231.71299744 2.4269680977 19.843439102 2.6893138885
 2487.4145508 16.000000000 8.8559999466 8.5000000000 0.0157089289 0.3982717395 2.4220094681 189.86900330 91.614997864 235.53799438 2.4948909283 18.620962143 2.7039759159
 2487.5671387 16.000000000 8.8789997101 8.5000000000 0.0156929996 0.4005903602 2.4119999409 198.01663208 91.850997925 235.47700500 2.5910000801 19.756000519 2.8589999676
 2487.7194824 16.000000000 8.8859996796 8.5000000000 0.0156500693 0.3973125815 2.4020159245 192.79244995 91.816001892 231.37298584 2.5750255585 13.596870422 2.7980976105
 2487.8718262 16.000000000 8.8859996796 8.5000000000 0.0131570017 0.4071818292 2.3980064392 185.58399963 91.936996460 233.71400452 2.5740015507 13.980368614 2.8509151936
 2488.0241699 16.000000000 8.8859996796 8.5000000000 0.0106629971 0.4208320975 2.3940064907 182.40499878 92.161003113 236.27902222 2.5819871426 19.703813553 2.8050737381
 2488.1767578 16.000000000 8.8859996796 8.5000000000 0.0098679997 0.4189760685 2.3989999294 184.01704407 91.819999695 231.48301697 2.5529999733 22.731000900 2.6640000343
 2488.3291016 16.000000000 8.8859996796 8.5000000000 0.0101180002 0.3990396559 2.4019999504 184.04524231 91.987998962 232.74198914 2.5720000267 20.062999725 2.7070000172
 2488.4814453 16.000000000 8.8920001984 8.5000000000 0.0086862948 0.3809162378 2.4019999504 182.94999695 92.719001770 236.79100037 2.5829823017 18.489521027 2.8327982426
 2488.6337891 16.000000000 8.9169998169 8.5000000000 0.0100737698 0.3897034526 2.4069919586 181.77600098 92.807998657 231.90400696 2.5610353947 16.827663422 2.7111954689
 2488.7863770 16.000000000 8.8950004578 8.5000000000 0.0104670003 0.3825698793 2.4019999504 179.32293701 92.834999084 223.42700195 2.5639998913 16.080999374 3.1809999943
 2488.9387207 16.000000000 8.8859996796 8.5000000000 0.0105490005 0.4011840522 2.4019999504 181.77766418 92.917999268 229.72500610 2.6470000744 18.006000519 2.9739999771
 2489.0910645 16.000000000 8.8859996796 8.5000000000 0.0099739218 0.3987881243 2.3990046978 184.67968750 93.084999084 226.66200256 2.6859376431 18.618019104 2.7074272633
 2489.2434082 16.000000000 8.9099998474 8.5000000000 0.0105161285 0.4227373302 2.3980016708 181.98199463 92.251998901 219.41600037 2.6560480595 18.313489914 2.5562419891
 2489.3959961 16.000000000 8.9429998398 8.5000000000 0.0064889998 0.4104085863 2.3910000324 181.04161072 91.111000061 221.44900513 2.6210000515 20.018999100 2.7809998989
 2489.5483398 16.000000000 8.9910001755 8.5000000000 0.0056820000 0.4189171493 2.3919999599 180.18046570 89.653999329 223.60498047 2.5499999523 17.919000626 2.7620000839
 2489.7006836 16.000000000 8.9809999466 8.5000000000 0.0011302944 0.3972579837 2.4129664898 182.32594299 88.388999939 228.53599548 2.5629792213 17.787212372 3.4628767967
 2489.8530273 16.000000000 8.8559999466 8.5000000000 0.0011729199 0.4167708755 2.4259793758 176.66600037 87.639999390 207.81599426 2.6967852116 18.093507767 3.2643203735
 2490.0053711 16.000000000 8.8559999466 8.5000000000 0.0024130095 0.3939875066 2.4379806519 174.33999634 87.088996887 211.35200500 2.9865353107 17.132543564 4.5109982491
 2490.1579590 16.000000000 8.8380002975 8.5000000000 0.0033310000 0.3954602182 2.4289999008 172.96405029 87.346000671 214.58500671 3.4489998817 18.837999344 5.5089998245
 2490.3103027 16.000000000 8.7959995270 8.5000000000 0.0063311919 0.3673414886 2.4349904060 171.13537598 87.666999817 216.25601196 3.8094222546 19.230371475 4.3698258400
 2490.4626465 16.000000000 8.7950000763 8.5000000000 0.0129553741 0.4026372433 2.4170289040 173.23800659 88.620002747 216.65400696 3.4665513039 19.361789703 2.8065063953
 2490.6149902 16.000000000 8.7950000763 8.5000000000 0.0105109401 0.4036674201 2.3920400143 197.66200256 89.929000854 216.59800720 3.3471906185 16.698276520 3.2952115536
 2490.7675781 16.000000000 8.7950000763 8.5000000000 0.0081940005 0.4163120389 2.3759999275 196.31599426 89.905998230 221.88900757 3.1830000877 16.912000656 3.5350000858
 2490.9199219 16.000000000 8.7950000763 8.5000000000 0.0082869995 0.3917709291 2.3910000324 170.17681885 90.504997253 221.80000305 2.9939999580 18.837999344 3.8289999962
 2491.0722656 16.000000000 8.7530002594 8.5000000000 0.0082071275 0.3939653933 2.4169585705 188.12838745 90.606002808 221.50199890 3.1187999249 18.531492233 3.3228111267
 2491.2246094 16.000000000 8.7030000687 8.5000000000 0.0070778122 0.4046599865 2.4179983139 185.25199890 89.851997375 218.76699829 3.3166825771 17.657402039 3.1822242737
 2491.3771973 16.000000000 8.7030000687 8.5000000000 0.0074300002 0.4034521580 2.4260001183 187.03237915 89.435997009 224.06199646 3.6019999981 16.169000626 3.3819999695
 2491.5295410 16.000000000 8.7360000610 8.5000000000 0.0113580003 0.4178012013 2.4319999218 184.77883911 89.416999817 221.20397949 3.5899999142 15.512999535 5.4180002213
 2491.6818848 16.000000000 8.8269996643 8.5000000000 0.0136972517 0.4159678817 2.4459776878 182.19544983 90.599998474 220.92700195 3.4901599884 17.390989304 3.2684450150
 2491.8342285 16.000000000 8.8559999466 8.5000000000 0.0148341814 0.4074895978 2.4440031052 188.72000122 88.013999939 220.69000244 3.4071331024 17.044561386 3.2200720310
 2491.9865723 16.000000000 8.8549995422 8.5000000000 0.0140532563 0.3942575753 2.4260289669 189.82800293 85.403999329 230.45100403 3.1384310722 16.082542419 3.1820607185
 2492.1391602 16.000000000 8.8249998093 8.5000000000 0.0153529998 0.3834460676 2.4030001163 189.10684204 87.328002930 229.98600769 2.8689999580 13.237000465 3.1719999313
 2492.2915039 16.000000000 8.8249998093 8.5000000000 0.0112306066 0.4018313587 2.3840305805 185.89277649 89.865997314 242.25999451 2.8061008453 16.819259644 3.1410496235
 2492.4438477 16.000000000 8.8249998093 8.5000000000 0.0115983989 0.4075751603 2.3849983215 185.75000000 91.134002686 235.39700317 2.7760481834 19.357933044 3.0790994167
 2492.5961914 16.000000000 8.8249998093 8.5000000000 0.0102821141 0.4194386303 2.3889935017 178.04600525 92.765998840 237.42797852 2.7550337315 19.319068909 3.0450546741
 2492.7487793 16.000000000 8.8260002136 8.5000000000 0.0040570004 0.4067294896 2.3819999695 182.32162476 92.884002686 237.62800598 2.7709999084 17.044000626 3.2349998951
