# LAS format log file from PETREL
# Project units are specified as depth units
#==================================================================
~Version information
VERS.   2.0:
WRAP.   NO:
#==================================================================
~Well
STRT .m      1242.0020752 :
STOP .m      2811.1123047 :
STEP .m     0.00000000 :
NULL .        -999.250000 :
COMP.           : COMPANY
WELL.  35/11-9   : WELL
FLD.            : FIELD
LOC.            : LOCATION
SRVC.           : SERVICE COMPANY
DATE.  2018-09-11 14:48:57   : Log Export Date {yyyy-MM-dd HH:mm:ss}
PROV.           : PROVINCE
UWI.   35/11-9   : UNIQUE WELL ID
API.            : API NUMBER
#==================================================================
~Curve
DEPT .m                   : DEPTH
Lithology_geolink ._      : Lithology_geolink
CALI .in                  : CALI
BS .in                    : BS
DRHO .g/cm3               : DRHO
NPHI .m3/m3               : NPHI
RHOB .g/cm3               : RHOB
GR .gAPI                  : GR
DTC .us/ft                : DTC
DTS .us/ft                : DTS
RDEP .ohm.m               : RDEP
SP .mV                    : SP
RMIC .ohm.m               : RMIC
~Parameter
#==================================================================
~Ascii
# ...
 2273.4450684 16.000000000 12.156999588 12.250000954 0.0111094452 0.3224861622 2.4409904480 94.977958679 106.45099640 226.80000305 1.3630080223 7.8544611931 1.3720847368
 2273.5974121 16.000000000 12.156999588 12.250000954 0.0150896190 0.3259716332 2.4390029907 96.199996948 106.43599701 221.70100403 1.3600047827 8.9482469559 1.3710016012
 2273.7500000 16.000000000 12.156999588 12.250000954 0.0185819995 0.3286724091 2.4400000572 97.870346069 106.46900177 223.13400269 1.3650000095 9.9560003281 1.3949999809
 2273.9023438 16.000000000 12.156999588 12.250000954 0.0281130001 0.3300572932 2.4479999542 101.81091309 106.67999268 225.70700073 1.3580000401 8.6440000534 1.3250000477
 2274.0546875 16.000000000 12.156999588 12.250000954 0.0305520911 0.3348362446 2.4539904594 92.414939880 106.86399841 225.97700500 1.3649888039 7.9451198578 1.4190000296
 2274.2070313 16.000000000 12.156999588 12.250000954 0.0228284039 0.3411197662 2.4490079880 92.999000549 107.29599762 233.35899353 1.3739855289 8.1616506577 1.4060000181
 2274.3593750 16.000000000 12.156999588 12.250000954 0.0135478768 0.3369936049 2.4410128593 89.245002747 107.69000244 222.22000122 1.3759968281 6.2840147018 1.3580000401
 2274.5119629 16.000000000 12.156999588 12.250000954 0.0117030004 0.3317508698 2.4440000057 93.795860291 106.90999603 223.41900635 1.3329999447 8.9060001373 1.4889999628
 2274.6643066 16.000000000 12.156999588 12.250000954 0.0065842029 0.3301355541 2.4420030117 88.090133667 105.03099060 222.96800232 1.3519695997 11.876239777 1.3949999809
 2274.8166504 16.000000000 12.156999588 12.250000954 -0.001043769 0.3246510625 2.4869279861 81.935997009 99.682998657 222.28900146 1.4578300714 13.104036331 2.6970000267
 2274.9689941 16.000000000 12.156999588 12.250000954 0.0129744783 0.3066016734 2.6058092117 79.751998901 98.960998535 221.46598816 1.5808027983 8.6511507034 1.7690000534
 2275.1215820 16.000000000 12.156999588 12.250000954 0.0259230006 0.3052150905 2.6579999924 73.579208374 98.598999023 221.45599365 1.5709999800 7.5939998627 1.3660000563
 2275.2739258 16.000000000 12.156999588 12.250000954 0.0121680005 0.3267292976 2.5720000267 74.987792969 99.550003052 221.37802124 1.5740000010 4.3559999466 1.4249999523
 2275.4262695 16.000000000 12.156999588 12.250000954 0.0025114750 0.3354993165 2.4541888237 96.036590576 101.09101105 221.69400024 1.5170911551 7.1515202522 1.4279999733
 2275.5786133 16.000000000 12.156999588 12.250000954 0.0097024329 0.3243652284 2.4270431995 93.287002563 104.45500183 219.13000488 1.3532629013 11.131618500 1.4509999752
 2275.7312012 16.000000000 12.156999588 12.250000954 0.0095729996 0.3127064705 2.4249999523 92.462516785 106.38200378 221.70100403 1.3650000095 8.8620004654 1.4309999943
 2275.8835449 16.000000000 12.156999588 12.250000954 0.0122210002 0.3249747157 2.4330000877 92.169387817 106.43099976 224.77099609 1.3919999599 8.1619997025 1.4119999409
 2276.0358887 16.000000000 12.156999588 12.250000954 0.0136916433 0.3233273625 2.4429841042 96.125747681 106.44998932 225.74099731 1.3959935904 7.9882788658 1.4509999752
 2276.1882324 16.000000000 12.156999588 12.250000954 0.0114056729 0.3203290105 2.4430000782 82.863998413 105.80300140 224.25300598 1.3969984055 8.4243001938 1.4479999542
 2276.3405762 16.000000000 12.156999588 12.250000954 0.0113830306 0.3187965751 2.4390063286 85.280998230 105.90399933 223.33100891 1.4019919634 9.3864564896 1.3719999790
 2276.4931641 16.000000000 12.156999588 12.250000954 0.0114529999 0.3309731483 2.4340000153 92.841094971 105.74600220 222.81700134 1.3660000563 9.5629997253 1.3200000525
 2276.6455078 16.000000000 12.156999588 12.250000954 0.0091476943 0.3260585666 2.4349982738 89.779953003 106.17300415 222.56797791 1.3879648447 7.4224305153 1.3090000153
 2276.7978516 16.000000000 12.156999588 12.250000954 0.0087386509 0.3324324191 2.4409904480 87.880996704 106.42500305 222.94400024 1.4129599333 7.9431586266 1.4680000544
 2276.9501953 16.000000000 12.156999588 12.250000954 0.0075389245 0.3250917792 2.4390029907 82.496002197 105.79000092 221.64100647 1.4100047350 8.5989494324 1.4490000010
 2277.1027832 16.000000000 12.156999588 12.250000954 0.0037390001 0.3273825347 2.4379999638 81.963195801 104.85199738 221.59300232 1.4090000391 12.055999756 1.4659999609
 2277.2551270 16.000000000 12.156999588 12.250000954 0.0004600000 0.3088704646 2.4719998837 81.447113037 104.45899963 226.74600220 1.4450000525 13.718999863 2.1510000229
 2277.4074707 16.000000000 12.156999588 12.250000954 0.0063725249 0.3016314805 2.5199232101 70.910003662 103.67000580 227.57099915 1.4549840689 11.622360229 1.3669999838
 2277.5598145 16.000000000 12.156999588 12.250000954 0.0093452437 0.3264072239 2.5439615250 75.166999817 104.83000183 223.96699524 1.4420208931 7.7312402725 1.3910000324
 2277.7124023 16.000000000 12.156999588 12.250000954 0.0063649998 0.3384244740 2.4969999790 94.492187500 105.74500275 220.26899719 1.4290000200 5.7119998932 1.3999999762
 2277.8647461 16.000000000 12.156999588 12.250000954 0.0050579999 0.3522129357 2.4519999027 94.608108521 106.25099945 218.51101685 1.3660000563 9.0369997025 1.2929999828
 2278.0170898 16.000000000 12.156999588 12.250000954 0.0079094302 0.3394403160 2.4280383587 93.420227051 107.67800140 219.80000305 1.3540191650 11.134637833 1.3799999952
 2278.1694336 16.000000000 12.156999588 12.250000954 0.0092698233 0.3398372233 2.4270017147 88.568000793 107.98100281 222.19599915 1.3530015945 10.831492424 1.3869999647
 2278.3220215 16.000000000 12.156999588 12.250000954 0.0085560000 0.3352490067 2.4270000458 86.399856567 106.48999786 223.45500183 1.3519999981 7.9880003929 1.4290000200
 2278.4743652 16.000000000 12.156999588 12.250000954 0.0094529996 0.3414750099 2.4309999943 83.210716248 106.66799927 223.67599487 1.3519999981 6.0630002022 1.3099999428
 2278.6267090 16.000000000 12.156999588 12.250000954 0.0097145811 0.3427093029 2.4290030003 92.372520447 106.88500214 224.75500488 1.3490047455 5.0136818886 1.3099999428
 2278.7790527 16.000000000 12.156999588 12.250000954 0.0105985813 0.3374742866 2.4270031452 88.333000183 106.80999756 223.38000488 1.3330255747 6.4536857605 1.3070000410
 2278.9313965 16.000000000 12.156999588 12.250000954 0.0084214974 0.3244738579 2.4210095406 93.476997375 106.94999695 222.72399902 1.3230159283 7.6351075172 1.2430000305
 2279.0839844 16.000000000 12.156999588 12.250000954 0.0107869999 0.3200518191 2.4240000248 90.993850708 106.76799774 222.87500000 1.3150000572 7.3750000000 1.2269999981
 2279.2363281 16.000000000 12.156999588 12.250000954 0.0092534581 0.3315154016 2.4220030308 84.685523987 106.26899719 226.45700073 1.3199920654 6.6761202812 1.2920000553
 2279.3886719 16.000000000 12.156999588 12.250000954 0.0106647303 0.3362945914 2.4299871922 93.124000549 106.02799988 227.68600464 1.3219968081 6.1508412361 1.3150000572
 2279.5410156 16.000000000 12.156999588 12.250000954 0.0109295780 0.3321171403 2.4369888306 95.489997864 105.81700134 226.92500305 1.3359775543 8.0719146729 1.4720000029
 2279.6936035 16.000000000 12.156999588 12.250000954 0.0113070002 0.3309436738 2.4430000782 97.121826172 105.83100128 226.46899414 1.3229999542 7.1999998093 1.3739999533
 2279.8459473 16.000000000 12.156999588 12.250000954 0.0069419998 0.3262030780 2.4360001087 95.764144897 105.96099854 226.28999329 1.3480000496 7.0250000954 1.3930000067
 2279.9982910 16.000000000 12.156999588 12.250000954 0.0044250335 0.3333446383 2.4270143509 93.368995667 105.87699890 224.08099365 1.3440064192 10.650190353 1.3279999495
 2280.1506348 16.000000000 12.156999588 12.250000954 0.0031959664 0.3223440051 2.4230065346 97.735000610 105.13899994 210.78300476 1.3430016041 9.7824020386 1.3669999838
 2280.3032227 16.000000000 12.156999588 12.250000954 0.0049060001 0.3226446807 2.4260001183 95.148025513 105.62699890 222.45100403 1.3470000029 9.0369997025 1.4379999638
 2280.4555664 16.000000000 12.156999588 12.250000954 0.0048639998 0.3188166320 2.4240000248 89.555221558 105.83100128 223.33299255 1.3459999561 8.4250001907 1.3559999466
 2280.6079102 16.000000000 12.156999588 12.250000954 0.0091551235 0.3177910149 2.4349822998 88.450958252 106.84999847 221.63400269 1.3380128145 9.5611791611 1.3780000210
