# LAS format log file from PETREL
# Project units are specified as depth units
#==================================================================
~Version information
VERS.   2.0:
WRAP.   NO:
#==================================================================
~Well
STRT .m      1242.0020752 :
STOP .m      2811.1123047 :
STEP .m     0.00000000 :
NULL .        -999.250000 :
COMP.           : COMPANY
WELL.  35/11-9   : WELL
FLD.            : FIELD
LOC.            : LOCATION
SRVC.           : SERVICE COMPANY
DATE.  2018-09-11 14:48:57   : Log Export Date {yyyy-MM-dd HH:mm:ss}
PROV.           : PROVINCE
UWI.   35/11-9   : UNIQUE WELL ID
API.            : API NUMBER
#==================================================================
~Curve
DEPT .m                   : DEPTH
Lithology_geolink ._      : Lithology_geolink
CALI .in                  : CALI
BS .in                    : BS
DRHO .g/cm3               : DRHO
NPHI .m3/m3               : NPHI
RHOB .g/cm3               : RHOB
GR .gAPI                  : GR
DTC .us/ft                : DTC
DTS .us/ft                : DTS
RDEP .ohm.m               : RDEP
SP .mV                    : SP
RMIC .ohm.m               : RMIC
~Parameter
#==================================================================
~Ascii
# ...
 1549.2404785 19.000000000 12.229000092 12.250000954 -0.000669000 0.4883281887 2.1770000458 77.961257935 132.51499939 332.32101440 0.8854079843 23.080999374 0.9529431462
 1549.3928223 19.000000000 12.227999687 12.250000954 -0.000108000 0.4698158205 2.1779999733 73.303817749 131.96899414 332.89498901 0.8658750057 22.906000137 0.8819552064
 1549.5452881 19.000000000 12.229998589 12.250000954 0.0011230001 0.4396801889 2.1840000153 75.568115234 131.06700134 326.08898926 0.8589860201 20.194000244 0.8260048032
 1549.6976318 19.000000000 12.230999947 12.250000954 -0.001616000 0.4573637843 2.1819999218 76.965248108 130.42199707 325.99795532 0.8588780165 22.031000137 0.8320000172
 1549.8500977 19.000000000 12.239000320 12.250000954 -0.002727000 0.4571023285 2.1779999733 82.270034790 128.91600037 324.14898682 0.8513820171 23.912000656 0.8320737481
 1550.0024414 19.000000000 12.233000755 12.250000954 -0.000748000 0.4637485445 2.1819999218 78.567115784 128.75999451 323.96200562 0.8559409976 25.093999863 0.9240128398
 1550.1549072 19.000000000 12.237000465 12.250000954 -0.002910000 0.4469418526 2.1819999218 79.960929871 128.07400513 324.32501221 0.8612419963 24.875000000 0.9399551153
 1550.3072510 19.000000000 12.237000465 12.250000954 -0.002519000 0.4255419970 2.1860001087 79.871368408 128.74699402 326.25000000 0.8652719855 20.062999725 0.8840104342
 1550.4597168 19.000000000 12.236000061 12.250000954 -0.000013000 0.3993576765 2.1860001087 74.103179932 130.39500427 327.45098877 0.8742340207 18.049999237 0.8970784545
 1550.6120605 19.000000000 12.233000755 12.250000954 -0.002541000 0.4191292822 2.1819999218 75.465385437 131.38200378 334.27398682 0.8670039773 17.131000519 0.9459446669
 1550.7645264 19.000000000 12.229998589 12.250000954 -0.002079000 0.4544947743 2.1800000668 75.949188232 131.06500244 326.46203613 0.8446199894 20.674999237 0.8768830895
 1550.9168701 19.000000000 12.229000092 12.250000954 0.0003350000 0.5123406649 2.1789999008 72.311294556 131.56799316 322.65301514 0.8215109706 24.524999619 0.8039791584
 1551.0693359 19.000000000 12.237999916 12.250000954 0.0009530000 0.5068680644 2.1770000458 56.453311920 130.60899353 309.38296509 0.7842540145 26.231000900 0.7780960798
 1551.2216797 19.000000000 12.227000237 12.250000954 0.0002580000 0.5006437898 2.1800000668 47.917354584 128.85699463 309.14001465 0.8088809848 24.700000763 0.8383245468
 1551.3740234 19.000000000 12.232000351 12.250000954 0.0033140001 0.4654913247 2.2030000687 45.868083954 128.10600281 307.98300171 0.8501020074 22.162000656 1.2426677942
 1551.5264893 19.000000000 12.232000351 12.250000954 0.0034870000 0.4596566856 2.2090001106 44.723720551 127.83399200 304.80300903 0.9128109813 18.356000900 0.8282364011
 1551.6788330 19.000000000 12.234999657 12.250000954 0.0032370000 0.4692479968 2.2139999866 44.384651184 126.29900360 304.47799683 0.9647719860 19.055999756 1.1228190660
 1551.8312988 19.000000000 12.233000755 12.250000954 0.0016090001 0.4854792356 2.2019999027 52.690547943 126.48899841 309.60198975 0.9378910065 22.600000381 0.8970368505
 1551.9836426 19.000000000 12.237000465 12.250000954 0.0001700000 0.5107014179 2.1979999542 58.370403290 126.51899719 309.94500732 0.9161649942 25.312999725 0.9430032372
 1552.1361084 19.000000000 12.234000206 12.250000954 0.0010800000 0.4812192619 2.1919999123 70.110107422 126.12400055 309.38400269 0.9287210107 24.350000381 0.9470024109
 1552.2884521 19.000000000 12.243000984 12.250000954 0.0015340000 0.4528716207 2.1889998913 75.235687256 126.84799957 309.97500610 0.9318230152 22.031000137 0.9499543309
 1552.4409180 19.000000000 12.194000244 12.250000954 0.0010270000 0.4573784769 2.1849999428 78.589973450 126.46900177 311.06604004 0.9429630041 21.156000137 0.8930216432
 1552.5932617 19.000000000 12.198999405 12.250000954 0.0026540000 0.4754702449 2.1979999542 82.293556213 128.39500427 310.94198608 0.9425659776 23.386999130 0.9200505018
 1552.7457275 19.000000000 12.189999580 12.250000954 0.0046470002 0.5231052637 2.2090001106 77.996398926 128.16700745 310.59201050 0.9145069718 23.649999619 0.9828510880
 1552.8980713 19.000000000 12.182999611 12.250000954 0.0046859998 0.4939742088 2.2200000286 76.376167297 127.79300690 310.57299805 0.9039210081 23.386999130 0.8899711370
 1553.0505371 19.000000000 12.191999435 12.250000954 0.0022239999 0.4892045557 2.2039999962 80.310882568 128.19999695 308.46600342 0.8851799965 21.156000137 0.8540079594
 1553.2028809 19.000000000 12.191999435 12.250000954 0.0008570000 0.4639897645 2.1879999638 71.508377075 127.67600250 296.52899170 0.8666219711 18.618999481 0.8589960337
 1553.3553467 19.000000000 12.187000275 12.250000954 0.0013870000 0.4761658609 2.1840000153 69.480812073 125.80100250 291.68798828 0.8693280220 21.768999100 0.8543298244
 1553.5076904 19.000000000 12.190999985 12.250000954 -0.000138000 0.4710671902 2.1849999428 66.244522095 123.43800354 293.50201416 0.8976659775 25.794000626 1.0600070953
 1553.6600342 19.000000000 12.185999870 12.250000954 0.0014140001 0.4476037323 2.2170000076 61.900203705 123.44899750 305.72698975 0.9686679840 24.700000763 1.0695708990
 1553.8125000 19.000000000 12.161001205 12.250000954 0.0066290004 0.4322710037 2.2530000210 59.662590027 125.28299713 315.60696411 1.0199999809 22.643999100 1.7814623117
 1553.9648438 19.000000000 12.163000107 12.250000954 0.0084939990 0.4185598493 2.2709999084 65.384490967 126.33300781 326.47900391 1.0809999704 20.674999237 1.1109566689
 1554.1173096 19.000000000 12.154000282 12.250000954 0.0058080000 0.4246448278 2.2449998856 66.000175476 127.50399780 330.69396973 1.0709999800 20.236999512 1.0569496155
 1554.2696533 19.000000000 12.158000946 12.250000954 0.0037630000 0.4531376958 2.2119998932 71.194831848 127.55101013 334.52499390 0.9156370163 20.805999756 0.9938791394
 1554.4221191 19.000000000 12.163999557 12.250000954 0.0053679999 0.4852156043 2.1949999332 62.247844696 127.97799683 329.37500000 0.8428639770 22.731000900 0.8429823518
 1554.5744629 19.000000000 12.178001404 12.250000954 0.0040890002 0.4896975160 2.1809999943 64.542167664 126.95700073 314.47799683 0.8435599804 22.381000519 0.8218052387
 1554.7269287 19.000000000 12.180000305 12.250000954 0.0036370000 0.4690714478 2.1840000153 56.006599426 126.29100037 304.82199097 0.8665999770 22.118999481 1.8246532679
 1554.8792725 19.000000000 12.166999817 12.250000954 0.0019170000 0.4244483709 2.1919999123 52.026363373 127.44100189 303.21499634 0.9160950184 22.861999512 0.9851386547
 1555.0317383 19.000000000 12.187999725 12.250000954 0.0034550000 0.4199394584 2.2100000381 64.952560425 126.16300201 308.21600342 1.0279999971 22.731000900 1.1580047607
 1555.1840820 19.000000000 12.191999435 12.250000954 0.0012670000 0.4252501130 2.2190001011 64.681755066 127.42800140 309.91299438 1.1089999676 21.725000381 1.1608116627
 1555.3365479 19.000000000 12.180999756 12.250000954 -0.000513000 0.4752794504 2.2130000591 70.611885071 127.38700104 312.03402710 1.0260000229 17.044000626 0.9259791970
 1555.4888916 19.000000000 12.192999840 12.250000954 -0.002011000 0.4818022251 2.2049999237 69.906890869 127.60600281 313.25802612 0.9493240118 20.325000763 0.9130648971
 1555.6412354 19.000000000 12.194999695 12.250000954 -0.001728000 0.4733271003 2.2009999752 59.796009064 126.92099762 310.87899780 0.9115729928 23.912000656 0.9939655662
 1555.7937012 19.000000000 12.197999954 12.250000954 -0.003111000 0.4322811365 2.2030000687 61.054904938 126.25599670 306.29901123 0.9040319920 25.312999725 0.9510728717
 1555.9460449 19.000000000 12.189999580 12.250000954 0.0000640000 0.4499247372 2.2149999142 55.956150055 123.51999664 298.24200439 0.9220539927 24.569000244 1.0421689749
 1556.0985107 19.000000000 12.189999580 12.250000954 -0.001587000 0.4658223987 2.2170000076 59.895378113 123.74199677 295.26000977 0.9792879820 21.462999344 1.2528878450
 1556.2508545 19.000000000 12.196000099 12.250000954 -0.000917000 0.4949512780 2.2290000916 67.842948914 122.49300385 295.74798584 1.0620000362 20.018999100 1.1130183935
 1556.4033203 19.000000000 12.190999985 12.250000954 0.0010830000 0.4565854371 2.2439999580 62.787609100 121.85399628 293.87600708 1.1310000420 22.511999130 1.1360993385
