# LAS format log file from PETREL
# Project units are specified as depth units
#==================================================================
~Version information
VERS.   2.0:
WRAP.   NO:
#==================================================================
~Well
STRT .m      2818.0771484 :
STOP .m      3213.0979004 :
STEP .m     0.00000000 :
NULL .        -999.250000 :
COMP.           : COMPANY
WELL.  35/11-15 S   : WELL
FLD.            : FIELD
LOC.            : LOCATION
SRVC.           : SERVICE COMPANY
DATE.  2018-09-11 14:48:55   : Log Export Date {yyyy-MM-dd HH:mm:ss}
PROV.           : PROVINCE
UWI.   35/11-15 S   : UNIQUE WELL ID
API.            : API NUMBER
#==================================================================
~Curve
DEPT .m                   : DEPTH
Lithology_geolink ._      : Lithology_geolink
CALI .in                  : CALI
BS .in                    : BS
ROP .m/h                  : ROP
DRHO .g/cm3               : DRHO
THOR .ppm                 : THOR
SGR .gAPI                 : SGR
RHOB .g/cm3               : RHOB
PEF .b/e                  : PEF
GR .gAPI                  : GR
URAN .ppm                 : URAN
DTC .us/ft                : DTC
DTS .us/ft                : DTS
RDEP .ohm.m               : RDEP
RMIC .ohm.m               : RMIC
RMED .ohm.m               : RMED
~Parameter
#==================================================================
~Ascii
# ...
 3156.4050293 16.000000000 8.4954004288 8.5000000000 81571.695313 -0.076603204 13.495567322 0.0176022444 2.5972929001 4.7207894325 94.256317139 2.1772665977 73.999275208 127.99941254 19.827728271 40.130985260 20.198705673
 3156.5573730 16.000000000 8.4869003296 8.5000000000 79942.414063 -0.077298872 13.150951385 0.0169011205 2.6106784344 4.6774697304 92.258293152 2.2698516846 74.363021851 128.18150330 19.693515778 40.651058197 20.027374268
 3156.7097168 16.000000000 8.4938001633 8.5000000000 79218.078125 -0.077499680 13.056151390 0.0168001596 2.6214826107 4.6621241570 95.192382813 2.5554418564 74.363601685 128.18179321 19.543840408 42.320522308 20.020809174
 3156.8620605 16.000000000 8.4888000488 8.5000000000 78560.226563 -0.078297444 14.372473717 0.0168996789 2.6240916252 4.6642928123 101.28116608 2.6541845798 74.182380676 128.18179321 19.589750290 47.661365509 20.031566620
 3157.0146484 16.000000000 8.4863004684 8.5000000000 78275.609375 -0.076502882 13.499408722 0.0187969543 2.6191082001 4.6987447739 103.26204681 2.9455330372 74.181800842 127.81877899 19.526700974 47.082557678 20.010831833
 3157.1669922 16.000000000 8.4863004684 8.5000000000 77317.304688 -0.075002410 13.300716400 0.0183008015 2.6175026894 4.7040915489 105.11592865 3.3474555016 73.637275696 127.81819916 19.516416550 44.408191681 19.941511154
 3157.3193359 16.000000000 8.4837999344 8.5000000000 76357.539063 -0.073103048 12.470532417 0.0179006401 2.6145048141 4.6889243126 98.491737366 3.1733803749 73.182525635 127.81819916 19.506116867 40.273529053 19.872211456
 3157.4716797 16.000000000 8.4912996292 8.5000000000 69012.890625 -0.069212481 11.470705032 0.0185977593 2.6123070717 4.7165112495 97.749549866 3.3536202908 73.181800842 127.45566559 19.392463684 38.929492950 19.870405197
 3157.6242676 16.000000000 8.4962997437 8.5000000000 64716.496094 -0.065605767 11.066643715 0.0188995190 2.6116011143 4.7251863480 95.797828674 3.1891648769 73.454063416 127.09147644 19.327402115 41.115982056 19.770460129
 3157.7766113 16.000000000 8.4954004288 8.5000000000 65782.515625 -0.065000959 11.686104774 0.0192993600 2.6109011173 4.7351837158 98.598197937 3.3416550159 73.636108398 126.63712311 19.299844742 42.091838837 19.646297455
 3157.9289551 16.000000000 8.4897003174 8.5000000000 71427.179688 -0.066797115 11.472544670 0.0193998404 2.6076049805 4.7393932343 97.832237244 3.4444355965 73.636398315 126.63639832 19.351417542 42.334415436 19.737653732
 3158.0812988 16.000000000 8.4925003052 8.5000000000 77662.609375 -0.068494558 11.708540916 0.0201974399 2.6012206078 4.7631235123 102.14046478 3.5937211514 73.273864746 127.45188141 19.345418930 41.648601532 19.764215469
 3158.2338867 16.000000000 8.4888000488 8.5000000000 78137.632813 -0.066902563 11.396501541 0.0189020820 2.5992031097 4.7656960487 99.689758301 3.6840558052 72.637420654 128.18063354 19.187353134 41.852767944 19.703296661
 3158.3862305 16.000000000 8.4813003540 8.5000000000 78718.828125 -0.066300958 11.631821632 0.0207969546 2.6007974148 4.7211713791 100.16013336 3.2590823174 73.090171814 128.18179321 19.321285248 41.363185883 19.835987091
 3158.5385742 16.000000000 8.4762001038 8.5000000000 81478.328125 -0.068296798 11.336974144 0.0204006415 2.6045937538 4.6871542931 97.724510193 3.1907086372 73.635520935 128.18179321 19.469562531 40.264163971 19.975677490
 3158.6909180 16.000000000 8.4736995697 8.5000000000 87707.968750 -0.072892629 13.050648689 0.0197011214 2.6083939075 4.7056698799 103.03636932 3.1473693848 73.999420166 128.36331177 19.462810516 40.611137390 19.884746552
 3158.8435059 16.000000000 8.4661998749 8.5000000000 91503.406250 -0.076993443 12.659331322 0.0200993586 2.6103968620 4.7423415184 102.12506866 3.1105589867 74.363021851 128.54521179 19.336004257 42.809379578 19.805027008
 3158.9958496 16.000000000 8.4511995316 8.5000000000 92055.804688 -0.078497596 12.472099304 0.0197006408 2.6100006104 4.7882266045 104.14694977 3.3575034142 74.363601685 128.72700500 19.073122025 44.076171875 19.717140198
 3159.1481934 16.000000000 8.4435997009 8.5000000000 93485.382813 -0.078799516 12.835715294 0.0185019225 2.6059067249 4.8268380165 104.82281494 3.4452598095 74.545211792 128.72729492 18.920444489 43.100467682 19.626144409
 3159.3005371 16.000000000 8.4537000656 8.5000000000 94916.742188 -0.078001283 14.105262756 0.0184001606 2.6038033962 4.8218083382 107.48831940 3.3899888992 74.545501709 128.72729492 18.767944336 40.735790253 19.535047531
 3159.4528809 16.000000000 8.4446001053 8.5000000000 93490.820313 -0.077501602 13.692930222 0.0190977585 2.6006102562 4.8081440926 107.17860413 3.3670732975 74.364181519 128.36476135 18.541326523 39.632530212 19.270248413
 3159.6054688 16.000000000 8.4435997009 8.5000000000 88799.007813 -0.073706090 14.154657364 0.0193995200 2.5963068008 4.8176846504 105.34204865 2.8213756084 74.182090759 127.63756561 17.873769760 38.074394226 18.578807831
 3159.7578125 16.000000000 8.4530000687 8.5000000000 87310.289063 -0.072202407 12.221105576 0.0149072111 2.5939037800 4.8044214249 110.44839478 5.9605598450 73.364913940 126.63800049 17.353233337 38.014690399 17.747034073
 3159.9101563 16.000000000 8.4457998276 8.5000000000 77367.351563 -0.072499514 10.114476204 0.0112059293 2.5992913246 4.7693562508 110.67514801 7.4228610992 72.546813965 125.72875977 16.553380966 37.422851563 16.835561752
 3160.0625000 16.000000000 8.4474000931 8.5000000000 67532.601563 -0.075889125 9.9278888702 0.0106019201 2.6048820019 4.7428851128 107.71599579 7.6092090607 72.001747131 124.73049927 15.801409721 32.785881042 16.096666336
 3160.2150879 16.000000000 8.4450998306 8.5000000000 66739.460938 -0.076299362 9.1650238037 0.0094019230 2.6088936329 4.7077560425 107.97386932 7.2513756752 70.820091248 122.91201782 15.314477921 26.161308289 15.582422256
 3160.3674316 16.000000000 8.4661998749 8.5000000000 75654.804688 -0.073704168 11.251548767 0.0128943911 2.6118953228 4.7093973160 105.14643860 9.6518459320 70.364326477 120.91230774 15.048525810 23.957220078 15.443121910
 3160.5197754 16.000000000 8.4661998749 8.5000000000 85879.609375 -0.064115383 13.026355743 0.0158951934 2.6200869083 4.6375155449 103.07891083 10.927359581 69.365203857 119.00305939 15.019445419 24.008611679 15.396674156
 3160.6721191 16.000000000 8.4736995697 8.5000000000 85428.062500 -0.041671999 12.876889229 0.0169964805 2.6426277161 4.5993218422 97.571968079 10.699836731 67.732536316 117.18762207 15.306777954 23.361179352 15.713383675
 3160.8247070 16.000000000 8.4813003540 8.5000000000 73967.070313 -0.019335737 9.9995174408 0.0146038467 2.6799402237 4.5043520927 96.426704407 8.6218338013 66.275032043 116.00189209 15.647554398 24.047695160 15.964099884
 3160.9770508 16.000000000 8.4888000488 8.5000000000 63732.437500 -0.004324039 7.5959506035 0.0119043272 2.7250277996 4.4521832466 94.738609314 7.0801692009 65.002037048 115.54622650 15.852472305 28.109781265 16.172166824
 3161.1293945 16.000000000 8.4925003052 8.5000000000 62700.308594 -0.002902244 7.8924174309 0.0119998399 2.7402756214 4.4937334061 94.676895142 6.8877053261 64.636978149 115.27313232 15.764541626 33.041397095 15.997580528
 3161.2817383 16.000000000 8.4925003052 8.5000000000 61682.945313 -0.003099679 7.4599947929 0.0117004802 2.7254238129 4.4430813789 95.764152527 7.2463240623 64.636398315 115.27269745 15.676141739 30.602928162 15.822480202
 3161.4340820 16.000000000 8.4813003540 8.5000000000 65120.875000 -0.005093600 9.3397636414 0.0172820799 2.6927049160 4.5603232384 96.334777832 4.6964874268 64.636398315 115.27269745 15.495578766 26.252254486 15.442119598
 3161.5866699 16.000000000 8.5038003922 8.5000000000 61399.308594 -0.009692630 11.077520370 0.0217927881 2.6706352234 4.3974618912 96.719978333 2.6390891075 65.997817993 115.36345673 15.447076797 24.225530624 15.389082909
 3161.7390137 16.000000000 8.4925003052 8.5000000000 50614.582031 -0.015191186 11.074808121 0.0216003209 2.6575210094 4.4006943703 97.289382935 2.7756752968 67.543022156 115.99897766 15.493425369 23.326738358 15.255414963
 3161.8913574 16.000000000 8.5038003922 8.5000000000 44570.832031 -0.021090545 10.950200081 0.0216998402 2.6491134167 4.4926524162 96.952545166 2.7644183636 68.180778503 116.54462433 15.541822433 22.567617416 15.128803253
