# LAS format log file from PETREL
# Project units are specified as depth units
#==================================================================
~Version information
VERS.   2.0:
WRAP.   NO:
#==================================================================
~Well
STRT .m      1150.0018311 :
STOP .m      2885.3808594 :
STEP .m     0.00000000 :
NULL .        -999.250000 :
COMP.           : COMPANY
WELL.  35/11-10   : WELL
FLD.            : FIELD
LOC.            : LOCATION
SRVC.           : SERVICE COMPANY
DATE.  2018-09-11 14:48:54   : Log Export Date {yyyy-MM-dd HH:mm:ss}
PROV.           : PROVINCE
UWI.   35/11-10   : UNIQUE WELL ID
API.            : API NUMBER
#==================================================================
~Curve
DEPT .m                   : DEPTH
Lithology_geolink ._      : Lithology_geolink
CALI .in                  : CALI
BS .in                    : BS
DRHO .g/cm3               : DRHO
NPHI .m3/m3               : NPHI
RHOB .g/cm3               : RHOB
GR .gAPI                  : GR
DTC .us/ft                : DTC
DTS .us/ft                : DTS
RDEP .ohm.m               : RDEP
SP .mV                    : SP
RSHA .ohm.m               : RSHA
RMIC .ohm.m               : RMIC
RMED .ohm.m               : RMED
~Parameter
#==================================================================
~Ascii
# ...
 2880.8090820 6.0000000000 8.3310003281 8.5000000000  -999.250000  -999.250000  -999.250000 69.513999939 81.543052673 136.74084473 1.7180480957  -999.250000 1.3783893585 0.7609454989 1.3789999485
 2880.9614258 6.0000000000 8.3280000687 8.5000000000  -999.250000  -999.250000  -999.250000 67.477996826 81.244453430 135.44558716 1.5208271742  -999.250000 1.2518991232 0.8947852254 1.2519999743
 2881.1137695 6.0000000000 8.3430004120 8.5000000000  -999.250000  -999.250000  -999.250000 69.293998718 78.411621094 134.55595398 1.4842180014  -999.250000 1.2304037809 0.7252724767 1.2309999466
 2881.2661133 6.0000000000 8.3400001526 8.5000000000  -999.250000  -999.250000  -999.250000 73.471000671 77.545089722 133.27288818 1.2408430576  -999.250000 1.0447915792 0.6541137695 1.0449999571
 2881.4184570 6.0000000000 8.3430004120 8.5000000000  -999.250000  -999.250000  -999.250000 74.661003113 73.862808228 130.08694458 1.1920064688  -999.250000 0.9800384641 0.7825871706 0.9800000191
 2881.5710449 6.0000000000 8.3680000305 8.5000000000  -999.250000  -999.250000  -999.250000 74.865997314 71.869064331 127.54726410 1.1939711571  -999.250000 0.9921345711 2.3235273361 0.9919999838
 2881.7233887 6.0000000000 8.3610000610 8.5000000000  -999.250000  -999.250000  -999.250000 74.120002747 69.081672668 123.26567078 1.1880575418  -999.250000 1.0194191933 3.7906489372 1.0199999809
 2881.8757324 6.0000000000 8.3059997559 8.5000000000  -999.250000  -999.250000  -999.250000 71.088996887 67.011779785 120.57342529 1.2017179728  -999.250000 0.8993397355 3.2908060551 0.8989999890
 2882.0280762 5.0000000000 8.3039999008 8.5000000000  -999.250000  -999.250000  -999.250000 64.210998535 68.118843079 121.46533203 1.7378108501  -999.250000 1.0064038038 2.6490576267 1.0049999952
 2882.1806641 5.0000000000 8.3009996414 8.5000000000  -999.250000  -999.250000  -999.250000 63.575000763 69.289176941 124.17668152 2.3052980900  -999.250000 1.4562211037 2.5032308102 1.4429999590
 2882.3330078 5.0000000000 8.3109998703 8.5000000000  -999.250000  -999.250000  -999.250000 61.523998260 75.264984131 127.50879669 3.1958303452  -999.250000 4.1975502968 1.7012869120 4.1929998398
 2882.4853516 5.0000000000 8.3400001526 8.5000000000  -999.250000  -999.250000  -999.250000 61.090000153 75.880325317 129.88650513 3.3672597408  -999.250000 5.1388750076 1.0410577059 5.1409997940
 2882.6376953 5.0000000000 8.3500003815 8.5000000000  -999.250000  -999.250000  -999.250000 63.870998383 77.955429077 135.18682861 3.1346089840  -999.250000 4.4725255966 0.7668767571 4.4780001640
 2882.7902832 5.0000000000 8.3430004120 8.5000000000  -999.250000  -999.250000  -999.250000 65.341003418 80.717102051 137.58027649 2.3867068291  -999.250000 2.7618701458 0.6791394353 2.7699999809
 2882.9426270 5.0000000000 8.3380002975 8.5000000000  -999.250000  -999.250000  -999.250000 65.630996704 81.373222351 138.91496277 1.4978560209  -999.250000 1.0798976421 0.9285993576 1.0789999962
 2883.0949707 5.0000000000 8.3360004425 8.5000000000  -999.250000  -999.250000  -999.250000 65.486999512 81.512130737 142.01171875 1.4671186209  -999.250000 1.2656410933 1.0308365822 1.2660000324
 2883.2473145 5.0000000000 8.3360004425 8.5000000000  -999.250000  -999.250000  -999.250000 63.683998108 82.216896057 144.32623291 1.1928492785  -999.250000 1.1536635160 0.7794038057 1.1540000439
 2883.3996582 5.0000000000 8.3360004425 8.5000000000  -999.250000  -999.250000  -999.250000 62.514999390 82.150726318 143.84992981 1.1459519863  -999.250000 1.0487403870 0.6733391881 1.0490000248
 2883.5522461 5.0000000000 8.3339996338 8.5000000000  -999.250000  -999.250000  -999.250000 63.250000000 81.978866577 143.19148254 1.1310096979  -999.250000 0.9679616094 1.0354182720 0.9679999948
 2883.7045898 5.0000000000 8.3310003281 8.5000000000  -999.250000  -999.250000  -999.250000 66.510002136 81.938125610 143.96768188 1.1330224276  -999.250000 0.9600095749 0.8652740717 0.9599999785
 2883.8569336 5.0000000000 8.3310003281 8.5000000000  -999.250000  -999.250000  -999.250000 66.398002625 81.388320923 143.76622009 1.1400032043  -999.250000 0.9630032182 0.6323734522 0.9629999995
 2884.0092773 5.0000000000 8.3219995499 8.5000000000  -999.250000  -999.250000  -999.250000 66.633003235 81.589187622 143.89642334 1.1410448551  -999.250000 0.9642083049 0.6609072089 0.9639999866
 2884.1618652 5.0000000000 8.3310003281 8.5000000000  -999.250000  -999.250000  -999.250000 68.822998047 81.707206726 144.16419983 1.1549278498  -999.250000 1.0293942690 0.6699855924 1.0290000439
 2884.3142090 5.0000000000 8.3310003281 8.5000000000  -999.250000  -999.250000  -999.250000 67.980003357 81.459526062 144.84561157 1.1394815445  -999.250000 1.1103951931 0.7019487619 1.1109999418
 2884.4665527 5.0000000000 8.3140001297 8.5000000000  -999.250000  -999.250000  -999.250000 65.100997925 80.536392212 141.48081970 1.0319678783  -999.250000 0.9848814011 0.7429342866 0.9850000143
 2884.6188965 5.0000000000 8.2989997864 8.5000000000  -999.250000  -999.250000  -999.250000 64.138999939 77.662338257 136.99867249 1.0221569538  -999.250000 0.9482339621 0.8666031957 0.9480000138
 2884.7714844 5.0000000000 8.3360004425 8.5000000000  -999.250000  -999.250000  -999.250000 64.416999817 75.993881226 134.27601624 1.0713124275  -999.250000 1.0208894014 1.8144791126 1.0210000277
 2884.9238281 5.0000000000 8.3909997940 8.5000000000  -999.250000  -999.250000  -999.250000 65.612998962 72.523147583 127.11013031 1.1415008307  -999.250000 1.0077248812 2.3980655670 0.9980000257
 2885.0761719 5.0000000000 8.4230003357 8.5000000000  -999.250000  -999.250000  -999.250000 66.501998901 67.630134583 122.20580292 2.2835674286  -999.250000 3.0313556194 4.1002693176 3.0239999294
 2885.2285156 5.0000000000 8.4420003891 8.5000000000  -999.250000  -999.250000  -999.250000 67.932998657 65.220565796 119.58850098 2.7709903717  -999.250000 5.3191857338 4.4903783798 5.3189997673
 2885.3808594 5.0000000000 8.2790002823 8.5000000000  -999.250000  -999.250000  -999.250000 67.137001038 66.197204590 116.78335571 2.7680351734  -999.250000 5.3772082329  -999.250000 5.3769998550
