# LAS format log file from PETREL
# Project units are specified as depth units
#==================================================================
~Version information
VERS.   2.0:
WRAP.   NO:
#==================================================================
~Well
STRT .m      963.35791016 :
STOP .m      4034.6738281 :
STEP .m     0.00000000 :
NULL .        -999.250000 :
COMP.           : COMPANY
WELL.  35/11-2   : WELL
FLD.            : FIELD
LOC.            : LOCATION
SRVC.           : SERVICE COMPANY
DATE.  2018-09-11 14:48:55   : Log Export Date {yyyy-MM-dd HH:mm:ss}
PROV.           : PROVINCE
UWI.   35/11-2   : UNIQUE WELL ID
API.            : API NUMBER
#==================================================================
~Curve
DEPT .m                   : DEPTH
Lithology_geolink ._      : Lithology_geolink
CALI .in                  : CALI
DRHO .g/cm3               : DRHO
NPHI .m3/m3               : NPHI
RHOB .g/cm3               : RHOB
GR .gAPI                  : GR
DTC .us/ft                : DTC
RDEP .ohm.m               : RDEP
SP .mV                    : SP
RSHA .ohm.m               : RSHA
RMED .ohm.m               : RMED
~Parameter
#==================================================================
~Ascii
# ...
 3217.3532715 6.0000000000 12.281000137 -0.010000000 0.3964799941 2.4790000916 85.438003540 114.00000000 6.2930002213 178.80299377 6.6170001030 6.6170001030
 3217.5056152 6.0000000000 12.281000137 -0.014000000 0.4125999808 2.4690001011 83.188003540 113.62500000 6.3670001030 177.55400085 6.9840002060 6.9840002060
 3217.6579590 6.0000000000 12.281000137 -0.011000000 0.3852500021 2.4730000496 82.813003540 114.75000000 6.7379999161 179.80299377 7.1880002022 7.1880002022
 3217.8103027 6.0000000000 12.265999794 -0.010000000 0.3945299983 2.4730000496 83.313003540 115.12500000 7.6719999313 180.05499268 6.7230000496 6.7230000496
 3217.9628906 6.0000000000 12.227000237 -0.015000000 0.3876999915 2.4389998913 83.813003540 117.50000000 7.8020000458 181.05499268 6.8049998283 6.8049998283
 3218.1152344 6.0000000000 12.194999695 -0.014000000 0.4267599881 2.4079999924 84.125000000 120.75000000 7.3220000267 179.05499268 8.0629997253 8.0629997253
 3218.2675781 6.0000000000 12.187999725 -0.020000000 0.4331099987 2.3959999084 82.938003540 119.50000000 6.6290001869 182.55499268 8.9139995575 8.9139995575
 3218.4199219 6.0000000000 12.187999725 -0.021000000 0.4404299855 2.4279999733 86.500000000 116.12500000 6.1040000916 180.05700684 8.6949996948 8.6949996948
 3218.5725098 6.0000000000 12.187999725 -0.020000000 0.4057599902 2.4709999561 84.813003540 110.62500763 6.1810002327 180.05900574 7.6719999313 7.6719999313
 3218.7248535 6.0000000000 12.187999725 -0.013000000 0.3769499958 2.5160000324 78.688003540 106.00000000 6.6040000916 178.30999756 7.0859999657 7.0859999657
 3218.8771973 6.0000000000 12.187999725 -0.001000000 0.3549800217 2.5329999924 79.063003540 106.00000000 6.6900000572 179.56100464 6.5510001183 6.5510001183
 3219.0295410 6.0000000000 12.187999725 -0.004000000 0.3710900247 2.5209999084 83.250000000 106.74999237 6.4730000496 179.56300354 6.4730000496 6.4730000496
 3219.1818848 6.0000000000 12.187999725 -0.004000000 0.3691400290 2.5039999485 86.875000000 109.24999237 6.2800002098 180.81300354 6.9609999657 6.9609999657
 3219.3344727 6.0000000000 12.187999725 -0.009000000 0.3456999958 2.5060000420 80.438003540 107.12500000 5.7760000229 179.81700134 7.4380002022 7.4380002022
 3219.4868164 6.0000000000 12.187999725 -0.015000000 0.3403300047 2.5250000954 76.250000000 105.75000000 5.3779997826 179.06900024 6.5819997787 6.5819997787
 3219.6391602 6.0000000000 12.187999725 -0.015000000 0.3325199783 2.5550000668 74.125000000 103.12500763 5.4019999504 183.32099915 5.9180002213 5.9180002213
 3219.7915039 6.0000000000 12.187999725 -0.020000000 0.3481400013 2.5629999638 80.063003540 100.75000000 5.5199999809 178.07499695 5.5859999657 5.5859999657
 3219.9440918 6.0000000000 12.187999725 -0.013000000 0.3320299983 2.5720000267 81.563003540 100.75000000 5.5149998665 178.07800293 5.4800000191 5.4800000191
 3220.0964355 6.0000000000 12.187999725 -0.013000000 0.3466799855 2.5639998913 82.188003540 101.62500000 5.6230001450 181.33200073 5.5819997787 5.5819997787
 3220.2487793 6.0000000000 12.187999725 -0.008000000 0.3554700017 2.5629999638 79.500000000 102.00000000 6.1009998322 178.55099487 5.8670001030 5.8670001030
 3220.4011230 6.0000000000 12.187999725 -0.011000000 0.3618199825 2.5450000763 73.938003540 102.75000000 6.7160000801 177.05099487 5.9609999657 5.9609999657
 3220.5537109 6.0000000000 12.187999725 -0.012000000 0.3720700145 2.5350000858 80.875000000 105.25000000 6.8850002289 180.05099487 5.8319997787 5.8319997787
 3220.7060547 6.0000000000 12.187999725 -0.017000001 0.3872100115 2.5209999084 81.563003540 106.74999237 6.7480001450 178.80099487 6.4060001373 6.4060001373
 3220.8583984 6.0000000000 12.187999725 -0.011000000 0.3955099881 2.5290000439 87.875000000 108.37500000 6.1370000839 178.80099487 7.5980000496 7.5980000496
 3221.0107422 6.0000000000 12.187999725 -0.012000000 0.3789099753 2.5309998989 83.438003540 107.87500000 5.4699997902 180.80099487 7.8049998283 7.8049998283
 3221.1630859 6.0000000000 12.211000443 -0.010000000 0.3544900119 2.5469999313 81.938003540 106.87500763 5.2810001373 181.30099487 6.6020002365 6.6020002365
 3221.3156738 6.0000000000 12.258000374 -0.012000000 0.3461900055 2.5629999638 76.688003540 102.62500000 5.4970002174 177.30200195 5.7540001869 5.7540001869
 3221.4680176 6.0000000000 12.293000221 -0.015000000 0.3413099945 2.5739998817 74.813003540 100.87500000 5.6869997978 176.80200195 5.4879999161 5.4879999161
 3221.6203613 6.0000000000 12.328000069 -0.021000000 0.3456999958 2.5639998913 74.250000000 100.87500000 5.7839999199 176.05200195 5.5040001869 5.5040001869
 3221.7727051 6.0000000000 12.373000145 -0.024000000 0.3305699825 2.5469999313 76.500000000 101.62500000 5.6729998589 177.80200195 5.7459998131 5.7459998131
 3221.9252930 6.0000000000 12.418000221 -0.021000000 0.3422900140 2.5529999733 78.250000000 101.25000000 5.5019998550 179.30099487 6.1250000000 6.1250000000
 3222.0776367 6.0000000000 12.456999779 -0.017999999 0.3452099860 2.5610001087 78.500000000 102.87500000 5.3140001297 177.30299377 6.3049998283 6.3049998283
 3222.2299805 6.0000000000 12.474999428 -0.015000000 0.3701200187 2.5720000267 82.750000000 104.00000000 5.2589998245 176.05299377 5.9450001717 5.9450001717
 3222.3823242 6.0000000000 12.482000351 -0.016000001 0.3823199868 2.5510001183 83.250000000 104.24999237 5.1950001717 174.80299377 5.7109999657 5.7109999657
 3222.5349121 6.0000000000 12.512000084 -0.015000000 0.3769499958 2.5390000343 78.125000000 104.12500000 5.3109998703 179.05299377 5.6950001717 5.6950001717
 3222.6872559 6.0000000000 12.553001404 -0.018999999 0.3881800175 2.5350000858 75.063003540 105.62500763 5.8010001183 174.30299377 5.7579998970 5.7579998970
 3222.8395996 6.0000000000 12.569999695 -0.018999999 0.3706099987 2.5429999828 72.438003540 104.62500000 6.5240001678 176.30400085 5.7810001373 5.7810001373
 3222.9919434 6.0000000000 12.569999695 -0.017999999 0.4013700187 2.5610001087 76.063003540 102.99999237 6.8179998398 178.30400085 5.8750000000 5.8750000000
 3223.1442871 6.0000000000 12.569999695 -0.017000001 0.3828099966 2.5699999332 70.938003540 104.24999237 7.0269999504 181.30499268 6.3090000153 6.3090000153
 3223.2968750 6.0000000000 12.571999550 -0.016000001 0.3847700059 2.5780000687 70.250000000 104.87500000 6.7969999313 178.05599976 7.3949999809 7.3949999809
 3223.4492188 6.0000000000 12.597998619 -0.017000001 0.3769499958 2.5639998913 72.000000000 105.25000000 6.1750001907 176.80700684 8.3909997940 8.3909997940
 3223.6015625 6.0000000000 12.642999649 -0.016000001 0.3598600030 2.5390000343 76.375000000 106.25000000 5.8839998245 177.55700684 7.7810001373 7.7810001373
 3223.7539063 6.0000000000 12.663999557 -0.016000001 0.3579100072 2.5269999504 76.813003540 108.25000000 6.0419998169 180.05700684 7.0590000153 7.0590000153
 3223.9064941 6.0000000000 12.678000450 -0.017999999 0.3579100072 2.5209999084 76.250000000 108.25000000 6.5570001602 176.55900574 6.7109999657 6.7109999657
 3224.0588379 6.0000000000 12.715000153 -0.017999999 0.3764599860 2.5230000019 77.125000000 109.75000000 7.3730001450 175.06100464 6.6209998131 6.6209998131
 3224.2111816 6.0000000000 12.748000145 -0.018999999 0.3803699911 2.5020000935 80.625000000 110.12500000 8.8889999390 177.31199646 6.8520002365 6.8520002365
 3224.3635254 6.0000000000 12.758000374 -0.021000000 0.3906300068 2.4839999676 81.250000000 111.62500000 10.380999565 179.81300354 7.9569997787 7.9569997787
 3224.5161133 6.0000000000 12.758000374 -0.020000000 0.4013700187 2.4730000496 79.625000000 112.50000000 11.529000282 179.56500244 9.7810001373 9.7810001373
 3224.6684570 6.0000000000 12.758000374 -0.017000001 0.3964799941 2.4790000916 78.750000000 112.50000000 11.913000107 177.31799316 11.531000137 11.531000137
 3224.8208008 6.0000000000 12.758000374 -0.015000000 0.3735400140 2.4790000916 78.813003540 111.50000000 11.413000107 178.81900024 13.125000000 13.125000000
 3224.9731445 6.0000000000 12.758000374 -0.016000001 0.3959999979 2.4860000610 78.063003540 111.00000000 10.616000175 177.07299805 14.484000206 14.484000206
