# LAS format log file from PETREL
# Project units are specified as depth units
#==================================================================
~Version information
VERS.   2.0:
WRAP.   NO:
#==================================================================
~Well
STRT .m      998.18890381 :
STOP .m      3019.4697266 :
STEP .m     0.00000000 :
NULL .        -999.250000 :
COMP.           : COMPANY
WELL.  35/12-1   : WELL
FLD.            : FIELD
LOC.            : LOCATION
SRVC.           : SERVICE COMPANY
DATE.  2018-09-11 14:48:57   : Log Export Date {yyyy-MM-dd HH:mm:ss}
PROV.           : PROVINCE
UWI.   35/12-1   : UNIQUE WELL ID
API.            : API NUMBER
#==================================================================
~Curve
DEPT .m                   : DEPTH
Lithology_geolink ._      : Lithology_geolink
CALI .in                  : CALI
BS .in                    : BS
DRHO .g/cm3               : DRHO
NPHI .m3/m3               : NPHI
RHOB .g/cm3               : RHOB
PEF .b/e                  : PEF
GR .gAPI                  : GR
DTC .us/ft                : DTC
RDEP .ohm.m               : RDEP
SP .mV                    : SP
RSHA .ohm.m               : RSHA
RMIC .ohm.m               : RMIC
RMED .ohm.m               : RMED
~Parameter
#==================================================================
~Ascii
# ...
 2610.2758789 2.0000000000 12.107999802 12.250000954 -0.008000000 0.2349519283 2.3640000820 2.9800000191 74.056007385 82.680000305 1.0019855499 -100.9314194 0.9239615798 0.5420016050 0.0450000018
 2610.4282227 2.0000000000 12.085000038 12.250000954 -0.008000000 0.2578527927 2.3640000820 3.0659999847 74.902633667 82.822006226 1.0059744120 -101.4069672 0.9329424500 0.5569759607 0.0450000018
 2610.5805664 2.0000000000 12.060999870 12.250000954 -0.008000000 0.2589935958 2.3599998951 3.0840001106 76.060142517 82.397003174 1.0139487982 -101.8740082 0.9429359436 0.5629904270 0.0450000018
 2610.7329102 2.0000000000 12.067999840 12.250000954 -0.009000000 0.2530384660 2.3580000401 3.0179998875 79.514915466 82.215995789 1.0229423046 -101.1457138 0.9549230337 0.5659903884 0.0450000018
 2610.8854980 2.0000000000 12.098999977 12.250000954 -0.009000000 0.2271250039 2.3599998951 3.0590000153 80.848876953 82.232002258 1.0269807577 -100.5379181 0.9659471512 0.5580128431 0.0450000018
 2611.0378418 2.0000000000 12.121000290 12.250000954 -0.008000000 0.2200447917 2.3619999886 3.0699999332 82.124954224 82.221992493 1.0260064602 -99.68249512 0.9699744582 0.5580000281 0.0450000018
 2611.1901855 2.0000000000 12.125000000 12.250000954 -0.009000000 0.2180128098 2.3640000820 3.1129999161 81.600845337 81.661003113 1.0200384855 -99.46437073 0.9600640535 0.5729759932 0.0450000018
 2611.3425293 2.0000000000 12.125000000 12.250000954 -0.011000000 0.2289294899 2.3619999886 3.0000000000 79.280448914 81.536003113 1.0100641251 -101.9201431 0.9441025853 0.5879520178 0.0450000018
 2611.4951172 2.0000000000 12.125000000 12.250000954 -0.012000000 0.2270096093 2.3599998951 2.9630000591 76.559356689 81.347999573 1.0040287971 -103.0187683 0.9390240312 0.6109631658 0.0450000018
 2611.6474609 2.0000000000 12.125000000 12.250000954 -0.013000000 0.2190384567 2.3589999676 3.0290000439 73.769470215 81.220001221 1.0059903860 -104.0301437 0.9469615817 0.6110000014 0.0450000018
 2611.7998047 2.0000000000 12.121000290 12.250000954 -0.013000000 0.2090640068 2.3529999256 3.1470000744 74.502815247 80.897003174 1.0060000420 -103.5848999 0.9678655863 0.5770545006 0.0450000018
 2611.9521484 2.0000000000 12.104999542 12.250000954 -0.013000000 0.1970769167 2.3550000191 3.1029999256 76.757385254 80.803001404 1.0020256042 -102.8278656 0.9858846068 0.5500432849 0.0450000018
 2612.1044922 2.0000000000 12.102000237 12.250000954 -0.012000000 0.1969999969 2.3670001030 3.0699999332 78.812416077 80.431999207 0.9990192652 -101.9993210 1.0018974543 0.5689392090 0.0450000018
 2612.2570801 2.0000000000 12.102000237 12.250000954 -0.010000000 0.2119278759 2.3849999905 3.0429999828 79.283248901 80.261001587 0.9980048537 -101.1222076 1.0099614859 0.6688397527 0.0450000018
 2612.4094238 2.0000000000 12.102999687 12.250000954 -0.010000000 0.2229296118 2.3900001049 3.1159999371 78.148826599 80.686996460 1.0009808540 -101.8790970 0.9990704060 0.7129294872 0.0450000018
 2612.5617676 2.0000000000 12.106999397 12.250000954 -0.012000000 0.2249871790 2.3770000935 3.1570000648 78.660179138 81.026000977 1.0079551935 -101.8353119 0.9890640974 0.6790544987 0.0450000018
 2612.7141113 2.0000000000 12.102999687 12.250000954 -0.014000000 0.2150641084 2.3580000401 3.1749999523 78.105781555 82.070999146 1.0179358721 -101.4663773 0.9780704975 0.6361376047 0.0450000018
 2612.8666992 2.0000000000 12.097999573 12.250000954 -0.014000000 0.2289326936 2.3469998837 3.1619999409 78.922691345 82.719001770 1.0160096884 -101.4958496 0.9630721211 0.6300095916 0.0450000018
 2613.0190430 2.0000000000 12.086001396 12.250000954 -0.014000000 0.2250255942 2.3450000286 3.0989999771 77.781829834 82.916000366 1.0001024008 -100.7975006 0.9500831962 0.6010465026 0.0450000018
 2613.1713867 2.0000000000 12.098999977 12.250000954 -0.013000000 0.2279807627 2.3529999256 3.0969998837 79.904586792 83.052009583 0.9801282287 -99.76065826 0.9430449009 0.5640593171 0.0450000018
 2613.3237305 2.0000000000 12.111000061 12.250000954 -0.013000000 0.2140897512 2.3540000916 3.1840000153 81.145027161 82.999992371 0.9611217976 -99.55925751 0.9340577126 0.5400767922 0.0450000018
 2613.4763184 2.0000000000 12.121999741 12.250000954 -0.013000000 0.2140000015 2.3519999981 3.2679998875 85.589874268 82.851997375 0.9470673203 -100.3402252 0.9230528474 0.5340095758 0.0450000018
 2613.6286621 2.0000000000 12.125000000 12.250000954 -0.014000000 0.2229567319 2.3499999046 3.3239998817 87.027702332 82.435997009 0.9360528588 -101.8138962 0.9120528698 0.5389919877 0.0450000018
 2613.7810059 2.0000000000 12.121000290 12.250000954 -0.015000000 0.2239936143 2.3529999256 3.3529999256 82.206741333 81.683998108 0.9320255518 -101.4255447 0.8980895877 0.5589679480 0.0450000018
 2613.9333496 2.0000000000 12.104000092 12.250000954 -0.014000000 0.2210192382 2.3670001030 3.3940000534 77.692230225 80.816001892 0.9478974342 -102.0926819 0.8960128427 0.5869551301 0.0450000018
 2614.0859375 2.0000000000 12.092000008 12.250000954 -0.013000000 0.2070673108 2.3789999485 3.4059998989 74.261482239 80.000000000 0.9698942304 -102.8991241 0.9228701591 0.6089648008 0.0450000018
 2614.2382813 2.0000000000 12.081999779 12.250000954 -0.013000000 0.2040144205 2.3829998970 3.3659999371 76.294723511 79.329002380 0.9759711623 -103.4035797 0.9558413029 0.6209807396 0.0450000018
 2614.3906250 2.0000000000 12.090999603 12.250000954 -0.015000000 0.2099615932 2.3650000095 3.2490000725 74.617698669 79.264999390 0.9710320234 -101.5012665 0.9738847613 0.6309839487 0.0450000018
 2614.5429688 2.0000000000 12.119000435 12.250000954 -0.016000001 0.2189422995 2.3459999561 3.2530000210 74.721832275 79.664001465 0.9789487123 -100.4049988 0.9670448899 0.7078766227 0.0450000018
 2614.6953125 2.0000000000 12.125000000 12.250000954 -0.016000001 0.2329102457 2.3289999962 3.3450000286 75.120719910 80.463996887 1.0107948780 -104.2441864 0.9501089454 0.6402176023 0.0450000018
 2614.8479004 2.0000000000 12.125000000 12.250000954 -0.013000000 0.2548942268 2.3289999962 3.4330000877 78.321868896 81.309989929 1.0727019310 -104.6966171 0.9360672832 0.5960705280 0.0450000018
 2615.0002441 2.0000000000 12.125000000 12.250000954 -0.011000000 0.2530127764 2.3289999962 3.4389998913 78.837181091 80.820999146 1.1842831373 -103.9414368 0.9687888026 0.5500737429 0.0450000018
 2615.1525879 2.0000000000 12.125000000 12.250000954 -0.010000000 0.2132564038 2.3340001106 3.4549999237 78.762123108 78.074996948 1.3509294987 -103.3637772 1.1667243242 0.5060704947 0.0450000018
 2615.3049316 2.0000000000 12.125000000 12.250000954 -0.010000000 0.1414615363 2.3589999676 3.7449998856 77.259819031 70.193000793 1.4742115736 -103.9431839 1.5415897369 0.4990224242 0.0450000018
 2615.4575195 2.0000000000 12.125000000 12.250000954 -0.007000000 0.0892499983 2.4149999619 4.3480000496 73.738647461 63.253997803 1.4620624781 -102.9402313 1.7221394777 0.6397740245 0.0450000018
 2615.6098633 2.0000000000 12.125000000 12.250000954 -0.006000000 0.0810384601 2.4460000992 4.5050001144 71.697265625 62.602001190 1.3903461695 -102.6877975 1.5458557606 1.7472226620 0.0450000018
 2615.7622070 2.0000000000 12.119999886 12.250000954 -0.011000000 0.1137887985 2.4210000038 4.2309999466 70.978149414 65.275001526 1.3631728888 -102.9003143 1.3572095633 4.6872835159 0.0450000018
 2615.9145508 2.0000000000 12.095000267 12.250000954 -0.017000001 0.1706346124 2.3680000305 3.8029999733 75.392822266 69.564002991 1.3719422817 -103.4652786 1.2526665926 3.1220400333 0.0450000018
 2616.0671387 2.0000000000 12.076999664 12.250000954 -0.017999999 0.2207596153 2.3380000591 3.5850000381 78.421165466 73.997001648 1.3779711723 -103.3733063 1.1962691545 1.0463236570 0.0450000018
 2616.2194824 2.0000000000 12.081999779 12.250000954 -0.015000000 0.2428942323 2.3359999657 3.4440000057 83.898216248 77.056999207 1.3312259912 -104.0976715 1.1333029270 0.5887291431 0.0450000018
 2616.3718262 2.0000000000 12.082999229 12.250000954 -0.014000000 0.2469743937 2.3350000381 3.2699999809 85.010231018 80.217010498 1.2067999840 -103.2826233 1.0445696115 0.5700288415 0.0450000018
