# LAS format log file from PETREL
# Project units are specified as depth units
#==================================================================
~Version information
VERS.   2.0:
WRAP.   NO:
#==================================================================
~Well
STRT .m      359.96881104 :
STOP .m      3380.8413086 :
STEP .m     0.00000000 :
NULL .        -999.250000 :
COMP.           : COMPANY
WELL.  35/11-12   : WELL
FLD.            : FIELD
LOC.            : LOCATION
SRVC.           : SERVICE COMPANY
DATE.  2018-09-11 14:48:55   : Log Export Date {yyyy-MM-dd HH:mm:ss}
PROV.           : PROVINCE
UWI.   35/11-12   : UNIQUE WELL ID
API.            : API NUMBER
#==================================================================
~Curve
DEPT .m                   : DEPTH
Lithology_geolink ._      : Lithology_geolink
CALI .in                  : CALI
BS .in                    : BS
ROP .m/h                  : ROP
DRHO .g/cm3               : DRHO
NPHI .m3/m3               : NPHI
RHOB .g/cm3               : RHOB
PEF .b/e                  : PEF
GR .gAPI                  : GR
DTC .us/ft                : DTC
RDEP .ohm.m               : RDEP
RMED .ohm.m               : RMED
~Parameter
#==================================================================
~Ascii
# ...
 3351.8854980 16.000000000  -999.250000 8.5000000000 22.408136368  -999.250000  -999.250000  -999.250000  -999.250000 123.31143188 91.911346436 3.2919530869 3.4596071243
 3352.0378418 16.000000000  -999.250000 8.5000000000 18.339895248  -999.250000  -999.250000  -999.250000  -999.250000 128.83444214 92.490066528 3.2711529732 3.3419871330
 3352.1901855 16.000000000  -999.250000 8.5000000000 14.271652222  -999.250000  -999.250000  -999.250000  -999.250000 129.60098267 92.900497437 3.0701532364 3.1303272247
 3352.3427734 16.000000000  -999.250000 8.5000000000 10.203411102  -999.250000  -999.250000  -999.250000  -999.250000 132.91659546 93.469833374 2.9188394547 2.9625115395
 3352.4951172 16.000000000  -999.250000 8.5000000000 13.681102753  -999.250000  -999.250000  -999.250000  -999.250000 133.18676758 94.207809448 2.7918329239 2.8794250488
 3352.6474609 16.000000000  -999.250000 8.5000000000 12.467190742  -999.250000  -999.250000  -999.250000  -999.250000 134.14349365 94.020675659 2.7249102592 2.7646470070
 3352.7998047 16.000000000  -999.250000 8.5000000000 11.876640320  -999.250000  -999.250000  -999.250000  -999.250000 134.14349365 93.970214844 2.7521715164 2.7214231491
 3352.9521484 16.000000000  -999.250000 8.5000000000 17.486877441  -999.250000  -999.250000  -999.250000  -999.250000 132.82400513 93.774688721 2.7900853157 2.7267498970
 3353.1047363 16.000000000  -999.250000 8.5000000000 16.896324158  -999.250000  -999.250000  -999.250000  -999.250000 131.67678833 93.582290649 2.7543315887 2.6869215965
 3353.2568359 16.000000000  -999.250000 8.5000000000 16.305772781  -999.250000  -999.250000  -999.250000  -999.250000 130.52954102 93.430816650 2.7185783386 2.6470932961
 3353.4091797 16.000000000  -999.250000 8.5000000000 16.765090942  -999.250000  -999.250000  -999.250000  -999.250000 132.49621582 93.267829895 2.5603508949 2.6352667809
 3353.5615234 16.000000000  -999.250000 8.5000000000 15.485562325  -999.250000  -999.250000  -999.250000  -999.250000 133.92251587 93.145584106 2.6993913651 2.6132845879
 3353.7138672 16.000000000  -999.250000 8.5000000000 15.518371582  -999.250000  -999.250000  -999.250000  -999.250000 136.63629150 94.000045776 2.6550045013 2.5296216011
 3353.8664551 16.000000000  -999.250000 8.5000000000 14.763780594  -999.250000  -999.250000  -999.250000  -999.250000 134.66961670 94.330360413 2.5165300369 2.4896793365
 3354.0187988 16.000000000  -999.250000 8.5000000000 15.551181793  -999.250000  -999.250000  -999.250000  -999.250000 129.28649902 94.451766968 2.5401105881 2.6067452431
 3354.1711426 16.000000000  -999.250000 8.5000000000 14.960629463  -999.250000  -999.250000  -999.250000  -999.250000 128.52050781 94.604454041 2.5176310539 2.5065646172
 3354.3234863 16.000000000  -999.250000 8.5000000000 15.682413101  -999.250000  -999.250000  -999.250000  -999.250000 126.55383301 94.334808350 2.6354551315 2.5671572685
 3354.4760742 16.000000000  -999.250000 8.5000000000 14.238844872  -999.250000  -999.250000  -999.250000  -999.250000 128.00363159 94.470916748 2.4890236855 2.6377754211
 3354.6284180 16.000000000  -999.250000 8.5000000000 14.173226357  -999.250000  -999.250000  -999.250000  -999.250000 128.02252197 94.468643188 2.6044588089 2.4757018089
 3354.7807617 16.000000000  -999.250000 8.5000000000 15.157480240  -999.250000  -999.250000  -999.250000  -999.250000 129.98919678 94.064453125 2.4100232124 2.4686317444
 3354.9331055 16.000000000  -999.250000 8.5000000000 16.994750977  -999.250000  -999.250000  -999.250000  -999.250000 135.40429688 93.484649658 2.4822664261 2.5178756714
 3355.0854492 16.000000000  -999.250000 8.5000000000 17.650918961  -999.250000  -999.250000  -999.250000  -999.250000 133.43765259 93.145294189 2.6230812073 2.6308598518
 3355.2380371 16.000000000  -999.250000 8.5000000000 17.125982285  -999.250000  -999.250000  -999.250000  -999.250000 125.86676025 93.154861450 2.7810869217 2.8973622322
 3355.3903809 16.000000000  -999.250000 8.5000000000 18.241468430  -999.250000  -999.250000  -999.250000  -999.250000 125.10404968 92.309654236 2.7719664574 2.9830441475
 3355.5427246 16.000000000  -999.250000 8.5000000000 19.094488144  -999.250000  -999.250000  -999.250000  -999.250000 125.10404968 91.528854370 2.7463898659 2.8415031433
 3355.6950684 16.000000000  -999.250000 8.5000000000 18.996063232  -999.250000  -999.250000  -999.250000  -999.250000 123.13739014 90.768081665 2.7665867805 2.8812084198
 3355.8476563 16.000000000  -999.250000 8.5000000000 19.717847824  -999.250000  -999.250000  -999.250000  -999.250000 118.00009155 90.429611206 2.9219832420 2.8396472931
 3356.0000000 16.000000000  -999.250000 8.5000000000 20.702098846  -999.250000  -999.250000  -999.250000  -999.250000 116.51171875 90.615020752 2.7976775169 2.9814410210
 3356.1523438 16.000000000  -999.250000 8.5000000000 19.291339874  -999.250000  -999.250000  -999.250000  -999.250000 121.52925110 91.009239197 3.0155110359 2.9607491493
 3356.3046875 16.000000000  -999.250000 8.5000000000 18.339895248  -999.250000  -999.250000  -999.250000  -999.250000 129.39590454 91.277206421 2.8548941612 2.9408159256
 3356.4572754 16.000000000  -999.250000 8.5000000000 18.011810303  -999.250000  -999.250000  -999.250000  -999.250000 130.88427734 91.249465942 2.7954773903 2.9311432838
 3356.6096191 16.000000000  -999.250000 8.5000000000 17.913385391  -999.250000  -999.250000  -999.250000  -999.250000 128.24316406 91.299957275 3.0330862999 3.2199454308
 3356.7619629 16.000000000  -999.250000 8.5000000000 18.569553375  -999.250000  -999.250000  -999.250000  -999.250000 126.27648926 90.643463135 3.0447778702 3.1020045280
 3356.9143066 16.000000000  -999.250000 8.5000000000 17.618110657  -999.250000  -999.250000  -999.250000  -999.250000 129.92617798 90.391113281 2.9459466934 3.0354290009
 3357.0666504 16.000000000  -999.250000 8.5000000000 19.389762878  -999.250000  -999.250000  -999.250000  -999.250000 129.92617798 90.644851685 2.9400353432 3.0188746452
 3357.2192383 16.000000000  -999.250000 8.5000000000 21.227031708  -999.250000  -999.250000  -999.250000  -999.250000 131.01034546 91.011291504 2.9645390511 2.9088063240
 3357.3715820 16.000000000  -999.250000 8.5000000000 20.800525665  -999.250000  -999.250000  -999.250000  -999.250000 129.66186523 90.521163940 2.7876648903 2.9072155952
 3357.5239258 16.000000000  -999.250000 8.5000000000 21.259841919  -999.250000  -999.250000  -999.250000  -999.250000 129.56115723 89.886337280 3.0968632698 3.0112352371
 3357.6762695 16.000000000  -999.250000 8.5000000000 21.555116653  -999.250000  -999.250000  -999.250000  -999.250000 127.05413818 89.382423401 3.0273323059 3.0599346161
 3357.8288574 16.000000000  -999.250000 8.5000000000 20.013122559  -999.250000  -999.250000  -999.250000  -999.250000 119.40135193 88.858016968 3.2602577209 3.0405578613
 3357.9812012 16.000000000  -999.250000 8.5000000000 18.930444717  -999.250000  -999.250000  -999.250000  -999.250000 119.53987122 88.590377808 3.1428947449 3.0627179146
 3358.1335449 16.000000000  -999.250000 8.5000000000 19.553806305  -999.250000  -999.250000  -999.250000  -999.250000 120.08023071 88.929306030 2.9052419662 3.0437436104
 3358.2858887 16.000000000  -999.250000 8.5000000000 19.324144363  -999.250000  -999.250000  -999.250000  -999.250000 123.94422913 89.149093628 2.8410625458 2.8533649445
 3358.4384766 16.000000000  -999.250000 8.5000000000 20.275590897  -999.250000  -999.250000  -999.250000  -999.250000 120.76603699 89.991241455 2.9536027908 2.8690867424
 3358.5908203 16.000000000  -999.250000 8.5000000000 19.652231216  -999.250000  -999.250000  -999.250000  -999.250000 122.73269653 91.317871094 2.8206825256 2.9703655243
 3358.7431641 16.000000000  -999.250000 8.5000000000 20.078739166  -999.250000  -999.250000  -999.250000  -999.250000 126.65972900 91.610992432 2.8314075470 2.8616213799
 3358.8955078 16.000000000  -999.250000 8.5000000000 19.914699554  -999.250000  -999.250000  -999.250000  -999.250000 129.80010986 92.127059937 2.8883929253 2.9325537682
 3359.0480957 16.000000000  -999.250000 8.5000000000 19.488187790  -999.250000  -999.250000  -999.250000  -999.250000 133.05484009 92.542022705 2.8816585541 2.8030457497
