# LAS format log file from PETREL
# Project units are specified as depth units
#==================================================================
~Version information
VERS.   2.0:
WRAP.   NO:
#==================================================================
~Well
STRT .m      998.18890381 :
STOP .m      3019.4697266 :
STEP .m     0.00000000 :
NULL .        -999.250000 :
COMP.           : COMPANY
WELL.  35/12-1   : WELL
FLD.            : FIELD
LOC.            : LOCATION
SRVC.           : SERVICE COMPANY
DATE.  2018-09-11 14:48:57   : Log Export Date {yyyy-MM-dd HH:mm:ss}
PROV.           : PROVINCE
UWI.   35/12-1   : UNIQUE WELL ID
API.            : API NUMBER
#==================================================================
~Curve
DEPT .m                   : DEPTH
Lithology_geolink ._      : Lithology_geolink
CALI .in                  : CALI
BS .in                    : BS
DRHO .g/cm3               : DRHO
NPHI .m3/m3               : NPHI
RHOB .g/cm3               : RHOB
PEF .b/e                  : PEF
GR .gAPI                  : GR
DTC .us/ft                : DTC
RDEP .ohm.m               : RDEP
SP .mV                    : SP
RSHA .ohm.m               : RSHA
RMIC .ohm.m               : RMIC
RMED .ohm.m               : RMED
~Parameter
#==================================================================
~Ascii
# ...
 2341.5947266 13.000000000 13.593999863 12.250000954 -0.003000000 0.3060192168 2.5160000324 2.9949998856 107.00700378 97.874000549 2.0027308464 -170.4075623 2.4373941422 2.7053766251 0.0480000004
 2341.7470703 13.000000000 13.593999863 12.250000954 -0.001000000 0.2681826949 2.5269999504 3.0280001163 101.21128845 96.152000427 2.0457248688 -171.6739349 2.5433216095 2.7629070282 0.0480000004
 2341.8994141 13.000000000 13.613000870 12.250000954 0.0000000000 0.2431201935 2.5439999104 3.0920000076 97.460006714 93.999000549 2.0857436657 -171.8710632 2.6165320873 3.1763365269 0.0480000004
 2342.0517578 13.000000000 13.710000038 12.250000954 0.0020000001 0.2260817289 2.5610001087 3.0759999752 99.327995300 91.945007324 2.1495897770 -172.3078918 2.6577372551 3.4959759712 0.0480000004
 2342.2043457 13.000000000 13.814001083 12.250000954 0.0040000002 0.2269951999 2.5739998817 3.0120000839 103.97299957 90.741989136 2.2306106091 -173.1622467 2.6938269138 3.6677260399 0.0480000004
 2342.3566895 13.000000000 13.873999596 12.250000954 0.0049999999 0.2379471213 2.5810000896 2.9809999466 106.42108154 90.732002258 2.2786929607 -173.1231384 2.7526223660 4.1442356110 0.0480000004
 2342.5090332 13.000000000 13.847999573 12.250000954 0.0030000000 0.2399903834 2.5829999447 3.0739998817 105.54840088 91.002998352 2.3117885590 -170.1105194 2.8344743252 3.6987164021 0.0480000004
 2342.6613770 13.000000000 13.772999763 12.250000954 0.0000000000 0.2469663471 2.5820000172 3.1250000000 102.57576752 90.981002808 2.3447885513 -172.2286987 2.8797116280 3.7857184410 0.0480000004
 2342.8139648 13.000000000 13.751000404 12.250000954 -0.003000000 0.2450096011 2.5780000687 3.0899999142 103.50800323 91.183998108 2.3639087677 -172.4951782 2.8750240803 3.8908317089 0.0480000004
 2342.9663086 13.000000000 13.750000000 12.250000954 -0.006000000 0.2450000048 2.5739998817 3.0969998837 103.67199707 91.481002808 2.3669857979 -172.2348328 2.8700239658 3.7472307682 0.0480000004
 2343.1186523 13.000000000 13.750000000 12.250000954 -0.007000000 0.2479855716 2.5739998817 3.1619999409 104.20115662 91.986999512 2.3501086235 -171.3811188 2.8550961018 3.6980783939 0.0480000004
 2343.2709961 13.000000000 13.750000000 12.250000954 -0.006000000 0.2479999959 2.5739998817 3.2039999962 102.95700073 92.181007385 2.2913780212 -170.3031921 2.8033332825 3.5833680630 0.0480000004
 2343.4235840 13.000000000 13.734999657 12.250000954 -0.004000000 0.2509855926 2.5739998817 3.2590000629 103.93800354 92.568000793 2.2123796940 -170.4714355 2.7403028011 3.4332404137 0.0480000004
 2343.5759277 13.000000000 13.660999298 12.250000954 -0.004000000 0.2500047982 2.5620000362 3.2320001125 105.30500031 92.819007874 2.1493027210 -169.5788727 2.6773028374 3.3720977306 0.0480000004
 2343.7282715 13.000000000 13.613000870 12.250000954 -0.004000000 0.2708990276 2.5529999733 3.1250000000 105.14825439 92.813011169 2.1082625389 -169.3467255 2.6163902283 3.5327420235 0.0480000004
 2343.8806152 13.000000000 13.647001266 12.250000954 -0.005000000 0.2719952166 2.5369999409 2.9330000877 105.71009827 93.086997986 2.0732243061 -169.9839172 2.5335321426 3.4461395741 0.0480000004
 2344.0329590 13.000000000 13.694000244 12.250000954 -0.005000000 0.2769680023 2.5239999294 2.8190000057 109.23834229 92.968002319 2.0402114391 -169.9511719 2.4396023750 3.3014640808 0.0480000004
 2344.1855469 13.000000000 13.730999947 12.250000954 -0.005000000 0.2551057637 2.5130000114 2.7269999981 108.83599854 92.502998352 1.9922307730 -169.7147675 2.3832690716 3.0374231339 0.0480000004
 2344.3378906 13.000000000 13.746999741 12.250000954 -0.004000000 0.2510192096 2.5120000839 2.6500000954 106.24315643 91.712997437 1.9423199892 -167.4692230 2.3392815590 3.0799310207 0.0480000004
 2344.4902344 13.000000000 13.755000114 12.250000954 -0.003000000 0.2360721231 2.5239999294 2.7239999771 101.68930054 91.219001770 1.9211345911 -168.8323975 2.3221089840 3.1349117756 0.0480000004
 2344.6425781 13.000000000 13.794000626 12.250000954 -0.003000000 0.2389855683 2.5299999714 2.7630000114 100.44299316 90.628997803 1.9219936132 -170.3556824 2.3458461761 3.3463215828 0.0480000004
 2344.7951660 13.000000000 13.873000145 12.250000954 -0.003000000 0.2330287993 2.5320000648 2.6199998856 99.609001160 90.661003113 1.9309567213 -170.3829346 2.3698844910 3.1053879261 0.0480000004
 2344.9475098 13.000000000 13.883000374 12.250000954 -0.005000000 0.2499182671 2.5269999504 2.4709999561 98.788002014 91.387001038 1.9578270912 -169.6902313 2.3888783455 2.9043221474 0.0480000004
 2345.0998535 13.000000000 13.836000443 12.250000954 -0.005000000 0.2320865393 2.5239999294 2.3740000725 97.288406372 91.653999329 1.9997308254 -171.2395172 2.3979423046 3.1436154842 0.0480000004
 2345.2521973 13.000000000 13.765000343 12.250000954 -0.003000000 0.2319999933 2.5290000439 2.3810000420 96.664001465 91.119003296 2.0596153736 -173.0005341 2.4496667385 3.0552849770 0.0480000004
 2345.4047852 13.000000000 13.750000000 12.250000954 -0.001000000 0.2130911946 2.5299999714 2.3459999561 96.195999146 90.292991638 2.1286683083 -171.6772919 2.5077209473 3.0729711056 0.0480000004
 2345.5571289 13.000000000 13.750000000 12.250000954 0.0000000000 0.2229519337 2.5339999199 2.3239998817 100.82700348 90.183998108 2.1747786999 -171.5523834 2.5428316593 3.5132932663 0.0480000004
 2345.7094727 13.000000000 13.750000000 12.250000954 0.0000000000 0.2210096121 2.5369999409 2.3389999866 103.55662537 90.070999146 2.2167313099 -172.5178833 2.5906929970 4.0161943436 0.0480000004
 2345.8618164 13.000000000 13.746999741 12.250000954 0.0000000000 0.2190096080 2.5480000973 2.3480000496 104.47153473 89.561996460 2.2756218910 -171.5377502 2.6476345062 3.6216347218 0.0480000004
 2346.0141602 13.000000000 13.723999977 12.250000954 -0.001000000 0.2130383998 2.5629999638 2.4900000095 102.06486511 89.374000549 2.3405833244 -171.1269684 2.7046344280 3.0508303642 0.0480000004
 2346.1667480 13.000000000 13.659000397 12.250000954 -0.002000000 0.2070288509 2.5759999752 2.7030000687 95.680999756 88.497001648 2.4086730480 -171.1608734 2.8005385399 3.4014341831 0.0480000004
 2346.3190918 13.000000000 13.604000092 12.250000954 -0.004000000 0.2010288537 2.5789999962 2.9149999619 89.433006287 87.800003052 2.4944493771 -171.3513947 2.9848160744 3.5387804508 0.0480000004
 2346.4714355 13.000000000 13.581999779 12.250000954 -0.004000000 0.1980144233 2.5780000687 3.0439999104 85.847740173 87.264999390 2.5685255527 -170.0532684 3.0913205147 4.1320481300 0.0480000004
 2346.6237793 13.000000000 13.527000427 12.250000954 -0.004000000 0.2069567293 2.5720000267 3.0050001144 90.236946106 87.081001282 2.5829102993 -170.3176880 3.0939872265 3.9545726776 0.0480000004
 2346.7763672 13.000000000 13.484999657 12.250000954 -0.002000000 0.2020240128 2.5680000782 2.8810000420 94.333000183 87.476997375 2.5770287514 -170.0339203 3.0551874638 4.5650191307 0.0480000004
 2346.9287109 13.000000000 13.477999687 12.250000954 0.0000000000 0.2179230750 2.5720000267 2.7750000954 98.105003357 88.555000305 2.5531535149 -168.8737183 3.0013456345 4.4042592049 0.0480000004
 2347.0810547 13.000000000 13.458000183 12.250000954 0.0020000001 0.2289471179 2.5729999542 2.8090000153 101.20303345 89.347000122 2.5112690926 -169.7487640 2.9304552078 3.6372306347 0.0480000004
 2347.2333984 13.000000000 13.453001022 12.250000954 0.0040000002 0.2608461678 2.5669999123 2.7070000172 107.39706421 90.712997437 2.4553589821 -168.8175201 2.8038141727 3.7027857304 0.0480000004
 2347.3859863 13.000000000 13.449000359 12.250000954 0.0040000002 0.2590095997 2.5529999733 2.5759999752 111.28700256 92.473999023 2.3843414783 -169.3771820 2.6915383339 3.5372660160 0.0480000004
 2347.5383301 13.000000000 13.418000221 12.250000954 0.0040000002 0.2659663558 2.5420000553 2.5220000744 113.09700012 93.287002563 2.3232932091 -169.8175964 2.6541779041 3.3582868576 0.0480000004
 2347.6906738 13.000000000 13.345000267 12.250000954 0.0040000002 0.2719711661 2.5320000648 2.6159999371 114.25514984 93.191001892 2.2912046909 -170.1987762 2.6311471462 2.9786088467 0.0480000004
