# LAS format log file from PETREL
# Project units are specified as depth units
#==================================================================
~Version information
VERS.   2.0:
WRAP.   NO:
#==================================================================
~Well
STRT .m      2901.5925293 :
STOP .m      3271.0102539 :
STEP .m     0.00000000 :
NULL .        -999.250000 :
COMP.           : COMPANY
WELL.  35/11-13   : WELL
FLD.            : FIELD
LOC.            : LOCATION
SRVC.           : SERVICE COMPANY
DATE.  2018-09-11 14:48:55   : Log Export Date {yyyy-MM-dd HH:mm:ss}
PROV.           : PROVINCE
UWI.   35/11-13   : UNIQUE WELL ID
API.            : API NUMBER
#==================================================================
~Curve
DEPT .m                   : DEPTH
Lithology_geolink ._      : Lithology_geolink
CALI .in                  : CALI
BS .in                    : BS
ROP .m/h                  : ROP
DRHO .g/cm3               : DRHO
NPHI .m3/m3               : NPHI
RHOB .g/cm3               : RHOB
PEF .b/e                  : PEF
GR .gAPI                  : GR
DTC .us/ft                : DTC
DTS .us/ft                : DTS
RDEP .ohm.m               : RDEP
RMIC .ohm.m               : RMIC
RMED .ohm.m               : RMED
~Parameter
#==================================================================
~Ascii
# ...
 3070.2993164 6.0000000000 8.5046997070 8.5000000000 37.457347870 -0.005700000 0.2896134853 2.5911109447 2.9729380608 96.494697571 75.917739868 133.71290588 29.313547134 26.715057373 29.003360748
 3070.4519043 6.0000000000 8.5113000870 8.5000000000 35.449478149 -0.006400000 0.2980304062 2.5356585979 2.8717865944 96.935699463 76.686851501 134.06120300 18.693159103 18.892206192 18.579299927
 3070.6042480 6.0000000000 8.5113000870 8.5000000000 34.176509857 -0.005700000 0.3075330257 2.5538504124 2.7741954327 99.196502686 76.983985901 133.89909363 19.865369797 16.331987381 19.764120102
 3070.7565918 6.0000000000 8.5113000870 8.5000000000 33.540023804 -0.006600000 0.3281060755 2.5230247974 2.8339092731 102.55979919 76.729316711 135.82080078 20.530158997 11.343892097 20.647155762
 3070.9089355 6.0000000000 8.5024995804 8.5000000000 30.571765900 -0.006200000 0.3318589628 2.5386748314 3.0270674229 100.57170105 76.925773621 133.30940247 19.194625854 13.764504433 19.247251511
 3071.0615234 16.000000000 8.4848003387 8.5000000000 29.080377579 -0.004100000 0.3062292933 2.6479527950 3.3210523129 96.255599976 76.162330627 133.55580139 18.560073853 11.098999023 18.565801620
 3071.2138672 16.000000000 8.4848003387 8.5000000000 26.727111816 -0.002300000 0.2842003405 2.7886903286 4.1459174156 93.049301147 76.139884949 134.21339417 9.9026641846 14.362251282 10.010912895
 3071.3662109 16.000000000 8.4935998917 8.5000000000 25.547491074 -0.004200000 0.2844326794 2.5957412720 3.2848169804 94.940200806 75.629661560 134.78680420 16.540706635 9.9093122482 16.867099762
 3071.5185547 16.000000000 8.4758996964 8.5000000000 25.291790009 -0.004600000 0.3048463166 2.6214244366 3.4190847874 101.31909943 75.856826782 135.33839417 13.118061066 10.289248466 13.751681328
 3071.6708984 7.0000000000 8.4913997650 8.5000000000 25.169452667 -0.003800000 0.3337009549 2.5743479729 2.8487806320 108.30709839 77.620956421 136.25210571 13.221491814 9.3913021088 13.992517471
 3071.8234863 7.0000000000 8.4980001450 8.5000000000 28.544982910 -0.002100000 0.3342740834 2.5419027805 2.8370087147 113.55000305 78.465896606 137.07240295 15.069970131 13.180134773 15.856099129
 3071.9758301 7.0000000000 8.4848003387 8.5000000000 30.088365555 -0.003800000 0.3261881471 2.5427720547 2.9019849300 117.76149750 78.216133118 137.54179382 10.200153351 9.1737365723 10.870367050
 3072.1281738 7.0000000000 8.4980001450 8.5000000000 29.961719513 -0.006100000 0.3187967837 2.5254602432 2.8924076557 114.39080048 78.105934143 136.93739319 9.4397306442 9.7593908310 9.9950399399
 3072.2805176 7.0000000000 8.4980001450 8.5000000000 34.735561371 -0.005600000 0.3167977631 2.5630900860 2.7727036476 112.07019806 77.066040039 133.98609924 19.606922150 11.312294006 20.914531708
 3072.4331055 7.0000000000 8.4980001450 8.5000000000 39.647556305 -0.003900000 0.3152969778 2.5570681095 2.9010796547 109.92150116 74.780204773 131.49909973 15.369145393 12.122372627 16.121179581
 3072.5854492 7.0000000000 8.5046997070 8.5000000000 42.276542664 0.0077999998 0.2831418216 2.6406407356 3.3630485535 104.24890137 73.377708435 129.50520325 10.714211464 13.291992188 10.854261398
 3072.7377930 16.000000000 8.4980001450 8.5000000000 39.997711182 0.0264999997 0.2468743622 2.6661634445 4.0164737701 97.200996399 71.330085754 126.39649963 12.909914970 9.7343273163 13.018872261
 3072.8901367 16.000000000 8.5113000870 8.5000000000 34.479701996 0.0401000008 0.2309145927 2.7056407928 4.1236968040 87.746597290 71.381866455 126.39230347 18.113416672 8.6917629242 18.133365631
 3073.0427246 16.000000000 8.7832002640 8.5000000000 31.219314575 0.0298999995 0.2400739193 2.6685638428 3.6219806671 89.226402283 72.236106873 125.76100159 32.631965637 8.5114889145 32.680892944
 3073.1950684 16.000000000 8.5046997070 8.5000000000 25.744445801 0.0089999996 0.2631482482 2.5948970318 3.1481997967 97.907302856 73.363563538 131.92720032 30.051137924 17.608613968 29.984003067
 3073.3474121 16.000000000 8.4980001450 8.5000000000 23.507648468 -0.006300000 0.2932366729 2.5308165550 2.8363792896 110.88559723 75.088233948 132.97140503 20.168031693 20.481967926 20.077970505
 3073.4997559 7.0000000000 8.4758996964 8.5000000000 21.733026505 -0.007700000 0.3161185980 2.5409970284 2.7612848282 117.83630371 77.412063599 134.07539368 19.020036697 19.532892227 19.079271317
 3073.6520996 7.0000000000 8.4780998230 8.5000000000 22.196126938 -0.006900000 0.3277163208 2.5391654968 2.8141908646 116.71900177 77.641632080 136.57240295 29.007640839 22.896055222 28.962896347
 3073.8046875 7.0000000000 8.4780998230 8.5000000000 22.973459244 -0.005500000 0.3379272223 2.5176279545 2.8088071346 115.35870361 78.847862244 138.88150024 26.653768539 25.352909088 26.394735336
 3073.9570313 7.0000000000 8.4848003387 8.5000000000 23.292354584 -0.004400000 0.3464293182 2.5263299942 2.9046137333 112.95210266 78.837715149 140.93550110 22.907846451 23.018180847 22.576259613
 3074.1093750 7.0000000000 8.4935998917 8.5000000000 24.335149765 -0.003600000 0.3646782041 2.5451357365 2.9753448963 112.17859650 79.408126831 139.84620667 23.937997818 22.191843033 23.739589691
 3074.2617188 7.0000000000 8.4848003387 8.5000000000 25.060363770 -0.005400000 0.3510846198 2.5674233437 2.9409570694 110.53060150 79.235313416 139.15939331 26.974327087 19.476964951 26.707555771
 3074.4143066 7.0000000000 8.4848003387 8.5000000000 25.876256943 -0.007600000 0.3414257765 2.5195982456 2.9140179157 114.14050293 79.123146057 139.36169434 17.614826202 18.832777023 17.241991043
 3074.5666504 7.0000000000 8.4913997650 8.5000000000 25.962921143 -0.008100000 0.3182937503 2.5191113949 2.8573663235 114.53289795 78.949584961 138.75619507 27.561897278 19.272880554 26.897367477
 3074.7189941 7.0000000000 8.4848003387 8.5000000000 26.983119965 -0.007500000 0.3144104183 2.5262291431 2.8986735344 114.27500153 78.751853943 137.54840088 28.619470596 26.300321579 27.874059677
 3074.8713379 7.0000000000 8.4935998917 8.5000000000 27.916452408 -0.008300000 0.3209232390 2.5442769527 2.9444375038 108.25859833 77.105552673 137.53959656 28.846487045 26.247709274 28.030784607
 3075.0239258 7.0000000000 8.4649000168 8.5000000000 29.832414627 -0.007800000 0.3353891075 2.5301702023 2.9685087204 105.20179749 76.886314392 138.27459717 26.315725327 23.623777390 25.189331055
 3075.1762695 7.0000000000 8.4913997650 8.5000000000 31.792901993 -0.007000000 0.3319868445 2.6144022942 3.1902093887 100.04479980 76.519279480 137.28709412 16.965183258 19.505647659 16.308319092
 3075.3286133 7.0000000000 8.5046997070 8.5000000000 30.718347549 -0.005400000 0.3237988651 2.6778705120 3.7554650307 99.185302734 77.000694275 137.15559387 27.922065735 19.855846405 27.349496841
 3075.4809570 7.0000000000 8.5024995804 8.5000000000 28.578956604 -0.006700000 0.3231245279 2.5349533558 2.9859473705 100.04479980 75.931488037 137.89790344 29.393527985 25.618572235 28.902608871
 3075.6333008 7.0000000000 8.5046997070 8.5000000000 30.352029800 -0.006200000 0.3384222686 2.5682241917 2.8912031651 103.74060059 76.985214233 138.19290161 28.038305283 26.784196854 27.535938263
 3075.7858887 7.0000000000 8.4935998917 8.5000000000 33.008087158 -0.004400000 0.3522878289 2.5832073689 3.0798101425 101.50599670 77.377693176 138.45899963 27.171659470 26.096374512 26.565217972
 3075.9382324 7.0000000000 8.4913997650 8.5000000000 33.886920929 -0.001900000 0.3485029042 2.5543007851 2.9896228313 105.45960236 78.964515686 138.03520203 27.754808426 25.810037613 27.228597641
 3076.0905762 7.0000000000 8.4848003387 8.5000000000 31.297136307 -0.002700000 0.3502916694 2.5546669960 3.0659227371 108.72570038 79.159500122 139.30310059 29.993247986 26.824760437 29.458829880
 3076.2429199 7.0000000000 8.4758996964 8.5000000000 30.007291794 -0.005400000 0.3451041579 2.5340816975 2.9557511806 116.71890259 78.787040710 138.19340515 23.608247757 22.814069748 22.938299179
 3076.3955078 7.0000000000 8.4913997650 8.5000000000 32.507282257 -0.007400000 0.3476401567 2.5227150917 3.0493555069 112.16359711 78.495689392 138.12899780 25.031936646 23.608612061 24.332036972
