# LAS format log file from PETREL
# Project units are specified as depth units
#==================================================================
~Version information
VERS.   2.0:
WRAP.   NO:
#==================================================================
~Well
STRT .m      989.00103760 :
STOP .m      3365.3732910 :
STEP .m     0.00000000 :
NULL .        -999.250000 :
COMP.           : COMPANY
WELL.  35/11-1   : WELL
FLD.            : FIELD
LOC.            : LOCATION
SRVC.           : SERVICE COMPANY
DATE.  2018-09-11 14:48:54   : Log Export Date {yyyy-MM-dd HH:mm:ss}
PROV.           : PROVINCE
UWI.   35/11-1   : UNIQUE WELL ID
API.            : API NUMBER
#==================================================================
~Curve
DEPT .m                   : DEPTH
Lithology_geolink ._      : Lithology_geolink
CALI .in                  : CALI
DRHO .g/cm3               : DRHO
NPHI .m3/m3               : NPHI
RHOB .g/cm3               : RHOB
PEF .b/e                  : PEF
GR .gAPI                  : GR
DTC .us/ft                : DTC
RDEP .ohm.m               : RDEP
SP .mV                    : SP
RSHA .ohm.m               : RSHA
RMED .ohm.m               : RMED
~Parameter
#==================================================================
~Ascii
# ...
 1618.1079102 19.000000000 19.090999603 0.0000000000  -999.250000 2.0720000267 3.6930000782 117.55504608 138.75540161 0.7607790232 57.468799591 0.7849159837 0.7849159837
 1618.2602539 19.000000000 19.170000076 0.0070000002  -999.250000 2.1089999676 3.5820000172 114.25060272 140.99679565 0.6690769792 56.971202850 0.7501907349 0.7501907349
 1618.4125977 19.000000000 19.670000076 0.0140000004  -999.250000 2.1229999065 3.4509999752 114.63011169 138.99679565 0.7169374824 57.719200134 0.8691073656 0.8691073656
 1618.5650635 19.000000000 19.045000076 0.0160000008  -999.250000 2.0759999752 3.7790000439 117.81480408 137.01982117 0.6778846979 57.218799591 0.9359375238 0.9359375238
 1618.7174072 19.000000000 19.107000351 0.0099999998  -999.250000 1.9989999533 4.0390000343 118.56661224 145.24159241 0.6302852631 56.720401764 0.9099984169 0.9099984169
 1618.8698730 19.000000000 20.747999191 -0.004000000  -999.250000 1.9349999428 4.8159999847 120.80399323 140.00781250 0.8081898093 56.968799591 0.9088101983 0.9088101983
 1619.0222168 19.000000000 22.684999466 0.0000000000  -999.250000 1.9900000095 3.9790000916 117.05198669 143.24919128 0.8867805004 56.470001221 0.8299887776 0.8299887776
 1619.1746826 19.000000000 19.934999466 0.0000000000  -999.250000 2.0720000267 4.0700001717 110.18845367 142.89892578 0.7501537204 56.470001221 0.8230384588 0.8230384588
 1619.3270264 19.000000000 21.122999191 0.0130000003  -999.250000 2.1349999905 3.9409999847 110.37480164 204.75080872 0.8138894439 56.469200134 0.8390849233 0.8390849233
 1619.4794922 19.000000000 20.137998581 0.0320000015  -999.250000 2.1410000324 3.8110001087 110.25930786 205.24819946 0.7447045445 55.970600128 0.8919111490 0.8919111490
 1619.6318359 19.000000000 19.028999329 0.0209999997  -999.250000 2.0999999046 4.0780000687 114.12509918 204.50199890 0.6220961213 56.220401764 0.8550240397 0.8550240397
 1619.7843018 19.000000000 19.403999329 0.0219999999  -999.250000 2.0510001183 4.0659999847 114.19175720 205.75419617 0.6824972034 56.470001221 0.8699663877 0.8699663877
 1619.9366455 19.000000000 19.153999329 0.0040000002  -999.250000 2.0160000324 4.3949999809 115.74929810 207.43229675 0.8888381124 56.470001221 0.8560400605 0.8560400605
 1620.0891113 19.000000000 19.420000076 0.0000000000  -999.250000 2.0429999828 3.6349999905 115.30774689 165.18455505 0.7879831791 56.469402313 0.8809783459 0.8809783459
 1620.2414551 19.000000000 19.326000214 0.0040000002  -999.250000 2.1189999580 3.7620000839 113.11859131 137.99278259 0.7813333273 56.220001221 0.8721057773 0.8721057773
 1620.3937988 19.000000000 19.153999329 0.0020000001  -999.250000 2.1289999485 3.9590001106 109.12490082 133.49240112 0.9889119267 56.219600677 0.9379951954 0.9379951954
 1620.5462646 19.000000000 18.840999603 0.0309999995  -999.250000 2.1719999313 4.4879999161 109.06089783 128.72796631 0.9339246750 55.969600677 0.9349663258 0.9349663258
 1620.6986084 19.000000000 19.403999329 0.0049999999  -999.250000 2.1930000782 5.1760001183 107.74909973 114.98958588 0.8871634603 55.720001221 0.9143589735 0.9143589735
 1620.8510742 19.000000000 18.747999191 0.0089999996  -999.250000 2.2869999409 5.8439998627 107.17584229 108.49399567 0.9894347787 55.718200684 1.1376541853 1.1376541853
 1621.0034180 19.000000000 18.701000214 -0.004000000  -999.250000 2.3550000191 5.5859999657 102.11257935 105.99519348 1.1696377993 54.972003937 0.9939615726 0.9939615726
 1621.1558838 19.000000000 19.107000351 -0.009000000  -999.250000 2.3359999657 5.7729997635 94.359085083 103.01380157 0.9435580373 56.219402313 0.9697045684 0.9697045684
 1621.3082275 19.000000000 19.934999466 -0.008000000  -999.250000 2.2009999752 6.3239998817 87.757308960 108.75601196 0.7600817084 55.970001221 0.8472035527 0.8472035527
 1621.4606934 19.000000000 21.934999466 -0.017999999  -999.250000 1.9040000439 6.8520002365 92.338973999 112.53062439 0.8108679056 55.970001221 0.9738414288 0.9738414288
 1621.6130371 19.000000000 21.138000488 0.0030000000  -999.250000 1.8240000010 5.6640000343 103.14823914 125.27003479 0.7559775710 55.970401764 0.9078782201 0.9078782201
 1621.7655029 19.000000000 19.028999329 0.0030000000  -999.250000 1.8370000124 4.4299998283 117.62529755 137.93315125 0.7421609163 56.219402313 0.8319495916 0.8319495916
 1621.9178467 19.000000000 21.715999603 0.0070000002  -999.250000 2.0060000420 4.0349998474 117.74599457 214.00120544 0.8088910580 55.969600677 0.8109246492 0.8109246492
 1622.0703125 19.000000000 18.997999191 0.0140000004  -999.250000 2.1070001125 4.0939998627 115.22973633 214.63169861 0.7408126593 55.718200684 0.7641657591 0.7641657591
 1622.2226563 19.000000000 19.076000214 0.0030000000  -999.250000 2.1250000000 3.8340001106 106.81520844 165.50080872 0.6629503369 54.970401764 0.8331073523 0.8331073523
 1622.3751221 19.000000000 19.872997284 0.0060000001  -999.250000 2.1640000343 3.3710000515 108.18560028 165.93272400 0.6322786808 55.218799591 0.8999975920 0.8999975920
 1622.5274658 19.000000000 19.263000488 -0.003000000  -999.250000 2.1760001183 3.4059998989 107.19721985 137.99839783 0.7480609417 54.719600677 0.8990416527 0.8990416527
 1622.6798096 19.000000000 18.840999603 0.0010000000  -999.250000 2.1970000267 3.4670000076 112.94030762 137.00160217 0.7860753536 54.469600677 0.9249743819 0.9249743819
 1622.8322754 19.000000000 19.340999603 0.0060000001  -999.250000 2.2030000687 3.3180000782 114.36929321 137.99760437 0.8333410621 54.220600128 0.9091777205 0.9091777205
 1622.9846191 19.000000000 22.045000076 -0.001000000  -999.250000 2.1930000782 3.1879999638 111.99729919 137.00120544 0.9749647379 54.470401764 0.9828878045 0.9828878045
 1623.1370850 19.000000000 19.434999466 -0.006000000  -999.250000 2.1719999313 3.3480000496 110.30805206 137.74819946 0.9527718425 54.719402313 0.9130191803 0.9130191803
 1623.2894287 19.000000000 18.903999329 -0.016000001  -999.250000 2.1089999676 3.6229999065 108.25911713 137.00480652 0.8579695225 54.470802307 0.9209230542 0.9209230542
 1623.4418945 19.000000000 18.934999466 -0.005000000  -999.250000 2.0959999561 3.7929999828 113.93875122 140.00180054 0.8388798833 54.970001221 0.8730984926 0.8730984926
 1623.5942383 19.000000000 18.903999329 -0.004000000  -999.250000 2.1110000610 3.5429999828 114.25000000 140.74598694 0.7889503241 54.969600677 0.9139150381 0.9139150381
 1623.7467041 19.000000000 18.840999603 -0.001000000  -999.250000 2.1600000858 3.3480000496 114.24369812 138.25180054 0.7580240369 54.718799591 0.8611657619 0.8611657619
 1623.8990479 19.000000000 18.840999603 0.0010000000  -999.250000 2.1819999218 3.4379999638 111.62349701 139.00881958 0.7680000067 54.220001221 0.9299631715 0.9299631715
 1624.0515137 19.000000000 20.029001236 0.0070000002  -999.250000 2.1619999409 3.4360001087 110.68440247 144.50720215 0.7679543495 54.220600128 0.9070048332 0.9070048332
 1624.2038574 19.000000000 18.903999329 0.0060000001  -999.250000 2.1480000019 3.4690001011 109.19310760 147.49800110 0.7491554618 54.470401764 0.9089583158 0.9089583158
 1624.3563232 19.000000000 19.701002121 -0.001000000  -999.250000 2.1410000324 3.3849999905 112.37425232 146.22898865 0.8461441398 54.719402313 0.8829640150 0.8829640150
 1624.5086670 19.000000000 18.903999329 -0.006000000  -999.250000 2.1679999828 3.6310000420 112.06320190 137.49960327 0.9058878422 54.469600677 0.8680656552 0.8680656552
 1624.6610107 19.000000000 18.872999191 -0.017000001  -999.250000 2.1719999313 3.6270000935 112.17528534 137.25761414 0.8358958364 54.220401764 0.9090865254 0.9090865254
 1624.8134766 19.000000000 19.982000351 -0.017000001  -999.250000 2.1700000763 3.7420001030 104.24279785 142.00480652 0.7710672617 54.471202850 0.9629039168 0.9629039168
 1624.9658203 19.000000000 19.215999603 -0.016000001  -999.250000 2.1459999084 3.4449999332 101.25370789 143.99719238 0.7989230752 54.969200134 0.9229567051 0.9229567051
 1625.1182861 19.000000000 18.903999329 -0.010000000  -999.250000 2.1579999924 3.7869999409 103.56975555 142.26141357 0.7508486509 54.471202850 0.8959423900 0.8959423900
 1625.2706299 19.000000000 18.934999466 -0.017000001  -999.250000 2.0899999142 4.0700001717 106.36999512 147.00160217 0.6880833507 54.970001221 0.8719583154 0.8719583154
