# LAS format log file from PETREL
# Project units are specified as depth units
#==================================================================
~Version information
VERS.   2.0:
WRAP.   NO:
#==================================================================
~Well
STRT .m      1245.0043945 :
STOP .m      3214.9267578 :
STEP .m     0.00000000 :
NULL .        -999.250000 :
COMP.           : COMPANY
WELL.  35/11-11   : WELL
FLD.            : FIELD
LOC.            : LOCATION
SRVC.           : SERVICE COMPANY
DATE.  2018-09-11 14:48:54   : Log Export Date {yyyy-MM-dd HH:mm:ss}
PROV.           : PROVINCE
UWI.   35/11-11   : UNIQUE WELL ID
API.            : API NUMBER
#==================================================================
~Curve
DEPT .m                   : DEPTH
Lithology_geolink ._      : Lithology_geolink
CALI .in                  : CALI
BS .in                    : BS
ROP .m/h                  : ROP
DRHO .g/cm3               : DRHO
THOR .ppm                 : THOR
NPHI .m3/m3               : NPHI
RHOB .g/cm3               : RHOB
PEF .b/e                  : PEF
GR .gAPI                  : GR
URAN .ppm                 : URAN
DTC .us/ft                : DTC
DTS .us/ft                : DTS
RDEP .ohm.m               : RDEP
SP .mV                    : SP
RMIC .ohm.m               : RMIC
RMED .ohm.m               : RMED
~Parameter
#==================================================================
~Ascii
# ...
 3207.9162598 6.0000000000 8.6620998383 8.5000000000 46.030181885 0.0057000001  -999.250000 0.0961043313 2.5818998814 3.8529036045 76.701644897  -999.250000  -999.250000  -999.250000 88.427398682  -999.250000 43.312801361 75.441741943
 3208.0686035 6.0000000000 8.5678997040 8.5000000000 46.030181885 0.0052999998  -999.250000 0.1184283197 2.5308001041 3.8236935139 79.273918152  -999.250000  -999.250000  -999.250000 15.269568443  -999.250000 3.7790000439 12.951897621
 3208.2211914 6.0000000000 8.5551004410 8.5000000000 46.030181885 0.0004000000  -999.250000 0.1606323719 2.4586999416 3.9918298721 84.270500183  -999.250000  -999.250000  -999.250000 2.3807110786  -999.250000 1.5230000019 2.1209628582
 3208.3735352 6.0000000000 8.5507001877 8.5000000000 46.030181885 -0.002900000  -999.250000 0.2058275640 2.4008998871 4.0869479179 84.835906982  -999.250000  -999.250000  -999.250000 1.8482220173  -999.250000 0.9641000032 1.6643055677
 3208.5258789 6.0000000000 8.5517997742 8.5000000000 46.030181885 -0.005100000  -999.250000 0.2239709944 2.3580999374 4.1303305626 83.916381836  -999.250000  -999.250000  -999.250000 1.5188274384  -999.250000 0.7433999777 1.3798555136
 3208.6782227 6.0000000000 8.5502004623 8.5000000000 149.48490906 -0.005400000  -999.250000 0.2130176276 2.3343000412 4.1205158234 81.253471375  -999.250000  -999.250000  -999.250000 1.2637085915  -999.250000 0.6529999971 1.1700360775
 3208.8305664 6.0000000000 8.5544996262 8.5000000000 149.48490906 -0.006300000  -999.250000 0.2111060768 2.3255999088 4.1480116844 81.718887329  -999.250000  -999.250000  -999.250000 1.4007587433  -999.250000 0.6115999818 1.3333745003
 3208.9831543 6.0000000000 8.5536003113 8.5000000000 149.48490906 -0.006600000  -999.250000 0.2110999972 2.3317000866 4.1973209381 83.314041138  -999.250000  -999.250000  -999.250000 1.5136195421  -999.250000 0.6700999737 1.4670863152
 3209.1354980 6.0000000000 8.5527000427 8.5000000000 149.48490906 -0.007400000  -999.250000 0.2148939073 2.3506999016 4.2753748894 89.270942688  -999.250000  -999.250000  -999.250000 1.8399764299  -999.250000 0.7828999758 1.8050578833
 3209.2878418 6.0000000000 8.5496997833 8.5000000000 149.48490906 -0.007300000  -999.250000 0.2107067406 2.3754000664 4.3735427856 89.289581299  -999.250000  -999.250000  -999.250000 2.1196520329  -999.250000 0.8985000253 2.0476117134
 3209.4401855 6.0000000000 8.5517997742 8.5000000000 149.48490906 -0.006700000  -999.250000 0.2058156729 2.3996000290 4.4503540993 90.427543640  -999.250000  -999.250000  -999.250000 2.3303251266  -999.250000 1.0411000252 2.1888480186
 3209.5927734 6.0000000000 8.5458002090 8.5000000000 107.98227692 -0.007000000  -999.250000 0.2032041699 2.4119000435 4.4832477570 87.024566650  -999.250000  -999.250000  -999.250000 2.3576574326  -999.250000 1.0391999483 2.1369838715
 3209.7451172 6.0000000000 8.5504999161 8.5000000000 107.98227692 -0.006900000  -999.250000 0.1973094642 2.4022998810 4.4568424225 91.132598877  -999.250000  -999.250000  -999.250000 2.1256723404  -999.250000 1.0112999678 1.8813102245
 3209.8974609 6.0000000000 8.5455999374 8.5000000000 107.98227692 -0.007500000  -999.250000 0.1954030395 2.3903999329 4.3955984116 91.955688477  -999.250000  -999.250000  -999.250000 1.9933118820  -999.250000 1.0061999559 1.6981933117
 3210.0498047 6.0000000000 8.5571002960 8.5000000000 107.98227692 -0.007200000  -999.250000 0.2017795295 2.3889000416 4.3814454079 94.292900085  -999.250000  -999.250000  -999.250000 2.1605622768  -999.250000 1.0269999504 1.8024643660
 3210.2023926 6.0000000000 8.5530996323 8.5000000000 107.98227692 -0.006700000  -999.250000 0.2066921443 2.4080998898 4.4153456688 93.320869446  -999.250000  -999.250000  -999.250000 2.6477189064  -999.250000 1.1966999769 2.1734051704
 3210.3547363 6.0000000000 8.5580997467 8.5000000000 107.98227692 -0.006100000  -999.250000 0.2118916661 2.4261000156 4.5265216827 94.541336060  -999.250000  -999.250000  -999.250000 3.0855982304  -999.250000 1.7337000370 2.5310268402
 3210.5070801 6.0000000000 8.5604000092 8.5000000000 107.98227692 -0.004200000  -999.250000 0.2107019275 2.4365000725 4.5967874527 95.712120056  -999.250000  -999.250000  -999.250000 2.6116616726  -999.250000 1.7736999989 2.1651880741
 3210.6594238 7.0000000000 8.5572996140 8.5000000000 76.082679749 -0.003500000  -999.250000 0.2028126717 2.4356000423 4.6155700684 96.461502075  -999.250000  -999.250000  -999.250000 2.7431876659  -999.250000 1.8357000351 2.2905979156
 3210.8117676 7.0000000000 8.5541000366 8.5000000000 76.082679749 -0.004100000  -999.250000 0.1940281689 2.4351000786 4.5828051567 99.579887390  -999.250000  -999.250000  -999.250000 3.3951079845  -999.250000 1.6177999973 2.8524968624
 3210.9643555 7.0000000000 8.5551004410 8.5000000000 76.082679749 -0.006100000  -999.250000 0.1878099442 2.4375998974 4.5686225891 102.02329254  -999.250000  -999.250000  -999.250000 3.3859181404  -999.250000 1.7414000034 2.8980298042
 3211.1166992 7.0000000000 8.5717000961 8.5000000000 76.082679749 -0.006900000  -999.250000 0.1825084984 2.4479000568 4.5777850151 102.41117859  -999.250000  -999.250000  -999.250000 3.6802275181  -999.250000 1.8858000040 3.2173874378
 3211.2690430 7.0000000000 8.5878000259 8.5000000000 76.082679749 -0.005700000  -999.250000 0.1766094565 2.4626998901 4.5709109306 100.21792603  -999.250000  -999.250000  -999.250000 4.3033003807  -999.250000 2.0385000706 3.8948135376
 3211.4213867 7.0000000000 8.5981998444 8.5000000000 76.082679749 -0.004500000  -999.250000 0.1807865649 2.4732999802 4.5473752022 100.78307343  -999.250000  -999.250000  -999.250000 4.2555565834  -999.250000 2.4600000381 3.9425501823
 3211.5739746 7.0000000000 8.6077995300 8.5000000000 76.082679749 -0.004500000  -999.250000 0.1888870150 2.4681000710 4.5575833321 97.084938049  -999.250000  -999.250000  -999.250000 4.1074376106  -999.250000 2.2904000282 3.8874886036
 3211.7263184 7.0000000000 8.5991001129 8.5000000000 81.856956482 -0.004500000  -999.250000 0.1893991977 2.4542996883 4.5874524117 97.258712769  -999.250000  -999.250000  -999.250000 3.6823818684  -999.250000 2.2269999981 3.5349657536
 3211.8786621 7.0000000000 8.6142997742 8.5000000000 81.856956482 -0.005300000  -999.250000 0.1805142611 2.4418001175 4.5996804237 98.425132751  -999.250000  -999.250000  -999.250000 3.7277259827  -999.250000 2.0894999504 3.5763328075
 3212.0310059 7.0000000000 8.6180000305 8.5000000000 81.856956482 -0.005100000  -999.250000 0.1898699105 2.4403998852 4.5141744614 97.442161560  -999.250000  -999.250000  -999.250000 3.6304125786  -999.250000 2.0624001026 3.5041320324
 3212.1835938 7.0000000000 8.6139001846 8.5000000000 81.856956482 -0.005000000  -999.250000 0.1879032105 2.4442000389 4.3783173561 97.222351074  -999.250000  -999.250000  -999.250000 3.3081169128  -999.250000 1.9012000561 3.2228510380
 3212.3359375 7.0000000000 8.6433000565 8.5000000000 81.856956482 -0.004600000  -999.250000 0.1872011125 2.4481999874 4.2883439064 98.321235657  -999.250000  -999.250000  -999.250000 3.1202008724  -999.250000 1.9437999725 3.0596613884
 3212.4882813 7.0000000000 8.6180000305 8.5000000000 81.856956482 -0.004500000  -999.250000 0.1776153743 2.4544999599 4.2991824150 100.40465546  -999.250000  -999.250000  -999.250000 4.6204915047  -999.250000 2.1224999428 4.5412216187
 3212.6406250 7.0000000000 8.5906000137 8.5000000000 72.473754883 -0.005300000  -999.250000 0.1718093008 2.4614000320 4.4122185707 101.59709167  -999.250000  -999.250000  -999.250000 5.9776258469  -999.250000 2.4825000763 5.8776583672
 3212.7932129 7.0000000000 8.5855998993 8.5000000000 72.473754883 -0.005800000  -999.250000 0.1739964783 2.4684000015 4.5609622002 101.08482361  -999.250000  -999.250000  -999.250000 6.3051781654  -999.250000 2.4748001099 6.2699747086
 3212.9455566 7.0000000000 8.5565996170 8.5000000000 72.473754883 -0.006200000  -999.250000 0.1858809292 2.4667000771 4.7232398987 100.92825317  -999.250000  -999.250000  -999.250000 6.8228697777  -999.250000 2.7323999405 6.8287038803
 3213.0979004 7.0000000000 8.4870004654 8.5000000000 72.473754883 -0.006100000  -999.250000 0.1910916716 2.4628000259 4.8167500496 100.92401123  -999.250000  -999.250000  -999.250000 7.6591591835  -999.250000 2.5560998917 7.5762019157
