# LAS format log file from PETREL
# Project units are specified as depth units
#==================================================================
~Version information
VERS.   2.0:
WRAP.   NO:
#==================================================================
~Well
STRT .m      2818.0771484 :
STOP .m      3213.0979004 :
STEP .m     0.00000000 :
NULL .        -999.250000 :
COMP.           : COMPANY
WELL.  35/11-15 S   : WELL
FLD.            : FIELD
LOC.            : LOCATION
SRVC.           : SERVICE COMPANY
DATE.  2018-09-11 14:48:55   : Log Export Date {yyyy-MM-dd HH:mm:ss}
PROV.           : PROVINCE
UWI.   35/11-15 S   : UNIQUE WELL ID
API.            : API NUMBER
#==================================================================
~Curve
DEPT .m                   : DEPTH
Lithology_geolink ._      : Lithology_geolink
CALI .in                  : CALI
BS .in                    : BS
ROP .m/h                  : ROP
DRHO .g/cm3               : DRHO
THOR .ppm                 : THOR
SGR .gAPI                 : SGR
RHOB .g/cm3               : RHOB
PEF .b/e                  : PEF
GR .gAPI                  : GR
URAN .ppm                 : URAN
DTC .us/ft                : DTC
DTS .us/ft                : DTS
RDEP .ohm.m               : RDEP
RMIC .ohm.m               : RMIC
RMED .ohm.m               : RMED
~Parameter
#==================================================================
~Ascii
# ...
 2975.9636230 2.0000000000 8.4841003418 8.5000000000 84667.320313 -0.008200000 6.9340000153 0.0269000009 2.4749999046 2.5271000862 94.386703491 2.7325000763 76.000000000 133.36360168 12.142900467 4.2448000908 10.417400360
 2976.1159668 2.0000000000 8.4700002670 8.5000000000 95706.359375 -0.006100000 6.8769998550 0.0266999993 2.4447000027 2.4665999413 93.891601563 2.7234001160 76.090888977 131.09089661 10.702899933 4.2416000366 9.1836004257
 2976.2683105 2.0000000000 8.4784002304 8.5000000000 97950.242188 -0.003900000 6.6536002159 0.0256999992 2.5543999672 2.7918999195 89.257202148 2.4581000805 75.272697449 130.27270508 9.4205999374 6.1086001396 8.1063995361
 2976.4208984 2.0000000000 8.4687004089 8.5000000000 90987.843750 -0.000800000 6.5585999489 0.0253999997 2.5329999924 2.7732000351 87.990501404 2.3787000179 75.454498291 130.18179321 17.288600922 12.861300468 14.883000374
 2976.5732422 2.0000000000 8.4559001923 8.5000000000 88714.796875 -0.002800000 6.9875001907 0.0256999992 2.3817000389 2.3764998913 89.922096252 2.3650999069 76.181800842 131.36360168 13.479200363 3.3801000118 11.415200233
 2976.7255859 2.0000000000 8.4388999939 8.5000000000 93179.515625 -0.003800000 7.1409001350 0.0263999999 2.4865000248 2.6178998947 91.163696289 2.3157000542 76.363601685 133.54539490 7.0932002068 3.1401000023 6.1009998322
 2976.8779297 2.0000000000 8.4275999069 8.5000000000 96221.882813 -0.007200000 7.0054998398 0.0275999997 2.4008998871 2.5367000103 90.413696289 2.0606999397 77.636398315 136.18179321 7.7653999329 2.1935000420 6.6398000717
 2977.0305176 2.0000000000 8.4305000305 8.5000000000 104118.11719 -0.007800000 6.2206997871 0.0271000005 2.4119999409 2.4626998901 85.535499573 1.8582999706 79.000000000 139.36360168 6.5732998848 3.1751000881 5.4770002365
 2977.1828613 2.0000000000 8.4050998688 8.5000000000 111066.48438 -0.008000000 5.8372001648 0.0264999997 2.3197999001 2.4019999504 83.024002075 1.8102999926 81.181800842 142.18179321 5.5236001015 1.4550000429 4.6553001404
 2977.3352051 2.0000000000 8.3993997574 8.5000000000 118253.52344 -0.007200000 5.1670999527 0.0252000000 2.2657001019 2.1644999981 77.509597778 1.6519999504 84.818199158 144.81820679 5.5371999741 0.8851000071 4.5360999107
 2977.4875488 2.0000000000 8.3993997574 8.5000000000 124166.87500 -0.006900000 4.1918001175 0.0232999995 2.2578999996 2.1989998817 69.868896484 1.4553999901 87.181800842 148.00000000 4.1693000793 0.5570999980 3.3592998981
 2977.6401367 2.0000000000 8.3965997696 8.5000000000 123216.47656 -0.007100000 3.6127998829 0.0211999994 2.2732000351 2.2227001190 60.911598206 1.0558999777 89.272697449 151.45449829 2.6958999634 0.4999000132 2.1735999584
 2977.7924805 2.0000000000 8.3965997696 8.5000000000 125771.04688 -0.006400000 3.3426001072 0.0198999997 2.3192000389 2.2997999191 56.663799286 0.9441999793 91.000000000 154.63639832 2.3378000259 0.5662999749 1.8815000057
 2977.9448242 2.0000000000 8.3985004425 8.5000000000 128709.72656 -0.007100000 3.2790999413 0.0201999992 2.3311998844 2.2797999382 57.167400360 1.0362999439 91.818191528 157.00000000 2.4052000046 0.7415000200 1.9311000109
 2978.0971680 2.0000000000 8.3937997818 8.5000000000 122481.72656 -0.008200000 3.3192999363 0.0209999997 2.3090999126 2.2225999832 57.823398590 0.9524999857 91.818191528 158.54539490 2.7044999599 0.8007000089 2.1528999805
 2978.2495117 2.0000000000 8.3937997818 8.5000000000 116008.92188 -0.008500000 2.9663000107 0.0208000001 2.3073000908 2.1767001152 56.458099365 0.9893000126 90.727302551 159.09089661 2.9449999332 0.7247999907 2.3131000996
 2978.4020996 2.0000000000 8.4010000229 8.5000000000 116462.87500 -0.008700000 2.5783998966 0.0208000001 2.2862999439 2.1928000450 54.717998505 0.9151999950 90.000000000 159.00000000 3.7065000534 0.6021000147 2.8724000454
 2978.5544434 2.0000000000 8.3959999084 8.5000000000 115536.23438 -0.008500000 2.4244000912 0.0196000002 2.2825999260 2.1839001179 52.062801361 0.9211000204 89.545501709 158.45449829 4.5436000824 0.5386000276 3.4830999374
 2978.7067871 2.0000000000 8.3965997696 8.5000000000 115588.80469 -0.008700000 2.2701001167 0.0183000006 2.2713000774 2.2418000698 48.540500641 0.8995000124 89.454498291 158.00000000 4.3512001038 0.4848999977 3.2304999828
 2978.8591309 2.0000000000 8.3965997696 8.5000000000 115641.71875 -0.009200000 2.0908999443 0.0175000001 2.2813000679 2.2142999172 45.796501160 0.8409000039 90.181800842 158.00000000 3.8268001080 0.4587000012 2.7604999542
 2979.0117188 2.0000000000 8.3965997696 8.5000000000 110351.15625 -0.009300000 2.1391999722 0.0175000001 2.2904999256 2.1579000950 45.580898285 0.7993000150 91.181800842 158.36360168 3.4205999374 0.4569999874 2.3526999950
 2979.1640625 2.0000000000 8.3937997818 8.5000000000 102560.03906 -0.009600000 2.2030999660 0.0184000004 2.2881000042 2.1909000874 47.911701202 0.9061999917 91.545501709 159.00000000 3.3975000381 0.4666999876 2.2674000263
 2979.3164063 2.0000000000 8.3934001923 8.5000000000 100847.52344 -0.008700000 2.1540000439 0.0185000002 2.2887001038 2.1793000698 48.000400543 0.9568000436 91.636398315 159.27268982 3.1779999733 0.4774000049 2.0348000526
 2979.4687500 2.0000000000 8.3937997818 8.5000000000 102446.64063 -0.008900000 2.3203999996 0.0186000001 2.3036000729 2.1972000599 47.578300476 0.8364999890 92.000000000 159.45449829 2.7832000256 0.4785000086 1.7538000345
 2979.6213379 2.0000000000 8.3965997696 8.5000000000 109192.67969 -0.009200000 2.2063000202 0.0188999996 2.3008000851 2.1419999599 47.471099854 0.8141000271 91.545501709 159.09089661 2.3810000420 0.4776999950 1.5163999796
 2979.7736816 2.0000000000 8.3934001923 8.5000000000 115124.39844 -0.010100000 2.3684000969 0.0197000001 2.2950000763 2.1658999920 49.845100403 0.8784000278 92.000000000 157.45449829 2.7555000782 0.4832000136 1.7721999884
 2979.9260254 2.0000000000 8.3959999084 8.5000000000 112745.88281 -0.009800000 2.2772998810 0.0198999997 2.3046000004 2.1986000538 50.551898956 0.9491999745 92.181800842 155.63639832 3.4934999943 0.4948999882 2.1986000538
 2980.0783691 2.0000000000 8.3937997818 8.5000000000 109594.07813 -0.010000000 2.1394999027 0.0197000001 2.2999999523 2.1916999817 50.148998260 1.0296000242 91.545501709 154.63639832 3.4080998898 0.4984999895 2.1249001026
 2980.2307129 2.0000000000 8.3908996582 8.5000000000 105008.39844 -0.009100000 2.1419999599 0.0194000006 2.2934999466 2.1763000488 48.603801727 0.9010999799 90.363601685 154.72729492 3.7586998940 0.4979999959 2.2922999859
 2980.3833008 2.0000000000 8.3937997818 8.5000000000 97538.398438 -0.009600000 2.0021998882 0.0187999997 2.2902998924 2.1463000774 47.387100220 0.8827000260 89.363601685 155.18179321 3.9158000946 0.4941999912 2.3898000717
 2980.5356445 2.0000000000 8.3993997574 8.5000000000 101822.03906 -0.008100000 1.8374999762 0.0183000006 2.2806999683 2.1405999660 46.651000977 0.9363999963 87.545501709 155.63639832 4.0327000618 0.4817000031 2.4879999161
 2980.6879883 2.0000000000 8.3908996582 8.5000000000 108848.52344 -0.008200000 1.7853000164 0.0181000009 2.2834000587 2.1429998875 46.466400146 0.9431999922 87.999992371 156.54539490 3.7216000557 0.4612999856 2.3073999882
 2980.8403320 2.0000000000 8.3965997696 8.5000000000 104311.44531 -0.007000000 1.8759000301 0.0184000004 2.2855000496 2.2235999107 47.906799316 0.9998999238 87.727302551 156.90911865 3.3485000134 0.4507000148 2.0248000622
 2980.9929199 2.0000000000 8.3937997818 8.5000000000 102703.32031 -0.008100000 1.9606000185 0.0193000007 2.2904000282 2.1747000217 50.393199921 1.0621999502 88.363601685 156.54539490 3.1566998959 0.4499999881 1.9958000183
 2981.1452637 2.0000000000 8.4078998566 8.5000000000 106330.32031 -0.009500000 1.9316000938 0.0195000004 2.2932999134 2.1707999706 51.805500031 1.2046999931 89.000000000 156.54539490 2.9370000362 0.4639999866 1.9244999886
 2981.2976074 2.0000000000 8.4050998688 8.5000000000 108984.96094 -0.011500000 2.1312000751 0.0195000004 2.3050999641 2.1412000656 52.031299591 1.0757000446 89.000000000 156.81820679 2.4277000427 0.4747999907 1.6536999941
 2981.4499512 2.0000000000 8.4084997177 8.5000000000 114692.39844 -0.011700000 1.9585000277 0.0186000001 2.3152999878 2.1382999420 49.036499023 0.9358999729 88.181800842 156.63639832 2.1287000179 0.5001999736 1.5097999573
