# LAS format log file from PETREL
# Project units are specified as depth units
#==================================================================
~Version information
VERS.   2.0:
WRAP.   NO:
#==================================================================
~Well
STRT .m      2901.5925293 :
STOP .m      3271.0102539 :
STEP .m     0.00000000 :
NULL .        -999.250000 :
COMP.           : COMPANY
WELL.  35/11-13   : WELL
FLD.            : FIELD
LOC.            : LOCATION
SRVC.           : SERVICE COMPANY
DATE.  2018-09-11 14:48:55   : Log Export Date {yyyy-MM-dd HH:mm:ss}
PROV.           : PROVINCE
UWI.   35/11-13   : UNIQUE WELL ID
API.            : API NUMBER
#==================================================================
~Curve
DEPT .m                   : DEPTH
Lithology_geolink ._      : Lithology_geolink
CALI .in                  : CALI
BS .in                    : BS
ROP .m/h                  : ROP
DRHO .g/cm3               : DRHO
NPHI .m3/m3               : NPHI
RHOB .g/cm3               : RHOB
PEF .b/e                  : PEF
GR .gAPI                  : GR
DTC .us/ft                : DTC
DTS .us/ft                : DTS
RDEP .ohm.m               : RDEP
RMIC .ohm.m               : RMIC
RMED .ohm.m               : RMED
~Parameter
#==================================================================
~Ascii
# ...
 2926.5861816 13.000000000 13.982599258 12.250000954 68.635658264 0.1431999952 0.6724117398  -999.250000  -999.250000 114.52529907 96.329566956 240.81108093  -999.250000  -999.250000  -999.250000
 2926.7385254 13.000000000 13.385700226 12.250000954 66.914611816 0.1688999981 0.6173201799  -999.250000  -999.250000 136.14340210 96.889007568 241.73789978  -999.250000  -999.250000  -999.250000
 2926.8911133 13.000000000 13.144800186 12.250000954 78.325347900 0.1687999964 0.5675513744  -999.250000  -999.250000 146.80110168 104.26951599 238.66819763  -999.250000  -999.250000  -999.250000
 2927.0434570 13.000000000 15.258099556 12.250000954 84.006553650 0.1556999981 0.5524300933  -999.250000  -999.250000 147.88099670 112.07168579 236.17190552  -999.250000  -999.250000  -999.250000
 2927.1958008 13.000000000 15.505700111 12.250000954 80.321853638 0.1465999931 0.5712743998  -999.250000  -999.250000 147.78689575 118.54039001 228.79899597  -999.250000  -999.250000  -999.250000
 2927.3481445 13.000000000 16.301599503 12.250000954 78.484939575 0.1404999942 0.6175873876  -999.250000  -999.250000 146.40420532 119.04163361 225.65361023  -999.250000  -999.250000  -999.250000
 2927.5007324 13.000000000 15.178601265 12.250000954 80.958679199 0.1346000135 0.6095560193  -999.250000  -999.250000 144.55070496 119.24961090 223.63850403 2.2750182152  -999.250000 5.0531463623
 2927.6530762 13.000000000 13.560400009 12.250000954 82.177688599 0.1262000054 0.5646390915  -999.250000  -999.250000 146.44979858 118.53844452 206.88059998 2.3740732670  -999.250000 5.5982222557
 2927.8054199 13.000000000 14.751899719 12.250000954 73.500259399 0.1142999977 0.5267968178  -999.250000  -999.250000 150.84069824 118.93934631 226.48199463 2.2955074310  -999.250000 6.2940797806
 2927.9577637 13.000000000 14.285499573 12.250000954 69.162269592 0.0996000022 0.5870158672  -999.250000  -999.250000 155.91169739 119.02187347 216.96899414 2.5492198467  -999.250000 4.1013131142
 2928.1101074 13.000000000 16.982400894 12.250000954 66.418403625 0.1154000014 0.5346647501  -999.250000  -999.250000 152.98939514 117.94882202 227.86882019 2.4990558624  -999.250000 4.2340679169
 2928.2626953 13.000000000 17.256599426 12.250000954 65.039344788 0.1054000035 0.5749094486  -999.250000  -999.250000 152.70910645 117.39979553 230.33230591 2.3467891216  -999.250000 4.2768177986
 2928.4150391 13.000000000 13.558198929 12.250000954 62.983913422 0.0850000009 0.5467698574  -999.250000  -999.250000 144.54389954 116.68309021 238.09680176 2.2812430859  -999.250000 4.4386882782
 2928.5673828 13.000000000 13.737199783 12.250000954 61.951576233 0.0337999985 0.5903684497  -999.250000  -999.250000 148.75549316 117.04412842 225.73071289 2.3710439205  -999.250000 4.8040528297
 2928.7197266 13.000000000 13.956100464 12.250000954 59.581436157 0.0104999999 0.6328575611  -999.250000  -999.250000 143.79280090 116.93962860 239.28811646 2.8344743252  -999.250000 3.9646368027
 2928.8723145 13.000000000 14.891200066 12.250000954 58.382995605 0.0019000000 0.5442081690  -999.250000  -999.250000 150.71359253 116.57904053 235.53938293 2.8179049492  -999.250000 3.8024637699
 2929.0246582 13.000000000 15.850600243 12.250000954 53.414810181 -0.004500000 0.5778738856  -999.250000  -999.250000 148.65080261 116.46456909 215.08940125 2.6639497280  -999.250000 4.3513870239
 2929.1770020 13.000000000 15.919099808 12.250000954 53.077590942 -0.004100000 0.5616554618  -999.250000  -999.250000 149.68220520 115.07756042 217.86959839 2.8196139336  -999.250000 4.0328164101
 2929.3293457 13.000000000 16.834299088 12.250000954 55.232116699 0.0120000001 0.5962015986  -999.250000  -999.250000 151.44230652 116.05367279 223.08909607 2.9534132481  -999.250000 4.6670336723
 2929.4819336 13.000000000 13.332699776 12.250000954 60.860866547 0.0652000010 0.5971612334  -999.250000  -999.250000 155.13810730 117.09651947 218.16981506 3.2729578018  -999.250000 5.2488927841
 2929.6342773 13.000000000 15.381899834 12.250000954 64.333923340 0.1250000000 0.5850652456  -999.250000  -999.250000 155.65379333 117.38571930 235.03921509 3.1975958347  -999.250000 5.3062810898
 2929.7866211 13.000000000 16.675199509 12.250000954 68.380187988 0.1448999941 0.5633613467  -999.250000  -999.250000 155.86680603 118.49724579 228.45181274 3.2569565773  -999.250000 3.6747751236
 2929.9389648 13.000000000 17.565999985 12.250000954 68.958717346 0.1240999997 0.5392827392  -999.250000  -999.250000 151.65530396 107.36695099 223.36889648 3.0423541069  -999.250000 3.7211003304
 2930.0913086 13.000000000 13.326100349 12.250000954 72.264877319 0.0883999988 0.5286419988  -999.250000  -999.250000 153.28840637 103.29369354 225.79510498 2.6404628754  -999.250000 3.4088325500
 2930.2438965 13.000000000 13.572799683 12.250000954 74.993820190 0.0883999988 0.6174750328  -999.250000  -999.250000 156.25549316 102.59760284 224.28880310 2.9913835526  -999.250000 2.8678724766
 2930.3962402 13.000000000 11.514200211 12.250000954 75.107360840 0.0953999981 0.7344149351  -999.250000  -999.250000 156.85710144 100.88595581 229.87519836 3.0485126972  -999.250000 2.7033243179
 2930.5485840 13.000000000 3.7523000240 12.250000954 72.499702454 0.1049999967 0.8057593107  -999.250000  -999.250000 153.59100342 102.41883850 233.98397827 2.9939315319  -999.250000 2.5935740471
 2930.7009277 13.000000000 3.0944001675 12.250000954 74.367416382 0.1032999977 0.6558130980  -999.250000  -999.250000 149.30850220 104.43267059 224.75500488 2.8884418011  -999.250000 2.4523162842
 2930.8535156 13.000000000 3.0838000774 12.250000954 78.847732544 0.0956000015 0.6638517976  -999.250000  -999.250000 146.38630676 104.73651123 217.51029968 2.6019649506  -999.250000 2.1495833397
 2931.0058594 13.000000000 3.0864000320 12.250000954 81.693595886 0.0851000026 0.6176780462  -999.250000  -999.250000 149.99609375 104.72701263 237.66439819 2.2795965672  -999.250000 1.7082995176
 2931.1582031 13.000000000 3.0944001675 12.250000954 80.071075439 0.0702999979 0.6038741469  -999.250000  -999.250000 147.52980042 116.19603729 231.13208008 2.2775013447  -999.250000 1.7080008984
 2931.3105469 13.000000000 3.0931000710 12.250000954 77.334159851 0.0549999997 0.5255429745  -999.250000  -999.250000 148.90490723 115.72644043 228.31460571 2.2783985138  -999.250000 1.7085994482
 2931.4631348 13.000000000 3.0797996521 12.250000954 76.203231812 0.0445000008 0.5524580479  -999.250000  -999.250000 147.35780334 115.51058960 217.94920349 2.2775001526  -999.250000 1.7082018852
 2931.6154785 13.000000000 3.0864000320 12.250000954 73.895721436 0.0410000011 0.6018581986  -999.250000  -999.250000 149.80929565 117.65470123 210.40950012 2.2776589394  -999.250000 1.7088570595
 2931.7678223 13.000000000 3.0838000774 12.250000954 72.703575134 0.0399000011 0.7004079819  -999.250000  -999.250000 151.80479431 115.71117401 213.10189819 2.3147706985  -999.250000 1.7448794842
 2931.9201660 13.000000000 3.0785000324 12.243990898 72.803909302 0.0392999984 0.7050811052  -999.250000  -999.250000 151.80479431 110.39302063 209.98660278 2.6080105305  -999.250000 2.0437147617
 2932.0725098 13.000000000 3.0776002407 8.5000000000  -999.250000 0.0392000005 0.5063756108  -999.250000  -999.250000 150.42959595 108.58687592 213.70440674 2.6151793003  -999.250000 2.1162669659
 2932.2250977 13.000000000 23.912300110 8.5000000000  -999.250000 0.0399999991 0.4912889600  -999.250000  -999.250000 149.12170410 100.36228943 199.79672241 2.9767565727  -999.250000 2.7818241119
 2932.3774414 13.000000000 24.018600464 8.5000000000  -999.250000 0.0406000018 0.5190041661  -999.250000  -999.250000 144.95500183 103.62947845 197.46180725 3.1812415123  -999.250000 3.0741670132
 2932.5297852 13.000000000 24.467597961 8.5000000000  -999.250000 0.0414999984 0.5216277242  -999.250000  -999.250000 138.93859863 103.31768799 208.38519287 3.1441359520  -999.250000 5.8561263084
 2932.6821289 13.000000000 24.551601410 8.5000000000  -999.250000 0.0425999984 0.5388815999  -999.250000  -999.250000 133.86759949 109.17032623 204.55889893 2.7303714752  -999.250000 5.2498106956
