# LAS format log file from PETREL
# Project units are specified as depth units
#==================================================================
~Version information
VERS.   2.0:
WRAP.   NO:
#==================================================================
~Well
STRT .m      2901.5925293 :
STOP .m      3271.0102539 :
STEP .m     0.00000000 :
NULL .        -999.250000 :
COMP.           : COMPANY
WELL.  35/11-13   : WELL
FLD.            : FIELD
LOC.            : LOCATION
SRVC.           : SERVICE COMPANY
DATE.  2018-09-11 14:48:55   : Log Export Date {yyyy-MM-dd HH:mm:ss}
PROV.           : PROVINCE
UWI.   35/11-13   : UNIQUE WELL ID
API.            : API NUMBER
#==================================================================
~Curve
DEPT .m                   : DEPTH
Lithology_geolink ._      : Lithology_geolink
CALI .in                  : CALI
BS .in                    : BS
ROP .m/h                  : ROP
DRHO .g/cm3               : DRHO
NPHI .m3/m3               : NPHI
RHOB .g/cm3               : RHOB
PEF .b/e                  : PEF
GR .gAPI                  : GR
DTC .us/ft                : DTC
DTS .us/ft                : DTS
RDEP .ohm.m               : RDEP
RMIC .ohm.m               : RMIC
RMED .ohm.m               : RMED
~Parameter
#==================================================================
~Ascii
# ...
 3045.3056641 7.0000000000 8.4582996368 8.5000000000 54.740814209 -0.005800000 0.3271999955 2.5007650852 2.7991786003 111.89080048 76.927818298 135.36940002 26.897325516 32.354499817 27.754192352
 3045.4582520 7.0000000000 8.4671001434 8.5000000000 51.502624512 -0.006900000 0.3533000052 2.5413422585 2.8484098911 117.72789764 77.686546326 138.45939636 27.783538818 31.006000519 28.807418823
 3045.6105957 7.0000000000 8.4780998230 8.5000000000 50.902233124 -0.007300000 0.3224000037 2.5545351505 2.9136490822 115.50810242 76.607543945 135.14689636 27.421792984 27.082300186 28.533399582
 3045.7629395 16.000000000 8.4758996964 8.5000000000 53.536746979 -0.006800000 0.2849000096 2.5763168335 2.8197090626 108.10900116 75.759727478 131.21009827 27.482946396 27.708400726 28.785003662
 3045.9152832 16.000000000 8.4582996368 8.5000000000 59.586612701 -0.006600000 0.2414000034 2.5868582726 2.8255970478 104.57389832 73.282814026 129.12829590 29.449228287 28.145000458 30.910890579
 3046.0678711 16.000000000 8.4649000168 8.5000000000 63.001964569 -0.005900000 0.2416000068 2.6231288910 2.9487729073 103.44159698 71.612602234 129.84649658 32.896736145 31.385900497 34.584362030
 3046.2202148 16.000000000 8.4582996368 8.5000000000 67.739501953 -0.002700000 0.2448000014 2.6320123672 3.0956182480 101.96179962 72.209037781 129.63389587 33.931526184 31.908199310 35.875869751
 3046.3725586 16.000000000 8.4758996964 8.5000000000 69.064964294 -0.002100000 0.2822999954 2.5772764683 2.7954773903 104.51039886 74.477851868 131.37049866 30.769029617 30.827400208 32.803497314
 3046.5249023 16.000000000 8.4582996368 8.5000000000 73.940292358 -0.003600000 0.3079999983 2.5625042915 2.8438374996 107.86239624 76.700714111 137.30299377 29.539722443 29.222900391 31.616758347
 3046.6772461 16.000000000 8.4758996964 8.5000000000 81.043304443 -0.007600000 0.3567999899 2.5029261112 2.9295599461 121.01640320 80.329315186 141.05230713 28.677131653 29.770999908 30.652013779
 3046.8298340 16.000000000 8.4582996368 8.5000000000 77.834648132 -0.007700000 0.3761999905 2.5192272663 2.9667894840 125.12699890 83.211898804 146.61619568 26.138439178 32.795101166 27.978443146
 3046.9821777 16.000000000 8.4715003967 8.5000000000 71.417320251 -0.006300000 0.4004000127 2.5276768208 2.9633755684 132.03280640 84.770446777 149.20320129 24.971014023 31.412799835 26.719211578
 3047.1345215 16.000000000 8.4715003967 8.5000000000 73.579399109 -0.003100000 0.4009999931 2.5131938457 2.8860163689 127.26450348 85.545959473 150.35150146 27.585811615 31.418899536 29.457895279
 3047.2868652 16.000000000 8.4649000168 8.5000000000 77.903549194 -0.003100000 0.3968000114 2.5092802048 2.9585423470 126.67780304 85.893524170 152.35200500 21.488746643 28.090499878 23.101486206
 3047.4394531 16.000000000 8.4715003967 8.5000000000 78.946853638 -0.004700000 0.3876000047 2.4969618320 2.9850921631 123.14270020 85.290229797 151.99139404 21.924505234 28.708200455 23.626005173
 3047.5917969 16.000000000 8.4649000168 8.5000000000 81.033462524 -0.006900000 0.3880999982 2.4850726128 3.0137636662 122.32050323 85.331825256 150.87101746 32.208225250 29.994300842 34.564277649
 3047.7441406 7.0000000000 8.4671001434 8.5000000000 80.314956665 -0.007500000 0.3916000128 2.4679977894 2.9912314415 119.74210358 85.652694702 150.37030029 34.028068542 27.654199600 36.415599823
 3047.8964844 7.0000000000 8.4671001434 8.5000000000 78.871391296 -0.007500000 0.3885999918 2.4666831493 3.0108690262 117.19349670 85.086662292 148.74180603 31.526334763 28.296499252 33.685077667
 3048.0490723 7.0000000000 8.4671001434 8.5000000000 76.102363586 -0.007700000 0.3856000006 2.4562482834 3.0540060997 117.19349670 85.185462952 147.51489258 37.527679443 28.507699966 39.964561462
 3048.2014160 7.0000000000 8.4582996368 8.5000000000 70.564300537 -0.006900000 0.3815999925 2.4713613987 3.0558114052 116.16580200 84.644256592 147.21699524 37.395839691 35.506599426 39.920188904
 3048.3537598 7.0000000000 8.4649000168 8.5000000000 71.988189697 -0.004600000 0.4095999897 2.5096673965 3.0004117489 113.69950104 84.547767639 147.30369568 36.792335510 37.689998627 39.099716187
 3048.5061035 7.0000000000 8.4671001434 8.5000000000 74.835960388 -0.002600000 0.4126999974 2.4893724918 2.9454231262 114.82050323 84.782844543 146.50180054 34.392246246 35.460498810 36.560405731
 3048.6584473 7.0000000000 8.4582996368 8.5000000000 78.356300354 -0.002500000 0.4284999967 2.5344562531 2.9600684643 116.46479797 85.053108215 147.88690186 38.283866882 35.732700348 40.302394867
 3048.8110352 7.0000000000 8.4715003967 8.5000000000 85.400268555 -0.004900000 0.4041999876 2.5071954727 3.0647017956 117.69799805 84.867622375 150.11380005 38.689762115 36.876800537 40.725662231
 3048.9633789 7.0000000000 8.4649000168 8.5000000000 87.227691650 -0.006500000 0.4000999928 2.4747066498 2.9407444000 118.30329895 85.092277527 149.42579651 35.718261719 37.688098907 37.691196442
 3049.1157227 7.0000000000 8.4715003967 8.5000000000 90.882545471 -0.007800000 0.3675999939 2.4789078236 2.9683821201 114.19270325 85.884399414 149.79150391 35.446762085 36.039199829 37.377861023
 3049.2680664 7.0000000000 8.4758996964 8.5000000000 92.122703552 -0.007700000 0.3928000033 2.4837880135 3.0194072723 116.49469757 86.076271057 150.48049927 36.173259735 34.917900085 38.040664673
 3049.4206543 7.0000000000 8.4758996964 8.5000000000 94.609580994 -0.008000000 0.4021416008 2.4762661457 2.9616227150 112.95950317 86.112915039 150.00459290 36.711341858 35.276100159 38.646656036
 3049.5729980 7.0000000000 8.4649000168 8.5000000000 93.179130554 -0.008400000 0.4150851071 2.4657099247 2.9687089920 115.34369659 85.741279602 148.05290222 37.875949860 35.841701508 39.815765381
 3049.7253418 7.0000000000 8.4649000168 8.5000000000 92.460624695 -0.007500000 0.4057897627 2.4719800949 2.9743475914 112.38410187 85.355705261 150.35620117 37.536975861 35.754699707 39.296558380
 3049.8776855 7.0000000000 8.4671001434 8.5000000000 95.971130371 -0.005100000 0.3993902206 2.4596893787 2.9417152405 112.30180359 85.354591370 149.72509766 38.828262329 36.108699799 40.327152252
 3050.0302734 7.0000000000 8.4780998230 8.5000000000 97.723098755 -0.001700000 0.3932558298 2.5154309273 2.9514153004 112.63069916 85.221214294 148.68150330 37.572101593 36.020500183 38.943164825
 3050.1826172 7.0000000000 8.4715003967 8.5000000000 95.187011719 -0.001000000 0.3794937432 2.5250318050 3.0184667110 113.61720276 84.039665222 147.13160706 41.935119629 38.250198364 44.228343964
 3050.3349609 7.0000000000 8.4649000168 8.5000000000 93.917320251 -0.003500000 0.3755801320 2.4825105667 2.9976089001 113.12400055 83.266921997 145.71659851 43.065696716 44.213298798 45.000125885
 3050.4873047 7.0000000000 8.4848003387 8.5000000000 80.793960571 -0.009100000 0.3631743789 2.4890916348 3.0032563210 112.95950317 82.157691956 145.00349426 41.442981720 44.652999878 43.394798279
 3050.6396484 7.0000000000 8.4715003967 8.5000000000 74.232284546 0.0004000000 0.3472064137 2.5462546349 3.1010816097 108.93119812 81.586906433 145.74760437 39.997589111 42.274398804 42.022491455
 3050.7922363 16.000000000 8.4649000168 8.5000000000 60.127952576 0.0199999996 0.3512166440 2.6436905861 3.3432216644 103.34069824 82.023689270 145.46170044 39.233673096 39.905498505 41.383991241
 3050.9445801 16.000000000 8.4848003387 8.5000000000 53.077426910 0.0259000007 0.3564094603 2.9516432285 4.6872191429 99.970001221 81.670959473 145.87759399 36.102920532 46.389701843 38.040477753
 3051.0969238 16.000000000 8.4715003967 8.5000000000 45.009841919 0.0136000002 0.3622756600 2.5423243046 3.3279256821 103.50509644 81.711357117 145.88099670 31.422752380 29.075500488 33.021381378
 3051.2492676 16.000000000 8.4913997650 8.5000000000 40.977691650 -0.006100000 0.3470942080 2.4952545166 3.0945198536 112.38410187 81.872474670 145.58760071 18.959402084 28.286399841 20.142709732
 3051.4018555 16.000000000 8.4848003387 8.5000000000 48.001968384 -0.008100000 0.3435393572 2.5293662548 2.9819176197 117.12989807 81.241470337 145.63439941 35.288402557 26.688600540 37.348751068
