# LAS format log file from PETREL
# Project units are specified as depth units
#==================================================================
~Version information
VERS.   2.0:
WRAP.   NO:
#==================================================================
~Well
STRT .m      1150.0018311 :
STOP .m      2885.3808594 :
STEP .m     0.00000000 :
NULL .        -999.250000 :
COMP.           : COMPANY
WELL.  35/11-10   : WELL
FLD.            : FIELD
LOC.            : LOCATION
SRVC.           : SERVICE COMPANY
DATE.  2018-09-11 14:48:54   : Log Export Date {yyyy-MM-dd HH:mm:ss}
PROV.           : PROVINCE
UWI.   35/11-10   : UNIQUE WELL ID
API.            : API NUMBER
#==================================================================
~Curve
DEPT .m                   : DEPTH
Lithology_geolink ._      : Lithology_geolink
CALI .in                  : CALI
BS .in                    : BS
DRHO .g/cm3               : DRHO
NPHI .m3/m3               : NPHI
RHOB .g/cm3               : RHOB
GR .gAPI                  : GR
DTC .us/ft                : DTC
DTS .us/ft                : DTS
RDEP .ohm.m               : RDEP
SP .mV                    : SP
RSHA .ohm.m               : RSHA
RMIC .ohm.m               : RMIC
RMED .ohm.m               : RMED
~Parameter
#==================================================================
~Ascii
# ...
 2187.2363281 7.0000000000 8.4530000687 8.5000000000 0.0102384575 0.3643097281 2.4149887562 98.815002441 92.755996704 169.29299927 4.2309999466 -135.5630035 4.1100001335 3.4104969501 4.1104006767
 2187.3886719 7.0000000000 8.4860000610 8.5000000000 0.0099005401 0.3696239591 2.4080064297 95.898002625 92.800003052 169.61399841 4.2509999275 -136.3130035 4.1259999275 2.2208333015 4.1259489059
 2187.5412598 7.0000000000 8.4879999161 8.5000000000 0.0102247987 0.3584609330 2.4119935036 96.397003174 91.743362427 169.90924072 4.3612852097 -135.7490997 4.1851010323 3.1165561676 4.1849055290
 2187.6936035 7.0000000000 8.4910001755 8.5000000000 0.0064218249 0.3573327959 2.4099984169 97.837997437 90.718002319 168.18363953 4.5392961502 -135.1876068 4.2480511665 2.9286079407 4.2478990555
 2187.8459473 7.0000000000 8.4910001755 8.5000000000 0.0050700242 0.3468408287 2.4090063572 94.222999573 89.469001770 167.32202148 4.7239999771 -134.9380035 4.2800002098 3.3566217422 4.2799487114
 2187.9982910 7.0000000000 8.4899997711 8.5000000000 0.0069502131 0.3581954837 2.4130017757 95.332000732 88.821998596 164.74299622 4.6339998245 -135.1880035 4.2059998512 3.1905384064 4.2062368393
 2188.1508789 7.0000000000 8.4910001755 8.5000000000 0.0045976718 0.3393612802 2.4140384197 93.996002197 86.308670044 162.13784790 4.6131439209 -135.7494049 4.1470270157 2.2774648666 4.1470942497
 2188.3032227 16.000000000 8.4499998093 8.5000000000 0.0066778865 0.3097035587 2.4260032177 84.672996521 86.725440979 156.42854309 4.7031378746 -135.3732910 4.1641235352 3.1282639503 4.1639728546
 2188.4555664 16.000000000 8.4490003586 8.5000000000 0.0078575788 0.2789123654 2.4279918671 80.516998291 85.754119873 154.90232849 4.7902336121 -134.3137054 4.2420434952 3.5436730385 4.2408766747
 2188.6079102 16.000000000 8.4479999542 8.5000000000 0.0107118171 0.2780303359 2.4229872227 76.728996277 85.208999634 154.48300171 5.5599999428 -134.7500000 4.8930001259 2.9210062027 4.8919553757
 2188.7604980 16.000000000 8.4809999466 8.5000000000 0.0118512800 0.3118158579 2.4150128365 98.841003418 86.739128113 156.30958557 5.6544504166 -134.8753052 5.1313843727 3.3513062000 5.1316175461
 2188.9128418 7.0000000000 8.4860000610 8.5000000000 0.0141270608 0.3342071474 2.4190206528 100.05899811 88.066368103 161.66294861 5.3105573654 -135.0632019 4.7465739250 3.4407150745 4.7486157417
 2189.0651855 7.0000000000 8.5190000534 8.5000000000 0.0191632081 0.3611368537 2.4320175648 98.944999695 89.541229248 164.76162720 4.4114079475 -135.1881104 3.8577775955 2.0175769329 3.8594262600
 2189.2175293 7.0000000000 8.5190000534 8.5000000000 0.0280052852 0.3643189669 2.4429919720 97.629997253 90.931007385 168.89300537 4.0419998169 -135.2500000 3.7190001011 2.6349999905 3.7192227840
 2189.3698730 7.0000000000 8.5190000534 8.5000000000 0.0219411831 0.3601523936 2.4379982948 96.207000732 90.540000916 170.21900940 3.9289999008 -135.0630035 3.6630001068 3.1971986294 3.6631793976
 2189.5224609 7.0000000000 8.5200004578 8.5000000000 0.0145751406 0.3570200205 2.4370064735 100.21099854 91.815284729 169.83209229 3.8944966793 -134.8750000 3.6803619862 3.2109806538 3.6789741516
 2189.6748047 7.0000000000 8.5200004578 8.5000000000 0.0133711491 0.3602468073 2.4389967918 101.53900146 91.990005493 169.27526855 4.8281440735 -134.8750000 4.5299038887 3.2528655529 4.5276374817
 2189.8271484 7.0000000000 8.5229997635 8.5000000000 0.0122080641 0.3700902164 2.4369871616 105.30500031 91.994003296 169.43899536 5.5419998169 -134.8750000 5.0939998627 3.3546731472 5.0930943489
 2189.9794922 7.0000000000 8.5089998245 8.5000000000 0.0060131843 0.3750082552 2.4289886951 98.736000061 91.526000977 169.43499756 5.5359997749 -135.1880035 5.1149997711 3.1985032558 5.1149325371
 2190.1320801 7.0000000000 8.4890003204 8.5000000000 0.0030123377 0.3658906519 2.4219710827 98.155998230 91.329162598 169.69886780 5.5217466354 -134.7494049 4.9216666222 2.9833445549 4.9223093987
 2190.2844238 7.0000000000 8.4899997711 8.5000000000 0.0028047324 0.3541578054 2.4129872322 98.394996643 91.427513123 169.61431885 5.3631649017 -134.3748016 4.7133722305 2.5583631992 4.7143335342
 2190.4367676 7.0000000000 8.4879999161 8.5000000000 0.0020124775 0.3317659199 2.4050016403 96.211997986 91.746002197 169.81570435 4.8420081139 -134.2516022 4.3215088844 2.7603461742 4.3226280212
 2190.5891113 7.0000000000 8.4870004654 8.5000000000 0.0004462580 0.3271088302 2.4060111046 99.522003174 91.125999451 169.63099670 4.2230000496 -135.2500000 4.0149998665 2.4171056747 4.0159821510
 2190.7416992 7.0000000000 8.5200004578 8.5000000000 0.0037261664 0.3354964852 2.4130194187 102.43800354 91.769020081 169.77189636 4.2033205032 -134.2519073 4.0702052116 2.6226682663 4.0699119568
 2190.8940430 7.0000000000 8.5389995575 8.5000000000 0.0050214967 0.3353323042 2.4189982414 105.23400116 91.781570435 170.33168030 4.4031858444 -135.4380035 4.1980528831 3.1443262100 4.1977949142
 2191.0463867 7.0000000000 8.5570001602 8.5000000000 0.0034606764 0.3480216563 2.4180016518 101.41500092 92.139167786 169.51811218 4.5190448761 -135.4362030 4.2310271263 3.0473172665 4.2309470177
 2191.1987305 7.0000000000 8.5539999008 8.5000000000 0.0026388173 0.3454970717 2.4190046787 95.247001648 91.617996216 169.58799744 4.5469999313 -134.3130035 4.2480001450 2.5147116184 4.2479729652
 2191.3510742 7.0000000000 8.5530004501 8.5000000000 0.0043926714 0.3508378267 2.4220111370 95.591003418 92.114006042 168.75700378 4.6659998894 -135.3750000 4.2760000229 2.6455736160 4.2759103775
 2191.5036621 7.0000000000 8.5590000153 8.5000000000 0.0035621647 0.3595141172 2.4290671349 95.029998779 90.301979065 164.85664368 4.7282390594 -136.0617065 4.3068590164 3.1633391380 4.3059520721
 2191.6560059 7.0000000000 8.5559997559 8.5000000000 0.0026857627 0.3503986597 2.4500801563 94.779998779 84.683578491 162.13928223 5.5021729469 -135.2505951 4.8439536095 4.6023778915 4.8411412239
 2191.8083496 7.0000000000 8.5590000153 8.5000000000 0.0069085448 0.3038137555 2.5000882149 81.946998596 83.172996521 154.82600403 6.8579998016 -135.6250000 6.0630002022 14.745400429 6.0610432625
 2191.9606934 16.000000000 8.5559997559 8.5000000000 0.0128565291 0.2627017200 2.5550112724 72.557998657 80.931007385 151.36599731 7.6900000572 -137.0000000 6.7919998169 6.6142497063 6.7896671295
 2192.1132813 16.000000000 8.5590000153 8.5000000000 0.0137913395 0.2565825880 2.5618495941 72.502998352 81.170547485 148.55476379 7.5297341347 -137.1230927 6.4816217422 2.9518365860 6.4824967384
 2192.2656250 16.000000000 8.5539999008 8.5000000000 0.0082865646 0.2966446877 2.5149216652 76.648002625 84.001937866 151.52664185 6.7389278412 -135.9378967 6.2436871529 3.0008239746 6.2463779449
 2192.4179688 6.0000000000 8.5550003052 8.5000000000 0.0061379378 0.3382832706 2.4659631252 89.605003357 83.961151123 155.66787720 5.4464879036 -135.8750000 4.8012576103 3.1455352306 4.8053126335
 2192.5703125 6.0000000000 8.5539999008 8.5000000000 0.0011067628 0.3615923822 2.4430272579 86.577003479 86.552001953 157.46600342 4.5029997826 -135.8750000 3.7139999866 2.5230031013 3.7174847126
 2192.7229004 6.0000000000 8.5769996643 8.5000000000 -0.004014901 0.3476045728 2.4601888657 76.583999634 86.487701416 160.09443665 4.0240402222 -136.0010986 3.4760835171 3.5633270741 3.4763815403
 2192.8752441 16.000000000 8.6140003204 8.5000000000 -0.000861881 0.3065249026 2.5190594196 64.683998108 86.300979614 157.86880493 4.0490622520 -136.6867981 3.5280961990 2.6977839470 3.5279166698
 2193.0275879 16.000000000 8.6359996796 8.5000000000 0.0035653140 0.2850244045 2.5559453964 63.426998138 85.042724609 159.61997986 4.0887260437 -135.9376068 3.5887296200 3.3080286980 3.5879039764
 2193.1799316 16.000000000 8.6479997635 8.5000000000 -0.001228325 0.3134792745 2.5218992233 86.844001770 84.869003296 158.36099243 4.5419998169 -135.6880035 4.0440001488 2.6132404804 4.0432691574
 2193.3322754 7.0000000000 8.6499996185 8.5000000000 -0.004541263 0.3503417969 2.4589407444 91.851997375 85.818000793 165.67399597 5.2810001373 -136.3750000 4.4079999924 2.6897468567 4.4068350792
