# LAS format log file from PETREL
# Project units are specified as depth units
#==================================================================
~Version information
VERS.   2.0:
WRAP.   NO:
#==================================================================
~Well
STRT .m      1245.0043945 :
STOP .m      3214.9267578 :
STEP .m     0.00000000 :
NULL .        -999.250000 :
COMP.           : COMPANY
WELL.  35/11-11   : WELL
FLD.            : FIELD
LOC.            : LOCATION
SRVC.           : SERVICE COMPANY
DATE.  2018-09-11 14:48:54   : Log Export Date {yyyy-MM-dd HH:mm:ss}
PROV.           : PROVINCE
UWI.   35/11-11   : UNIQUE WELL ID
API.            : API NUMBER
#==================================================================
~Curve
DEPT .m                   : DEPTH
Lithology_geolink ._      : Lithology_geolink
CALI .in                  : CALI
BS .in                    : BS
ROP .m/h                  : ROP
DRHO .g/cm3               : DRHO
THOR .ppm                 : THOR
NPHI .m3/m3               : NPHI
RHOB .g/cm3               : RHOB
PEF .b/e                  : PEF
GR .gAPI                  : GR
URAN .ppm                 : URAN
DTC .us/ft                : DTC
DTS .us/ft                : DTS
RDEP .ohm.m               : RDEP
SP .mV                    : SP
RMIC .ohm.m               : RMIC
RMED .ohm.m               : RMED
~Parameter
#==================================================================
~Ascii
# ...
 2551.8344727 2.0000000000 9.0832996368 8.5000000000  -999.250000 -0.004300000 11.321000099 0.3481000066 2.3306000233 3.7999999523 187.29519653 5.8379998207 97.831802368 193.32917786 2.8671000004 48.679298401 1.7181999683 2.6642000675
 2551.9868164 2.0000000000 8.9097995758 8.5000000000  -999.250000 -0.003100000 10.978300095 0.3770000041 2.3022999763 4.0479998589 177.46850586 5.6970000267 96.921096802 186.48901367 4.3614997864 48.762298584 1.7769000530 3.5815999508
 2552.1391602 2.0000000000 8.6430997849 8.5000000000  -999.250000 -0.003200000 8.7943000793 0.3632000089 2.2946000099 4.1658000946 148.77189636 4.9528999329 95.580398560 185.38830566 1.1647000313 48.870899200 1.1275999546 0.9732000232
 2552.2917480 5.0000000000 8.5783996582 8.5000000000  -999.250000 -0.005300000 5.7206997871 0.2709999979 2.2832999229 4.1890001297 106.40959930 1.0503000021 99.434501648 183.06120300 0.8263999820 49.045600891 0.5988000035 0.7044000030
 2552.4440918 5.0000000000 8.5607995987 8.5000000000  -999.250000 -0.003100000 4.1560997963 0.2469999939 2.2720000744 3.8096001148 81.915199280 -0.914799988 97.785697937 181.69360352 0.9595000148 49.383201599 0.4465999901 0.8087999821
 2552.5964355 5.0000000000 8.5587997437 8.5000000000  -999.250000 0.0003000000 3.9033999443 0.2418999970 2.2609999180 3.5731999874 75.121299744 -1.031000018 92.017898560 181.98870850 1.1871999502 49.366798401 0.4514999986 0.9908000231
 2552.7487793 5.0000000000 8.5573997498 8.5000000000  -999.250000 0.0038000001 3.7857000828 0.2398000062 2.2521998882 3.4600000381 74.099601746 -1.059700012 92.697898865 184.00929260 0.9998000264 48.950298309 0.4259999990 0.8352000117
 2552.9013672 5.0000000000 8.5385999680 8.5000000000  -999.250000 0.0012000001 3.6343998909 0.2404000014 2.2527000904 3.6681001186 74.670402527 -1.124600053 93.288696289 183.51730347 0.8490999937 48.654201508 0.3634999990 0.7229999900
 2553.0537109 5.0000000000 8.5439996719 8.5000000000  -999.250000 -0.001100000 4.1557002068 0.2340999991 2.2618000507 3.7490000725 74.880096436 -0.785700023 92.888397217 182.17070007 0.9078000188 48.991298676 0.3440000117 0.7670000196
 2553.2060547 5.0000000000 8.5446996689 8.5000000000  -999.250000 -0.004700000 3.8096001148 0.2384999990 2.2701001167 3.7606000900 74.993698120 -0.932799995 92.861602783 181.81462097 0.9882000089 49.379100800 0.3858000040 0.8019999862
 2553.3583984 5.0000000000 8.5439996719 8.5000000000  -999.250000 -0.001400000 3.8365001678 0.2398000062 2.2697000504 3.6940000057 73.865303040 -0.883800030 94.000000000 181.56370544 1.0005999804 49.337600708 0.4000000060 0.7820000052
 2553.5107422 5.0000000000 8.5529003143 8.5000000000  -999.250000 -0.000400000 3.5999000072 0.2467000037 2.2606999874 3.5903000832 73.433601379 -0.954599977 90.199409485 178.79539490 0.8169999719 49.083499908 0.3806999922 0.6231999993
 2553.6633301 5.0000000000 8.5499000549 8.5000000000  -999.250000 0.0063000000 3.7355999947 0.2558000088 2.2492001057 3.4830000401 71.471496582 -0.858799994 88.203903198 180.10020447 0.6383000016 49.104000092 0.3325000107 0.4864999950
 2553.8156738 5.0000000000 8.5640001297 8.5000000000  -999.250000 0.0093999999 3.5467000008 0.2639000118 2.2395999432 3.4337999821 71.125297546 -0.895900011 90.224700928 182.48829651 0.7828999758 49.549701691 0.3630000055 0.5956000090
 2553.9680176 5.0000000000 8.5611000061 8.5000000000  -999.250000 0.0141000003 3.4978001118 0.2615999877 2.2314999104 3.3763999939 71.470703125 -0.852699995 89.824401855 183.22500610 0.9370999932 49.679298401 0.3806999922 0.7299000025
 2554.1203613 5.0000000000 8.5576000214 8.5000000000  -999.250000 0.0140000004 3.3738000393 0.2565000057 2.2256000042 3.3545999527 71.371398926 -0.850899994 90.060997009 184.39509583 0.7152000070 49.262798309 0.4059000015 0.5745999813
 2554.2729492 5.0000000000 8.5467996597 8.5000000000  -999.250000 0.0127999997 3.1719999313 0.2558000088 2.2211999893 3.3336999416 72.225601196 -0.885299981 94.690498352 184.56930542 0.8802000284 49.166500092 0.4068000019 0.7038000226
 2554.4252930 5.0000000000 8.5439996719 8.5000000000  -999.250000 0.0125000002 3.1171000004 0.2486999929 2.2223999500 3.3478000164 71.464202881 -0.886900008 93.797592163 184.61239624 1.1234999895 49.745399475 0.4246000051 0.8917999864
 2554.5776367 5.0000000000 8.5439996719 8.5000000000  -999.250000 0.0119000003 2.9409999847 0.2443999946 2.2251999378 3.3701000214 74.326103210 -0.988399982 92.724700928 184.31369019 1.0494999886 50.125000000 0.4133000076 0.8368999958
 2554.7299805 5.0000000000 8.5495004654 8.5000000000  -999.250000 0.0113000004 3.0562000275 0.2334000021 2.2335999012 3.4044001102 76.696601868 -0.916400015 91.102699280 184.17979431 0.9810000062 49.858600616 0.3727000058 0.7788000107
 2554.8825684 5.0000000000 8.5455999374 8.5000000000  -999.250000 0.0043000001 3.5197000504 0.2484000027 2.2509000301 3.4971001148 81.869102478 -0.622399986 90.175605774 183.93351746 0.7724999785 49.425201416 0.3612999916 0.6152999997
 2555.0349121 2.0000000000 8.5567998886 8.5000000000  -999.250000 -0.001500000 3.7523000240 0.2536000013 2.2760999203 3.6524999142 92.164596558 -0.483500004 91.357093811 182.39918518 0.6855999827 49.749500275 0.4138000011 0.5399000049
 2555.1872559 2.0000000000 8.5494003296 8.5000000000  -999.250000 -0.006800000 7.0682001114 0.2587000132 2.3071999550 3.8310000896 106.10679626 0.8841999769 97.224700928 181.01069641 0.9380000234 50.087600708 0.4787999988 0.7348999977
 2555.3395996 2.0000000000 8.5616998672 8.5000000000  -999.250000 -0.005400000 7.3715000153 0.2590999901 2.3222000599 3.9205999374 115.37740326 1.0469000340 93.061004639 173.10330200 1.2529000044 50.000000000 0.6280999780 1.0340000391
 2555.4921875 2.0000000000 8.5558996201 8.5000000000  -999.250000 -0.002200000 7.6610994339 0.2599000037 2.3185999393 3.8426001072 110.05239868 1.2184000015 91.565498352 172.54531860 1.5619000196 50.133201599 0.6105999947 1.3272000551
 2555.6445313 2.0000000000 8.5662002563 8.5000000000  -999.250000 0.0054000001 7.1089000702 0.2520999908 2.2985000610 3.6486999989 95.758697510 0.7179999948 90.720199585 170.38269043 1.4746999741 50.216701508 0.5658000112 1.3695000410
 2555.7968750 2.0000000000 8.5662002563 8.5000000000  -999.250000 0.0120999999 5.7553000450 0.2466000021 2.2895998955 3.5162000656 96.774398804 -0.014500000 91.055099487 170.97309875 1.0595999956 50.020999908 0.4474000037 1.0061000586
 2555.9492188 2.0000000000 8.5768995285 8.5000000000  -999.250000 0.0096000005 6.0816998482 0.2642000020 2.3053998947 3.6089999676 123.94899750 1.5954999924 90.860099792 168.27908325 0.8248999715 49.675201416 0.4117000103 0.7939000130
 2556.1015625 2.0000000000 8.5883998871 8.5000000000  -999.250000 0.0029000000 5.9379000664 0.2870999873 2.3433001041 3.8545999527 152.93750000 7.5240998268 89.340797424 168.57679749 0.9399999976 49.699798584 0.5774000287 0.9135000110
 2556.2541504 2.0000000000 8.5439996719 8.5000000000  -999.250000 -0.004500000 7.1041998863 0.2917000055 2.3671000004 4.1212000847 152.52990723 9.1145000458 89.251502991 167.14198303 2.8222000599 50.174701691 0.8216000199 2.4219999313
 2556.4064941 7.0000000000 8.5536003113 8.5000000000  -999.250000 -0.006000000 6.0616998672 0.2861000001 2.3699998856 4.2406997681 128.65609741 5.6585998535 89.852699280 164.58509827 1.6807999611 50.437500000 0.8445000052 1.4601000547
 2556.5588379 7.0000000000 8.5524997711 8.5000000000  -999.250000 -0.007000000 5.6691999435 0.2736999989 2.3577001095 4.2916998863 101.73950195 2.9816999435 90.916702271 163.33732605 0.8962000012 50.270999908 0.4745999873 0.8249999881
 2556.7111816 7.0000000000 8.5514001846 8.5000000000  -999.250000 -0.006800000 4.3880000114 0.2676999867 2.3519999981 4.2827000618 100.25460052 1.9645999670 91.898803711 161.99980164 0.7059999704 49.958499908 0.4460999966 0.6638000011
 2556.8637695 7.0000000000 8.5480003357 8.5000000000  -999.250000 -0.003600000 4.5321002007 0.2513000071 2.3308999538 4.2272000313 97.632896423 2.0604000092 92.828903198 163.91259766 1.1213999987 49.979000092 0.4397999942 1.0290000439
 2557.0161133 7.0000000000 8.5439996719 8.5000000000  -999.250000 -0.001200000 4.2526001930 0.2329999954 2.2987000942 4.0928001404 93.339996338 1.9532999992 94.413696289 165.62660217 1.1828000546 50.358100891 0.4507000148 1.0915999413
