# LAS format log file from PETREL
# Project units are specified as depth units
#==================================================================
~Version information
VERS.   2.0:
WRAP.   NO:
#==================================================================
~Well
STRT .m      1150.0018311 :
STOP .m      2885.3808594 :
STEP .m     0.00000000 :
NULL .        -999.250000 :
COMP.           : COMPANY
WELL.  35/11-10   : WELL
FLD.            : FIELD
LOC.            : LOCATION
SRVC.           : SERVICE COMPANY
DATE.  2018-09-11 14:48:54   : Log Export Date {yyyy-MM-dd HH:mm:ss}
PROV.           : PROVINCE
UWI.   35/11-10   : UNIQUE WELL ID
API.            : API NUMBER
#==================================================================
~Curve
DEPT .m                   : DEPTH
Lithology_geolink ._      : Lithology_geolink
CALI .in                  : CALI
BS .in                    : BS
DRHO .g/cm3               : DRHO
NPHI .m3/m3               : NPHI
RHOB .g/cm3               : RHOB
GR .gAPI                  : GR
DTC .us/ft                : DTC
DTS .us/ft                : DTS
RDEP .ohm.m               : RDEP
SP .mV                    : SP
RSHA .ohm.m               : RSHA
RMIC .ohm.m               : RMIC
RMED .ohm.m               : RMED
~Parameter
#==================================================================
~Ascii
# ...
 2418.4272461 7.0000000000 8.4320001602 8.5000000000 0.0020673622 0.3500014246 2.4790160656 95.268997192 87.874877930 162.17823792 6.2349281311 -140.0621033 6.1949648857 5.5340542793 6.1949057579
 2418.5795898 7.0000000000 8.4320001602 8.5000000000 0.0029165547 0.3447883427 2.4890081882 93.855003357 87.796844482 160.45668030 6.1899552345 -139.4996948 6.1729421616 5.7194004059 6.1730351448
 2418.7319336 7.0000000000 8.4320001602 8.5000000000 0.0032632435 0.3691568673 2.4939918518 90.819999695 87.699989319 160.88400269 6.1619071960 -139.3130035 6.1369104385 5.8334527016 6.1370577812
 2418.8842773 7.0000000000 8.4320001602 8.5000000000 0.0040411376 0.3692448437 2.4890000820 88.800003052 88.218002319 162.51498413 6.1040287018 -140.0630035 6.0810365677 5.6379470825 6.0811791420
 2419.0368652 7.0000000000 8.4320001602 8.5000000000 0.0060029374 0.3613676429 2.4889905453 90.225997925 88.505950928 162.94409180 6.1217699051 -140.2503052 6.1038050652 5.5143942833 6.1039633751
 2419.1892090 7.0000000000 8.4320001602 8.5000000000 0.0081710434 0.3384936750 2.4859983921 89.425003052 88.475929260 163.00575256 6.0498609543 -140.4375000 6.0428705215 6.0971250534 6.0430979729
 2419.3415527 7.0000000000 8.4320001602 8.5000000000 0.0125720929 0.3505146503 2.4850063324 89.971000671 88.434005737 164.72099304 5.9630351067 -140.1250000 5.9619884491 4.6221227646 5.9621295929
 2419.4938965 7.0000000000 8.4320001602 8.5000000000 0.0207290687 0.3661169708 2.4890048504 90.611000061 88.779998779 164.44099426 5.9850883484 -139.8750000 5.9551091194 5.9256682396 5.9550223351
 2419.6464844 7.0000000000 8.4300003052 8.5000000000 0.0207895711 0.3762807548 2.4920032024 91.889999390 88.940994263 166.33128357 6.0402336121 -139.3130035 6.0233039856 5.9868235588 6.0228905678
 2419.7988281 7.0000000000 8.4320001602 8.5000000000 0.0262628850 0.3732438982 2.4929840565 90.426002502 88.938850403 166.51493835 6.1133074760 -139.3131104 6.1182994843 6.6169743538 6.1178479195
 2419.9511719 7.0000000000 8.4300003052 8.5000000000 0.0261793360 0.3748604059 2.4829776287 94.016998291 88.842208862 166.48033142 6.3050913811 -139.3771973 6.3051118851 6.0208849907 6.3047003746
 2420.1035156 7.0000000000 8.4320001602 8.5000000000 0.0189125054 0.3762834370 2.4690177441 92.261001587 88.973007202 166.68699646 6.3620800972 -140.7500000 6.3754086494 6.1553368568 6.3747758865
 2420.2561035 7.0000000000 8.4280004501 8.5000000000 0.0186000913 0.3784095943 2.4800064564 94.267997742 89.241035461 167.20713806 6.4110817909 -140.9382019 6.6293888092 6.4345521927 6.6295914650
 2420.4084473 7.0000000000 8.4300003052 8.5000000000 0.0173882414 0.3797358871 2.4820065498 97.581001282 89.265724182 167.29817200 6.1247692108 -141.0614014 6.4382901192 5.4850492477 6.4393062592
 2420.5607910 7.0000000000 8.4300003052 8.5000000000 0.0206535719 0.3856245577 2.4859871864 94.297996521 89.096740723 168.02592468 5.9808173180 -140.0637970 5.9958219528 4.4572949409 5.9967098236
 2420.7131348 7.0000000000 8.4320001602 8.5000000000 0.0203957651 0.3822923601 2.4780142307 95.151000977 89.558998108 167.36299133 5.8669137955 -140.5630035 5.8849377632 5.3351664543 5.8851780891
 2420.8654785 7.0000000000 8.4300003052 8.5000000000 0.0258560982 0.3694641590 2.4870016575 94.361000061 89.320999146 167.76600647 5.8131542206 -140.8750000 5.8461012840 4.9960994720 5.8461251259
 2421.0180664 7.0000000000 8.4320001602 8.5000000000 0.0253200810 0.3705402017 2.4880318642 93.554000854 89.046829224 168.00962830 5.9097104073 -140.8135071 5.9097580910 6.1243743896 5.9088988304
 2421.1704102 7.0000000000 8.4300003052 8.5000000000 0.0334330946 0.3621474802 2.4979710579 93.045997620 88.940055847 167.77458191 6.1312742233 -141.1250000 6.1462416649 6.0392851830 6.1456198692
 2421.3227539 7.0000000000 8.4300003052 8.5000000000 0.0266538933 0.3766986430 2.4799904823 94.531997681 88.355010986 167.52098083 6.3021268845 -141.1250000 6.2976698875 6.2423462868 6.2967581749
 2421.4750977 7.0000000000 8.4320001602 8.5000000000 0.0346940048 0.3704391718 2.4740223885 93.758003235 88.431007385 167.95399475 6.3803477287 -140.9380035 6.7142181396 5.7824807167 6.7136626244
 2421.6276855 7.0000000000 8.4320001602 8.5000000000 0.0396921709 0.3712965846 2.4880702496 96.087997437 88.531044006 167.82913208 5.9734559059 -140.8748932 6.2261009216 5.7500495911 6.2277822495
 2421.7800293 7.0000000000 8.4300003052 8.5000000000 0.0428514406 0.3609825671 2.5100095272 92.444999695 88.560859680 168.53091431 5.8038859367 -140.8134003 5.9458832741 3.8301630020 5.9464502335
 2421.9323730 7.0000000000 8.4440002441 8.5000000000 0.0375049599 0.3705466092 2.5159776211 91.767997742 88.476387024 167.85046387 5.7327980995 -141.0635986 5.8727116585 4.8158106804 5.8731169701
 2422.0847168 7.0000000000 8.4619998932 8.5000000000 0.0299768224 0.3916782141 2.5019695759 95.056999207 88.095993042 166.88499451 5.6070384979 -141.4380035 5.6929326057 6.0161504745 5.6935758591
 2422.2373047 7.0000000000 8.4619998932 8.5000000000 0.0130312210 0.4047940373 2.4829969406 96.274002075 87.515106201 167.30699158 5.6316690445 -140.5638123 5.6518797874 4.2378606796 5.6510672569
 2422.3896484 7.0000000000 8.4569997787 8.5000000000 0.0087350719 0.3933783472 2.4820048809 97.101997375 88.201309204 165.43878174 5.8399615288 -141.0625000 5.9259376526 4.1403040886 5.9255595207
 2422.5419922 7.0000000000 8.4619998932 8.5000000000 0.0062859901 0.3765479624 2.4850127697 95.041000366 87.766876221 167.16711426 5.8160881996 -140.7494049 5.8869938850 6.2332692146 5.8870625496
 2422.6943359 7.0000000000 8.4619998932 8.5000000000 0.0050344071 0.3750174046 2.4930160046 94.057998657 87.696990967 164.75100708 5.8713073730 -140.3750000 5.8834180832 5.3398942947 5.8830060959
 2422.8466797 7.0000000000 8.4600000381 8.5000000000 0.0052885776 0.3994744718 2.5029969215 93.042999268 86.769996643 163.59500122 6.0627455711 -139.5630035 6.1438450813 4.7817854881 6.1431646347
 2422.9992676 7.0000000000 8.4639997482 8.5000000000 0.0056508156 0.4082640111 2.5009839535 96.234001160 86.699470520 163.07144165 5.9037303925 -139.8766022 6.0465064049 5.8954195976 6.0471553802
 2423.1516113 7.0000000000 8.4639997482 8.5000000000 0.0067762677 0.3824923933 2.4909822941 92.373001099 86.371688843 163.96124268 5.7356171608 -140.8760071 5.7385721207 4.2612662315 5.7394933701
 2423.3039551 7.0000000000 8.4569997787 8.5000000000 0.0032079616 0.3449372053 2.4800159931 91.183998108 86.177001953 160.37599182 5.4969716072 -141.5000000 5.4718542099 4.1234264374 5.4724278450
 2423.4562988 7.0000000000 8.4370002747 8.5000000000 0.0050547132 0.3335712850 2.4900176525 88.643997192 85.988998413 162.32299805 5.4791073799 -141.8130035 5.3810176849 4.1150255203 5.3812913895
 2423.6088867 7.0000000000 8.4300003052 8.5000000000 0.0061215875 0.3335839212 2.5010223389 87.413002014 85.161750793 160.94006348 5.5462784767 -141.3128967 5.3923873901 5.1203866005 5.3919825554
 2423.7612305 7.0000000000 8.4300003052 8.5000000000 0.0059894263 0.3586896956 2.5079934597 92.246002197 85.004470825 159.73747253 5.6332993507 -141.2483063 5.5134663582 5.0083646774 5.5128059387
 2423.9135742 7.0000000000 8.4320001602 8.5000000000 0.0037642964 0.3615025580 2.5040080547 86.960998535 85.299003601 160.02900696 5.8199200630 -140.1880035 5.8039116859 5.0249457359 5.8035335541
 2424.0659180 7.0000000000 8.4320001602 8.5000000000 0.0045682020 0.3707154393 2.5089936256 92.620002747 85.431999207 160.34899902 5.7698383331 -140.2500000 5.7488188744 5.0090513229 5.7491760254
 2424.2185059 7.0000000000 8.4280004501 8.5000000000 0.0022079423 0.3482621014 2.5050320625 85.013999939 85.145683289 160.07188416 5.6690483093 -140.8750000 5.6359872818 4.8093204498 5.6361813545
 2424.3708496 7.0000000000 8.4320001602 8.5000000000 0.0040573748 0.3403067291 2.5149872303 82.434997559 85.573783875 159.36216736 5.6839537621 -140.8751068 5.6319646835 4.5797362328 5.6320061684
 2424.5231934 7.0000000000 8.4250001907 8.5000000000 0.0030463750 0.3387395144 2.5069952011 87.127998352 86.064865112 158.22454834 5.6549038887 -140.9390106 5.6098365784 5.1202597618 5.6100354195
