# LAS format log file from PETREL
# Project units are specified as depth units
#==================================================================
~Version information
VERS.   2.0:
WRAP.   NO:
#==================================================================
~Well
STRT .m      989.00103760 :
STOP .m      3365.3732910 :
STEP .m     0.00000000 :
NULL .        -999.250000 :
COMP.           : COMPANY
WELL.  35/11-1   : WELL
FLD.            : FIELD
LOC.            : LOCATION
SRVC.           : SERVICE COMPANY
DATE.  2018-09-11 14:48:54   : Log Export Date {yyyy-MM-dd HH:mm:ss}
PROV.           : PROVINCE
UWI.   35/11-1   : UNIQUE WELL ID
API.            : API NUMBER
#==================================================================
~Curve
DEPT .m                   : DEPTH
Lithology_geolink ._      : Lithology_geolink
CALI .in                  : CALI
DRHO .g/cm3               : DRHO
NPHI .m3/m3               : NPHI
RHOB .g/cm3               : RHOB
PEF .b/e                  : PEF
GR .gAPI                  : GR
DTC .us/ft                : DTC
RDEP .ohm.m               : RDEP
SP .mV                    : SP
RSHA .ohm.m               : RSHA
RMED .ohm.m               : RMED
~Parameter
#==================================================================
~Ascii
# ...
 1939.9765625 12.000000000 18.278999329 -0.015000000  -999.250000 2.3829998970 2.5429999828 107.06300354 114.12590027 0.9719976187 43.938400269 1.2599543333 1.2599543333
 1940.1289063 12.000000000 18.295000076 -0.015000000  -999.250000 2.3889999390 2.5840001106 107.05679321 114.50000000 0.9710016251 43.688999176 1.2409856319 1.2409856319
 1940.2813721 12.000000000 18.247999191 -0.020000000  -999.250000 2.3870000839 2.5780000687 103.19850922 114.49939728 0.9720023870 43.687797546 1.2319952250 1.2319952250
 1940.4337158 12.000000000 18.247999191 -0.015000000  -999.250000 2.3910000324 2.7620000839 107.55659485 114.25079346 0.9729967713 43.188999176 1.2300080061 1.2300080061
 1940.5861816 12.000000000 18.247999191 -0.013000000  -999.250000 2.3810000420 2.7850000858 103.55864716 114.75090027 0.9710023999 43.190273285 1.2350144386 1.2350144386
 1940.7385254 12.000000000 18.247999191 -0.017999999  -999.250000 2.3670001030 2.7639999390 101.74048615 115.12480164 0.9720000029 43.720001221 1.2410129309 1.2410129309
 1940.8909912 12.000000000 18.278999329 -0.023000000  -999.250000 2.3540000916 2.6619999409 95.811500549 114.99970245 0.9720168114 43.720001221 1.2490288019 1.2490288019
 1941.0433350 12.000000000 18.278999329 -0.027000001  -999.250000 2.3540000916 2.5060000420 95.188705444 114.87419891 0.9790015817 43.719200134 1.2610208988 1.2610208988
 1941.1958008 12.000000000 18.278999329 -0.025000000  -999.250000 2.3589999676 2.5469999313 95.637763977 114.37350464 0.9800119996 43.220600128 1.2740360498 1.2740360498
 1941.3481445 12.000000000 18.247999191 -0.020000000  -999.250000 2.3750000000 2.5639998913 100.95202637 113.75019836 0.9850016236 43.470401764 1.2890208960 1.2890208960
 1941.5006104 12.000000000 18.247999191 -0.017000001  -999.250000 2.3789999485 2.6559998989 109.68980408 113.87380219 0.9860072136 43.718799591 1.3020120859 1.3020120859
 1941.6529541 12.000000000 18.247999191 -0.016000001  -999.250000 2.3810000420 2.5490000248 110.43509674 113.37459564 0.9890032411 43.220001221 1.3070080280 1.3070080280
 1941.8052979 12.000000000 18.278999329 -0.015000000  -999.250000 2.3750000000 2.5160000324 108.61429596 113.12520599 0.9910063744 43.222003937 1.3120064735 1.3120064735
 1941.9577637 12.000000000 18.247999191 -0.012000000  -999.250000 2.3789999485 2.4219999313 101.94691467 113.25040436 0.9950000048 44.469200134 1.3159967661 1.3159967661
 1942.1101074 12.000000000 18.247999191 -0.009000000  -999.250000 2.3810000420 2.4939999580 107.49198914 113.50000000 0.9950048327 43.970001221 1.3139967918 1.3139967918
 1942.2625732 12.000000000 18.247999191 -0.008000000  -999.250000 2.3849999905 2.5290000439 102.50075531 113.50000000 0.9980048537 43.968799591 1.3119928837 1.3119928837
 1942.4149170 12.000000000 18.215999603 -0.011000000  -999.250000 2.3789999485 2.6019999981 102.80749512 113.49939728 1.0000000000 43.470802307 1.3090080023 1.3090080023
 1942.5673828 12.000000000 18.215999603 -0.014000000  -999.250000 2.3770000935 2.6129999161 99.385658264 113.12620544 0.9999783635 43.971202850 1.3140215874 1.3140215874
 1942.7197266 12.000000000 18.215999603 -0.017000001  -999.250000 2.3770000935 2.5699999332 103.80348969 113.62459564 0.9909871817 44.468399048 1.3229984045 1.3229984045
 1942.8721924 12.000000000 18.215999603 -0.018999999  -999.250000 2.3710000515 2.3929998875 97.872901917 113.37590027 0.9829759598 43.469402313 1.3219472170 1.3219472170
 1943.0245361 12.000000000 18.215999603 -0.016000001  -999.250000 2.3689999580 2.3670001030 96.993492126 113.75060272 0.9729887843 43.221202850 1.2999551296 1.2999551296
 1943.1770020 12.000000000 18.215999603 -0.017999999  -999.250000 2.3629999161 2.4509999752 92.954513550 114.12529755 0.9659880400 43.968799591 1.2719471455 1.2719471455
 1943.3293457 12.000000000 18.215999603 -0.016000001  -999.250000 2.3650000095 2.5680000782 99.810195923 114.25059509 0.9609935880 43.470451355 1.2499711514 1.2499711514
 1943.4818115 12.000000000 18.215999603 -0.020000000  -999.250000 2.3570001125 2.6019999981 98.067352295 114.62560272 0.9569855928 43.749725342 1.2319639921 1.2319639921
 1943.6341553 12.000000000 18.215999603 -0.017999999  -999.250000 2.3540000916 2.6540000439 99.875503540 114.87560272 0.9509903789 43.219551086 1.2169920206 1.2169920206
 1943.7866211 12.000000000 18.215999603 -0.017000001  -999.250000 2.3550000191 2.6760001183 100.18890381 115.25000000 0.9449855685 42.939598083 1.2119976282 1.2119976282
 1943.9389648 12.000000000 18.215999603 -0.017999999  -999.250000 2.3550000191 2.7030000687 100.56189728 115.25060272 0.9389951825 43.188198090 1.2110031843 1.2110031843
 1944.0913086 12.000000000 18.215999603 -0.021000000  -999.250000 2.3540000916 2.6600000858 99.861381531 115.62400818 0.9359951615 42.690200806 1.2130160332 1.2130160332
 1944.2437744 12.000000000 18.215999603 -0.021000000  -999.250000 2.3550000191 2.6679999828 91.382804871 114.99939728 0.9329952002 43.439598083 1.2230144739 1.2230144739
 1944.3961182 12.000000000 18.278999329 -0.021000000  -999.250000 2.3550000191 2.6540000439 94.635314941 114.75019836 0.9310016036 43.688999176 1.2289967537 1.2289967537
 1944.5485840 12.000000000 18.247999191 -0.021000000  -999.250000 2.3589999676 2.5799999237 101.07186127 114.87470245 0.9320095778 43.686595917 1.2269735336 1.2269735336
 1944.7009277 12.000000000 18.278999329 -0.016000001  -999.250000 2.3650000095 2.6760001183 104.75550842 114.75140381 0.9360048175 42.690601349 1.2159903049 1.2159903049
 1944.8533936 12.000000000 18.295000076 -0.018999999  -999.250000 2.3629999161 2.6189999580 108.19295502 115.62471008 0.9390096068 43.690200806 1.2100312710 1.2100312710
 1945.0057373 12.000000000 18.295000076 -0.016000001  -999.250000 2.3689999580 2.5079998970 110.25490570 115.49758911 0.9430048466 44.188198090 1.2230304480 1.2230304480
 1945.1582031 12.000000000 18.295000076 -0.015000000  -999.250000 2.3689999580 2.4630000591 113.29573822 114.00000000 0.9460144043 43.688999176 1.2420432568 1.2420432568
 1945.3105469 12.000000000 18.295000076 -0.012000000  -999.250000 2.3810000420 2.5409998894 106.11779022 113.99959564 0.9520144463 43.688999176 1.2600111961 1.2600111961
 1945.4630127 12.000000000 18.295000076 -0.013000000  -999.250000 2.3870000839 2.7290000916 101.62199402 113.74909973 0.9610288739 43.690200806 1.2670239210 1.2670239210
 1945.6153564 12.000000000 18.278999329 -0.018999999  -999.250000 2.3829998970 2.7579998970 100.38421631 113.37459564 0.9730176330 44.188598633 1.2770335674 1.2770335674
 1945.7678223 12.000000000 18.278999329 -0.015000000  -999.250000 2.3849999905 2.6879999638 106.12049866 113.12380981 0.9840168357 43.937797546 1.2980456352 1.2980456352
 1945.9201660 12.000000000 18.278999329 -0.017999999  -999.250000 2.3750000000 2.5550000668 104.25200653 112.62560272 0.9910064340 43.439399719 1.3170288801 1.3170288801
 1946.0725098 12.000000000 18.278999329 -0.017000001  -999.250000 2.3789999485 2.4570000172 105.49168396 112.99878693 0.9950048327 43.689800262 1.3350129128 1.3350129128
 1946.2249756 12.000000000 18.278999329 -0.016000001  -999.250000 2.3810000420 2.4749999046 100.30279541 112.25060272 0.9980048537 44.186595917 1.3430240154 1.3430240154
 1946.3773193 12.000000000 18.247999191 -0.018999999  -999.250000 2.3849999905 2.5840001106 96.066810608 112.49959564 1.0000032187 43.189449310 1.3530000448 1.3530000448
 1946.5297852 12.000000000 18.247999191 -0.022000000  -999.250000 2.3750000000 2.5980000496 98.442207336 112.25029755 1.0020023584 43.470001221 1.3529856205 1.3529856205
 1946.6821289 12.000000000 18.232000351 -0.023000000  -999.250000 2.3670001030 2.5980000496 100.18810272 112.37500000 1.0029984713 43.469650269 1.3469775915 1.3469775915
 1946.8345947 12.000000000 18.232000351 -0.023000000  -999.250000 2.3589999676 2.5369999409 100.25405121 112.37590027 1.0019903183 43.251598358 1.3329519033 1.3329519033
 1946.9869385 12.000000000 18.215999603 -0.024000000  -999.250000 2.3629999161 2.6150000095 101.94501495 112.75080109 0.9979920387 43.501449585 1.3129903078 1.3129903078
 1947.1394043 12.000000000 18.215999603 -0.024000000  -999.250000 2.3650000095 2.6459999084 106.32051086 113.25060272 0.9929879904 43.780727386 1.3069784641 1.3069784641
