# LAS format log file from PETREL
# Project units are specified as depth units
#==================================================================
~Version information
VERS.   2.0:
WRAP.   NO:
#==================================================================
~Well
STRT .m      1245.0043945 :
STOP .m      3214.9267578 :
STEP .m     0.00000000 :
NULL .        -999.250000 :
COMP.           : COMPANY
WELL.  35/11-11   : WELL
FLD.            : FIELD
LOC.            : LOCATION
SRVC.           : SERVICE COMPANY
DATE.  2018-09-11 14:48:54   : Log Export Date {yyyy-MM-dd HH:mm:ss}
PROV.           : PROVINCE
UWI.   35/11-11   : UNIQUE WELL ID
API.            : API NUMBER
#==================================================================
~Curve
DEPT .m                   : DEPTH
Lithology_geolink ._      : Lithology_geolink
CALI .in                  : CALI
BS .in                    : BS
ROP .m/h                  : ROP
DRHO .g/cm3               : DRHO
THOR .ppm                 : THOR
NPHI .m3/m3               : NPHI
RHOB .g/cm3               : RHOB
PEF .b/e                  : PEF
GR .gAPI                  : GR
URAN .ppm                 : URAN
DTC .us/ft                : DTC
DTS .us/ft                : DTS
RDEP .ohm.m               : RDEP
SP .mV                    : SP
RMIC .ohm.m               : RMIC
RMED .ohm.m               : RMED
~Parameter
#==================================================================
~Ascii
# ...
 1767.7363281 2.0000000000 12.862502098 12.250000954 167.88056946 0.0226000007  -999.250000 0.4052000046 2.4154999256 3.4465000629 88.862602234  -999.250000 127.09519958 319.19433594 1.0708563328 58.991798401 1.1811000109 1.1631292105
 1767.8887939 2.0000000000 12.894700050 12.250000954 167.88056946 0.0258000009  -999.250000 0.3977000117 2.4198999405 3.3129999638 90.887802124  -999.250000 132.82139587 306.34179688 1.4520945549 58.841701508 0.9570000172 1.5523881912
 1768.0411377 2.0000000000 12.959199905 12.250000954 151.51902771 0.0292000007  -999.250000 0.4192999899 2.3117001057 3.3289000988 94.647399902  -999.250000 132.73210144 317.32974243 1.0789989233 58.879100800 0.8769000173 1.1693148613
 1768.1936035 2.0000000000 12.954199791 12.250000954 151.51902771 0.0232999995  -999.250000 0.4286000133 2.1823000908 3.4700999260 96.294998169  -999.250000 136.54460144 324.40826416 1.2193869352 58.904201508 0.4720999897 1.3271728754
 1768.3459473 2.0000000000 12.926699638 12.250000954 151.51902771 0.0346999988  -999.250000 0.4366999865 2.1554999352 3.5041000843 96.122001648  -999.250000 135.98359680 321.85162354 1.0476378202 58.941600800 0.4239999950 1.1269606352
 1768.4984131 2.0000000000 13.324899673 12.250000954 151.51902771 0.0315999985  -999.250000 0.4377000034 2.1984999180 3.5220000744 96.201400757  -999.250000 137.36010742 332.57809448 0.9040150046 59.033298492 0.4372999966 0.9818161726
 1768.6507568 2.0000000000 12.880398750 12.250000954 151.51902771 0.0195000004  -999.250000 0.4399999976 2.2423999310 3.5211000443 93.840103149  -999.250000 139.39880371 324.70059204 1.0644712448 58.962600708 0.7508000135 1.1493655443
 1768.8032227 2.0000000000 12.857100487 12.250000954 151.51902771 0.0027000001  -999.250000 0.4499000013 2.2585000992 3.5151998997 91.617698669  -999.250000 127.15769958 314.93649292 1.1986925602 58.875000000 1.1074999571 1.2859907150
 1768.9555664 2.0000000000 12.850299835 12.250000954 152.38516235 0.0081000002  -999.250000 0.4562000036 2.2702999115 3.4502999783 92.316001892  -999.250000 128.69200134 309.80419922 1.1770175695 58.974899292 1.1492999792 1.2685140371
 1769.1080322 2.0000000000 12.738300323 12.250000954 152.38516235 0.0085000005  -999.250000 0.4180999994 2.2708001137 3.4189000130 98.211303711  -999.250000 129.77229309 326.30578613 1.2004811764 59.262298584 1.1668000221 1.2857861519
 1769.2603760 2.0000000000 12.558798790 12.250000954 152.38516235 0.0066000000  -999.250000 0.4101999998 2.2360000610 3.5004000664 99.111198425  -999.250000 130.65769958 324.81887817 1.0875905752 59.537399292 1.1295000315 1.1698930264
 1769.4128418 2.0000000000 12.812600136 12.250000954 152.38516235 0.0052999998  -999.250000 0.4259000123 2.1958999634 3.5320999622 98.995498657  -999.250000 131.58929443 328.75820923 1.1867204905 60.057899475 0.6851999760 1.2655233145
 1769.5651855 2.0000000000 12.866199493 12.250000954 152.38516235 0.0222999994  -999.250000 0.4343000054 2.1932001114 3.4633998871 98.448898315  -999.250000 133.61010742 344.62747192 1.0220321417 60.570701599 0.4738000035 1.0914397240
 1769.7175293 2.0000000000 12.815200806 12.250000954 152.38516235 0.0297999997  -999.250000 0.4189000130 2.2353000641 3.3276000023 98.758300781  -999.250000 130.09970093 341.53417969 0.9848594069 60.854000092 0.4718999863 1.0556572676
 1769.8699951 2.0000000000 12.809200287 12.250000954 131.19094849 0.0221999995  -999.250000 0.3899999857 2.2618000507 3.3812999725 101.05380249  -999.250000 127.75740814 339.47518921 1.1910346746 60.700298309 0.7197999954 1.2660311460
 1770.0223389 2.0000000000 12.813700676 12.250000954 131.19094849 0.0043000001  -999.250000 0.4246000051 2.2564001083 3.5215001106 100.74420166  -999.250000 121.80060577 330.75921631 1.1499661207 60.137798309 1.0111000538 1.2294589281
 1770.1748047 2.0000000000 12.761500359 12.250000954 131.19094849 -0.003200000  -999.250000 0.4296000004 2.2381999493 3.6870999336 99.365898132  -999.250000 122.38099670 315.88537598 1.0046164989 59.608600616 0.9725000262 1.0782212019
 1770.3271484 2.0000000000 12.724900246 12.250000954 131.19094849 0.0001000000  -999.250000 0.4239999950 2.2414000034 3.7685999870 95.058601379  -999.250000 121.57141113 318.02670288 1.0270637274 59.608100891 0.9783999920 1.1055560112
 1770.4796143 2.0000000000 12.699399948 12.250000954 131.19094849 0.0046000001  -999.250000 0.3905000091 2.2743999958 3.9242999554 93.811096191  -999.250000 122.54319763 315.56121826 1.1210246086 59.845798492 1.0809999704 1.2018228769
 1770.6319580 2.0000000000 12.683798790 12.250000954 131.19094849 0.0055999998  -999.250000 0.4020000100 2.3283998966 3.8942999840 93.179801941  -999.250000 123.78420258 303.68450928 1.1038138866 60.074798584 1.1009999514 1.1862126589
 1770.7844238 2.0000000000 12.683798790 12.250000954 131.19094849 0.0208999999  -999.250000 0.4460999966 2.3887000084 3.6942000389 94.829696655  -999.250000 126.80799866 311.04031372 1.1387720108 60.316600800 1.2545000315 1.2221711874
 1770.9367676 2.0000000000 13.072299004 12.250000954 227.38514709 0.0285000000  -999.250000 0.4630999863 2.3615000248 3.4003000259 97.803497314  -999.250000 131.34970093 330.63790894 1.1902587414 60.474899292 0.9157000184 1.2757570744
 1771.0892334 2.0000000000 12.750900269 12.250000954 227.38514709 0.0425999984  -999.250000 0.4589999914 2.2908999920 3.2274999619 100.52890015  -999.250000 136.02229309 333.29879761 1.0247327089 60.362701416 0.8409000039 1.1053366661
 1771.2415771 2.0000000000 12.882900238 12.250000954 227.38514709 0.0344000012  -999.250000 0.4568000138 2.2023000717 3.2249999046 104.17749786  -999.250000 139.06700134 354.56909180 1.0614703894 60.287399292 0.5389999747 1.1414709091
 1771.3940430 2.0000000000 12.766599655 12.250000954 227.38514709 0.0267999992  -999.250000 0.5059000254 2.1754999161 3.2300999165 105.98680115  -999.250000 137.71130371 368.93249512 0.8608607650 60.708000183 0.5867000222 0.9314683080
 1771.5463867 2.0000000000 12.801600456 12.250000954 227.38514709 0.0126000000  -999.250000 0.5117999911 2.1807999611 3.3150999546 104.31919861  -999.250000 135.18009949 361.61508179 0.8683937788 61.033298492 0.5145999789 0.9392935634
 1771.6987305 2.0000000000 13.044501305 12.250000954 227.38514709 0.0030000000  -999.250000 0.4442999959 2.2016999722 3.3649001122 98.140197754  -999.250000 132.40029907 366.10650635 0.7958164215 61.095798492 0.7336000204 0.8593282700
 1771.8511963 2.0000000000 12.787099838 12.250000954 194.90486145 -0.000800000  -999.250000 0.4314999878 2.2228999138 3.3492999077 91.149902344  -999.250000 130.88839722 339.41769409 0.8995167613 61.224899292 0.7813000083 0.9716098905
 1772.0035400 2.0000000000 12.672699928 12.250000954 194.90486145 0.0071000000  -999.250000 0.4131999910 2.2355000973 3.1726999283 90.112503052  -999.250000 129.37500000 334.38220215 1.0711249113 61.179298401 1.0859999657 1.1472185850
 1772.1560059 2.0000000000 12.812600136 12.250000954 194.90486145 0.0240000002  -999.250000 0.4386000037 2.2404000759 3.0155000687 93.294998169  -999.250000 127.74109650 351.13473511 1.1323511600 60.662899017 0.8468999863 1.2129476070
 1772.3083496 2.0000000000 12.850299835 12.250000954 194.90486145 0.0384999998  -999.250000 0.4451999962 2.2441999912 2.9414000511 93.801803589  -999.250000 127.50149536 327.35470581 1.1406867504 60.479000092 0.7444999814 1.2189903259
 1772.4608154 2.0000000000 12.799798965 12.250000954 194.90486145 0.0370999984  -999.250000 0.4505999982 2.2481000423 3.0255999565 94.059501648  -999.250000 127.92710114 326.29959106 1.1549885273 60.824798584 0.6751000285 1.2310903072
 1772.6131592 2.0000000000 12.807200432 12.250000954 194.90486145 0.0208999999  -999.250000 0.4180000126 2.2485001087 3.2730998993 92.143501282  -999.250000 128.50450134 325.99853516 1.1373142004 61.033298492 0.7013000250 1.2159121037
 1772.7656250 2.0000000000 12.835300446 12.250000954 194.90486145 0.0049000001  -999.250000 0.4120000005 2.2532000542 3.4923999310 93.767700195  -999.250000 128.56250000 327.31500244 1.0726518631 60.995899200 0.8424000144 1.1586458683
 1772.9179688 2.0000000000 12.827699661 12.250000954 161.53215027 -0.003200000  -999.250000 0.4309999943 2.2590999603 3.6231999397 92.070899963  -999.250000 127.85269928 323.68389893 1.1184631586 60.837600708 1.0269999504 1.2020652294
