# LAS format log file from PETREL
# Project units are specified as depth units
#==================================================================
~Version information
VERS.   2.0:
WRAP.   NO:
#==================================================================
~Well
STRT .m      2818.0771484 :
STOP .m      3213.0979004 :
STEP .m     0.00000000 :
NULL .        -999.250000 :
COMP.           : COMPANY
WELL.  35/11-15 S   : WELL
FLD.            : FIELD
LOC.            : LOCATION
SRVC.           : SERVICE COMPANY
DATE.  2018-09-11 14:48:55   : Log Export Date {yyyy-MM-dd HH:mm:ss}
PROV.           : PROVINCE
UWI.   35/11-15 S   : UNIQUE WELL ID
API.            : API NUMBER
#==================================================================
~Curve
DEPT .m                   : DEPTH
Lithology_geolink ._      : Lithology_geolink
CALI .in                  : CALI
BS .in                    : BS
ROP .m/h                  : ROP
DRHO .g/cm3               : DRHO
THOR .ppm                 : THOR
SGR .gAPI                 : SGR
RHOB .g/cm3               : RHOB
PEF .b/e                  : PEF
GR .gAPI                  : GR
URAN .ppm                 : URAN
DTC .us/ft                : DTC
DTS .us/ft                : DTS
RDEP .ohm.m               : RDEP
RMIC .ohm.m               : RMIC
RMED .ohm.m               : RMED
~Parameter
#==================================================================
~Ascii
# ...
 3178.9602051  -999.250000 8.4938001633 8.5000000000 62503.648438 -0.071302727 10.985692978 0.0210006405 2.6075007915 4.7149648666 97.351715088 2.9495298862 70.545646667 123.81819916 26.470441818 55.574161530 26.975042343
 3179.1125488  -999.250000 8.4841003418 8.5000000000 76519.156250 -0.072396487 11.123857498 0.0215980802 2.6112878323 4.7190866470 99.666374207 3.0264539719 70.364181519 124.00000000 26.448070526 55.204486847 27.263673782
 3179.2651367  -999.250000 8.4841003418 8.5000000000 86725.687500 -0.069404803 11.131887436 0.0219993591 2.6122982502 4.7402663231 100.38665771 3.0407774448 69.819076538 124.18179321 26.513795853 54.848770142 26.996131897
 3179.4174805  -999.250000 8.4925003052 8.5000000000 89403.531250 -0.070098877 11.202886581 0.0217004810 2.6162936687 4.7470889091 100.06262207 3.0945136547 69.636688232 124.00000000 26.412662506 54.367671967 27.464845657
 3179.5698242  -999.250000 8.4954004288 8.5000000000 90662.179688 -0.069101602 10.967678070 0.0212008003 2.6155011654 4.7683658600 97.065605164 2.9264698029 69.091773987 123.63639832 26.277217865 53.728027344 27.115661621
 3179.7221680  -999.250000 8.4869003296 8.5000000000 85975.164063 -0.069100000 10.441543579 0.0205011219 2.6111071110 4.7827773094 93.990325928 2.9356846809 69.000144958 123.81819916 26.324123383 53.050586700 27.078659058
 3179.8745117  -999.250000 8.4869003296 8.5000000000 79274.046875 -0.066608012 9.9003343582 0.0199019201 2.6029262543 4.7649574280 91.387741089 2.8737986088 68.728172302 123.81819916 26.551071167 52.655265808 27.137012482
 3180.0270996  -999.250000 8.4925003052 8.5000000000 78905.351563 -0.069195837 9.8833246231 0.0198999997 2.6000044346 4.7126841545 92.270072937 3.0335431099 68.545791626 124.00000000 26.669511795 52.708610535 27.431627274
 3180.1794434  -999.250000 8.4841003418 8.5000000000 81938.695313 -0.071895674 9.9806432724 0.0210980773 2.6058905125 4.6536946297 94.327697754 2.9823825359 68.273132324 124.54550171 26.745477676 53.021396637 27.597135544
 3180.3317871  -999.250000 8.4841003418 8.5000000000 83457.453125 -0.071400806 9.9383678436 0.0213995203 2.6192784309 4.6149621010 95.176742554 3.0203390121 68.272697449 124.54550171 26.858118057 53.218383789 27.879646301
 3180.4841309  -999.250000 8.4925003052 8.5000000000 87622.867188 -0.070303515 10.176136017 0.0210012794 2.6255798340 4.6140027046 94.572242737 2.9249064922 68.997673035 124.54550171 27.284132004 53.001499176 28.667572021
 3180.6367188  -999.250000 8.4912996292 8.5000000000 85471.437500 -0.069501281 10.274543762 0.0219983980 2.6227045059 4.6376619339 94.739921570 2.7240219116 69.363021851 124.72730255 27.570842743 51.846954346 28.577749252
 3180.7890625  -999.250000 8.4869003296 8.5000000000 76627.953125 -0.071696475 10.167471886 0.0218003206 2.6134150028 4.6632590294 94.235107422 2.7316870689 69.363601685 125.09089661 27.552631378 50.182670593 28.790859222
 3180.9414063  -999.250000 8.4869003296 8.5000000000 72613.382813 -0.069803044 10.063567162 0.0217001606 2.6067106724 4.6599054337 93.380874634 2.6763887405 69.363601685 125.72730255 27.346929550 48.633083344 28.611188889
 3181.0937500  -999.250000 8.4897003174 8.5000000000 75235.882813 -0.068205118 10.095297813 0.0214009602 2.6074974537 4.6548161507 93.573272705 2.6668305397 69.363601685 126.27269745 27.266456604 47.644165039 28.566343307
 3181.2463379  -999.250000 8.4912996292 8.5000000000 81501.507813 -0.070196800 9.9831800461 0.0214998405 2.6094968319 4.6434183121 93.569511414 2.6819756031 69.635963440 126.45449829 27.116041183 47.183834076 28.283653259
 3181.3986816  -999.250000 8.4897003174 8.5000000000 90601.726563 -0.074992314 9.8462190628 0.0215000007 2.6171875000 4.6111521721 94.573890686 2.8306612968 70.180923462 126.18180084 26.591941833 47.085456848 27.861177444
 3181.5510254  -999.250000 8.4982004166 8.5000000000 95035.070313 -0.078793913 9.7773103714 0.0213003196 2.6181983948 4.6229810715 93.647285461 2.8311994076 70.181800842 126.45449829 26.428760529 47.036579132 27.387559891
 3181.7033691  -999.250000 8.4925003052 8.5000000000 94303.546875 -0.080297597 9.5859069824 0.0213998407 2.6191983223 4.6391744614 92.781791687 2.7481331825 69.637275696 127.63639832 26.395753860 46.789196014 27.196006775
 3181.8557129  -999.250000 8.4841003418 8.5000000000 84366.578125 -0.081097439 10.025687218 0.0210012794 2.6164090633 4.6599330902 92.817878723 2.6885907650 70.180053711 128.45460510 26.449525833 46.725006104 27.052659988
 3182.0083008  -999.250000 8.4888000488 8.5000000000 63071.570313 -0.080401123 9.9615049362 0.0210998394 2.6172986031 4.6762738228 93.651863098 2.7582876682 70.363311768 128.45449829 26.250120163 47.380546570 27.042415619
 3182.1606445  -999.250000 8.4869003296 8.5000000000 52906.382813 -0.079301767 9.9619989395 0.0215991996 2.6188974380 4.6770987511 95.365051270 2.9002723694 70.363601685 128.18179321 25.928415298 48.099746704 26.764745712
 3182.3129883  -999.250000 8.4837999344 8.5000000000 54699.457031 -0.077602737 9.9622001648 0.0208012816 2.6172025204 4.6788969040 93.757789612 2.8750407696 70.363601685 127.63639832 25.888263702 47.865478516 26.605054855
 3182.4653320  -999.250000 8.4897003174 8.5000000000 78508.703125 -0.077001922 10.178804398 0.0208000001 2.6139104366 4.6771059036 93.856575012 2.7847895622 70.363601685 127.27270508 25.832078934 47.286857605 26.139793396
 3182.6179199  -999.250000 8.4897003174 8.5000000000 94638.031250 -0.076800324 10.224028587 0.0205004811 2.6100060940 4.6623239517 93.661911011 2.8962206841 70.182090759 126.90910339 25.645898819 47.353389740 25.973165512
 3182.7702637  -999.250000 8.4938001633 8.5000000000 96132.765625 -0.073605128 10.596402168 0.0213985592 2.6089017391 4.6584062576 95.082916260 2.7543280125 70.363311768 126.54550171 25.369342804 48.478294373 25.894525528
 3182.9226074  -999.250000 8.4897003174 8.5000000000 93843.445313 -0.071203843 10.722198486 0.0205014423 2.6094989777 4.6580004692 94.764015198 2.8935761452 70.182090759 126.72730255 25.471136093 49.831134796 26.062231064
 3183.0749512  -999.250000 8.4925003052 8.5000000000 95763.539063 -0.070900962 11.083142281 0.0205000006 2.6123907566 4.6548099518 95.273658752 2.8472495079 70.181800842 127.27270508 25.530509949 51.286434174 26.098085403
 3183.2275391  -999.250000 8.4897003174 8.5000000000 94478.312500 -0.074494235 11.298655510 0.0204001609 2.6156947613 4.6432185173 95.823921204 2.8515927792 69.637275696 127.81819916 25.458814621 52.449142456 26.081525803
 3183.3798828  -999.250000 8.4962997437 8.5000000000 96096.156250 -0.077095836 11.702452660 0.0204998404 2.6178963184 4.6550807953 97.271682739 2.8347272873 69.636398315 127.99999237 25.248638153 52.689517975 25.806142807
 3183.5322266  -999.250000 8.5038003922 8.5000000000 101292.42188 -0.077499360 11.272491455 0.0204001609 2.6156036854 4.6427202225 95.915779114 2.8054468632 69.636398315 127.99999237 24.796924591 51.686111450 25.451168060
 3183.6845703  -999.250000 8.5094995499 8.5000000000 96153.101563 -0.078099042 11.315230370 0.0202003196 2.6143021584 4.6725521088 95.908309937 2.8691973686 69.636398315 128.54539490 24.541110992 48.155364990 25.095371246
 3183.8369141  -999.250000 8.5062999725 8.5000000000 86655.101563 -0.076305762 11.122419357 0.0196019206 2.6095151901 4.7000117302 94.391265869 2.8309233189 69.817619324 129.36360168 24.192020416 45.569480896 24.795061111
 3183.9895020  -999.250000 8.4982004166 8.5000000000 83596.859375 -0.075501278 11.578367233 0.0196998399 2.6061055660 4.7071886063 95.711174011 2.8215150833 70.181221008 129.81820679 23.977842331 44.047428131 24.462831497
 3184.1418457  -999.250000 8.5179004669 8.5000000000 84412.554688 -0.073203690 11.551943779 0.0190011207 2.6024060249 4.7018084526 94.749946594 2.8735165596 70.363311768 130.18179321 23.824045181 44.230800629 24.288080215
 3184.2941895  -999.250000 8.5114002228 8.5000000000 88614.093750 -0.074797437 11.486804962 0.0188003201 2.6045963764 4.7206692696 93.899467468 2.8020148277 70.363601685 130.54539490 23.566513062 42.646545410 24.102897644
 3184.4465332  -999.250000 8.5138998032 8.5000000000 86312.007813 -0.074401282 11.505539894 0.0185009595 2.6027061939 4.7656555176 94.891311646 2.9194228649 70.363601685 130.45449829 23.329858780 42.814353943 23.835458755
