# LAS format log file from PETREL
# Project units are specified as depth units
#==================================================================
~Version information
VERS.   2.0:
WRAP.   NO:
#==================================================================
~Well
STRT .m      1245.0043945 :
STOP .m      3214.9267578 :
STEP .m     0.00000000 :
NULL .        -999.250000 :
COMP.           : COMPANY
WELL.  35/11-11   : WELL
FLD.            : FIELD
LOC.            : LOCATION
SRVC.           : SERVICE COMPANY
DATE.  2018-09-11 14:48:54   : Log Export Date {yyyy-MM-dd HH:mm:ss}
PROV.           : PROVINCE
UWI.   35/11-11   : UNIQUE WELL ID
API.            : API NUMBER
#==================================================================
~Curve
DEPT .m                   : DEPTH
Lithology_geolink ._      : Lithology_geolink
CALI .in                  : CALI
BS .in                    : BS
ROP .m/h                  : ROP
DRHO .g/cm3               : DRHO
THOR .ppm                 : THOR
NPHI .m3/m3               : NPHI
RHOB .g/cm3               : RHOB
PEF .b/e                  : PEF
GR .gAPI                  : GR
URAN .ppm                 : URAN
DTC .us/ft                : DTC
DTS .us/ft                : DTS
RDEP .ohm.m               : RDEP
SP .mV                    : SP
RMIC .ohm.m               : RMIC
RMED .ohm.m               : RMED
~Parameter
#==================================================================
~Ascii
# ...
 2162.4523926 12.000000000 13.095600128 12.250000954 53.576114655 -0.003000000  -999.250000 0.3359999955 2.5183999538 3.7255001068 101.93920135  -999.250000 106.97470093 239.92959595 1.5895999670 54.429298401 1.9809000492 1.8602000475
 2162.6047363 12.000000000 13.111800194 12.250000954 53.576114655 -0.002900000  -999.250000 0.3407000005 2.4992001057 3.6740000248 105.30419922  -999.250000 107.81700134 241.46659851 1.5630999804 53.746398926 2.0011000633 1.8409999609
 2162.7573242 12.000000000 13.138899803 12.250000954 61.833992004 -0.002900000  -999.250000 0.3334000111 2.4684998989 3.5355000496 106.49449921  -999.250000 109.08930206 243.32780457 1.4970999956 53.316600800 1.8447586298 1.7656999826
 2162.9096680 12.000000000 13.141699791 12.250000954 61.833992004 -0.004700000  -999.250000 0.3713999987 2.4398999214 3.4893999100 107.04489899  -999.250000 110.27529907 248.62989807 1.4903999567 52.642398834 1.8189235926 1.7551000118
 2163.0620117 12.000000000 13.134800911 12.250000954 61.833992004 -0.004600000  -999.250000 0.3788000047 2.4372999668 3.4428999424 106.94200134  -999.250000 110.19049835 247.14399719 1.4212000370 50.667999268 1.7712579966 1.6768000126
 2163.2143555 12.000000000 13.133300781 12.250000954 61.833992004 -0.004000000  -999.250000 0.3686999977 2.4375998974 3.4449999332 106.66539764  -999.250000 109.79609680 246.73699951 1.3794000149 49.666500092 1.7451000214 1.6286000013
 2163.3669434 12.000000000 13.118201256 12.250000954 61.833992004 -0.003600000  -999.250000 0.3544000089 2.4346001148 3.4512999058 105.34519958  -999.250000 110.53720093 244.98590088 1.3918999434 50.078899384 1.7565910816 1.6450999975
 2163.5192871 12.000000000 13.116700172 12.250000954 61.833992004 -0.001600000  -999.250000 0.3373999894 2.4112000465 3.4470000267 105.28579712  -999.250000 110.47171021 244.15229797 1.4421999454 50.245899200 1.8131905794 1.7085000277
 2163.6716309 12.000000000 13.129400253 12.250000954 59.842517853 0.0113000004  -999.250000 0.3506999910 2.3933999538 3.2235000134 109.22589874  -999.250000 109.87799835 243.62179565 1.5049999952 50.020999908 1.7434831858 1.7799999714
 2163.8239746 12.000000000 13.134300232 12.250000954 59.842517853 0.0318999998  -999.250000 0.3601999879 2.3986999989 2.9660000801 110.21489716  -999.250000 109.35420227 244.97300720 1.4673999548 50.008201599 0.7969999909 1.7375999689
 2163.9763184 12.000000000 13.105601311 12.250000954 59.842517853 0.0379000008  -999.250000 0.3682999909 2.4258999825 2.8294999599 109.96199799  -999.250000 108.75000763 248.96569824 1.3363000154 50.391399384 0.7924000025 1.5844999552
 2164.1289063 12.000000000 13.070099831 12.250000954 59.842517853 0.0245999992  -999.250000 0.3808999956 2.4456999302 3.0281000137 107.45760345  -999.250000 108.08480072 247.14318848 1.4974999428 50.791500092 0.8984242082 1.7657999992
 2164.2812500 12.000000000 13.043600082 12.250000954 59.842517853 0.0035000001  -999.250000 0.3980999887 2.4444000721 3.2802999020 108.63500214  -999.250000 107.09819794 247.43110657 1.4961999655 50.937500000 1.7857273817 1.7639000416
 2164.4335938 12.000000000 12.983499527 12.250000954 59.842517853 -0.004300000  -999.250000 0.3896000087 2.4432001114 3.4711000919 107.65100098  -999.250000 105.99259949 247.24980164 1.4845999479 51.037399292 1.8028000593 1.7509000301
 2164.5859375 12.000000000 12.966899872 12.250000954 59.842517853 -0.003200000  -999.250000 0.3844999969 2.4502000809 3.5682001114 105.38249969  -999.250000 106.38839722 244.96409607 1.5322999954 51.657798767 1.8632999659 1.8011000156
 2164.7385254 12.000000000 12.962800980 12.250000954 56.692920685 -0.002900000  -999.250000 0.3853000104 2.4600000381 3.6867001057 102.83039856  -999.250000 106.78569794 242.76750183 1.5779000521 52.324798584 1.9423749447 1.8485000134
 2164.8908691 12.000000000 12.955100060 12.250000954 56.692920685 -0.003000000  -999.250000 0.3953000009 2.4674999714 3.7348999977 98.371902466  -999.250000 107.01930237 238.19380188 1.5702999830 52.133701324 1.9890525341 1.8353999853
 2165.0432129 12.000000000 12.947399139 12.250000954 56.692920685 -0.004000000  -999.250000 0.3916999996 2.4651999474 3.7342000008 98.978897095  -999.250000 107.26190948 235.96359253 1.5597000122 52.012298584 1.9594460726 1.8214999437
 2165.1955566 12.000000000 12.937699318 12.250000954 56.692920685 -0.003900000  -999.250000 0.3632999957 2.4572000504 3.7070000172 98.639297485  -999.250000 105.55950165 237.51229858 1.5296000242 52.453899384 1.9257999659 1.7832000256
 2165.3481445 12.000000000 12.939100266 12.250000954 56.692920685 -0.003600000  -999.250000 0.3643999994 2.4560999870 3.7572999001 101.33630371  -999.250000 103.03869629 233.79020691 1.5324000120 52.321201324 1.8761137724 1.7878999710
 2165.5004883 12.000000000 12.966899872 12.250000954 56.692920685 -0.003100000  -999.250000 0.3486000001 2.4916999340 3.9100000858 96.504997253  -999.250000 101.43899536 227.66108704 1.5435999632 52.066600800 1.9474263191 1.8065999746
 2165.6528320 12.000000000 12.972399712 12.250000954 56.678066254 0.0006000000  -999.250000 0.3454999924 2.5638999939 4.0645999908 92.437698364  -999.250000 101.15921021 224.30708313 1.6799999475 52.458000183 2.2136409283 1.9737000465
 2165.8051758 12.000000000 12.978000641 12.250000954 47.408134460 0.0163000003  -999.250000 0.3330999911 2.6440999508 3.9621999264 91.452697754  -999.250000 101.60419464 224.71359253 2.0743000507 52.650100708 2.6136000156 2.4219999313
 2165.9575195 12.000000000 12.996200562 12.250000954 47.408134460 0.0182000007  -999.250000 0.3461999893 2.6428000927 3.7764000893 96.077102661  -999.250000 102.53118896 223.71319580 2.0752999783 52.262798309 2.3412001133 2.4312999249
 2166.1101074 12.000000000 12.830900192 12.250000954 47.408134460 0.0138999997  -999.250000 0.3436999917 2.5711998940 3.5539000034 103.02100372  -999.250000 104.84369659 226.81448364 1.4896999598 52.166500092 1.9119275808 1.7740000486
 2166.2624512 12.000000000 13.042401314 12.250000954 47.408134460 -0.002700000  -999.250000 0.3463999927 2.4825997353 3.4918999672 107.03109741  -999.250000 107.38240051 236.30039978 1.4456000328 52.412399292 1.7422410250 1.7230000496
 2166.4147949 12.000000000 13.043900490 12.250000954 47.408134460 -0.005200000  -999.250000 0.3364999890 2.4442000389 3.4419999123 108.70189667  -999.250000 108.11009979 241.52980042 1.5299999714 52.233600616 1.7677999735 1.8131999969
 2166.5671387 12.000000000 13.064000130 12.250000954 47.408134460 -0.005100000  -999.250000 0.3472000062 2.4447999001 3.4756999016 107.04699707  -999.250000 106.95539856 244.44987488 1.5202000141 51.800201416 1.8094999790 1.8020000458
 2166.7197266 12.000000000 13.075599670 12.250000954 52.437664032 -0.004700000  -999.250000 0.3449000120 2.4528999329 3.6178998947 102.49340057  -999.250000 105.56249237 235.91798401 1.5557999611 51.958000183 1.8250000477 1.8492000103
 2166.8720703 12.000000000 13.051099777 12.250000954 52.437664032 -0.004200000  -999.250000 0.3562999964 2.4704000950 3.7627999783 96.462303162  -999.250000 105.18749237 237.09719849 1.6502000093 52.150100708 1.8875195980 1.9636000395
 2167.0244141 12.000000000 13.050099373 12.250000954 52.437664032 -0.004100000  -999.250000 0.3359999955 2.4853999615 3.9184999466 91.898101807  -999.250000 102.51040649 230.20660400 1.7414000034 51.895999908 2.0244472027 2.0618999004
 2167.1767578 12.000000000 13.092800140 12.250000954 52.437664032 -0.002100000  -999.250000 0.3368999958 2.4997000694 4.0629000664 89.346603394  -999.250000 100.46279907 227.33340454 1.7927000523 51.849899292 2.1161999702 2.1212000847
 2167.3293457 12.000000000 13.116700172 12.250000954 52.437664032 -0.002100000  -999.250000 0.3167000115 2.5288999081 4.2655000687 85.303497314  -999.250000 98.169601440 227.14520264 1.7741999626 51.737701416 2.2324476242 2.1029000282
 2167.4816895 12.000000000 13.138899803 12.250000954 52.430576324 -0.000400000  -999.250000 0.3118000031 2.5808999538 4.4842000008 82.931396484  -999.250000 96.369003296 215.28860474 1.8696000576 51.828899384 2.4494028091 2.2090001106
 2167.6340332 12.000000000 13.154298782 12.250000954 48.015094757 0.0029000000  -999.250000 0.3100999892 2.6359999180 4.5447001457 81.414596558  -999.250000 95.748497009 217.51467896 2.2602000237 52.129100800 2.7007884979 2.6635000706
