# LAS format log file from PETREL
# Project units are specified as depth units
#==================================================================
~Version information
VERS.   2.0:
WRAP.   NO:
#==================================================================
~Well
STRT .m      963.35791016 :
STOP .m      4034.6738281 :
STEP .m     0.00000000 :
NULL .        -999.250000 :
COMP.           : COMPANY
WELL.  35/11-2   : WELL
FLD.            : FIELD
LOC.            : LOCATION
SRVC.           : SERVICE COMPANY
DATE.  2018-09-11 14:48:55   : Log Export Date {yyyy-MM-dd HH:mm:ss}
PROV.           : PROVINCE
UWI.   35/11-2   : UNIQUE WELL ID
API.            : API NUMBER
#==================================================================
~Curve
DEPT .m                   : DEPTH
Lithology_geolink ._      : Lithology_geolink
CALI .in                  : CALI
DRHO .g/cm3               : DRHO
NPHI .m3/m3               : NPHI
RHOB .g/cm3               : RHOB
GR .gAPI                  : GR
DTC .us/ft                : DTC
RDEP .ohm.m               : RDEP
SP .mV                    : SP
RSHA .ohm.m               : RSHA
RMED .ohm.m               : RMED
~Parameter
#==================================================================
~Ascii
# ...
 1406.3845215  -999.250000 21.344001770 -0.004959936 0.5151827335 1.8779599667 48.315151215 155.63140869 0.8940240145 38.156200409 0.7950280905 0.7950280905
 1406.5369873  -999.250000 21.528001785 -0.000016026 0.4833467007 1.9657179117 47.406723022 140.51211548 0.9089807868 36.158603668 0.7950000167 0.7950000167
 1406.6893311  -999.250000 21.409999847 0.0119519616 0.4826420248 2.0785477161 47.094253540 137.37750244 0.9009920359 37.655799866 0.8319703937 0.8319703937
 1406.8417969  -999.250000 21.584999084 0.0199743584 0.4608424902 2.1158814430 45.657150269 138.37420654 0.8960144520 37.157402039 0.9379151464 0.9379151464
 1406.9941406  -999.250000 22.031999588 0.0060560447 0.4373453259 2.0173962116 42.190776825 140.24850464 0.9020128250 37.656600952 1.0159375668 1.0159375668
 1407.1464844  -999.250000 22.051000595 -0.000971955 0.4280197322 1.9263645411 39.909652710 147.86279297 0.9100544453 38.156200409 0.9580928683 0.9580928683
 1407.2989502  -999.250000 22.040000916 -0.003987991 0.4453043640 1.9011001587 39.937973022 153.12078857 0.9440448880 38.157001495 0.8760656714 0.8760656714
 1407.4512939  -999.250000 21.993999481 -0.006987981 0.4499053955 1.8880521059 43.899642944 152.50100708 0.9720000029 40.153797150 0.8660160303 0.8660160303
 1407.6037598  -999.250000 21.615999222 -0.005008006 0.4867416918 1.8730601072 45.904396057 148.12850952 0.9719976187 39.657402039 0.8869832158 0.8869832158
 1407.7561035  -999.250000 21.350000381 0.0059559294 0.4951134622 1.8530801535 45.313949585 145.12980652 0.9710000157 41.653797150 0.9049711227 0.9049711227
 1407.9085693  -999.250000 21.412002563 0.0348839089 0.5044076443 1.8739159107 41.222282410 141.37800598 0.9709808230 38.159805298 0.9089967608 0.9089967608
 1408.0609131  -999.250000 21.010997772 0.0499399044 0.4745759368 1.8939199448 41.874473572 141.49989319 0.9629887938 36.658203125 0.9369775653 0.9369775653
 1408.2133789  -999.250000 19.611000061 0.0490040034 0.4844060838 1.9059519768 42.843227386 144.49760437 0.9559879899 37.156600952 0.9909567833 0.9909567833
 1408.3657227  -999.250000 18.927999496 0.0290801283 0.4906699359 1.9060000181 44.717498779 148.99639893 0.9509871602 38.156200409 0.9939976335 0.9939976335
 1408.5181885  -999.250000 19.980998993 0.0130640510 0.5017732978 1.8990280628 44.375274658 150.74859619 0.9429832101 37.657402039 0.9470376372 0.9470376372
 1408.6705322  -999.250000 21.306999207 0.0080200322 0.4919416904 1.8900359869 43.250900269 149.37609863 0.9359647036 37.657001495 0.8880472779 0.8880472779
 1408.8229980  -999.250000 21.631999969 0.0119871795 0.4788415134 1.8690673113 45.186447144 149.99949646 0.9139327407 37.657001495 0.8770087957 0.8770087957
 1408.9753418  -999.250000 21.241998672 0.0289319456 0.4713938534 1.8660120964 45.780521393 150.37469482 0.8859823346 37.157402039 0.8620120287 0.8620120287
 1409.1276855  -999.250000 21.042999268 0.0409519225 0.4729050696 1.8779519796 47.840698242 151.62300110 0.8750032187 39.652999878 0.8420320153 0.8420320153
 1409.2801514  -999.250000 20.989000320 0.0419959947 0.5210154653 1.8839759827 42.878982544 152.37438965 0.8770256042 40.156600952 0.8250136375 0.8250136375
 1409.4324951  -999.250000 21.238000870 0.0499679483 0.5166943669 1.8979438543 41.502201080 153.12379456 0.8930128217 37.161804199 0.8249999881 0.8249999881
 1409.5849609  -999.250000 21.569997787 0.0460160114 0.4941324294 1.8940160275 38.565353394 148.87840271 0.9009832144 38.655799866 0.8459832072 0.8459832072
 1409.7373047  -999.250000 21.344001770 0.0370360576 0.4803042412 1.8949959278 41.869697571 145.38059998 0.8939935565 41.152999878 0.9208799005 0.9208799005
 1409.8897705  -999.250000 21.291000366 0.0160840675 0.4891086817 1.8900200129 44.591823578 153.99308777 0.8900071979 37.659805298 1.0029343367 1.0029343367
 1410.0421143  -999.250000 21.906000137 0.0060400642 0.4963667393 1.8939840794 47.061019897 153.75021362 0.8930224180 38.156600952 1.0129920244 1.0129920244
 1410.1945801  -999.250000 22.391000748 -0.003959968 0.4619729221 1.8949959278 47.562599182 155.24879456 0.9070696831 37.657402039 0.9240712523 0.9240712523
 1410.3469238  -999.250000 21.726001740 -0.010971955 0.4781876504 1.8940041065 45.782424927 156.62390137 0.9360288382 36.158203125 0.8520576954 0.8520576954
 1410.4993896  -999.250000 20.493999481 -0.010004003 0.4673163295 1.9009720087 45.219451904 156.00048828 0.9539567828 37.156200409 0.8210247755 0.8210247755
 1410.6517334  -999.250000 20.512998581 -0.008008013 0.4675790668 1.9099639654 43.845104218 153.75181580 0.9359695315 41.153797150 0.8679623008 0.8679623008
 1410.8041992  -999.250000 21.475999832 -0.009993589 0.4449645281 1.9119935036 46.997474670 158.62109375 0.9169759750 37.659805298 0.9199584126 0.9199584126
 1410.9565430  -999.250000 21.604999542 -0.011991994 0.4572702646 1.9159840345 49.061347961 158.00050354 0.9069935679 37.657001495 0.9759551287 0.9759551287
 1411.1090088  -999.250000 21.212999344 -0.008012821 0.4738700688 1.9140064716 48.063800812 156.87590027 0.9030168056 37.657001495 0.9779983759 0.9779983759
 1411.2613525  -999.250000 21.291999817 -0.007004004 0.4852136970 1.9110120535 44.222080231 156.50030518 0.9100032449 36.657802582 0.9400304556 0.9400304556
 1411.4136963  -999.250000 21.517000198 -0.012975962 0.5090833306 1.8930721283 43.750751495 156.00077820 0.9119759798 36.657001495 0.8840896487 0.8840896487
 1411.5661621  -999.250000 21.599000931 -0.014991993 0.5143333673 1.8890160322 48.527168274 156.87429810 0.8969615698 38.155799866 0.8570216298 0.8570216298
 1411.7185059  -999.250000 21.667999268 -0.015000000 0.5067743659 1.8830240965 47.564548492 156.87500000 0.8809567094 39.155399323 0.8460176587 0.8460176587
 1411.8709717  -999.250000 21.805999756 -0.008028023 0.4931727052 1.8849920034 46.844577789 155.12640381 0.8539567590 39.157001495 0.8330104351 0.8330104351
 1412.0233154  -999.250000 21.506000519 -0.006008013 0.4952033758 1.8730480671 45.315452576 153.50259399 0.8359920382 41.153797150 0.8250128031 0.8250128031
 1412.1757813  -999.250000 21.131999969 -0.000024019 0.5222747922 1.8650320768 43.345581055 151.87629700 0.8310191631 39.158603668 0.8279976249 0.8279976249
 1412.3281250  -999.250000 21.631999969 0.0049799676 0.5192698240 1.8440841436 42.656551361 149.75170898 0.8390272260 38.657402039 0.8379920125 0.8379920125
 1412.4805908  -999.250000 21.860000610 0.0069919936 0.5063211918 1.8260719776 43.249523163 150.37449646 0.8560816646 36.159004211 0.8449944258 0.8449944258
 1412.6329346  -999.250000 21.211000443 0.0129759619 0.4861247838 1.8379520178 44.405071259 150.62480164 0.8900208473 36.656600952 0.8499960303 0.8499960303
 1412.7854004  -999.250000 20.440999985 0.0229679495 0.5267319679 1.8958141804 46.279495239 153.12300110 0.9030095935 38.655399323 0.8549960256 0.8549960256
 1412.9377441  -999.250000 19.885997772 0.0319639742 0.5094658136 1.9457998276 43.252429962 153.62460327 0.9070016146 40.155799866 0.9239447117 0.9239447117
 1413.0902100  -999.250000 19.938999176 0.0290072169 0.4885203242 1.9360240698 44.187248230 153.12539673 0.9080048203 40.157001495 1.0079327822 1.0079327822
 1413.2425537  -999.250000 20.554000854 0.0170384310 0.4545090795 1.8981217146 40.222183228 150.75190735 0.9100016356 40.157001495 0.9980080128 0.9980080128
 1413.3948975  -999.250000 20.892000198 0.0110192308 0.4890685380 1.8810545206 41.903297424 150.75000000 0.9110208750 41.654598236 0.9231200814 0.9231200814
 1413.5473633  -999.250000 21.086000443 0.0100032026 0.5141298175 1.8939584494 45.497119904 149.50100708 0.9239736199 38.659404755 0.8580520749 0.8580520749
 1413.6997070  -999.250000 21.305000305 0.0080064107 0.4756439924 1.8989840746 48.370395660 150.62319946 0.9129551053 37.658603668 0.8540063500 0.8540063500
 1413.8521729  -999.250000 21.461000443 0.0070032026 0.4572088420 1.8999967575 51.216724396 150.87480164 0.8849591613 37.157402039 0.8709863424 0.8709863424
 1414.0045166  -999.250000 21.577999115 0.0000224359 0.4695102572 1.8611249924 50.719802856 150.62539673 0.8679903746 36.158603668 0.8849775791 0.8849775791
