# LAS format log file from PETREL
# Project units are specified as depth units
#==================================================================
~Version information
VERS.   2.0:
WRAP.   NO:
#==================================================================
~Well
STRT .m      1150.0018311 :
STOP .m      2885.3808594 :
STEP .m     0.00000000 :
NULL .        -999.250000 :
COMP.           : COMPANY
WELL.  35/11-10   : WELL
FLD.            : FIELD
LOC.            : LOCATION
SRVC.           : SERVICE COMPANY
DATE.  2018-09-11 14:48:54   : Log Export Date {yyyy-MM-dd HH:mm:ss}
PROV.           : PROVINCE
UWI.   35/11-10   : UNIQUE WELL ID
API.            : API NUMBER
#==================================================================
~Curve
DEPT .m                   : DEPTH
Lithology_geolink ._      : Lithology_geolink
CALI .in                  : CALI
BS .in                    : BS
DRHO .g/cm3               : DRHO
NPHI .m3/m3               : NPHI
RHOB .g/cm3               : RHOB
GR .gAPI                  : GR
DTC .us/ft                : DTC
DTS .us/ft                : DTS
RDEP .ohm.m               : RDEP
SP .mV                    : SP
RSHA .ohm.m               : RSHA
RMIC .ohm.m               : RMIC
RMED .ohm.m               : RMED
~Parameter
#==================================================================
~Ascii
# ...
 1493.6639404  -999.250000 13.005999565 12.250000954 0.0068504238 0.4467200041 2.1730031967 95.095001221 140.40139771 382.40475464 1.0369999409 -175.6239929 0.8377609849 1.1968367100 0.8380288482
 1493.8162842  -999.250000 13.041999817 12.250000954 0.0048821396 0.4562610090 2.1769993305 95.614997864 140.89613342 388.32998657 1.0299999714 -174.3730011 0.8330280185 1.1172564030 0.8330160379
 1493.9687500  -999.250000 13.093999863 12.250000954 0.0013106153 0.4545019865 2.1759953499 95.359001160 143.55993652 388.35177612 1.0329999924 -171.8755035 0.8330100179 1.1060264111 0.8330000043
 1494.1210938  -999.250000 13.041999817 12.250000954 -0.000415108 0.4773949981 2.1699857712 92.373001099 144.72813416 415.54226685 0.9744459987 -172.5017090 0.7898449898 1.0511761904 0.7901377082
 1494.2735596  -999.250000 13.005999565 12.250000954 0.0006976042 0.4864000082 2.1519856453 91.634002686 144.89721680 419.60488892 0.9632009864 -174.6239929 0.7824559808 0.6170456409 0.7820192575
 1494.4259033  -999.250000 12.954000473 12.250000954 0.0002042123 0.4834020138 2.1340031624 95.484001160 143.92050171 420.69351196 0.9733309746 -173.3730927 0.7910389900 1.0516004562 0.7909711599
 1494.5783691  -999.250000 12.657999992 12.250000954 0.0004709039 0.4525659978 2.1380271912 98.044998169 144.54437256 421.34469604 0.9819250107 -171.0019073 0.7986999750 1.0909086466 0.7989807725
 1494.7307129  -999.250000 12.465000153 12.250000954 0.0016576770 0.4225069880 2.1550142765 92.968002319 142.28317261 427.95080566 1.0199999809 -172.1891479 0.8276000023 1.1039583683 0.8279071450
 1494.8831787  -999.250000 12.312999725 12.250000954 0.0012532610 0.4215910137 2.1730096340 96.357002258 141.25369263 396.50369263 1.0880000591 -173.6235962 0.8868430257 1.1299375296 0.8868582249
 1495.0355225  -999.250000 12.175999641 12.250000954 0.0001671699 0.4406690001 2.1789991856 96.257003784 139.81521606 390.06741333 1.0870000124 -172.7501984 0.8873540163 1.1309968233 0.8870000243
 1495.1879883  -999.250000 12.159000397 12.250000954 -0.002115128 0.4452370107 2.1780016422 102.82599640 138.84056091 391.80541992 1.0820000172 -173.0005951 0.8840559721 1.1200264692 0.8840072155
 1495.3403320  -999.250000 12.137998581 12.250000954 -0.002195916 0.4380559921 2.1789958477 96.801002502 138.56405640 387.67004395 1.0820000172 -173.3741455 0.8838949800 1.0900961161 0.8840000033
 1495.4926758  -999.250000 12.128000259 12.250000954 -0.003337737 0.4088619947 2.1740064621 97.165000916 138.64593506 381.49243164 1.0859999657 -172.3139038 0.8887090087 1.1348557472 0.8889839649
 1495.6451416  -999.250000 12.126000404 12.250000954 -0.003008891 0.4320380092 2.1820023060 98.708999634 138.56489563 379.54266357 1.0959999561 -173.4388580 0.8927919865 1.1649038792 0.8929871917
 1495.7974854  -999.250000 12.126999855 12.250000954 -0.002871763 0.4278320074 2.1850030422 97.832000732 138.43174744 377.88696289 1.1069999933 -174.4985046 0.9022009969 1.1390833855 0.9019711614
 1495.9499512  -999.250000 12.126999855 12.250000954 -0.001327972 0.4420950115 2.1889934540 97.888000488 138.10494995 377.86233521 1.1130000353 -172.6246490 0.9079729915 1.0791921616 0.9079807997
 1496.1022949  -999.250000 12.095000267 12.250000954 -0.001291598 0.4322260022 2.1809976101 101.13200378 138.03984070 377.03344727 1.1109999418 -172.1888580 0.9085829854 1.1099007130 0.9089967608
 1496.2547607  -999.250000 12.095999718 12.250000954 0.0004583974 0.4423449934 2.1780006886 101.70099640 137.85557556 377.58767700 1.1089999676 -173.2494507 0.9069229960 1.1169831753 0.9070048332
 1496.4071045  -999.250000 12.095000267 12.250000954 0.0009523141 0.4462240040 2.1790022850 101.10099792 138.57501221 372.19665527 1.1130000353 -172.5624084 0.9088780284 1.1538815498 0.9089936018
 1496.5595703  -999.250000 12.093999863 12.250000954 -0.001149347 0.4404160082 2.1820127964 106.32900238 138.59558105 370.56417847 1.1250000000 -171.8148041 0.9199990034 1.1430264711 0.9199735522
 1496.7119141  -999.250000 12.097000122 12.250000954 -0.000743591 0.4468159974 2.1900024414 107.55200195 138.33396912 368.82055664 1.1299999952 -172.9376984 0.9243810177 1.1659263372 0.9239872098
 1496.8643799  -999.250000 12.095000267 12.250000954 -0.002732634 0.4394490123 2.1929905415 108.96900177 138.29316711 367.03704834 1.1289999485 -172.5622101 0.9232339859 1.1310842037 0.9230023623
 1497.0167236  -999.250000 12.095999718 12.250000954 -0.005623244 0.4110360146 2.1869969368 107.81500244 138.40095520 367.07836914 1.1239999533 -172.0633545 0.9175440073 1.1160480976 0.9180160165
 1497.1691895  -999.250000 12.097999573 12.250000954 -0.007170941 0.4232130051 2.1830031872 107.41899872 138.35292053 367.56033325 1.1219999790 -172.5014038 0.9176210165 1.0970456600 0.9179999828
 1497.3215332  -999.250000 12.097999573 12.250000954 -0.004639925 0.4275799990 2.1850030422 109.30699921 138.30793762 376.49841309 1.1139999628 -173.3751984 0.9111109972 1.1328847408 0.9110224247
 1497.4738770  -999.250000 12.112999916 12.250000954 -0.004545329 0.4609149992 2.1889991760 107.46099854 138.23246765 377.03237915 1.1069999933 -173.6246948 0.9063439965 1.1290128231 0.9060160518
 1497.6263428  -999.250000 12.130000114 12.250000954 -0.003706726 0.4389069974 2.1879942417 116.91899872 138.83171082 378.75711060 1.1000000238 -173.2481537 0.9008169770 1.0961056948 0.9010160565
 1497.7786865  -999.250000 12.128000259 12.250000954 -0.002117593 0.4294640124 2.1809928417 117.15899658 138.47705078 383.90930176 1.0900000334 -170.9387970 0.8910710216 1.0700833797 0.8910320401
 1497.9311523  -999.250000 12.140000343 12.250000954 -0.000356885 0.4305419922 2.1719880104 117.11000061 138.53233337 388.03656006 1.0590000153 -171.9403076 0.8655040264 1.0660127401 0.8660800457
 1498.0834961  -999.250000 12.161001205 12.250000954 0.0060245381 0.4628770053 2.1569943428 110.26100159 138.95697021 389.96536255 1.0369999409 -174.8119965 0.8514770269 0.9583461285 0.8510481119
 1498.2359619  -999.250000 12.211999893 12.250000954 0.0091930125 0.4887279868 2.1500058174 106.91400146 138.91331482 391.67959595 1.0210000277 -173.5611572 0.8411840200 1.0477836132 0.8410240412
 1498.3883057  -999.250000 12.326999664 12.250000954 0.0104554929 0.4776540101 2.1570184231 112.15499878 139.30500793 392.39437866 1.0099999905 -171.2512054 0.8298109770 1.1357182264 0.8300352097
 1498.5407715  -999.250000 12.348999023 12.250000954 0.0110717397 0.4722799957 2.1800129414 112.14600372 139.32467651 392.83654785 1.0190000534 -172.7516022 0.8358849883 1.1888725758 0.8359856009
 1498.6931152  -999.250000 12.317000389 12.250000954 0.0132341534 0.4549790025 2.1959936619 108.15100098 138.93028259 389.80618286 1.0299999714 -174.7482910 0.8453999758 1.2378431559 0.8449711800
 1498.8455811  -999.250000 12.298999786 12.250000954 0.0046911379 0.4492129982 2.1879904270 108.29199982 139.28533936 387.56710815 1.0399999619 -172.6251068 0.8532860279 1.1980961561 0.8529871702
 1498.9979248  -999.250000 12.319000244 12.250000954 0.0010362420 0.4218750000 2.1819999218 105.33399963 138.87704468 381.42395020 1.0499999523 -172.6897125 0.8606749773 1.2528238297 0.8609808087
 1499.1503906  -999.250000 12.296999931 12.250000954 0.0013375100 0.4260109961 2.1819982529 103.94699860 138.92610168 380.13409424 1.0549999475 -174.8112946 0.8674920201 1.2829278708 0.8669903874
 1499.3027344  -999.250000 12.288000107 12.250000954 0.0010312443 0.4597449899 2.1810030937 104.03299713 138.99046326 379.55416870 1.0670000315 -173.7494049 0.8738930225 1.2261824608 0.8739888072
 1499.4550781  -999.250000 12.283999443 12.250000954 0.0000885140 0.4794589877 2.1850056648 104.29000092 139.55287170 378.52847290 1.0750000477 -173.0008545 0.8774549961 1.2080576420 0.8769927621
 1499.6075439  -999.250000 12.262000084 12.250000954 -0.000517302 0.4823290110 2.1920104027 104.38099670 140.62876892 377.89163208 1.0700000525 -174.0643616 0.8758909702 1.2648174763 0.8760015965
 1499.7598877  -999.250000 12.233000755 12.250000954 0.0003522634 0.4529899955 2.2050023079 101.81700134 140.33332825 377.43920898 1.0609999895 -175.7487946 0.8666039705 1.2061890364 0.8670216203
