# LAS format log file from PETREL
# Project units are specified as depth units
#==================================================================
~Version information
VERS.   2.0:
WRAP.   NO:
#==================================================================
~Well
STRT .m      3245.2055664 :
STOP .m      4039.9716797 :
STEP .m     0.00000000 :
NULL .        -999.250000 :
COMP.           : COMPANY
WELL.  35/3-7 S   : WELL
FLD.            : FIELD
LOC.            : LOCATION
SRVC.           : SERVICE COMPANY
DATE.  2018-09-11 14:48:58   : Log Export Date {yyyy-MM-dd HH:mm:ss}
PROV.           : PROVINCE
UWI.   35/3-7 S   : UNIQUE WELL ID
API.            : API NUMBER
#==================================================================
~Curve
DEPT .m                   : DEPTH
Lithology_geolink ._      : Lithology_geolink
CALI .in                  : CALI
BS .in                    : BS
ROP .m/h                  : ROP
DRHO .g/cm3               : DRHO
THOR .ppm                 : THOR
NPHI .m3/m3               : NPHI
RHOB .g/cm3               : RHOB
PEF .b/e                  : PEF
GR .gAPI                  : GR
URAN .ppm                 : URAN
DTC .us/ft                : DTC
DTS .us/ft                : DTS
RDEP .ohm.m               : RDEP
RMIC .ohm.m               : RMIC
RMED .ohm.m               : RMED
~Parameter
#==================================================================
~Ascii
# ...
 3352.3427734 6.0000000000 8.4882001877 8.5000000000 62.257804871 -0.012898558 7.5313458443 0.1731140912 2.5794060230 4.2102212906 92.759231567 0.8695957065 81.189079285 152.40846252 3.7834000587 4.8852992058 4.1719999313
 3352.4951172 6.0000000000 8.4834995270 8.5000000000 64.508544922 -0.012900000 7.6374301910 0.1680081636 2.5760054588 4.2006158829 91.943016052 0.8185820580 80.974441528 152.33512878 3.9821000099 4.9878358841 4.3977999687
 3352.6474609 5.0000000000 8.4882001877 8.5000000000 54.222229004 -0.012700320 7.7433309555 0.1717939079 2.5722062588 4.1409959793 88.905975342 0.7672821879 80.759643555 152.26142883 3.8903999329 4.7189321518 4.2976999283
 3352.7998047 5.0000000000 8.4921998978 8.5000000000 52.890892029 -0.013099359 7.1807031631 0.1760931164 2.5660099983 4.1197338104 82.368179321 0.9092719555 80.175834656 146.83721924 3.5727999210 4.5407853127 3.9646999836
 3352.9521484 5.0000000000 8.5071001053 8.5000000000 58.095817566 -0.012103200 6.9947943687 0.1708169580 2.5610160828 4.1611671448 80.412445068 0.7819095850 80.193542480 151.53269958 3.4681000710 4.5524611473 3.8640999794
 3353.1047363 5.0000000000 8.4961004257 8.5000000000 59.471244812 -0.011001763 6.3493351936 0.1607161760 2.5602011681 4.2088236809 76.488883972 0.9167828560 79.946800232 147.73602295 3.5669999123 4.7610654831 3.9911999702
 3353.2570801 5.0000000000 8.5000000000 8.5000000000 55.554847717 -0.009801923 5.7067298889 0.1537112147 2.5638940334 4.1862363815 80.301864624 0.6790818572 79.758697510 148.14274597 3.6960000992 4.8426694870 4.1482000351
 3353.4094238 5.0000000000 8.4882001877 8.5000000000 50.886093140 -0.008502084 5.9589934349 0.1539995223 2.5730853081 4.0768756866 83.164916992 0.9263025522 79.952690125 149.88879395 3.7555000782 4.8545808792 4.2253999710
 3353.5617676 5.0000000000 8.4961004257 8.5000000000 55.245170593 -0.008400320 6.5087366104 0.1649648100 2.5766885281 3.9702415466 87.151710510 1.0383416414 80.249244690 149.21188354 3.7841000557 4.4697356224 4.2607998848
 3353.7143555 6.0000000000 8.5071001053 8.5000000000 62.318401337 -0.008699520 6.9064645767 0.1832706779 2.5782973766 3.9149882793 90.004447937 1.0428932905 81.083366394 152.90696716 3.3185000420 3.9046051502 3.7383999825
 3353.8666992 6.0000000000 8.4976997375 8.5000000000 58.599815369 -0.010097756 7.4278640747 0.1934836507 2.5783996582 3.9072124958 92.128997803 1.2636457682 81.441726685 156.90229797 2.9414000511 3.7552385330 3.3087000847
 3354.0190430 6.0000000000 8.4921998978 8.5000000000 53.082992554 -0.008802083 8.0186996460 0.1985918283 2.5861876011 3.8846361637 93.921829224 1.0836000443 82.212463379 158.24725342 3.0107998848 3.8529429436 3.3843998909
 3354.1713867 6.0000000000 8.5071001053 8.5000000000 49.173938751 -0.008401279 9.3176002502 0.2031852752 2.5878944397 3.8800148964 95.782333374 0.9453999996 83.893203735 157.11912537 3.2130999565 4.2136425972 3.6122999191
 3354.3239746 6.0000000000 8.4961004257 8.5000000000 49.446063995 -0.009398397 8.6984996796 0.2067942321 2.5820095539 3.9628670216 97.494361877 0.7106000185 82.428260803 155.33584595 3.1714999676 4.1447124481 3.5617001057
 3354.4763184 6.0000000000 8.5024003983 8.5000000000 55.527969360 -0.012395193 8.7847003937 0.2020076960 2.5746119022 4.1468048096 97.762374878 0.6273999810 79.780151367 152.36218262 3.0132999420 4.5869898796 3.3787000179
 3354.6286621 6.0000000000 8.5071001053 8.5000000000 58.243370056 -0.013498237 7.2817997932 0.1736455113 2.5779945850 4.3551664352 91.789093018 0.7918999791 78.844398499 147.55230713 3.6054000854 5.1379170418 4.0538997650
 3354.7810059 6.0000000000 8.4804000854 8.5000000000 51.724380493 -0.013000801 6.1638998985 0.1517350972 2.5875844955 4.5101513863 83.612403870 0.5156999826 77.497657776 144.21633911 4.6754999161 6.1697454453 5.2838997841
 3354.9333496 5.0000000000 8.4976997375 8.5000000000 44.430862427 -0.011803840 5.1623997688 0.1310662329 2.5958735943 4.5860571861 76.048637390 0.6976000071 75.613342285 142.52900696 5.0664000511 6.4853920937 5.7386999130
 3355.0859375 5.0000000000 8.4882001877 8.5000000000 41.106678009 -0.010502083 4.7744998932 0.1274057627 2.6016907692 4.5836043358 74.769813538 0.3950999975 75.051300049 140.47688293 5.3579001427 6.8904514313 6.0594000816
 3355.2382813 5.0000000000 8.5039997101 8.5000000000 41.533428192 -0.009701284 5.0384998322 0.1282985508 2.5987048149 4.5667271614 71.379341125 0.5404000282 74.706047058 141.68296814 5.3246998787 7.4106659889 6.0169000626
 3355.3906250 5.0000000000 8.5039997101 8.5000000000 42.159103394 -0.009100961 5.2911000252 0.1431761235 2.5901138783 4.5253663063 72.283645630 0.7738000154 76.217475891 137.53895569 5.3271999359 6.7176136971 6.0019001961
 3355.5429688 5.0000000000 8.4930000305 8.5000000000 38.591178894 -0.009598400 5.7277998924 0.1611424088 2.5806305408 4.4593114853 75.297523499 0.7736999989 77.849960327 143.18495178 4.1206002235 5.9383983612 4.6359000206
 3355.6955566 6.0000000000 8.4921998978 8.5000000000 35.282199860 -0.009799680 5.8428997993 0.1745785326 2.5819978714 4.3609571457 78.147148132 1.0124000311 78.361785889 146.36123657 3.5181000233 4.7598876953 3.9419000149
 3355.8479004 6.0000000000 8.5024003983 8.5000000000 37.659236908 -0.009899840 5.5492000580 0.1856822073 2.5876908302 4.2997975349 81.867332458 1.0793999434 79.783615112 148.76744080 3.5359001160 5.0756902695 3.9590001106
 3356.0002441 6.0000000000 8.4976997375 8.5000000000 45.843822479 -0.010299359 6.3123002052 0.1908916682 2.5872006416 4.3143768311 83.048515320 0.9776999950 80.393821716 150.49053955 4.2972002029 4.9323306084 4.8111000061
 3356.1525879 6.0000000000 8.4921998978 8.5000000000 50.168575287 -0.010599039 6.0861001015 0.1826265603 2.5845086575 4.3330402374 85.983581543 1.1373000145 79.274200439 149.83641052 3.8115999699 5.6470050812 4.2807998657
 3356.3051758 5.0000000000 8.4787998199 8.5000000000 44.792774200 -0.010699840 6.6174001694 0.1523485631 2.5845000744 4.3308038712 81.983741760 0.9512000084 78.072525024 148.13352966 5.1273999214 6.0829038620 5.7623000145
 3356.4575195 5.0000000000 8.4921998978 8.5000000000 41.889163971 -0.010001122 6.4767999649 0.1274399012 2.5880942345 4.3118305206 74.436798096 1.0679999590 76.584388733 141.97479248 6.6487002373 6.7177820206 7.4814000130
 3356.6098633 5.0000000000 8.4930000305 8.5000000000 40.909046173 -0.010499199 6.3491001129 0.1301955134 2.5816104412 4.3518357277 73.249481201 0.9488999844 75.439331055 142.42506409 6.1543998718 6.7477536201 6.9170999527
 3356.7622070 5.0000000000 8.4804000854 8.5000000000 41.550151825 -0.011298718 6.1336002350 0.1390857399 2.5748109818 4.3990240097 72.269271851 0.8781999946 74.945785522 134.51809692 4.2495999336 5.7105650902 4.7744002342
 3356.9145508 5.0000000000 8.4804000854 8.5000000000 45.958290100 -0.011798400 6.2530999184 0.1399971247 2.5728063583 4.4631938934 76.114845276 0.6427999735 74.141181946 139.66404724 4.3449001312 6.1037325859 4.8762998581
 3357.0671387 5.0000000000 8.4882001877 8.5000000000 42.473461151 -0.010402244 6.2515001297 0.1251238734 2.5876760483 4.4522180557 72.993530273 0.2145999968 74.341873169 137.02975464 6.0911998749 7.0674548149 6.8288002014
 3357.2194824 5.0000000000 8.4842996597 8.5000000000 29.840478897 -0.009301763 6.1184000969 0.1190097779 2.5982830524 4.4104666710 76.217216492 0.1902000010 73.563552856 137.48785400 6.1079001427 7.5257668495 6.8435001373
 3357.3718262 5.0000000000 8.4930000305 8.5000000000 32.375820160 -0.009899039 6.7967000008 0.1197987199 2.5976011753 4.3330240250 74.425483704 -0.042599998 72.788040161 136.69088745 5.2119002342 7.2644205093 5.8322000504
 3357.5241699 5.0000000000 8.4834995270 8.5000000000 46.311901093 -0.011295521 7.7655005455 0.1232888028 2.5890274048 4.2735900879 79.311203003 -0.076700002 72.597312927 137.21760559 5.2592000961 7.0339384079 5.8617000580
 3357.6767578 5.0000000000 8.4882001877 8.5000000000 77.524444580 -0.011998878 7.3199000359 0.1301889420 2.5832092762 4.2436475754 77.565834045 0.2363000065 73.021118164 134.59062195 4.8611998558 6.5016531944 5.4291000366
 3357.8291016 5.0000000000 8.4686002731 8.5000000000 90.615547180 -0.009703687 8.0741996765 0.1314979196 2.5938827991 4.1788039207 79.129783630 0.1386000067 72.759521484 136.73405457 4.6687998772 6.6821093559 5.2059998512
