# LAS format log file from PETREL
# Project units are specified as depth units
#==================================================================
~Version information
VERS.   2.0:
WRAP.   NO:
#==================================================================
~Well
STRT .m      3245.2055664 :
STOP .m      4039.9716797 :
STEP .m     0.00000000 :
NULL .        -999.250000 :
COMP.           : COMPANY
WELL.  35/3-7 S   : WELL
FLD.            : FIELD
LOC.            : LOCATION
SRVC.           : SERVICE COMPANY
DATE.  2018-09-11 14:48:58   : Log Export Date {yyyy-MM-dd HH:mm:ss}
PROV.           : PROVINCE
UWI.   35/3-7 S   : UNIQUE WELL ID
API.            : API NUMBER
#==================================================================
~Curve
DEPT .m                   : DEPTH
Lithology_geolink ._      : Lithology_geolink
CALI .in                  : CALI
BS .in                    : BS
ROP .m/h                  : ROP
DRHO .g/cm3               : DRHO
THOR .ppm                 : THOR
NPHI .m3/m3               : NPHI
RHOB .g/cm3               : RHOB
PEF .b/e                  : PEF
GR .gAPI                  : GR
URAN .ppm                 : URAN
DTC .us/ft                : DTC
DTS .us/ft                : DTS
RDEP .ohm.m               : RDEP
RMIC .ohm.m               : RMIC
RMED .ohm.m               : RMED
~Parameter
#==================================================================
~Ascii
# ...
 4034.6376953 7.0000000000 8.4329996109 8.5000000000 38.896980286 0.0184000004  -999.250000 0.3037000000 2.5701999664 5.3470997810 141.62170410  -999.250000  -999.250000  -999.250000 4.2765002251  -999.250000 4.5531001091
 4034.7900391 7.0000000000 8.4324998856 8.5000000000 39.246719360 0.0272000004  -999.250000 0.3116999865 2.5871000290 5.6574001312 135.41470337  -999.250000  -999.250000  -999.250000 4.7673001289  -999.250000 5.0777997971
 4034.9423828 6.0000000000 8.4011001587 8.5000000000 43.360893250 0.0282000005  -999.250000 0.3125000000 2.6078000069 5.7680001259 129.64129639  -999.250000  -999.250000  -999.250000 4.1837000847  -999.250000 4.4317002296
 4035.0947266 6.0000000000 8.3992004395 8.5000000000 49.876968384 0.0241000000  -999.250000 0.3072000146 2.6138000488 5.7927999496 124.78359985  -999.250000  -999.250000  -999.250000 4.2676000595  -999.250000 4.4930000305
 4035.2473145 6.0000000000 8.3983001709 8.5000000000 50.533794403 0.0177999996  -999.250000 0.3073000014 2.6161999702 5.8337001801 129.44230652  -999.250000  -999.250000  -999.250000 4.8091998100  -999.250000 5.0397000313
 4035.3996582 6.0000000000 8.4589996338 8.5000000000 49.324474335 0.0230999999  -999.250000 0.3055999875 2.6233000755 5.9604001045 131.64849854  -999.250000  -999.250000  -999.250000 4.5223999023  -999.250000 4.7083997726
 4035.5520020 6.0000000000 8.4725999832 8.5000000000 47.892715454 0.0267999992  -999.250000 0.3059000075 2.6119999886 5.9552998543 120.64659882  -999.250000  -999.250000  -999.250000 4.3722000122  -999.250000 4.5369000435
 4035.7043457 6.0000000000 8.4425001144 8.5000000000 45.073493958 0.0254999995  -999.250000 0.3000000119 2.5920000076 5.8586997986 128.50639343  -999.250000  -999.250000  -999.250000 4.1676001549  -999.250000 4.3122000694
 4035.8569336 6.0000000000 8.4119997025 8.5000000000 45.583660126 0.0227000006  -999.250000 0.2788999975 2.5850000381 5.6296000481 129.13780212  -999.250000  -999.250000  -999.250000 4.1497998238  -999.250000 4.2793002129
 4036.0092773 6.0000000000 8.4239997864 8.5000000000 49.297573090 0.0192000009  -999.250000  -999.250000 2.5736999512 5.5963001251 128.95100403  -999.250000  -999.250000  -999.250000 4.6926999092  -999.250000 4.4553999901
 4036.1616211 6.0000000000 8.4301996231 8.5000000000 51.056758881 0.0219999999  -999.250000  -999.250000 2.5685999393 5.5507998466 129.46919250  -999.250000  -999.250000  -999.250000 4.8323001862  -999.250000 4.5553998947
 4036.3139648 6.0000000000 8.3494997025 8.5000000000 46.960628510 0.0156999994  -999.250000  -999.250000 2.5657999516 5.2571001053 131.43159485  -999.250000  -999.250000  -999.250000 4.9630999565  -999.250000 4.6445999146
 4036.4665527 6.0000000000 8.4238996506 8.5000000000 45.628280640 0.0130000003  -999.250000  -999.250000 2.5710999966 5.2500000000 131.22000122  -999.250000  -999.250000  -999.250000 5.0942001343  -999.250000 4.7775001526
 4036.6188965 6.0000000000 8.4216995239 8.5000000000 52.583663940 0.0226000007  -999.250000  -999.250000 2.5864999294 5.6717000008 120.75930023  -999.250000  -999.250000  -999.250000 5.2030000687  -999.250000 4.9696998596
 4036.7712402 6.0000000000 8.4384002686 8.5000000000 71.367126465 0.0238000005  -999.250000  -999.250000 2.5978999138 5.7762999535 119.92150116  -999.250000  -999.250000  -999.250000 5.0529999733  -999.250000 4.8691000938
 4036.9235840 7.0000000000 8.4285001755 8.5000000000 114.52592468 0.0252999999  -999.250000  -999.250000 2.5954000950 5.9619998932 130.33549500  -999.250000  -999.250000  -999.250000 4.8618001938  -999.250000 4.6707000732
 4037.0759277 7.0000000000 8.3940000534 8.5000000000 111.55839539 0.0230999999  -999.250000  -999.250000 2.5961000919 5.7884998322 136.25669861  -999.250000  -999.250000  -999.250000 4.7182002068  -999.250000 4.5178999901
 4037.2285156 7.0000000000 8.4656000137 8.5000000000 80.610893250 0.0179999992  -999.250000  -999.250000 2.5977001190 5.5789999962 131.49029541  -999.250000  -999.250000  -999.250000 4.6008000374  -999.250000 4.3368000984
 4037.3808594 7.0000000000 8.4898004532 8.5000000000 63.655841827 0.0280000009  -999.250000  -999.250000 2.6214001179 5.9883999825 130.34649658  -999.250000  -999.250000  -999.250000 4.5514998436  -999.250000 4.2512001991
 4037.5332031 6.0000000000 8.4864997864 8.5000000000 55.196521759 0.0227000006  -999.250000  -999.250000 2.6171998978 5.9313001633 129.00199890  -999.250000  -999.250000  -999.250000 4.6536002159  -999.250000 4.3355998993
 4037.6855469 6.0000000000 8.5221004486 8.5000000000 48.492782593 0.0157999992  -999.250000  -999.250000 2.5808999538 5.4141001701 123.94709778  -999.250000  -999.250000  -999.250000 4.6715998650  -999.250000 4.3291001320
 4037.8381348 6.0000000000 8.5089998245 8.5000000000 44.638122559 0.0281000007  -999.250000  -999.250000 2.5789000988 5.5366997719 124.48950195  -999.250000  -999.250000  -999.250000 4.6679000854  -999.250000 4.3095998764
 4037.9904785 6.0000000000 8.4121999741 8.5000000000 45.392715454 0.0313000008  -999.250000  -999.250000 2.5855998993 5.8260998726 124.51509857  -999.250000  -999.250000  -999.250000 4.8722000122  -999.250000 4.5346999168
 4038.1428223 6.0000000000 8.4427995682 8.5000000000 49.329723358 0.0217000004  -999.250000  -999.250000 2.5669999123 5.5638999939 119.09729767  -999.250000  -999.250000  -999.250000 5.0097999573  -999.250000 4.7420001030
 4038.2951660 6.0000000000 8.4525995255 8.5000000000 48.760169983 0.0231999997  -999.250000  -999.250000 2.5687999725 5.3586997986 119.36550140  -999.250000  -999.250000  -999.250000 5.0321998596  -999.250000 4.8095002174
 4038.4477539 6.0000000000 8.4356002808 8.5000000000 46.450790405 0.0269000009  -999.250000  -999.250000 2.5750000477 5.2579998970 124.90899658  -999.250000  -999.250000  -999.250000 5.0676999092  -999.250000 4.8540000916
 4038.6000977 6.0000000000 8.4202003479 8.5000000000 45.870735168 0.0254999995  -999.250000  -999.250000 2.5799002647 5.1901998520 128.14160156  -999.250000  -999.250000  -999.250000 5.0780000687  -999.250000 4.8576998711
 4038.7524414 6.0000000000 8.4200000763 8.5000000000 47.465549469 0.0263999999  -999.250000  -999.250000 2.5912001133 5.4569997787 135.08940125  -999.250000  -999.250000  -999.250000 5.0384001732  -999.250000 4.7953000069
 4038.9047852 6.0000000000 8.4195995331 8.5000000000 46.047901154 0.0412000008  -999.250000  -999.250000 2.6189999580 6.0961999893 120.90219879  -999.250000  -999.250000  -999.250000 5.0745000839  -999.250000 4.8182001114
 4039.0571289 7.0000000000 8.4652004242 8.5000000000 44.085628510 0.0259000007  -999.250000  -999.250000 2.6033000946 5.7087001801 115.30829620  -999.250000  -999.250000  -999.250000 5.1487002373  -999.250000 4.8738999367
 4039.2097168 7.0000000000 8.4414997101 8.5000000000 41.589569092 0.0285000000  -999.250000  -999.250000 2.6092000008 5.6254000664 129.56970215  -999.250000  -999.250000  -999.250000 5.2100000381  -999.250000 4.9249000549
 4039.3620605 7.0000000000 8.4743995667 8.5000000000 40.672573090 0.0215000007  -999.250000  -999.250000 2.5919001102 5.4952998161 131.75759888  -999.250000  -999.250000  -999.250000 5.2024002075  -999.250000 4.8716001511
 4039.5144043 7.0000000000 8.4596004486 8.5000000000 41.649932861 0.0293000005  -999.250000  -999.250000 2.5838000774 5.4628000259 128.19050598  -999.250000  -999.250000  -999.250000 5.2610001564  -999.250000 4.9334998131
 4039.6667480 7.0000000000 8.4329996109 8.5000000000 41.879920959 0.0285999998  -999.250000  -999.250000 2.5894999504 5.4542999268 133.69259644  -999.250000  -999.250000  -999.250000 5.3399000168  -999.250000 5.0528998375
 4039.8193359 7.0000000000 8.4787998199 8.5000000000 40.392715454 0.0172000006  -999.250000  -999.250000 2.5806999207 5.5293998718 132.65640259  -999.250000  -999.250000  -999.250000 5.2796001434  -999.250000 5.0019998550
 4039.9716797 7.0000000000 8.5016002655 8.5000000000 41.294620514 0.0147000002  -999.250000  -999.250000 2.5750000477 5.4969000816 122.23809814  -999.250000  -999.250000  -999.250000 5.1954002380  -999.250000 4.9373002052
