# LAS format log file from PETREL
# Project units are specified as depth units
#==================================================================
~Version information
VERS.   2.0:
WRAP.   NO:
#==================================================================
~Well
STRT .m      3245.2055664 :
STOP .m      4039.9716797 :
STEP .m     0.00000000 :
NULL .        -999.250000 :
COMP.           : COMPANY
WELL.  35/3-7 S   : WELL
FLD.            : FIELD
LOC.            : LOCATION
SRVC.           : SERVICE COMPANY
DATE.  2018-09-11 14:48:58   : Log Export Date {yyyy-MM-dd HH:mm:ss}
PROV.           : PROVINCE
UWI.   35/3-7 S   : UNIQUE WELL ID
API.            : API NUMBER
#==================================================================
~Curve
DEPT .m                   : DEPTH
Lithology_geolink ._      : Lithology_geolink
CALI .in                  : CALI
BS .in                    : BS
ROP .m/h                  : ROP
DRHO .g/cm3               : DRHO
THOR .ppm                 : THOR
NPHI .m3/m3               : NPHI
RHOB .g/cm3               : RHOB
PEF .b/e                  : PEF
GR .gAPI                  : GR
URAN .ppm                 : URAN
DTC .us/ft                : DTC
DTS .us/ft                : DTS
RDEP .ohm.m               : RDEP
RMIC .ohm.m               : RMIC
RMED .ohm.m               : RMED
~Parameter
#==================================================================
~Ascii
# ...
 3560.9782715 6.0000000000 8.5591001511 8.5000000000 35.161746979 -0.013400000 8.8035001755 0.2167288065 2.5927000046 4.2382998466 107.92279816 1.7039999962 76.940399170 167.65530396 3.8478999138 4.3185000420 4.3046998978
 3561.1308594 6.0000000000 8.5591001511 8.5000000000 31.534120560 -0.014300000 8.2298002243 0.1895435899 2.5940001011 4.3288002014 107.21499634 1.5470999479 75.654998779 160.20370483 4.1715002060 4.3306999207 4.6473999023
 3561.2832031 6.0000000000 8.5495996475 8.5000000000 32.390419006 -0.014600000 8.1862001419 0.1822116971 2.6013998985 4.4250998497 98.215599060 1.3221000433 75.436500549 158.39790344 9.5134000778 5.3990001678 10.396200180
 3561.4355469 6.0000000000 8.5354995728 8.5000000000 39.660434723 -0.013000000 7.7585000992 0.1824995279 2.6108999252 4.4685001373 95.049400330 1.1563999653 75.701400757 160.49600220 4.5597000122 5.6571002007 5.0057997704
 3561.5878906 6.0000000000 8.5543003082 8.5000000000 41.332347870 -0.013500000 7.8565998077 0.2065228820 2.6064000130 4.5188999176 89.791297913 1.1641999483 75.910797119 162.80119324 3.8585999012 5.3575000763 4.2393999100
 3561.7404785 6.0000000000 8.5473003387 8.5000000000 39.588909149 -0.012900000 8.1752996445 0.1969155371 2.6052000523 4.5618000031 94.847099304 1.2733999491 76.084197998 166.66419983 3.6285998821 4.2125000954 3.9978001118
 3561.8928223 6.0000000000 8.5511999130 8.5000000000 37.894359589 -0.013900000 8.0904998779 0.1937051266 2.6033000946 4.6521000862 96.566101074 1.2817000151 76.440498352 169.48779297 3.6837999821 4.3289999962 4.0693001747
 3562.0451660 6.0000000000 8.5495996475 8.5000000000 41.920276642 -0.013100000 8.0055999756 0.1850139499 2.6099998951 4.6932001114 102.93650055 1.2899999619 76.496009827 170.16979980 4.2920999527 4.6318001747 4.7618999481
 3562.1975098 6.0000000000 8.5684995651 8.5000000000 43.072505951 -0.011300000 7.9411001205 0.1915788800 2.6119999886 4.6641998291 99.751197815 1.2482999563 76.399200439 169.70680237 4.2754998207 4.5588998795 4.7613000870
 3562.3500977 6.0000000000 8.5684995651 8.5000000000 39.291339874 -0.006900000 8.1588001251 0.1948947161 2.6201999187 4.5363001823 102.98690033 1.3144999743 75.638397217 165.90020752 3.7483000755 4.4970998764 4.2012000084
 3562.5024414 6.0000000000 8.5787000656 8.5000000000 37.920276642 -0.006400000 8.7076997757 0.1996923089 2.6159000397 4.4531002045 102.31240082 1.3510999680 78.107101440 162.07499695 3.7832000256 4.2332000732 4.2870001793
 3562.6547852 6.0000000000 8.5684995651 8.5000000000 37.766403198 -0.008500000 9.2548999786 0.2042926252 2.6052000523 4.4328999519 103.17209625 1.2711000443 79.501701355 157.66079712 3.8580999374 4.5033998489 4.3906998634
 3562.8071289 6.0000000000 8.5684995651 8.5000000000 39.548229218 -0.010700000 9.5427999496 0.2082935870 2.5973000526 4.4383001328 100.51219940 1.2409000397 79.741889954 153.18190002 4.2295999527 4.6160998344 4.7795000076
 3562.9594727 6.0000000000 8.5684995651 8.5000000000 40.746719360 -0.009300000 9.1250000000 0.1975345612 2.6031000614 4.4292998314 97.577102661 1.3640999794 78.682106018 155.05120850 4.2775001526 4.9230999947 4.8161997795
 3563.1120605 6.0000000000 8.5543003082 8.5000000000 44.161090851 -0.006400000 8.4486999512 0.1949041784 2.6129999161 4.4444999695 101.19709778 1.3969000578 77.987899780 161.01739502 4.6030001640 5.3604001999 5.1634998322
 3563.2644043 6.0000000000 8.5826997757 8.5000000000 42.789371490 -0.004800000 8.4476003647 0.1967969537 2.6143000126 4.4836001396 105.98040009 1.4572999477 77.956901550 164.62399292 3.5829999447 4.9704999924 4.0345001221
 3563.4167480 6.0000000000 8.5684995651 8.5000000000 37.949146271 -0.005800000 8.4239997864 0.2028902322 2.6054000854 4.5113000870 107.61920166 1.4168000221 77.922996521 165.93440247 3.8735001087 5.7937002182 4.3502001762
 3563.5690918 6.0000000000 8.5747995377 8.5000000000 36.955707550 -0.008200000 8.2391996384 0.1944271922 2.5952999592 4.4815998077 107.24310303 1.4363000393 78.301101685 165.73269653 4.9047999382 4.9734997749 5.4903998375
 3563.7216797 6.0000000000 8.5944995880 8.5000000000 39.074474335 -0.010900000 8.3416004181 0.1885094643 2.5883998871 4.4588999748 107.68199921 1.5180000067 78.379707336 165.60119629 4.8825998306 5.5191998482 5.4714999199
 3563.8740234 6.0000000000 8.5778999329 8.5000000000 38.716537476 -0.011900000 8.4302997589 0.1968865395 2.5910000801 4.4745001793 105.17579651 1.6686999798 77.814598083 166.30799866 4.5401000977 4.6055998802 5.1058001518
 3564.0263672 6.0000000000 8.5629997253 8.5000000000 36.339893341 -0.010900000 8.4968996048 0.2137729079 2.5998001099 4.5247001648 101.07230377 1.4345999956 77.630599976 166.31230164 4.0773000717 4.8172001839 4.6026000977
 3564.1787109 6.0000000000 8.5944995880 8.5000000000 33.402889252 -0.009600000 8.1963996887 0.2132019252 2.6098001003 4.5416002274 96.651496887 1.5613000393 78.784706116 166.26609802 4.0008997917 4.9032998085 4.5079002380
 3564.3312988 6.0000000000 8.5921001434 8.5000000000 26.761484146 -0.008600000 9.0866003036 0.2060115337 2.6215999126 4.4853000641 98.499397278 1.2506999969 77.557403564 160.10000610 4.6293997765 5.2041001320 5.1775999069
 3564.4836426 6.0000000000 8.6110000610 8.5000000000 27.732282639 -0.007400000 8.7822999954 0.1656647474 2.6240000725 4.4650998116 97.099296570 1.2053999901 75.502799988 149.96319580 4.7729997635 6.3866000175 5.3187999725
 3564.6359863 6.0000000000 8.5826997757 8.5000000000 33.657806396 -0.001300000 8.4780998230 0.1510233879 2.6250998974 4.4794998169 94.508598328 1.1600999832 74.964797974 139.92660522 8.9148998260 9.0113000870 9.7693004608
 3564.7883301 6.0000000000 8.5874004364 8.5000000000 38.693897247 0.0023000001 8.3226003647 0.1758600920 2.6187996864 4.5197000504 93.629203796 0.9564999938 74.538299561 133.47039795 13.114100456 6.9071002007 14.175800323
 3564.9406738 6.0000000000 8.6156997681 8.5000000000 39.534122467 -0.000500000 7.7170996666 0.2209553570 2.6150999069 4.4752001762 99.124702454 0.8925999999 73.643699646 131.52160645 6.0349998474 5.3319997787 6.4801998138
 3565.0932617 6.0000000000 8.6141004562 8.5000000000 32.923885345 -0.007000000 7.0204000473 0.2115153819 2.6177000999 4.3748998642 98.315803528 0.7773000002 74.158500671 129.55180359 3.9186000824 5.9600000381 4.1423997879
 3565.2456055 6.0000000000 8.6204004288 8.5000000000 29.361549377 -0.010300000 6.4798002243 0.1432096064 2.6289000511 4.2843999863 88.274597168 0.8680999875 72.424896240 121.64309692 16.901300430 13.963999748 17.920600891
 3565.3979492 6.0000000000 8.6156997681 8.5000000000 28.296586990 -0.008600000 5.9875001907 0.0758080110 2.6449000835 4.2522001266 78.294097900 0.9894999862 70.437301636 120.41009521 27.504699707 31.312599182 28.954099655
 3565.5502930 16.000000000 8.6156997681 8.5000000000 27.790025711 -0.007300000 6.6209998131 0.0516771227 2.6575999260 4.2611999512 72.792098999 0.6904000044 70.868400574 121.46250153 26.420600891 33.065799713 27.777399063
 3565.7028809 16.000000000 8.6204004288 8.5000000000 32.293632507 -0.007400000 6.1645002365 0.0453100950 2.6587998867 4.2986001968 74.954696655 0.6169999838 72.805603027 126.24590302 28.838899612 39.434600830 30.531700134
 3565.8552246 16.000000000 8.6101999283 8.5000000000 44.122047424 -0.008000000 6.3013000488 0.0555999987 2.6501998901 4.3502998352 78.666000366 0.6784999967 73.642097473 132.58129883 36.322498322 49.978599548 38.670299530
 3566.0075684 16.000000000 8.6141004562 8.5000000000 66.951118469 -0.010100000 6.8145999908 0.0957999974 2.6349000931 4.4552998543 88.010299683 0.5117999911 74.202499390 148.71310425 7.2978000641 33.119598389 7.9706001282
 3566.1599121 6.0000000000 8.6063003540 8.5000000000 79.441925049 -0.010400000 7.3831000328 0.1595000029 2.6349000931 4.6075000763 98.487297058 0.7408999801 74.706901550 154.12840271 4.7044000626 9.9370002747 5.1321997643
 3566.3125000 6.0000000000 8.6156997681 8.5000000000 74.990158081 -0.007700000 9.1675996780 0.2018000036 2.6538000107 4.7369999886 103.67620087 0.5777000189 76.682098389 161.49209595 4.2147002220 6.1438999176 4.6181001663
 3566.4648438 6.0000000000 8.6181001663 8.5000000000 76.373359680 -0.006000000 10.105400085 0.2143000066 2.6617999077 4.8095998764 99.328201294 0.7472000122 79.185096741 161.32020569 4.5918998718 4.8319997787 5.0920000076
