# LAS format log file from PETREL
# Project units are specified as depth units
#==================================================================
~Version information
VERS.   2.0:
WRAP.   NO:
#==================================================================
~Well
STRT .m      511.89910889 :
STOP .m      4480.0908203 :
STEP .m     0.00000000 :
NULL .        -999.250000 :
COMP.           : COMPANY
WELL.  35/3-1   : WELL
FLD.            : FIELD
LOC.            : LOCATION
SRVC.           : SERVICE COMPANY
DATE.  2018-09-11 14:48:57   : Log Export Date {yyyy-MM-dd HH:mm:ss}
PROV.           : PROVINCE
UWI.   35/3-1   : UNIQUE WELL ID
API.            : API NUMBER
#==================================================================
~Curve
DEPT .m                   : DEPTH
Lithology_geolink ._      : Lithology_geolink
CALI .in                  : CALI
DRHO .g/cm3               : DRHO
NPHI .m3/m3               : NPHI
RHOB .g/cm3               : RHOB
GR .gAPI                  : GR
DTC .us/ft                : DTC
RDEP .ohm.m               : RDEP
SP .mV                    : SP
RSHA .ohm.m               : RSHA
RMED .ohm.m               : RMED
~Parameter
#==================================================================
~Ascii
# ...
 1568.9456787 5.0000000000 17.757999420 0.0139839752  -999.250000 2.0700094700 41.310161591 149.54298401 0.9840000272 46.301837921 0.9160096049 0.9160000086
 1569.0980225 5.0000000000 17.733999252 0.0100080064  -999.250000 2.0820016861 37.635498047 140.51300049 0.9660000205 47.000511169 0.9190072417 0.9190000296
 1569.2504883 5.0000000000 17.712999344 0.0119919870  -999.250000 2.0840017796 35.451957703 132.57000732 0.9620000124 45.384941101 0.9219936132 0.9219999909
 1569.4028320 5.0000000000 17.693000793 0.0099879904  -999.250000 2.0859928131 34.604698181 129.80299377 0.9660000205 45.120964050 0.9200000167 0.9200000167
 1569.5552979 1.0000000000 17.677000046 0.0070000002  -999.250000 2.0769903660 34.415847778 128.94799805 0.9829999804 45.111495972 0.9200224280 0.9200000167
 1569.7076416 1.0000000000 17.663000107 0.0069959969  -999.250000 2.0710058212 34.353004456 128.39999390 1.0080000162 44.983905792 0.9270120263 0.9269999862
 1569.8601074 1.0000000000 17.650999069 0.0060200323  -999.250000 2.0780081749 34.356761932 127.86900330 1.0240000486 44.463546753 0.9320064187 0.9319999814
 1570.0124512 1.0000000000 17.639999390 0.0110200159  -999.250000 2.0830087662 34.675094604 127.33899689 1.0230000019 44.602687836 0.9339967966 0.9340000153
 1570.1649170 1.0000000000 17.632999420 0.0159919877  -999.250000 2.0940048695 35.359508514 126.83499908 1.0160000324 45.516986847 0.9329904318 0.9330000281
 1570.3172607 1.0000000000 17.642000198 0.0140120098  -999.250000 2.0970015526 35.985038757 126.38300323 1.0010000467 44.765644073 0.9299839735 0.9300000072
 1570.4696045 1.0000000000 17.695999146 0.0170256421  -999.250000 2.0990056992 36.007057190 126.02600098 0.9890000224 44.178951263 0.9249927998 0.9250000119
 1570.6220703 1.0000000000 17.794000626 0.0249879900  -999.250000 2.1059968472 35.418083191 126.26000214 0.9779999852 44.164745331 0.9219775796 0.9219999909
 1570.7744141 1.0000000000 17.886999130 0.0219615381  -999.250000 2.1019847393 34.848213196 127.51200104 0.9689999819 44.351100922 0.9149855971 0.9150000215
 1570.9268799 1.0000000000 17.891000748 0.0099759614  -999.250000 2.0829870701 34.984096527 128.68499756 0.9570000172 44.694877625 0.9089839458 0.9089999795
 1571.0792236 1.0000000000 17.799999237 0.0040080068  -999.250000 2.0669982433 35.856422424 128.93200684 0.9390000105 44.913543701 0.9039855599 0.9039999843
 1571.2316895 1.0000000000 17.728000641 0.0060360576  -999.250000 2.0650007725 36.743553162 128.99099731 0.9340000153 45.049686432 0.8979871869 0.8980000019
 1571.3840332 1.0000000000 17.724000931 0.0150240185  -999.250000 2.0660064220 36.972373962 129.84800720 0.9359999895 45.221282959 0.8940023780 0.8939999938
 1571.5364990 1.0000000000 17.756999969 0.0210160259  -999.250000 2.0740022659 36.581619263 128.87800598 0.9399999976 45.540740967 0.8950160146 0.8949999809
 1571.6888428 1.0000000000 17.774000168 0.0249959975  -999.250000 2.0770046711 36.007190704 128.35699463 0.9470000267 45.725013733 0.9000216126 0.8999999762
 1571.8413086 1.0000000000 17.739999771 0.0239679497  -999.250000 2.0830094814 35.502017975 127.96600342 0.9639999866 45.728580475 0.9090448618 0.9089999795
 1571.9936523 1.0000000000 17.701000214 0.0159679744  -999.250000 2.0890007019 35.094718933 127.21899414 0.9810000062 45.622486115 0.9230415821 0.9229999781
 1572.1461182 1.0000000000 17.693000793 0.0079719555  -999.250000 2.0900080204 34.919826508 125.85800934 0.9990000129 45.244747162 0.9360128045 0.9359999895
 1572.2984619 1.0000000000 17.700000763 0.0009919937  -999.250000 2.0950024128 35.265666962 125.28800201 1.0160000324 44.932983398 0.9400160313 0.9399999976
 1572.4509277 1.0000000000 17.702999115 -0.000971955  -999.250000 2.0980081558 36.307685852 123.39800262 1.0290000439 44.680751801 0.9450160265 0.9449999928
 1572.6032715 1.0000000000 17.695999146 0.0060240193  -999.250000 2.1029982567 37.840690613 122.38700104 1.0349999666 44.618949890 0.9499936104 0.9499999881
 1572.7556152 1.0000000000 17.670999527 0.0120064104  -999.250000 2.1009888649 39.519737244 122.65399933 1.0329999924 44.607368469 0.9479904175 0.9480000138
 1572.9080811 1.0000000000 17.606000900 0.0140600968  -999.250000 2.0869991779 41.228610992 126.55699921 1.0269999504 44.723281860 0.9439808130 0.9440000057
 1573.0604248 2.0000000000 17.524000168 0.0290840659  -999.250000 2.0860111713 42.729957581 134.08200073 1.0119999647 44.793510437 0.9379783869 0.9380000234
 1573.2128906 2.0000000000 17.513999939 0.0499799699  -999.250000 2.1000103951 43.323467255 139.14599609 0.9929999709 44.921661377 0.9289711714 0.9290000200
 1573.3652344 2.0000000000 17.604999542 0.0449399538  -999.250000 2.1129968166 42.267726898 139.90100098 0.9739999771 45.085651398 0.9199976325 0.9200000167
 1573.5177002 2.0000000000 17.709999084 0.0299559291  -999.250000 2.1089942455 39.598262787 139.41099548 0.9610000253 45.000617981 0.9190096259 0.9190000296
 1573.6700439 2.0000000000 17.753999710 0.0189759806  -999.250000 2.1019959450 36.381107330 132.80499268 0.9559999704 45.407394409 0.9220095873 0.9219999909
 1573.8225098 2.0000000000 17.736999512 0.0130080134  -999.250000 2.0969934464 33.955673218 127.06700134 0.9660000205 46.495418549 0.9259999990 0.9259999990
 1573.9748535 2.0000000000 17.694000244 0.0149959968  -999.250000 2.0929942131 32.989429474 125.39900208 0.9750000238 45.105606079 0.9260032177 0.9259999990
 1574.1273193 2.0000000000 17.656000137 0.0139919873  -999.250000 2.0859968662 33.261226654 125.09300232 0.9789999723 44.508419037 0.9269999862 0.9269999862
 1574.2796631 1.0000000000 17.643999100 0.0119919935  -999.250000 2.0840065479 34.187602997 125.06999969 0.9810000062 44.114418030 0.9269967675 0.9269999862
 1574.4321289 1.0000000000 17.655000687 0.0099919867  -999.250000 2.0919969082 35.187587738 125.08100128 0.9900000095 43.719688416 0.9259935617 0.9259999990
 1574.5844727 1.0000000000 17.666000366 0.0080120098  -999.250000 2.0899918079 35.847496033 125.62899780 0.9950000048 43.394290924 0.9239872098 0.9240000248
 1574.7368164 1.0000000000 17.669000626 0.0110737178  -999.250000 2.0800111294 36.156440735 125.84200287 0.9990000129 43.720901489 0.9200096130 0.9200000167
 1574.8892822 1.0000000000 17.680000305 0.0340120196  -999.250000 2.0940153599 36.434364319 125.58200073 1.0039999485 45.560928345 0.9240256548 0.9240000248
 1575.0416260 1.0000000000 17.704000473 0.0369639732  -999.250000 2.1129958630 37.003246307 125.33200073 1.0199999809 46.786956787 0.9320264459 0.9319999814
 1575.1940918 1.0000000000 17.728000641 0.0280080140  -999.250000 2.1079952717 37.781364441 125.62100220 1.0310000181 47.023719788 0.9430063963 0.9430000186
 1575.3464355 1.0000000000 17.726999283 0.0299719777  -999.250000 2.1019976139 38.349201202 126.83399963 1.0379999876 46.703704834 0.9450048208 0.9449999928
 1575.4989014 1.0000000000 17.697999954 0.0229759607  -999.250000 2.0989904404 38.474430084 127.40699768 1.0410000086 46.382545471 0.9470128417 0.9470000267
 1575.6512451 1.0000000000 17.666000366 0.0170600489  -999.250000 2.0870070457 38.238227844 127.18900299 1.0520000458 46.768188477 0.9510048032 0.9509999752
 1575.8037109 1.0000000000 17.645000458 0.0320560895  -999.250000 2.0960240364 37.755245209 126.52600098 1.0570000410 47.065093994 0.9530000091 0.9530000091
 1575.9560547 1.0000000000 17.634000778 0.0459839888  -999.250000 2.1110105515 37.024730682 125.39900208 1.0679999590 47.337280273 0.9530000091 0.9530000091
 1576.1085205 1.0000000000 17.628000259 0.0420040041  -999.250000 2.1240031719 36.231826782 125.06500244 1.0829999447 47.405479431 0.9530000091 0.9530000091
 1576.2608643 1.0000000000 17.627000809 0.0429919958  -999.250000 2.1259999275 35.744022369 125.03900146 1.0870000124 47.024738312 0.9530000091 0.9530000091
 1576.4133301 1.0000000000 17.627000809 0.0409439132  -999.250000 2.1259856224 35.758594513 125.03700256 1.0870000124 46.460456848 0.9529967904 0.9530000091
 1576.5656738 1.0000000000 17.627000809 0.0269399527  -999.250000 2.1169872284 36.005008698 125.03600311 1.0839999914 46.078193665 0.9520000219 0.9520000219
