# LAS format log file from PETREL
# Project units are specified as depth units
#==================================================================
~Version information
VERS.   2.0:
WRAP.   NO:
#==================================================================
~Well
STRT .m      511.89910889 :
STOP .m      4480.0908203 :
STEP .m     0.00000000 :
NULL .        -999.250000 :
COMP.           : COMPANY
WELL.  35/3-1   : WELL
FLD.            : FIELD
LOC.            : LOCATION
SRVC.           : SERVICE COMPANY
DATE.  2018-09-11 14:48:57   : Log Export Date {yyyy-MM-dd HH:mm:ss}
PROV.           : PROVINCE
UWI.   35/3-1   : UNIQUE WELL ID
API.            : API NUMBER
#==================================================================
~Curve
DEPT .m                   : DEPTH
Lithology_geolink ._      : Lithology_geolink
CALI .in                  : CALI
DRHO .g/cm3               : DRHO
NPHI .m3/m3               : NPHI
RHOB .g/cm3               : RHOB
GR .gAPI                  : GR
DTC .us/ft                : DTC
RDEP .ohm.m               : RDEP
SP .mV                    : SP
RSHA .ohm.m               : RSHA
RMED .ohm.m               : RMED
~Parameter
#==================================================================
~Ascii
# ...
 2882.4814453 7.0000000000 18.988000870 0.0530480780  -999.250000 2.0971007347 59.260517120 90.834152222 2.2149999142  -999.250000  -999.250000 2.5759999752
 2882.6337891 7.0000000000 18.766000748 0.0680224374  -999.250000 2.1600432396 59.583705902 91.556457520 2.1979999542  -999.250000  -999.250000 2.5150001049
 2882.7863770 7.0000000000 18.462999344 0.0749712065  -999.250000 2.1869423389 59.398880005 93.093208313 2.1150000095  -999.250000  -999.250000 2.4679999352
 2882.9387207 7.0000000000 18.111000061 0.0690096170  -999.250000 2.1689679623 59.048984528 94.408004761 2.1219999790  -999.250000  -999.250000 2.3949999809
 2883.0910645 7.0000000000 18.135000229 0.0720192268  -999.250000 2.1490030289 59.039901733 95.659934998 2.1159999371  -999.250000  -999.250000 2.3399999142
 2883.2434082 7.0000000000 18.643999100 0.0779967979  -999.250000 2.1509582996 59.601573944 96.243026733 2.0820000172  -999.250000  -999.250000 2.4249999523
 2883.3959961 7.0000000000 18.892000198 0.0770144239  -999.250000 2.1249487400 60.586303711 96.250389099 2.1440000534  -999.250000  -999.250000 2.4639999866
 2883.5483398 7.0000000000 19.034000397 0.0799615979  -999.250000 2.1089711189 61.616325378 94.811279297 2.2520000935  -999.250000  -999.250000 2.4660000801
 2883.7006836 7.0000000000 19.274999619 0.0719999969  -999.250000 2.0909936428 62.442981720 93.115165710 2.3580000401  -999.250000  -999.250000 2.5780000687
 2883.8530273 7.0000000000 19.361999512 0.0720128193  -999.250000 2.0870399475 63.054782867 92.595863342 2.4719998837  -999.250000  -999.250000 2.7100000381
 2884.0056152 7.0000000000 19.268999100 0.0759615377  -999.250000 2.1120736599 63.541728973 91.260124207 2.5610001087  -999.250000  -999.250000 2.8420000076
 2884.1579590 7.0000000000 18.822000504 0.0680096000  -999.250000 2.1350383759 63.768299103 90.051795959 2.6010000706  -999.250000  -999.250000 2.9670000076
 2884.3103027 7.0000000000 18.284000397 0.0700480789  -999.250000 2.1590993404 63.328987122 88.683258057 2.6270000935  -999.250000  -999.250000 3.0720000267
 2884.4626465 7.0000000000 17.965999603 0.0850448757  -999.250000 2.2210624218 62.072395325 87.597480774 2.6689999104  -999.250000  -999.250000 3.1510000229
 2884.6149902 7.0000000000 17.770000458 0.0990705118  -999.250000 2.2599952221 60.447994232 87.271713257 2.7249999046  -999.250000  -999.250000 3.1830000877
 2884.7675781 7.0000000000 17.910999298 0.1210144013  -999.250000 2.2569568157 59.195377350 87.091552734 2.7599999905  -999.250000  -999.250000 3.1140000820
 2884.9199219 7.0000000000 18.457000732 0.1238846108  -999.250000 2.2298815250 58.807884216 87.437606812 2.7390000820  -999.250000  -999.250000 2.9690001011
 2885.0722656 7.0000000000 18.888000488 0.0879006386  -999.250000 2.1558957100 59.360786438 89.066162109 2.6559998989  -999.250000  -999.250000 2.8259999752
 2885.2246094 7.0000000000 19.063999176 0.0569775626  -999.250000 2.0909729004 60.473754883 89.788414001 2.5650000572  -999.250000  -999.250000 2.7639999390
 2885.3771973 7.0000000000 19.120000839 0.0500336550  -999.250000 2.0741343498 61.570648193 89.420486450 2.5120000839  -999.250000  -999.250000 2.8380000591
 2885.5295410 7.0000000000 19.186000824 0.0570143983  -999.250000 2.1160430908 62.396133423 88.952056885 2.4990000725  -999.250000  -999.250000 2.9119999409
 2885.6818848 7.0000000000 19.249000549 0.0600032024  -999.250000 2.1429886818 63.102115631 88.985206604 2.4920001030  -999.250000  -999.250000 2.8699998856
 2885.8342285 7.0000000000 18.906000137 0.0609903857  -999.250000 2.1359775066 63.796745300 89.735855103 2.4969999790  -999.250000  -999.250000 2.8329999447
 2885.9868164 7.0000000000 18.417999268 0.0579615384  -999.250000 2.1219263077 64.259681702 90.893684387 2.5149936676  -999.250000  -999.250000 2.8180000782
 2886.1391602 7.0000000000 18.305000305 0.0499136001  -999.250000 2.0989198685 64.159950256 91.730354309 2.5129327774  -999.250000  -999.250000 2.8059999943
 2886.2915039 7.0000000000 18.259000778 0.0319615416  -999.250000 2.0489165783 63.501789093 91.949104309 2.4708604813  -999.250000  -999.250000 2.7599999905
 2886.4438477 7.0000000000 17.795000076 0.0200320501  -999.250000 1.9970144033 62.747371674 91.391639709 2.3838238716  -999.250000  -999.250000 2.6510000229
 2886.5964355 7.0000000000 17.353000641 0.0300480761  -999.250000 2.0061120987 62.355812073 91.797897339 2.2736895084  -999.250000  -999.250000 2.5117728710
 2886.7487793 7.0000000000 17.777000427 0.0399856009  -999.250000 2.0410239697 62.297973633 93.324005127 2.1769311428  -999.250000  -999.250000 2.4409310818
 2886.9011230 7.0000000000 18.566999435 0.0369903855  -999.250000 2.0560128689 62.280838013 93.950332642 2.1340625286  -999.250000  -999.250000 2.3978509903
 2887.0534668 7.0000000000 18.954999924 0.0339839756  -999.250000 2.0639855862 62.180862427 94.165664673 2.1731314659  -999.250000  -999.250000 2.3049151897
 2887.2058105 7.0000000000 19.188999176 0.0290064085  -999.250000 2.0549824238 62.095321655 96.448387146 2.2551059723  -999.250000  -999.250000 2.2522563934
 2887.3583984 7.0000000000 19.268999100 0.0310192294  -999.250000 2.0439999104 62.297466278 97.305145264 2.3211312294  -999.250000  -999.250000 2.4131071568
 2887.5107422 7.0000000000 19.013999939 0.0350815989  -999.250000 2.0440335274 63.067905426 93.920585632 2.3620336056  -999.250000  -999.250000 2.7585256100
 2887.6630859 7.0000000000 19.106000900 0.0520608984  -999.250000 2.0650672913 64.254425049 91.784240723 2.3830559254  -999.250000  -999.250000 3.0862436295
 2887.8154297 6.0000000000 19.576000214 0.0710544884  -999.250000 2.1071186066 65.141029358 88.814018250 2.4181106091  -999.250000  -999.250000 3.2379422188
 2887.9680176 6.0000000000 19.412000656 0.0880288482  -999.250000 2.1811664104 65.156600952 86.957061768 2.4873039722  -999.250000  -999.250000 3.2016510963
 2888.1203613 6.0000000000 18.549999237 0.0939999968  -999.250000 2.2330031395 64.408477783 87.289207458 2.5821073055  -999.250000  -999.250000 3.0928957462
 2888.2727051 6.0000000000 18.138000488 0.0940064043  -999.250000 2.2349741459 63.458946228 88.041252136 2.6489710808  -999.250000  -999.250000 3.0278239250
 2888.4250488 6.0000000000 18.298999786 0.0959743634  -999.250000 2.2189824581 62.801628113 88.823715210 2.6309022903  -999.250000  -999.250000 2.9177308083
 2888.5776367 6.0000000000 18.756999969 0.0879903808  -999.250000 2.2079999447 62.570400238 89.897766113 2.5698366165  -999.250000  -999.250000 2.7495551109
 2888.7299805 6.0000000000 19.242000580 0.0859520063  -999.250000 2.2079727650 62.695587158 91.074600220 2.5188975334  -999.250000  -999.250000 2.6109023094
 2888.8823242 7.0000000000 19.120000839 0.0759583339  -999.250000 2.1909103394 63.061439514 92.075088501 2.4548814297  -999.250000  -999.250000 2.5500464439
 2889.0346680 7.0000000000 18.694000244 0.0630192310  -999.250000 2.1349246502 63.333473206 92.132255554 2.3808863163  -999.250000  -999.250000 2.5790960789
 2889.1870117 7.0000000000 18.488000870 0.0690160245  -999.250000 2.0880048275 63.004604340 92.287368774 2.3099215031  -999.250000  -999.250000 2.6390640736
 2889.3395996 7.0000000000 18.361000061 0.0740336552  -999.250000 2.0910961628 62.132762909 92.511291504 2.2609360218  -999.250000  -999.250000 2.6789102554
 2889.4919434 7.0000000000 18.288000107 0.0809712037  -999.250000 2.1210272312 61.436939240 91.043792725 2.2409679890  -999.250000  -999.250000 2.6508750916
 2889.6442871 7.0000000000 18.478000641 0.0749519244  -999.250000 2.1379582882 61.400753021 91.539871216 2.2209711075  -999.250000  -999.250000 2.5728332996
 2889.7966309 7.0000000000 18.732999802 0.0599711537  -999.250000 2.1119534969 61.869960785 92.704948425 2.2029712200  -999.250000  -999.250000 2.4689087868
 2889.9492188 7.0000000000 19.179000854 0.0509999990  -999.250000 2.0829806328 62.471473694 93.292915344 2.1848976612  -999.250000  -999.250000 2.4121279716
 2890.1015625 7.0000000000 19.711999893 0.0510335974  -999.250000 2.0769934654 62.930007935 93.578529358 2.1529488564  -999.250000  -999.250000 2.4519774914
