# LAS format log file from PETREL
# Project units are specified as depth units
#==================================================================
~Version information
VERS.   2.0:
WRAP.   NO:
#==================================================================
~Well
STRT .m      3245.2055664 :
STOP .m      4039.9716797 :
STEP .m     0.00000000 :
NULL .        -999.250000 :
COMP.           : COMPANY
WELL.  35/3-7 S   : WELL
FLD.            : FIELD
LOC.            : LOCATION
SRVC.           : SERVICE COMPANY
DATE.  2018-09-11 14:48:58   : Log Export Date {yyyy-MM-dd HH:mm:ss}
PROV.           : PROVINCE
UWI.   35/3-7 S   : UNIQUE WELL ID
API.            : API NUMBER
#==================================================================
~Curve
DEPT .m                   : DEPTH
Lithology_geolink ._      : Lithology_geolink
CALI .in                  : CALI
BS .in                    : BS
ROP .m/h                  : ROP
DRHO .g/cm3               : DRHO
THOR .ppm                 : THOR
NPHI .m3/m3               : NPHI
RHOB .g/cm3               : RHOB
PEF .b/e                  : PEF
GR .gAPI                  : GR
URAN .ppm                 : URAN
DTC .us/ft                : DTC
DTS .us/ft                : DTS
RDEP .ohm.m               : RDEP
RMIC .ohm.m               : RMIC
RMED .ohm.m               : RMED
~Parameter
#==================================================================
~Ascii
# ...
 3611.7277832 6.0000000000 8.8471002579 8.5000000000 49.239501953 -0.001300000 6.6240000725 0.1889999956 2.5413999557 6.1291999817 104.25099945 2.1758000851 75.710998535 134.57699585 4.1111001968 0.5820000172 4.5244998932
 3611.8801270 6.0000000000 8.6337995529 8.5000000000 48.000000000 0.0023000001 7.2501997948 0.2006999999 2.6034998894 5.5794000626 112.23930359 2.5453999043 70.553398132 131.67309570 5.8035998344 0.5928999782 6.3882999420
 3612.0324707 7.0000000000 8.5826997757 8.5000000000 50.285102844 -0.002300000 7.3028001785 0.1825000048 2.6326000690 4.8098001480 112.54260254 2.6440000534 70.643997192 130.89030457 9.9497995377 6.9345998764 10.899800301
 3612.1848145 7.0000000000 8.5874004364 8.5000000000 47.329071045 -0.007200000 6.8912000656 0.1312000006 2.6171998978 4.4765000343 111.81169891 2.3415999413 71.473800659 130.52169800 9.4989995956 11.801400185 10.269599915
 3612.3374023 7.0000000000 8.6022996902 8.5000000000 40.073493958 -0.009400000 6.6571998596 0.1388999969 2.5941998959 4.5450000763 110.19380188 2.0025999546 71.884002686 130.38659668 6.5907001495 9.5396003723 7.0728998184
 3612.4897461 7.0000000000 8.5637998581 8.5000000000 30.821197510 -0.006900000 6.9093999863 0.1693000048 2.5927000046 4.6595997810 114.13739777 1.8808000088 71.560699463 126.06520081 5.6746997833 5.2876000404 6.0506000519
 3612.6420898 7.0000000000 8.5637998581 8.5000000000 29.663055420 -0.005800000 6.6603999138 0.1722999960 2.6029999256 4.6041998863 112.23930359 2.2269001007 71.626899719 122.67420197 6.7908000946 5.7154002190 7.1841998100
 3612.7944336 6.0000000000 8.6015996933 8.5000000000 33.289699554 -0.008100000 7.2820000648 0.1499000043 2.6066999435 4.3833999634 106.57869720 1.9783999920 70.886596680 122.67420197 10.299099922 6.4864997864 10.743700027
 3612.9467773 6.0000000000 8.5967998505 8.5000000000 35.308071136 -0.010200000 7.1125001907 0.1097000018 2.6050999165 4.1083002090 99.247901917 1.2833000422 70.458000183 124.85500336 14.260700226 14.408100128 14.385899544
 3613.0993652 6.0000000000 8.6110000610 8.5000000000 37.326114655 -0.010500000 6.3397002220 0.0970999971 2.5977001190 3.9015998840 94.495399475 1.2026000023 72.142898560 120.54669952 17.792499542 13.024700165 17.404100418
 3613.2517090 6.0000000000 8.6487998962 8.5000000000 43.163387299 -0.010300000 6.3610000610 0.0974000022 2.5868999958 3.8018000126 87.034400940 0.7638999820 73.745697021 122.34339905 14.128600121 10.114000320 13.815899849
 3613.4040527 6.0000000000 8.6628999710 8.5000000000 51.121063232 -0.011000000 6.1679000854 0.1036000028 2.5704998970 3.7888000011 85.886703491 0.5573999882 75.258796692 121.91400146 11.630100250 7.0429000854 11.427700043
 3613.5563965 2.0000000000 8.6628999710 8.5000000000 51.822834015 -0.010800000 5.8804001808 0.1027999967 2.5539999008 3.8622000217 85.987800598 0.5151000023 76.915100098 128.31970215 14.335200310 6.0749001503 14.002900124
 3613.7089844 2.0000000000 8.6141004562 8.5000000000 52.524608612 -0.009500000 5.5132999420 0.1028999984 2.5323998928 4.1368999481 92.161697388 0.6256999969 78.772102356 135.86489868 13.415599823 5.9161000252 12.676500320
 3613.8613281 2.0000000000 8.5629997253 8.5000000000 43.828411102 -0.008200000 6.6437997818 0.1203000024 2.5009999275 4.6048998833 91.337501526 0.0974000022 82.682502747 144.73530579 9.3283996582 4.5092000961 8.8410997391
 3614.0136719 2.0000000000 8.5260000229 8.5000000000 44.047901154 -0.009700001 6.7277998924 0.1494999975 2.4551000595 5.1925001144 90.427497864 0.0309999995 83.676902771 150.69960022 6.8193001747 3.2098000050 6.6080999374
 3614.1660156 2.0000000000 8.3844003677 8.5000000000 45.043964386 -0.012800000 7.7009000778 0.1758999974 2.4080998898 5.6321001053 89.285797119 0.0456000008 85.004493713 149.80780029 5.2297000885 2.4072999954 5.1907000542
 3614.3186035 2.0000000000 8.3276996613 8.5000000000 46.040355682 -0.016400000 8.3152999878 0.1861999929 2.3752000332 5.8488998413 90.840400696 -0.073200002 86.309196472 155.61309814 3.7493999004 1.9860999584 3.8213999271
 3614.4709473 2.0000000000 8.3183002472 8.5000000000 55.939632416 -0.017100001 9.1764001846 0.1853999943 2.3731000423 5.8091998100 90.840400696 -0.364300013 87.859992981 161.08009338 6.8902001381 2.0167999268 6.8977999687
 3614.6232910 2.0000000000 8.3584003448 8.5000000000 71.327095032 -0.015699999 8.4469003677 0.1942999959 2.3796999454 5.6756000519 95.524398804 -0.371899992 90.730300903 162.71449280 5.2021999359 2.2613999844 4.9317998886
 3614.7756348 2.0000000000 8.4456996918 8.5000000000 86.732284546 -0.015900001 7.4917998314 0.2154999971 2.3645000458 5.5668001175 95.587699890 -0.498000026 87.484298706 161.09680176 4.0117998123 1.6675000191 3.8571000099
 3614.9279785 2.0000000000 8.3372001648 8.5000000000 102.13746643 -0.015799999 6.8612999916 0.2462999970 2.3262999058 5.5830001831 97.610000610 -0.495000005 84.359497070 163.97579956 3.3480000496 1.0924999714 3.3001999855
 3615.0805664 2.0000000000 8.3372001648 8.5000000000 150.64468384 -0.013300000 6.3319997787 0.2310000062 2.3317000866 5.6037001610 88.780197144 -0.446099997 85.132202148 157.47189331 3.0571999550 0.8500999808 3.0776998997
 3615.2329102 2.0000000000 8.3427000046 8.5000000000 158.43045044 -0.006700000 6.5604000092 0.1754000038 2.4059998989 5.5079002380 84.533302307 -0.586300015 77.512100220 161.24540710 3.9644999504 1.1790000200 4.0331997871
 3615.3852539 2.0000000000 8.4079999924 8.5000000000 151.37237549 -0.001800000 6.1550998688 0.1084999964 2.5129001141 5.2473998070 77.174797058 -0.560599983 75.388298035 160.15370178 16.761299133 2.3510000706 17.268299103
 3615.5375977 2.0000000000 8.4598999023 8.5000000000 144.31430054 -0.001200000 4.7832999229 0.0683000013 2.5824000835 4.9393000603 74.545799255 -0.128900006 73.881797791 154.15119934 14.824099541 8.5817003250 15.497099876
 3615.6901855 2.0000000000 8.5629997253 8.5000000000 133.84843445 -0.002500000 4.7209000587 0.0612000003 2.5952999592 4.7424998283 72.220100403 0.2064999938 76.342300415 150.22799683 10.081500053 11.393099785 10.559000015
 3615.8425293 2.0000000000 8.5591001511 8.5000000000 123.00328827 -0.006700000 4.6346001625 0.0693999976 2.5532000065 4.7943000793 74.545600891 0.5123999715 77.938003540 148.58520508 6.1108999252 9.8725996017 6.3413000107
 3615.9948730 2.0000000000 8.3748998642 8.5000000000 122.28018188 -0.007900000 4.9387998581 0.1005999967 2.4951999187 4.9969000816 74.747901917 0.6646000147 80.765197754 151.54260254 4.5226001740 4.5879998207 4.5977001190
 3616.1472168 2.0000000000 8.3372001648 8.5000000000 121.55708313 -0.008200000 5.3534002304 0.1234000027 2.4574000835 5.1505999565 80.987602234 1.0433000326 85.032600403 155.96690369 4.2859001160 3.1837999821 4.2189998627
 3616.2998047 2.0000000000 8.4033002853 8.5000000000 93.219818115 -0.006800000 6.8492999077 0.1544000059 2.4779999256 5.0805997849 91.634597778 1.4582999945 86.035598755 160.67770386 4.8108000755 2.8064000607 4.6771001816
 3616.4521484 2.0000000000 8.5276002884 8.5000000000 64.899276733 -0.008200000 8.4568996429 0.1819999963 2.5260000229 4.8923001289 108.41999817 1.9857000113 86.256698608 160.86140442 4.7090001106 3.3575000763 4.7722001076
 3616.6044922 7.0000000000 8.5669002533 8.5000000000 55.201118469 -0.010200000 8.6621999741 0.2276999950 2.5685999393 4.6935000420 122.83860016 2.4272999763 85.906600952 162.45269775 4.2304000854 3.9426000118 4.3217000961
 3616.7568359 7.0000000000 8.6456003189 8.5000000000 45.502952576 -0.008800000 8.5451002121 0.2463999987 2.5905001163 4.5492000580 131.27969360 2.7627000809 85.878196716 163.41000366 5.4888000488 5.0748000145 5.6507000923
 3616.9091797 7.0000000000 8.6691999435 8.5000000000 34.999343872 -0.004600000 8.0244998932 0.2375999987 2.6045999527 4.5071001053 132.36869812 2.8468000889 84.272598267 159.69540405 6.0412001610 5.6272997856 6.2656002045
 3617.0617676 7.0000000000 8.6960000992 8.5000000000 36.574802399 -0.001300000 7.6167001724 0.2298000008 2.6124000549 4.5167999268 127.08850098 2.6884000301 80.822700500 156.81958008 5.9437999725 4.8203001022 6.1345000267
 3617.2141113 7.0000000000 8.6927995682 8.5000000000 58.835628510 -0.001000000 7.9183001518 0.2506999969 2.6175999641 4.5359001160 125.09739685 2.8759000301 78.360496521 147.88690186 5.2214999199 4.7087998390 5.3508000374
