# LAS format log file from PETREL
# Project units are specified as depth units
#==================================================================
~Version information
VERS.   2.0:
WRAP.   NO:
#==================================================================
~Well
STRT .m      511.89910889 :
STOP .m      4480.0908203 :
STEP .m     0.00000000 :
NULL .        -999.250000 :
COMP.           : COMPANY
WELL.  35/3-1   : WELL
FLD.            : FIELD
LOC.            : LOCATION
SRVC.           : SERVICE COMPANY
DATE.  2018-09-11 14:48:57   : Log Export Date {yyyy-MM-dd HH:mm:ss}
PROV.           : PROVINCE
UWI.   35/3-1   : UNIQUE WELL ID
API.            : API NUMBER
#==================================================================
~Curve
DEPT .m                   : DEPTH
Lithology_geolink ._      : Lithology_geolink
CALI .in                  : CALI
DRHO .g/cm3               : DRHO
NPHI .m3/m3               : NPHI
RHOB .g/cm3               : RHOB
GR .gAPI                  : GR
DTC .us/ft                : DTC
RDEP .ohm.m               : RDEP
SP .mV                    : SP
RSHA .ohm.m               : RSHA
RMED .ohm.m               : RMED
~Parameter
#==================================================================
~Ascii
# ...
 3146.7429199 5.0000000000 14.083998680 0.0489551276  -999.250000 2.4519262314 55.072177887 84.087997437 3.1129999161  -999.250000  -999.250000 3.5599999428
 3146.8955078 5.0000000000 14.043000221 0.0349039994  -999.250000 2.4059710503 55.181575775 81.306991577 3.1500000954  -999.250000  -999.250000 4.2509999275
 3147.0478516 5.0000000000 13.967000008 0.0149326921  -999.250000 2.3969936371 54.111869812 79.678009033 3.2330000401  -999.250000  -999.250000 4.5349998474
 3147.2001953 6.0000000000 13.953999519 -0.006028846  -999.250000 2.3929951191 52.785167694 79.417999268 3.3389999866  -999.250000  -999.250000 4.3289999962
 3147.3525391 6.0000000000 13.861000061 -0.015016025  -999.250000 2.3899359703 52.268672943 80.846000671 3.3010001183  -999.250000  -999.250000 4.2049999237
 3147.5051270 6.0000000000 13.817000389 -0.019980770  -999.250000 2.3498144150 52.689483643 82.628997803 2.8640000820  -999.250000  -999.250000 4.1579999924
 3147.6574707 6.0000000000 13.811000824 -0.015966401  -999.250000 2.2918429375 53.464164734 82.557998657 2.3450000286  -999.250000  -999.250000 3.6860001087
 3147.8098145 6.0000000000 13.833000183 -0.008996795  -999.250000 2.1938028336 54.189498901 82.747001648 2.1219999790  -999.250000  -999.250000 2.8150000572
 3147.9621582 6.0000000000 14.017000198 -0.008022436  -999.250000 2.0709118843 55.126476288 85.887001038 1.9509999752  -999.250000  -999.250000 2.2149999142
 3148.1147461 6.0000000000 14.488999367 -0.014966345  -999.250000 2.0160801411 56.675621033 90.638000488 1.8409999609  -999.250000  -999.250000 1.9259999990
 3148.2670898 6.0000000000 14.652998924 -0.008014400  -999.250000 2.0410175323 58.742347717 96.365997314 1.7489999533  -999.250000  -999.250000 1.8049999475
 3148.4194336 6.0000000000 14.467000008 -0.011009615  -999.250000 2.0520241261 60.832138062 100.78501129 1.6940000057  -999.250000  -999.250000 1.7330000401
 3148.5717773 6.0000000000 14.322999954 -0.013993590  -999.250000 2.0670256615 62.164257050 100.76100159 1.6929999590  -999.250000  -999.250000 1.7640000582
 3148.7241211 6.0000000000 14.104999542 -0.012012821  -999.250000 2.0830159187 62.322814941 98.050003052 1.7489999533  -999.250000  -999.250000 1.9110000134
 3148.8767090 6.0000000000 13.911000252 -0.016048001  -999.250000 2.0929903984 61.580497742 94.072006226 1.8519999981  -999.250000  -999.250000 2.3350000381
 3149.0290527 5.0000000000 13.817000389 -0.026044872  -999.250000 2.0870079994 60.643337250 90.698997498 1.9099999666  -999.250000  -999.250000 3.1640000343
 3149.1813965 5.0000000000 13.803000450 -0.039990384  -999.250000 2.0920016766 59.605327606 88.773002625 1.9019999504  -999.250000  -999.250000 3.8420000076
 3149.3337402 5.0000000000 13.811000824 -0.036993589  -999.250000 2.0929822922 57.936306000 83.911003113 1.9229999781  -999.250000  -999.250000 3.9639999866
 3149.4863281 5.0000000000 13.827999115 -0.034932692  -999.250000 2.0820512772 55.629501343 80.393997192 1.9830000401  -999.250000  -999.250000 3.4930000305
 3149.6386719 6.0000000000 13.878000259 -0.020923199  -999.250000 2.0980129242 53.918258667 82.706001282 2.0280001163  -999.250000  -999.250000 2.7730000019
 3149.7910156 6.0000000000 13.928000450 -0.004955128  -999.250000 2.1059629917 54.708541870 86.053001404 1.9780000448  -999.250000  -999.250000 2.2679998875
 3149.9433594 6.0000000000 14.059000015 0.0089743584  -999.250000 2.0829005241 58.168510437 91.129997253 1.8209999800  -999.250000  -999.250000 2.0269999504
 3150.0959473 6.0000000000 14.564999580 0.0010528846  -999.250000 2.0210542679 62.233428955 94.305999756 1.6670000553  -999.250000  -999.250000 1.9069999456
 3150.2482910 7.0000000000 15.187000275 0.0120815998  -999.250000 2.0380384922 64.860504150 95.575996399 1.5750000477  -999.250000  -999.250000 1.8079999685
 3150.4006348 7.0000000000 15.229000092 0.0289903842  -999.250000 2.0620048046 65.796508789 97.267997742 1.5709999800  -999.250000  -999.250000 1.7489999533
 3150.5529785 7.0000000000 15.037999153 0.0260160267  -999.250000 2.0650064945 66.114044189 98.681999207 1.6089999676  -999.250000  -999.250000 1.8140000105
 3150.7055664 7.0000000000 15.089000702 0.0310432687  -999.250000 2.0690512657 66.765876770 97.057998657 1.6030000448  -999.250000  -999.250000 2.0969998837
 3150.8579102 6.0000000000 15.171999931 0.0400239974  -999.250000 2.0850176811 67.662322998 92.117996216 1.5640000105  -999.250000  -999.250000 2.5000000000
 3151.0102539 6.0000000000 15.218999863 0.0449903868  -999.250000 2.0960159302 67.861503601 88.206001282 1.5759999752  -999.250000  -999.250000 2.8029999733
 3151.1625977 6.0000000000 15.258000374 0.0419583321  -999.250000 2.1060271263 66.929290771 87.710998535 1.6599999666  -999.250000  -999.250000 2.8980000019
 3151.3149414 6.0000000000 15.457000732 0.0290512815  -999.250000 2.1230993271 65.239753723 88.021003723 1.8359999657  -999.250000  -999.250000 2.5769999027
 3151.4675293 6.0000000000 15.362000465 0.0452019237  -999.250000 2.1852526665 63.214458466 90.841003418 2.1059999466  -999.250000  -999.250000 2.1410000324
 3151.6198730 6.0000000000 14.750000000 0.0870431960  -999.250000 2.2640175819 61.174121857 93.580001831 2.3819999695  -999.250000  -999.250000 2.1080000401
 3151.7722168 6.0000000000 14.803999901 0.0959807709  -999.250000 2.2749936581 59.381145477 93.158996582 2.5420000553  -999.250000  -999.250000 2.7339999676
 3151.9245605 6.0000000000 15.864000320 0.0899455175  -999.250000 2.2710816860 58.225666046 88.486999512 2.5789999962  -999.250000  -999.250000 3.9179999828
 3152.0771484 6.0000000000 16.631000519 0.0728509575  -999.250000 2.3223264217 58.018684387 83.172996521 2.7330000401  -999.250000  -999.250000 4.7550001144
 3152.2294922 6.0000000000 16.000000000 0.0419615991  -999.250000 2.4241795540 58.544815063 79.511993408 3.0840001106  -999.250000  -999.250000 4.5659999847
 3152.3818359 6.0000000000 14.562999725 0.0340673104  -999.250000 2.5361235142 59.053981781 79.850006104 3.5090000629  -999.250000  -999.250000 4.0840001106
 3152.5341797 6.0000000000 13.788000107 0.0550384596  -999.250000 2.6130383015 59.041454315 82.464996338 3.8589999676  -999.250000  -999.250000 3.7430000305
 3152.6867676 6.0000000000 13.712000847 0.0669182688  -999.250000 2.6369009018 58.700561523 84.476997375 3.9200000763  -999.250000  -999.250000 3.5969998837
 3152.8391113 6.0000000000 13.712000847 0.0498847999  -999.250000 2.6059327126 58.564697266 84.918998718 3.6549999714  -999.250000  -999.250000 3.5959999561
 3152.9914551 6.0000000000 13.720000267 0.0259519238  -999.250000 2.5639357567 59.001537323 84.470001221 3.3280000687  -999.250000  -999.250000 3.6719999313
 3153.1437988 6.0000000000 13.729001045 0.0110096149  -999.250000 2.5239741802 59.961738586 84.089996338 3.0090000629  -999.250000  -999.250000 3.8269999027
 3153.2961426 6.0000000000 13.734000206 0.0140320519  -999.250000 2.5080111027 61.047557831 83.443000793 2.7460000515  -999.250000  -999.250000 3.9920001030
 3153.4487305 6.0000000000 13.718000412 0.0240384620  -999.250000 2.5149393082 62.021007538 82.866996765 2.7360000610  -999.250000  -999.250000 3.8840000629
 3153.6010742 6.0000000000 13.689000130 0.0320143998  -999.250000 2.4959104061 62.958263397 83.945999146 3.1040000916  -999.250000  -999.250000 3.2709999084
 3153.7534180 6.0000000000 13.781000137 0.0349775627  -999.250000 2.4399216175 63.745258331 86.886001587 3.4809999466  -999.250000  -999.250000 2.6979999542
 3153.9057617 6.0000000000 14.340000153 0.0279583335  -999.250000 2.3909327984 63.906753540 88.236999512 3.3910000324  -999.250000  -999.250000 3.2269999981
 3154.0583496 6.0000000000 15.413999557 0.0149567304  -999.250000 2.3488814831 63.124195099 85.880996704 2.9839999676  -999.250000  -999.250000 4.5960001945
 3154.2106934 6.0000000000 16.475000381 0.0059616002  -999.250000 2.3119182587 61.624473572 81.292999268 2.5669999123  -999.250000  -999.250000 5.3979997635
 3154.3630371 6.0000000000 16.986999512 -0.002147436  -999.250000 2.2609279156 60.050231934 78.273002625 2.3689999580  -999.250000  -999.250000 4.8909997940
