# LAS format log file from PETREL
# Project units are specified as depth units
#==================================================================
~Version information
VERS.   2.0:
WRAP.   NO:
#==================================================================
~Well
STRT .m      3245.2055664 :
STOP .m      4039.9716797 :
STEP .m     0.00000000 :
NULL .        -999.250000 :
COMP.           : COMPANY
WELL.  35/3-7 S   : WELL
FLD.            : FIELD
LOC.            : LOCATION
SRVC.           : SERVICE COMPANY
DATE.  2018-09-11 14:48:58   : Log Export Date {yyyy-MM-dd HH:mm:ss}
PROV.           : PROVINCE
UWI.   35/3-7 S   : UNIQUE WELL ID
API.            : API NUMBER
#==================================================================
~Curve
DEPT .m                   : DEPTH
Lithology_geolink ._      : Lithology_geolink
CALI .in                  : CALI
BS .in                    : BS
ROP .m/h                  : ROP
DRHO .g/cm3               : DRHO
THOR .ppm                 : THOR
NPHI .m3/m3               : NPHI
RHOB .g/cm3               : RHOB
PEF .b/e                  : PEF
GR .gAPI                  : GR
URAN .ppm                 : URAN
DTC .us/ft                : DTC
DTS .us/ft                : DTS
RDEP .ohm.m               : RDEP
RMIC .ohm.m               : RMIC
RMED .ohm.m               : RMED
~Parameter
#==================================================================
~Ascii
 3245.2055664 13.000000000 8.5669002533 8.5000000000  -999.250000  -999.250000  -999.250000 0.2172878236  -999.250000  -999.250000 68.280097961  -999.250000  -999.250000 149.60159302  -999.250000  -999.250000  -999.250000
 3245.3579102 13.000000000 8.5591001511 8.5000000000  -999.250000  -999.250000  -999.250000 0.2328749895  -999.250000  -999.250000 69.218795776  -999.250000  -999.250000 149.79919434  -999.250000  -999.250000  -999.250000
 3245.5102539 13.000000000 8.5306997299 8.5000000000  -999.250000  -999.250000  -999.250000 0.2402763218  -999.250000  -999.250000 64.922103882  -999.250000  -999.250000 149.75788879  -999.250000  -999.250000  -999.250000
 3245.6628418 13.000000000 8.5260000229 8.5000000000  -999.250000  -999.250000  -999.250000 0.2240261286  -999.250000  -999.250000 61.092624664  -999.250000 69.394798279 150.26199341  -999.250000  -999.250000  -999.250000
 3245.8151855 13.000000000 8.5197000504 8.5000000000  -999.250000  -999.250000  -999.250000 0.2137165070  -999.250000  -999.250000 58.581619263  -999.250000 71.177299500 153.65199280  -999.250000  -999.250000  -999.250000
 3245.9675293 13.000000000 8.5394001007 8.5000000000  -999.250000  -999.250000  -999.250000 0.2180929482  -999.250000  -999.250000 57.956100464  -999.250000 73.688598633 154.87620544  -999.250000  -999.250000  -999.250000
 3246.1198730 13.000000000 8.5473003387 8.5000000000  -999.250000  -999.250000  -999.250000 0.2160067260  -999.250000  -999.250000 64.108245850  -999.250000 76.925399780 162.77549744  -999.250000  -999.250000  -999.250000
 3246.2724609 13.000000000 8.7054004669 8.5000000000  -999.250000  -999.250000  -999.250000 0.2193945497  -999.250000  -999.250000 71.281021118  -999.250000 76.262290955 167.43530273  -999.250000  -999.250000  -999.250000
 3246.4248047 13.000000000 8.5591001511 8.5000000000  -999.250000  -999.250000 8.1360998154 0.2226947099  -999.250000  -999.250000 83.718154907 0.7875999808 78.132301331 169.42260742  -999.250000  -999.250000  -999.250000
 3246.5771484 13.000000000 8.5778999329 8.5000000000  -999.250000  -999.250000 9.0558004379 0.2129157037  -999.250000  -999.250000 91.006835938 0.4580999911 78.484001160 170.75621033  -999.250000  -999.250000  -999.250000
 3246.7294922 6.0000000000 8.5967998505 8.5000000000  -999.250000  -999.250000 9.1492996216 0.2221851051  -999.250000  -999.250000 92.292755127 0.6733000278 76.028503418 169.62289429  -999.250000  -999.250000  -999.250000
 3246.8818359 6.0000000000 8.6156997681 8.5000000000  -999.250000 -0.015999360 9.3565998077 0.2249910384 2.5773875713 4.2155909538 91.708686829 0.9021999836 77.064506531 172.29168701  -999.250000  -999.250000  -999.250000
 3247.0344238 6.0000000000 8.5921001434 8.5000000000  -999.250000 -0.015301122 9.3692998886 0.2228035331 2.5818927288 4.3762421608 87.621650696 0.9301999807 76.934501648 172.36940002  -999.250000  -999.250000  -999.250000
 3247.1867676 6.0000000000 8.6063003540 8.5000000000  -999.250000 -0.013902243 9.2010002136 0.2175084949 2.5866923332 4.5339474678 89.125671387 0.6541000009 75.833297729 161.64828491  -999.250000  -999.250000  -999.250000
 3247.3391113 6.0000000000 8.6204004288 8.5000000000  -999.250000 -0.011004647 8.9547004700 0.2113099396 2.5954859257 4.5825223923 84.086097717 0.6123999953 78.539710999 160.93060303  -999.250000  -999.250000  -999.250000
 3247.4914551 6.0000000000 8.6110000610 8.5000000000  -999.250000 -0.007112480 7.9858002663 0.2010329664 2.6033747196 4.5690431595 87.152229309 0.6236000061 81.855499268 159.54110718  -999.250000  -999.250000  -999.250000
 3247.6440430 6.0000000000 8.5921001434 8.5000000000  -999.250000 -0.005103205 7.4373998642 0.1874217987 2.6039991379 4.5934610367 85.455436707 0.8264999986 80.148101807 158.87530518  -999.250000  -999.250000  -999.250000
 3247.7963867 6.0000000000 8.5826997757 8.5000000000  -999.250000 -0.006797276 6.9832000732 0.1845046431 2.5913202763 4.6724729538 90.144767761 0.9229000211 79.426101685 160.55889893  -999.250000  -999.250000  -999.250000
 3247.9487305 6.0000000000 8.5944995880 8.5000000000  -999.250000 -0.006500481 7.7673001289 0.1918881387 2.5892033577 4.6653118134 90.934944153 0.9193000197 69.738403320 158.58470154  -999.250000  -999.250000  -999.250000
 3248.1010742 6.0000000000 8.5984001160 8.5000000000  -999.250000 -0.005802240 8.0395002365 0.1925977618 2.5927884579 4.6172537804 89.126213074 0.7717000246 69.573997498 155.70109558  -999.250000  -999.250000  -999.250000
 3248.2536621 6.0000000000 8.6259002686 8.5000000000  -999.250000 -0.004502083 7.0781998634 0.1908028871 2.6049804688 4.5698757172 89.721435547 1.1356999874 69.288497925 157.47340393  -999.250000  -999.250000  -999.250000
 3248.4060059 6.0000000000 8.5306997299 8.5000000000  -999.250000 -0.006796314 7.2031998634 0.1799174696 2.6032028198 4.6087374687 83.585548401 0.9890000224 69.492301941 153.80880737  -999.250000  -999.250000  -999.250000
 3248.5583496 6.0000000000 8.5117998123 8.5000000000  -999.250000 -0.009695354 7.2501997948 0.1796004772 2.5959117413 4.6374540329 85.829696655 0.8299000263 69.402397156 154.58171082  -999.250000  -999.250000  -999.250000
 3248.7106934 6.0000000000 8.5024003983 8.5000000000  -999.250000 -0.011896474 7.9909005165 0.1768044829 2.5875134468 4.6398963928 87.342201233 0.6563000083 70.988502502 154.09899902 3.7550001144  -999.250000 4.6159000397
 3248.8630371 6.0000000000 8.5071001053 8.5000000000  -999.250000 -0.012298720 8.1185998917 0.1779961586 2.5834131241 4.6464791298 89.214996338 0.4966000319 76.096801758 153.45959473 3.8359000683 5.1906046867 4.6126999855
 3249.0156250 6.0000000000 8.4976997375 8.5000000000  -999.250000 -0.011700961 8.0586996078 0.1839903891 2.5831005573 4.7034082413 91.077003479 0.5367000103 76.560493469 154.55180359 3.7353999615 5.1842093468 4.4155998230
 3249.1679688 6.0000000000 8.5024003983 8.5000000000  -999.250000 -0.010701603 7.5644998550 0.1789081693 2.5893900394 4.7960510254 86.737899780 0.5490000248 76.810394287 156.14869690 4.0580000877 5.6852955818 4.6978998184
 3249.3203125 5.0000000000 8.5213003159 8.5000000000  -999.250000 -0.008703205 7.8790998459 0.1792993546 2.6063728333 4.8580007553 88.125503540 0.3420999944 75.903099060 155.36950684 4.1234998703 6.0805668831 4.7249999046
 3249.4726563 5.0000000000 8.4842996597 8.5000000000  -999.250000 -0.006905760 7.7319002151 0.1707275212 2.6220498085 4.8670711517 80.412200928 0.3713999987 76.739501953 152.08090210 4.3263998032 6.4765305519 4.9098000526
 3249.6252441 5.0000000000 8.4804000854 8.5000000000 12.947178841 -0.005302564 7.4486999512 0.1744939089 2.6282899380 4.7978110313 80.145301819 0.4016000032 77.466003418 155.79360962 5.0324997902 6.4477481842 5.5419001579
 3249.7775879 5.0000000000 8.4961004257 8.5000000000 30.746065140 -0.006597917 7.4168000221 0.1779944003 2.6158199310 4.7205238342 80.287696838 0.6146000028 78.197700500 155.95849609 5.0423998833 5.8203072548 5.4249000549
 3249.9299316 5.0000000000 8.4930000305 8.5000000000 44.113189697 -0.007798077 8.2983999252 0.1888825297 2.6037192345 4.6244540215 84.719200134 0.4950999916 77.473396301 155.88429260 4.3446998596 5.2643909454 4.6321001053
 3250.0822754 5.0000000000 8.4741001129 8.5000000000 50.379264832 -0.008497761 8.6667995453 0.1918904036 2.5987160206 4.5626978874 86.091102600 0.6618000269 78.544403076 156.99909973 4.1591000557 5.0138015747 4.4337000847
 3250.2348633 5.0000000000 8.4930000305 8.5000000000 53.538711548 -0.008799519 8.1908998489 0.1871076822 2.6007966995 4.5470247269 83.901802063 0.6074000001 78.893890381 157.99929810 4.2498002052 5.1960062981 4.5412998199
 3250.3872070 5.0000000000 8.4882001877 8.5000000000 49.050853729 -0.009399039 7.8134999275 0.1757182628 2.6048932076 4.5612769127 81.251098633 0.9434000254 79.147697449 158.01838684 4.5774002075 5.4616742134 4.9291000366
 3250.5395508 5.0000000000 8.4882001877 8.5000000000 41.775592804 -0.009599680 8.1805000305 0.1724052876 2.6079950333 4.5747785568 81.447097778 0.8453000188 79.626098633 163.51950073 4.7417001724 5.6380176544 5.1476998329
 3250.6918945 5.0000000000 8.4976997375 8.5000000000 41.676837921 -0.009200641 8.2208003998 0.1694048196 2.6084992886 4.5698080063 84.322402954 1.0938999653 80.514198303 169.74700928 4.7814002037 5.6267185211 5.2241997719
