# LAS format log file from PETREL
# Project units are specified as depth units
#==================================================================
~Version information
VERS.   2.0:
WRAP.   NO:
#==================================================================
~Well
STRT .m      3245.2055664 :
STOP .m      4039.9716797 :
STEP .m     0.00000000 :
NULL .        -999.250000 :
COMP.           : COMPANY
WELL.  35/3-7 S   : WELL
FLD.            : FIELD
LOC.            : LOCATION
SRVC.           : SERVICE COMPANY
DATE.  2018-09-11 14:48:58   : Log Export Date {yyyy-MM-dd HH:mm:ss}
PROV.           : PROVINCE
UWI.   35/3-7 S   : UNIQUE WELL ID
API.            : API NUMBER
#==================================================================
~Curve
DEPT .m                   : DEPTH
Lithology_geolink ._      : Lithology_geolink
CALI .in                  : CALI
BS .in                    : BS
ROP .m/h                  : ROP
DRHO .g/cm3               : DRHO
THOR .ppm                 : THOR
NPHI .m3/m3               : NPHI
RHOB .g/cm3               : RHOB
PEF .b/e                  : PEF
GR .gAPI                  : GR
URAN .ppm                 : URAN
DTC .us/ft                : DTC
DTS .us/ft                : DTS
RDEP .ohm.m               : RDEP
RMIC .ohm.m               : RMIC
RMED .ohm.m               : RMED
~Parameter
#==================================================================
~Ascii
# ...
 3403.0920410 6.0000000000 8.5669002533 8.5000000000 39.830051422 -0.011501603 6.1932001114 0.1465902179 2.5955030918 4.2653799057 84.677101135 1.1808999777 73.464797974 140.39590454 5.8836998940 7.5844087601 6.4436001778
 3403.2443848 6.0000000000 8.5591001511 8.5000000000 36.677494049 -0.010900961 6.0033998489 0.1543875039 2.5966980457 4.2285590172 86.592002869 1.2488000393 72.933799744 145.54980469 5.6420998573 7.2639145851 6.1756000519
 3403.3967285 6.0000000000 8.5684995651 8.5000000000 36.830379486 -0.010900000 5.6690001488 0.1611891091 2.5973987579 4.1763834953 86.280097961 1.2953000069 73.391601563 140.10079956 5.4990000725 6.9953303337 6.0046000481
 3403.5490723 6.0000000000 8.5732002258 8.5000000000 38.906166077 -0.010301921 5.4247999191 0.1555182338 2.5982971191 4.1206784248 86.341499329 1.3416999578 74.384101868 141.58889771 5.4008002281 7.2837724686 5.8927998543
 3403.7016602 6.0000000000 8.5637998581 8.5000000000 44.583332062 -0.011997276 5.1121997833 0.1565982401 2.5884158611 4.1157073975 85.822998047 1.5470000505 74.013000488 135.85440063 5.8881998062 7.1675877571 6.3969998360
 3403.8540039 6.0000000000 8.5778999329 8.5000000000 47.724082947 -0.013597436 5.3452000618 0.1651862115 2.5814111233 4.1284794807 88.606300354 1.5046999454 74.685897827 137.99409485 5.2877998352 7.0969128609 5.7118000984
 3404.0063477 6.0000000000 8.5778999329 8.5000000000 45.122375488 -0.014698237 5.9295997620 0.1701919883 2.5837962627 4.1665391922 90.335197449 1.4306000471 75.916000366 140.55920410 5.3120999336 7.0936050415 5.7238998413
 3404.1586914 6.0000000000 8.5904998779 8.5000000000 42.476051331 -0.012806079 5.7193999290 0.1692032069 2.5998485088 4.2311925888 90.898803711 1.7429000139 75.449096680 145.64819336 5.6283998489 7.7814917564 6.0578999519
 3404.3112793 6.0000000000 8.5921001434 8.5000000000 41.241142273 -0.010104327 5.9142999649 0.1611129791 2.6163735390 4.3054814339 86.999000549 1.8903000355 74.995101929 142.57000732 6.0302000046 8.3798437119 6.4788999557
 3404.4636230 6.0000000000 8.5732002258 8.5000000000 48.281494141 -0.009301282 6.6326999664 0.1596024036 2.6177978516 4.3724927902 87.389297485 1.6894999743 74.776397705 141.39480591 6.7975001335 8.7360296249 7.2564997673
 3404.6159668 6.0000000000 8.6022996902 8.5000000000 49.360893250 -0.010198558 6.2758002281 0.1638931185 2.6124086380 4.3596210480 90.623199463 1.6887999773 74.705810547 142.57029724 5.8896999359 7.8729863167 6.2878999710
 3404.7683105 6.0000000000 8.5984001160 8.5000000000 44.862533569 -0.012496314 5.9187998772 0.1665956825 2.6004192829 4.3552069664 93.542098999 1.6879999638 74.635093689 143.74569702 5.5995001793 7.4471812248 5.9932999611
 3404.9206543 6.0000000000 8.6015996933 8.5000000000 43.347770691 -0.012699360 5.8670997620 0.1690919995 2.5978083611 4.3284859657 93.230697632 1.9476999044 74.863906860 143.46560669 6.2797999382 7.4786963463 6.7525000572
 3405.0732422 6.0000000000 8.5984001160 8.5000000000 48.912399292 -0.012600160 5.9843997955 0.1654059291 2.5899126530 4.3265028000 93.064002991 1.9705001116 74.561203003 142.43479919 5.5697999001 7.5076537132 5.9995999336
 3405.2255859 6.0000000000 8.6063003540 8.5000000000 50.712600708 -0.011601603 6.2024002075 0.1694934219 2.5887019634 4.2845673561 93.162002563 1.8901000023 74.950599670 145.85780334 5.3619999886 6.9102587700 5.7722001076
 3405.3779297 6.0000000000 8.5967998505 8.5000000000 50.164043427 -0.011100801 6.0714998245 0.1740926206 2.5878014565 4.2512536049 94.918701172 1.8070000410 75.167800903 148.47000122 5.5268001556 6.8595795631 5.9704999924
 3405.5302734 6.0000000000 8.5984001160 8.5000000000 48.553478241 -0.010402240 6.6073999405 0.1770904064 2.5899927616 4.1771378517 95.789100647 1.7215000391 75.941200256 141.62420654 5.6970000267 7.0000491142 6.1775999069
 3405.6828613 6.0000000000 8.6156997681 8.5000000000 49.897640228 -0.011098878 6.8892998695 0.2076509595 2.5783188343 4.1160979271 98.896202087 1.4934999943 75.950401306 146.11390686 3.7184000015 5.2506089211 4.0634999275
 3405.8352051 6.0000000000 8.6156997681 8.5000000000 55.828414917 -0.012996956 7.4738001823 0.2341575325 2.5663192272 4.0790591240 103.14199829 1.3348000050 76.152999878 145.59359741 2.2551999092 4.1456689835 2.4788000584
 3405.9875488 6.0000000000 8.6063003540 8.5000000000 56.432746887 -0.012800320 7.7517995834 0.2412886173 2.5698943138 4.1472902298 102.56600189 1.2483999729 76.946792603 149.28630066 3.2957999706 4.3465747833 3.6605000496
 3406.1398926 6.0000000000 8.6022996902 8.5000000000 48.161746979 -0.010507360 8.0298004150 0.2034215927 2.5918297768 4.2886466980 98.346397400 1.1619000435 77.740600586 152.97909546 4.8698000908 5.7254743576 5.5187997818
 3406.2924805 6.0000000000 8.6204004288 8.5000000000 38.984909058 -0.007904166 8.9395999908 0.1758440733 2.6083736420 4.3975257874 94.002601624 1.0571000576 80.110198975 155.91419983 5.0310001373 6.5930147171 5.7592000961
 3406.4448242 6.0000000000 8.6252002716 8.5000000000 35.700130463 -0.007001442 8.7136001587 0.1929724365 2.6077013016 4.3386950493 96.552803040 1.2171000242 80.779899597 160.40220642 4.1420998573 5.1935486794 4.7484002113
 3406.5971680 6.0000000000 8.6628999710 8.5000000000 39.882873535 -0.008297917 9.7076997757 0.2233512849 2.5888302326 4.1395196915 107.98059845 1.2739000320 80.235694885 164.59519958 2.2629001141 3.7464194298 2.5978999138
 3406.7495117 7.0000000000 8.6613998413 8.5000000000 48.933399200 -0.009797596 10.452899933 0.2516546547 2.5683329105 3.9269406796 118.95619965 0.8546000123 80.201309204 163.71659851 2.3210999966 3.0041875839 2.6682999134
 3406.9018555 7.0000000000 8.6613998413 8.5000000000 55.839241028 -0.010996160 10.938500404 0.2755235136 2.5536470413 3.8023986816 123.37010193 0.5256000161 80.181396484 169.91459656 2.1716001034 2.7307736874 2.4951999187
 3407.0544434 7.0000000000 8.6676998138 8.5000000000 65.312667847 -0.010700481 10.126000404 0.2770975828 2.5524020195 3.7321124077 120.31310272 0.7628999949 81.169700623 168.53570557 2.1575999260 2.7319967747 2.4718999863
 3407.2067871 7.0000000000 8.6613998413 8.5000000000 81.896003723 -0.010999519 9.3924999237 0.2923754752 2.5561938286 3.7106342316 118.24009705 0.7001000047 81.779998779 177.58110046 2.1912000179 2.7267086506 2.5013999939
 3407.3591309 7.0000000000 8.6613998413 8.5000000000 82.116142273 -0.010700481 9.2221002579 0.2776237130 2.5720744133 3.7539303303 116.37650299 0.6941000223 84.334396362 181.52470398 2.4202001095 2.8272385597 2.7597000599
 3407.5114746 7.0000000000 8.6653003693 8.5000000000 64.635826111 -0.005815680 9.9378995895 0.2555707097 2.6188499928 3.8999314308 108.23539734 1.3344000578 91.665702820 182.68989563 2.7256999016 3.8497180939 3.1142001152
 3407.6640625 7.0000000000 8.6416997910 8.5000000000 50.908138275 -0.000808013 10.297599792 0.2148652226 2.6578378677 4.0959863663 97.198196411 1.5180000067 91.846603394 185.24870300 4.5791001320 5.4101004601 5.2185997963
 3407.8164063 6.0000000000 8.7006998062 8.5000000000 40.149280548 0.0001983974 10.316499710 0.2120044827 2.6651883125 4.2441625595 94.451797485 1.3968000412 89.249389648 180.20300293 3.6986999512 5.1201691628 4.1326999664
 3407.9687500 6.0000000000 8.6809997559 8.5000000000 39.890090942 -0.004093109 10.695500374 0.2282738835 2.6310548782 4.2204384804 101.31780243 1.1629999876 86.858398438 180.47329712 2.2527999878 3.4798321724 2.5102000237
 3408.1210938 6.0000000000 8.6731996536 8.5000000000 53.473426819 -0.009482720 11.334899902 0.2526219189 2.5918257236 4.0791535378 110.16660309 0.7993999720 84.927909851 180.73309326 2.3311998844 2.8514089584 2.5962998867
 3408.2736816 6.0000000000 8.6378002167 8.5000000000 66.111549377 -0.012495193 11.737799644 0.2728676200 2.5723309517 3.9448149204 111.63790131 0.8636999726 84.506698608 177.56140137 2.3138999939 2.6454274654 2.5683000088
 3408.4260254 6.0000000000 8.6252002716 8.5000000000 60.277557373 -0.016393751 11.376399994 0.2767937481 2.5650117397 3.9860334396 107.91059875 0.9878000617 85.468589783 185.31790161 2.0225999355 2.5022294521 2.2428998947
 3408.5783691 6.0000000000 8.6022996902 8.5000000000 55.249343872 -0.017598078 13.045200348 0.2492442280 2.5754830837 4.1880755424 99.347297668 0.4632000029 86.358596802 179.46130371 2.9830999374 2.8881800175 3.3222999573
