# LAS format log file from PETREL
# Project units are specified as depth units
#==================================================================
~Version information
VERS.   2.0:
WRAP.   NO:
#==================================================================
~Well
STRT .m      511.89910889 :
STOP .m      4480.0908203 :
STEP .m     0.00000000 :
NULL .        -999.250000 :
COMP.           : COMPANY
WELL.  35/3-1   : WELL
FLD.            : FIELD
LOC.            : LOCATION
SRVC.           : SERVICE COMPANY
DATE.  2018-09-11 14:48:57   : Log Export Date {yyyy-MM-dd HH:mm:ss}
PROV.           : PROVINCE
UWI.   35/3-1   : UNIQUE WELL ID
API.            : API NUMBER
#==================================================================
~Curve
DEPT .m                   : DEPTH
Lithology_geolink ._      : Lithology_geolink
CALI .in                  : CALI
DRHO .g/cm3               : DRHO
NPHI .m3/m3               : NPHI
RHOB .g/cm3               : RHOB
GR .gAPI                  : GR
DTC .us/ft                : DTC
RDEP .ohm.m               : RDEP
SP .mV                    : SP
RSHA .ohm.m               : RSHA
RMED .ohm.m               : RMED
~Parameter
#==================================================================
~Ascii
# ...
 1040.4223633 2.0000000000 17.259000778 0.0090200156  -999.250000 2.0559928417 35.305736542 140.44799805 0.9470000267 43.609615326 1.0719631910 1.0720000267
 1040.5748291 2.0000000000 17.326999664 0.0140000004  -999.250000 2.0469887257 34.517337799 140.74699402 0.9380000234 43.265350342 1.0489711761 1.0490000248
 1040.7271729 2.0000000000 17.415000916 0.0140240192  -999.250000 2.0329887867 34.241764069 141.56399536 0.9290000200 43.352577209 1.0309823751 1.0310000181
 1040.8795166 2.0000000000 17.495000839 0.0200288463  -999.250000 2.0190000534 34.718811035 143.39799500 0.9219999909 43.245868683 1.0199952126 1.0199999809
 1041.0319824 2.0000000000 17.540000916 0.0289959926  -999.250000 2.0109992027 35.850902557 144.02200317 0.9160000086 42.892829895 1.0139952898 1.0140000582
 1041.1843262 2.0000000000 17.506999969 0.0279439557  -999.250000 2.0099999905 37.057853699 144.12500000 0.9139999747 42.601993561 1.0110000372 1.0110000372
 1041.3367920 2.0000000000 17.403999329 0.0139679490  -999.250000 2.0120065212 37.590221405 142.76100159 0.9129999876 42.599971771 1.0109952688 1.0110000372
 1041.4891357 2.0000000000 17.312999725 0.0059799841  -999.250000 2.0199999809 37.266273499 140.54899597 0.9139999747 42.592643738 1.0079952478 1.0080000162
 1041.6416016 2.0000000000 17.270000458 0.0010000000  -999.250000 2.0260040760 36.814914703 139.50599670 0.9200000167 42.503646851 1.0049952269 1.0049999952
 1041.7939453 2.0000000000 17.246999741 0.0010240192  -999.250000 2.0309998989 37.197704315 138.92399597 0.9419999719 42.414497375 1.0019967556 1.0019999743
 1041.9464111 2.0000000000 17.235000610 0.0070360578  -999.250000 2.0350072384 38.889064789 137.86399841 0.9620000124 42.288345337 0.9999951720 1.0000000000
 1042.0987549 2.0000000000 17.235000610 0.0160200167  -999.250000 2.0439999104 41.829418182 137.23199463 0.9829999804 42.124240875 0.9969951510 0.9969999790
 1042.2512207 2.0000000000 17.250999451 0.0210360568  -999.250000 2.0540103912 45.838348389 137.67300415 1.0069999695 41.934410095 0.9940016270 0.9940000176
 1042.4035645 2.0000000000 17.287000656 0.0300240181  -999.250000 2.0670111179 50.559268951 139.67999268 1.0340000391 41.788269043 0.9950224161 0.9950000048
 1042.5560303 2.0000000000 17.340999603 0.0359679461  -999.250000 2.0810072422 55.098133087 142.61500549 1.0609999895 42.115665436 1.0090272427 1.0089999437
 1042.7083740 2.0000000000 17.405000687 0.0279839877  -999.250000 2.0900104046 58.479640961 145.52600098 1.1150000095 45.023231506 1.0260288715 1.0260000229
 1042.8607178 2.0000000000 17.465000153 0.0239967946  -999.250000 2.1029999256 60.750263214 147.53300476 1.1710000038 46.824172974 1.0440144539 1.0440000296
 1043.0131836 5.0000000000 17.513000488 0.0229879897  -999.250000 2.1190056801 62.788913727 148.18200684 1.2280000448 47.182399750 1.0620288849 1.0620000362
 1043.1655273 5.0000000000 17.538999557 0.0199807696  -999.250000 2.1259999275 65.248062134 149.40898132 1.2810000181 45.783802032 1.0800160170 1.0800000429
 1043.3179932 5.0000000000 17.527000427 0.0140160257  -999.250000 2.1159799099 67.778617859 148.45700073 1.3270000219 44.164310455 1.1000336409 1.1000000238
 1043.4703369 5.0000000000 17.492000580 0.0180360284  -999.250000 2.0910000801 69.281356812 150.40600586 1.3630000353 43.495803833 1.1210289001 1.1210000515
 1043.6228027 5.0000000000 17.450000763 0.0270240400  -999.250000 2.0699942112 68.875968933 153.12698364 1.3869999647 43.446609497 1.1390129328 1.1390000582
 1043.7751465 5.0000000000 17.415000916 0.0329759791  -999.250000 2.0629999638 66.361015320 155.85899353 1.3880000114 43.347393036 1.1469984055 1.1469999552
 1043.9276123 5.0000000000 17.406999588 0.0269719567  -999.250000 2.0499839783 61.997432709 158.57000732 1.3660000563 42.696220398 1.1459759474 1.1460000277
 1044.0799561 5.0000000000 17.410999298 0.0200040024  -999.250000 2.0299999714 56.352523804 162.30400085 1.3279999495 42.004585266 1.1309664249 1.1310000420
 1044.2324219 5.0000000000 17.388000488 0.0210120194  -999.250000 2.0159952641 50.436092377 163.60000610 1.2560000420 41.901142120 1.1099503040 1.1100000143
 1044.3847656 5.0000000000 17.325000763 0.0239959974  -999.250000 2.0100080967 45.484783173 160.70399475 1.1879999638 41.936889648 1.0789487362 1.0789999962
 1044.5372314 2.0000000000 17.260999680 0.0229679495  -999.250000 2.0200104713 42.229999542 155.04600525 1.1330000162 42.159927368 1.0469455719 1.0470000505
 1044.6895752 2.0000000000 17.242000580 0.0149599677  -999.250000 2.0330152512 40.566665649 149.20799255 1.0850000381 42.641563416 1.0129535198 1.0130000114
 1044.8419189 2.0000000000 17.259000778 0.0049871793  -999.250000 2.0520000458 39.733909607 143.44500732 1.0410000086 43.280815125 0.9839879870 0.9840000272
 1044.9943848 2.0000000000 17.284999847 0.0010080064  -999.250000 2.0630030632 39.051948547 141.89300537 1.0110000372 43.847064972 0.9689887762 0.9689999819
 1045.1467285 2.0000000000 17.315999985 0.0029903846  -999.250000 2.0669999123 38.396301270 142.03100586 0.9900000095 44.113109589 0.9619928002 0.9620000124
 1045.2991943 2.0000000000 17.336999893 -0.000016026  -999.250000 2.0639910698 37.961730957 141.54299927 0.9710000157 44.458881378 0.9529855847 0.9530000091
 1045.4515381 2.0000000000 17.347000122 -0.003995997  -999.250000 2.0529999733 37.849903107 141.15600586 0.9520000219 44.676483154 0.9439927936 0.9440000057
 1045.6040039 2.0000000000 17.354999542 -0.002995994  -999.250000 2.0479977131 37.788688660 141.02699280 0.9330000281 44.297103882 0.9349855781 0.9350000024
 1045.7563477 2.0000000000 17.361000061 -0.001983987  -999.250000 2.0450000763 37.241107941 141.59700012 0.9139999747 43.826732635 0.9259855747 0.9259999990
 1045.9088135 2.0000000000 17.367000580 0.0020120193  -999.250000 2.0459983349 36.060241699 142.44299316 0.8970000148 44.010986328 0.9169871807 0.9169999957
 1046.0611572 2.0000000000 17.375999451 0.0049919933  -999.250000 2.0439999104 34.914752960 143.47099304 0.8859999776 44.504482269 0.9089855552 0.9089999795
 1046.2136230 2.0000000000 17.384000778 0.0029799680  -999.250000 2.0399951935 34.763458252 143.42500305 0.8759999871 44.373771667 0.8999855518 0.8999999762
 1046.3659668 2.0000000000 17.382999420 -0.002004003  -999.250000 2.0339999199 35.785301208 142.93400574 0.8650000095 44.066211700 0.8909919858 0.8909999728
 1046.5184326 2.0000000000 17.372999191 -0.003004006  -999.250000 2.0390007496 37.220432281 142.78399658 0.8560000062 43.620708466 0.8859951496 0.8859999776
 1046.6707764 2.0000000000 17.361999512 -0.004008007  -999.250000 2.0399968624 38.232799530 143.04400635 0.8519999981 43.550422668 0.8829967976 0.8830000162
 1046.8232422 2.0000000000 17.353000641 -0.006000000  -999.250000 2.0359935760 38.734100342 143.22799683 0.8569999933 43.906257629 0.8809999824 0.8809999824
 1046.9755859 2.0000000000 17.344999313 -0.006012009  -999.250000 2.0279936790 39.191974640 143.22700500 0.8619999886 44.468303680 0.8809999824 0.8809999824
 1047.1279297 2.0000000000 17.337999344 -0.008993589  -999.250000 2.0199999809 39.798843384 143.01800537 0.8650000095 44.542247772 0.8809999824 0.8809999824
 1047.2803955 2.0000000000 17.332000732 -0.006975962  -999.250000 2.0180103779 40.325611115 142.69900513 0.8650000095 43.995765686 0.8809999824 0.8809999824
 1047.4327393 2.0000000000 17.325000763 -0.000979984  -999.250000 2.0309998989 40.579086304 142.35600281 0.8640000224 43.439899445 0.8809992075 0.8809999824
 1047.5852051 2.0000000000 17.319000244 0.0040320517  -999.250000 2.0330104828 40.633041382 142.56300354 0.8640000224 43.414588928 0.8799999952 0.8799999952
 1047.7375488 2.0000000000 17.313999176 0.0120040029  -999.250000 2.0460000038 40.651161194 142.69999695 0.8640000224 43.309875488 0.8799999952 0.8799999952
 1047.8900146 2.0000000000 17.311000824 0.0129759619  -999.250000 2.0519928932 40.750797272 142.56399536 0.8759999871 42.779346466 0.8799999952 0.8799999952
 1048.0423584 2.0000000000 17.306999207 0.0070040035  -999.250000 2.0429999828 41.083385468 142.27600098 0.8970000148 42.370845795 0.8800016046 0.8799999952
