# LAS format log file from PETREL
# Project units are specified as depth units
#==================================================================
~Version information
VERS.   2.0:
WRAP.   NO:
#==================================================================
~Well
STRT .m      3245.2055664 :
STOP .m      4039.9716797 :
STEP .m     0.00000000 :
NULL .        -999.250000 :
COMP.           : COMPANY
WELL.  35/3-7 S   : WELL
FLD.            : FIELD
LOC.            : LOCATION
SRVC.           : SERVICE COMPANY
DATE.  2018-09-11 14:48:58   : Log Export Date {yyyy-MM-dd HH:mm:ss}
PROV.           : PROVINCE
UWI.   35/3-7 S   : UNIQUE WELL ID
API.            : API NUMBER
#==================================================================
~Curve
DEPT .m                   : DEPTH
Lithology_geolink ._      : Lithology_geolink
CALI .in                  : CALI
BS .in                    : BS
ROP .m/h                  : ROP
DRHO .g/cm3               : DRHO
THOR .ppm                 : THOR
NPHI .m3/m3               : NPHI
RHOB .g/cm3               : RHOB
PEF .b/e                  : PEF
GR .gAPI                  : GR
URAN .ppm                 : URAN
DTC .us/ft                : DTC
DTS .us/ft                : DTS
RDEP .ohm.m               : RDEP
RMIC .ohm.m               : RMIC
RMED .ohm.m               : RMED
~Parameter
#==================================================================
~Ascii
# ...
 3826.0019531 7.0000000000 8.5024003983 8.5000000000 54.587596893 -0.011207211 11.585599899 0.2223536819 2.6166644096 4.2164101601 129.10545349 2.0613999367 77.020584106 150.36485291 4.4060997963 5.2392997742 4.8386998177
 3826.1542969 7.0000000000 8.5276002884 8.5000000000 45.535762787 -0.005109776 11.496800423 0.2503551245 2.6380655766 4.2563366890 137.26103210 2.3598001003 77.657775879 150.95124817 4.6085000038 4.9710273743 5.0500001907
 3826.3066406 7.0000000000 8.5473003387 8.5000000000 46.272308350 -0.003804160 11.913999557 0.2493035197 2.6446788311 4.1868233681 133.27713013 2.1440999508 75.467033386 149.53863525 4.7754001617 5.2169094086 5.2192997932
 3826.4592285 7.0000000000 8.5684995651 8.5000000000 50.534118652 -0.006295993 11.210800171 0.2439086586 2.6300237179 4.1404738426 137.02946472 2.1688001156 74.498741150 148.63345337 4.8143000603 5.1301407814 5.2383999825
 3826.6115723 6.0000000000 8.4882001877 8.5000000000 56.307083130 -0.008496474 10.204700470 0.2300222814 2.6172204018 4.1110472679 131.38197327 1.8624999523 74.876388550 149.69308472 5.9289999008 6.4397974014 6.4520001411
 3826.7639160 6.0000000000 8.4409999847 8.5000000000 48.565944672 -0.009298718 10.306599617 0.2090336531 2.6100113392 4.1341629028 123.60437012 1.5746999979 72.793045044 150.36662292 12.946999550 6.2268452644 14.061900139
 3826.9162598 6.0000000000 8.4527997971 8.5000000000 40.197505951 -0.007303205 10.845100403 0.1929257959 2.6164894104 4.1469793320 115.26905823 1.7194999456 73.414604187 152.87059021 10.139699936 5.8959307671 10.979499817
 3827.0686035 6.0000000000 8.4456996918 8.5000000000 35.798557281 -0.008197120 12.373399734 0.1908067167 2.6137089729 4.1854763031 120.99208069 2.0604999065 76.505683899 154.29922485 6.4103999138 4.2979283333 6.8892998695
 3827.2211914 6.0000000000 8.4598999023 8.5000000000 31.908792496 -0.009497916 13.028699875 0.2220498472 2.6100058556 4.1896934509 130.86248779 2.4342999458 77.388099670 156.86508179 4.3487000465 4.2168221474 4.6287999153
 3827.3735352 6.0000000000 8.4882001877 8.5000000000 29.414695740 -0.009799520 12.746899605 0.2552467883 2.5950241089 4.2214488983 140.06515503 2.6342999935 76.717864990 159.68836975 3.9851999283 4.0503668785 4.2200999260
 3827.5258789 7.0000000000 8.5260000229 8.5000000000 27.425851822 -0.008801603 12.372699738 0.2689780295 2.5871126652 4.2521510124 141.60305786 2.7156999111 78.344779968 161.11550903 3.9909999371 4.0824480057 4.2262997627
 3827.6782227 7.0000000000 8.4930000305 8.5000000000 30.231956482 -0.007803200 12.286899567 0.2775724828 2.5871000290 4.2984519005 143.78060913 2.6614999771 77.982765198 162.48132324 4.2888998985 4.1607484818 4.5173001289
 3827.8308105 7.0000000000 8.5024003983 8.5000000000 38.184383392 -0.008798397 12.465800285 0.2681152225 2.5926909447 4.3677887917 145.27001953 2.3496999741 77.857101440 161.56768799 5.0876002312 4.4411501884 5.3491997719
 3827.9831543 7.0000000000 8.5551004410 8.5000000000 49.152557373 -0.007502083 10.794699669 0.2743898928 2.5929994583 4.7059574127 145.97906494 2.1071999073 78.559272766 159.54005432 5.5082001686 4.9636621475 5.7953000069
 3828.1354980 7.0000000000 8.5448999405 8.5000000000 71.724411011 -0.004404968 8.8652000427 0.2782937288 2.5732316971 5.2101912498 140.93470764 1.4608000517 78.162940979 156.91999817 5.6659002304 5.2641186714 5.9549999237
 3828.2878418 7.0000000000 8.5306997299 8.5000000000 93.417648315 -0.003502880 6.7293000221 0.2740137577 2.5247554779 5.7787771225 125.03312683 1.1776000261 79.991523743 156.52871704 6.4450001717 3.9315793514 6.7044000626
 3828.4404297 6.0000000000 8.4079999924 8.5000000000 93.657806396 -0.007194071 5.0620999336 0.2416519225 2.4529151917 6.1676788330 104.48839569 1.2553999424 82.270050049 154.85137939 3.6837000847 2.1083197594 3.7058999538
 3828.5927734 6.0000000000 8.2144002914 8.5000000000 80.110893250 -0.015886059 4.8053002357 0.2072551399 2.3864066601 6.5431981087 86.218772888 1.0640000105 81.412773132 153.17408752 3.7830998898 1.3889499903 3.8935000896
 3828.7451172 2.0000000000 8.2144002914 8.5000000000 75.232612610 -0.020492628 4.7783999443 0.1974157095 2.3590438366 6.8389263153 79.021705627 0.9401000142 82.996162415 151.65782166 4.0376000404 1.1833281517 4.1968998909
 3828.8974609 2.0000000000 8.2285995483 8.5000000000 80.272308350 -0.019900961 4.8337001801 0.1969007999 2.3669872284 7.0485644341 78.303535461 0.8252999783 83.268768311 150.07904053 4.0514001846 1.1569418907 4.2083997726
 3829.0498047 2.0000000000 8.2325000763 8.5000000000 97.810699463 -0.016909599 4.8889999390 0.1944079995 2.3805565834 7.1387114525 81.184242249 0.7103999853 84.744659424 147.71318054 4.0051999092 1.1581958532 4.1567997932
 3829.2023926 2.0000000000 8.2560997009 8.5000000000 146.52461243 -0.014304167 5.2348999977 0.1834176332 2.3869898319 7.1843271255 81.294441223 0.7965999842 85.418525696 146.65139771 4.8269000053 1.2045255899 4.9959998131
 3829.3547363 2.0000000000 8.2482004166 8.5000000000 189.63581848 -0.013800801 6.0170001984 0.1814032048 2.3902947903 7.1912889481 83.590713501 0.4954999983 83.802093506 144.83831787 4.9752001762 1.2951546907 5.1220998764
 3829.5070801 2.0000000000 8.2663002014 8.5000000000 202.57644653 -0.009506891 5.8123002052 0.1796028912 2.4012823105 7.0940561295 80.669692993 0.7781000137 80.064788818 141.17807007 5.0011000633 1.3660863638 5.1006999016
 3829.6594238 2.0000000000 8.2285995483 8.5000000000 248.15319824 -0.003818240 5.9338002205 0.1897673607 2.4139595032 6.9599299431 81.542785645 0.9167000055 76.822891235 135.23240662 4.3874001503 1.3137682676 4.3359999657
 3829.8120117 2.0000000000 8.2325000763 8.5000000000 269.74050903 -0.002002885 5.7439999580 0.1871043146 2.4461483955 6.7098011971 77.735221863 0.9193999767 76.027359009 129.22630310 4.1452999115 1.2863436937 3.9711000919
 3829.9643555 2.0000000000 8.2426996231 8.5000000000 217.50196838 -0.001201282 6.3678002357 0.1641368717 2.5149896145 6.3470816612 80.702522278 1.1815999746 74.988265991 125.84609985 10.770999908 1.8084617853 9.9490003586
 3830.1166992 2.0000000000 8.3937997818 8.5000000000 130.16896057 -0.004694391 6.7217001915 0.1335490346 2.5867848396 6.0054473877 85.077789307 1.1332999468 73.276748657 120.55220032 31.496299744 3.3914604187 29.136899948
 3830.2690430 5.0000000000 8.4079999924 8.5000000000 80.525917053 -0.005298080 6.6957001686 0.1098758429 2.6170034409 5.8905673027 86.117477417 1.1239999533 72.822349548 117.47789001 22.993499756 10.171242714 21.481599808
 3830.4216309 5.0000000000 8.3937997818 8.5000000000 49.811679840 -0.006298398 6.6697998047 0.1231785268 2.5928387642 5.9833502769 90.819854736 1.1146999598 72.368202209 118.55400085 14.254899979 7.4690723419 13.337499619
 3830.5739746 5.0000000000 8.2568998337 8.5000000000 32.328411102 -0.005101923 6.8073000908 0.1401727647 2.5575563908 6.1362547874 91.915649414 1.0151000023 71.993301392 119.60050201 20.144100189 6.0211167336 18.715799332
 3830.7263184 5.0000000000 8.2522001266 8.5000000000 25.234907150 -0.006597596 7.1142997742 0.1533788443 2.5257511139 6.2718825340 95.829719543 1.0745999813 71.240898132 121.08879852 10.717200279 4.9776711464 10.417099953
 3830.8786621 5.0000000000 8.3465995789 8.5000000000 23.431430817 -0.008896314 7.5841999054 0.1475094557 2.5110235214 6.4129738808 89.980697632 1.0268000364 71.588401794 120.97270203 8.3899002075 4.6800746918 8.1758003235
 3831.0310059 5.0000000000 8.2190999985 8.5000000000 26.576772690 -0.011192639 7.2280998230 0.1442105621 2.5093054771 6.5130796432 81.269538879 0.7457000017 72.397903442 122.21559906 8.5380001068 3.7790908813 8.3201999664
 3831.1835938 5.0000000000 8.2522001266 8.5000000000 31.794292450 -0.010501122 6.4046998024 0.1441001594 2.5163886547 6.6108436584 77.001502991 0.9158999920 72.342903137 124.41349792 11.151000023 3.8931124210 11.067099571
 3831.3359375 2.0000000000 8.2805004120 8.5000000000 37.383201599 -0.009002403 6.4271998405 0.1402062476 2.5237879753 6.7646536827 76.288040161 0.6147999763 72.363197327 123.97479248 8.6774997711 3.6030659676 8.8071002960
 3831.4882813 2.0000000000 8.3607997894 8.5000000000 38.896327972 -0.006603846 6.7093000412 0.1335107386 2.5397744179 6.8478670120 77.073341370 0.4812000096 71.962097168 125.31580353 9.3590002060 3.4230883121 9.6354999542
