# LAS format log file from PETREL
# Project units are specified as depth units
#==================================================================
~Version information
VERS.   2.0:
WRAP.   NO:
#==================================================================
~Well
STRT .m      511.89910889 :
STOP .m      4480.0908203 :
STEP .m     0.00000000 :
NULL .        -999.250000 :
COMP.           : COMPANY
WELL.  35/3-1   : WELL
FLD.            : FIELD
LOC.            : LOCATION
SRVC.           : SERVICE COMPANY
DATE.  2018-09-11 14:48:57   : Log Export Date {yyyy-MM-dd HH:mm:ss}
PROV.           : PROVINCE
UWI.   35/3-1   : UNIQUE WELL ID
API.            : API NUMBER
#==================================================================
~Curve
DEPT .m                   : DEPTH
Lithology_geolink ._      : Lithology_geolink
CALI .in                  : CALI
DRHO .g/cm3               : DRHO
NPHI .m3/m3               : NPHI
RHOB .g/cm3               : RHOB
GR .gAPI                  : GR
DTC .us/ft                : DTC
RDEP .ohm.m               : RDEP
SP .mV                    : SP
RSHA .ohm.m               : RSHA
RMED .ohm.m               : RMED
~Parameter
#==================================================================
~Ascii
# ...
 2361.7304688 7.0000000000 21.577999115 0.0640112236  -999.250000 2.0989999771 50.379421234 114.26999664 1.3279999495 52.195030212 1.2740000486 1.2740000486
 2361.8830566 7.0000000000 20.989000320 0.0709519237  -999.250000 2.1410305500 50.018939972 114.26799774 1.3259999752 52.834716797 1.2739808559 1.2740000486
 2362.0354004 7.0000000000 20.404001236 0.0559551306  -999.250000 2.1600177288 50.312107086 114.53700256 1.3240000010 52.433124542 1.2699759007 1.2699999809
 2362.1877441 7.0000000000 20.236000061 0.0420512818  -999.250000 2.1710543633 51.002834320 114.25099945 1.3380000591 51.541172028 1.2649807930 1.2649999857
 2362.3400879 7.0000000000 20.512998581 0.0580031984  -999.250000 2.2049999237 51.522659302 113.76000214 1.3389999866 52.217449188 1.2609808445 1.2610000372
 2362.4926758 7.0000000000 20.424001694 0.0589423068  -999.250000 2.2360129356 51.307708740 113.67199707 1.3200000525 52.674636841 1.2569743395 1.2569999695
 2362.6450195 7.0000000000 19.900999069 0.0409519225  -999.250000 2.2439599037 50.280094147 113.24099731 1.3099999428 54.424610138 1.2529759407 1.2530000210
 2362.7973633 7.0000000000 20.079999924 0.0259871799  -999.250000 2.2189536095 49.090232849 113.13800049 1.3079999685 53.368297577 1.2479808331 1.2480000257
 2362.9497070 7.0000000000 20.942001343 0.0220224001  -999.250000 2.1900000572 48.612907410 113.34600067 1.3040000200 52.838203430 1.2439807653 1.2439999580
 2363.1020508 7.0000000000 21.096000671 0.0290144216  -999.250000 2.1800000668 49.180072784 113.87599945 1.2999999523 52.589275360 1.2400192022 1.2400000095
 2363.2546387 7.0000000000 20.245000839 0.0380961522  -999.250000 2.1810369492 50.474243164 113.69482422 1.2949999571 52.136425018 1.2440240383 1.2439999580
 2363.4069824 7.0000000000 19.930000305 0.0680705160  -999.250000 2.2040526867 51.797012329 114.21066284 1.2910000086 51.646163940 1.2490191460 1.2489999533
 2363.5593262 6.0000000000 20.590000153 0.0899808034  -999.250000 2.2369999886 52.425365448 114.62400055 1.2860000134 51.697467804 1.2530241013 1.2530000210
 2363.7116699 6.0000000000 20.735000610 0.0839871764  -999.250000 2.2469999790 52.030143738 114.73400116 1.2929999828 51.843681335 1.2580239773 1.2580000162
 2363.8642578 6.0000000000 20.010000229 0.0760064051  -999.250000 2.2720720768 50.868896484 114.81219482 1.2999999523 51.643367767 1.2630192041 1.2630000114
 2364.0166016 6.0000000000 19.805999756 0.0779743642  -999.250000 2.3170607090 49.588676453 114.93547058 1.3070000410 51.447750092 1.2670240402 1.2669999599
 2364.1689453 6.0000000000 20.042997360 0.0699743629  -999.250000 2.3550255299 48.762847900 115.23184967 1.3129999638 51.989295959 1.2720240355 1.2719999552
 2364.3212891 6.0000000000 19.653999329 0.0619327985  -999.250000 2.3710000515 48.668865204 115.13800049 1.3200000525 51.150508881 1.2770191431 1.2769999504
 2364.4738770 6.0000000000 19.045999527 0.0409391038  -999.250000 2.3539681435 49.210414886 115.13053131 1.3270000219 51.937442780 1.2810319662 1.2810000181
 2364.6262207 6.0000000000 18.652000427 0.0220192298  -999.250000 2.3340082169 49.962806702 114.83879089 1.3339999914 53.627487183 1.2860096693 1.2860000134
 2364.7785645 6.0000000000 18.499000549 0.0280256420  -999.250000 2.3390080929 50.465164185 114.08441925 1.3409999609 52.843753815 1.2880096436 1.2879999876
 2364.9309082 6.0000000000 18.472000122 0.0360031985  -999.250000 2.3440001011 50.568153381 113.09700012 1.3409999609 52.145298004 1.2900047302 1.2899999619
 2365.0832520 6.0000000000 18.516000748 0.0369823724  -999.250000 2.3480000496 50.663921356 112.19699860 1.3300000429 52.237686157 1.2910096645 1.2910000086
 2365.2358398 6.0000000000 18.666000366 0.0260256827  -999.250000 2.3399662971 51.243049622 112.57647705 1.3289999962 52.040725708 1.2930096388 1.2929999828
 2365.3881836 6.0000000000 18.913999557 0.0339952037  -999.250000 2.3189935684 52.193798065 112.87747192 1.3480000496 51.643707275 1.2950096130 1.2949999571
 2365.5405273 6.0000000000 18.888000488 0.0330480784  -999.250000 2.3150000572 52.689785004 112.54799652 1.3769999743 51.250968933 1.2970721722 1.2970000505
 2365.6928711 6.0000000000 18.542999268 0.0480673090  -999.250000 2.3150000572 51.927864075 112.86699677 1.3890000582 54.041473389 1.3120816946 1.3120000362
 2365.8454590 6.0000000000 18.518999100 0.0689663440  -999.250000 2.3370046616 49.967563629 113.56098175 1.4090000391 51.846103668 1.3290768862 1.3289999962
 2365.9978027 6.0000000000 18.677999496 0.0619568005  -999.250000 2.3399758339 47.649105072 114.17620850 1.4210000038 52.190155029 1.3450769186 1.3450000286
 2366.1501465 6.0000000000 19.037000656 0.0529615395  -999.250000 2.3250095844 45.843498230 114.92704773 1.4279999733 52.552093506 1.3610768318 1.3609999418
 2366.3024902 6.0000000000 19.038999557 0.0409519225  -999.250000 2.3310000896 44.907775879 113.70999908 1.4600000381 53.204097748 1.3770673275 1.3769999743
 2366.4550781 6.0000000000 18.488000870 0.0260096155  -999.250000 2.3420319557 44.770244598 110.53068542 1.4919999838 53.545150757 1.3910896778 1.3910000324
 2366.6074219 16.000000000 18.231000900 0.0280672014  -999.250000 2.3620417118 45.471717834 109.70551300 1.5240000486 53.279426575 1.4050529003 1.4049999714
 2366.7597656 16.000000000 18.349000931 0.0419551283  -999.250000 2.3879504204 47.167594910 108.15455627 1.5570000410 53.100490570 1.4160144329 1.4160000086
 2366.9121094 16.000000000 18.479999542 0.0279711541  -999.250000 2.3570001125 49.408584595 107.25700378 1.5670000315 52.940235138 1.4189615250 1.4190000296
 2367.0644531 6.0000000000 18.437000275 0.0190192293  -999.250000 2.3440001011 51.018951416 108.63600159 1.5360000134 52.700325012 1.4109663963 1.4110000134
 2367.2170410 6.0000000000 18.399999619 0.0249326918  -999.250000 2.3449952602 50.984004974 109.50360870 1.5010000467 52.277648926 1.4039664268 1.4040000439
 2367.3693848 6.0000000000 18.381999969 0.0110240001  -999.250000 2.3419744968 49.424945831 109.26030731 1.4780000448 51.855995178 1.3969519138 1.3969999552
 2367.5217285 6.0000000000 18.357000351 0.0160192307  -999.250000 2.3259999752 47.520355225 108.82701111 1.4559999704 51.228927612 1.3869519234 1.3869999647
 2367.6740723 6.0000000000 18.365999222 0.0220352560  -999.250000 2.3359999657 46.496227264 109.26599884 1.4340000153 50.270084381 1.3769471645 1.3769999743
 2367.8266602 6.0000000000 18.395999908 0.0330673084  -999.250000 2.3430368900 46.641201019 110.26887512 1.4320000410 49.077823639 1.3659567833 1.3660000563
 2367.9790039 6.0000000000 18.403999329 0.0469760001  -999.250000 2.3660094738 47.328063965 110.19417572 1.4229999781 49.646800995 1.3569999933 1.3569999933
 2368.1313477 6.0000000000 18.451000214 0.0419711545  -999.250000 2.3719711304 47.992195129 110.30793762 1.4119999409 50.216785431 1.3569999933 1.3569999933
 2368.2836914 6.0000000000 18.714000702 0.0329583324  -999.250000 2.3540000916 48.738086700 110.89399719 1.4110000134 53.265964508 1.3569999933 1.3569999933
 2368.4362793 6.0000000000 18.673999786 0.0199567303  -999.250000 2.3559823036 50.044387817 111.65605164 1.4210000038 55.126831055 1.3569999933 1.3569999933
 2368.5886230 6.0000000000 18.447999954 0.0110240001  -999.250000 2.3449969292 51.723617554 112.31135559 1.4309999943 56.004634857 1.3569999933 1.3569999933
 2368.7409668 6.0000000000 18.429000854 0.0160064101  -999.250000 2.3429999352 52.730228424 112.53450012 1.4509999752 55.260608673 1.3570096493 1.3569999933
 2368.8933105 6.0000000000 18.349000931 0.0179711524  -999.250000 2.3429999352 52.246215820 113.47000122 1.4730000496 52.649013519 1.3590096235 1.3589999676
 2369.0456543 6.0000000000 18.302999496 0.0090064099  -999.250000 2.3350000381 50.508026123 112.80500031 1.4759999514 52.030235291 1.3610143661 1.3609999418
 2369.1982422 6.0000000000 18.301000595 0.0110480003  -999.250000 2.3270030022 48.650810242 111.90518951 1.4559999704 52.178798676 1.3640096188 1.3639999628
 2369.3505859 6.0000000000 18.481000900 0.0210128203  -999.250000 2.3290143013 47.656620026 112.02490997 1.4340000153 52.427181244 1.3660097122 1.3660000563
