# LAS format log file from PETREL
# Project units are specified as depth units
#==================================================================
~Version information
VERS.   2.0:
WRAP.   NO:
#==================================================================
~Well
STRT .m      511.89910889 :
STOP .m      4480.0908203 :
STEP .m     0.00000000 :
NULL .        -999.250000 :
COMP.           : COMPANY
WELL.  35/3-1   : WELL
FLD.            : FIELD
LOC.            : LOCATION
SRVC.           : SERVICE COMPANY
DATE.  2018-09-11 14:48:57   : Log Export Date {yyyy-MM-dd HH:mm:ss}
PROV.           : PROVINCE
UWI.   35/3-1   : UNIQUE WELL ID
API.            : API NUMBER
#==================================================================
~Curve
DEPT .m                   : DEPTH
Lithology_geolink ._      : Lithology_geolink
CALI .in                  : CALI
DRHO .g/cm3               : DRHO
NPHI .m3/m3               : NPHI
RHOB .g/cm3               : RHOB
GR .gAPI                  : GR
DTC .us/ft                : DTC
RDEP .ohm.m               : RDEP
SP .mV                    : SP
RSHA .ohm.m               : RSHA
RMED .ohm.m               : RMED
~Parameter
#==================================================================
~Ascii
# ...
 3939.5278320 6.0000000000 14.310000420 0.1039647460  -999.250000 2.3229615688 67.375991821 81.173004150 4.6869997978  -999.250000  -999.250000 4.5920000076
 3939.6804199 6.0000000000 14.722000122 0.0818656012  -999.250000 2.2989199162 66.116561890 80.699996948 4.7129998207  -999.250000  -999.250000 4.7069997787
 3939.8327637 6.0000000000 14.984000206 0.0399615392  -999.250000 2.2739727497 62.858997345 80.625007629 4.6209998131  -999.250000  -999.250000 5.2960000038
 3939.9851074 6.0000000000 15.265000343 0.0160192307  -999.250000 2.2570240498 58.489078522 79.996002197 4.5619997978  -999.250000  -999.250000 5.9770002365
 3940.1374512 6.0000000000 15.156999588 0.0280224364  -999.250000 2.2720224857 54.171520233 79.057998657 4.5199999809  -999.250000  -999.250000 6.1919999123
 3940.2900391 6.0000000000 14.663999557 0.0420127995  -999.250000 2.2860159874 50.752922058 80.176002502 4.4079999924  -999.250000  -999.250000 5.8359999657
 3940.4423828 6.0000000000 14.311999321 0.0459823720  -999.250000 2.2910015583 49.173450470 81.834999084 4.5760002136  -999.250000  -999.250000 5.2600002289
 3940.5947266 6.0000000000 14.291001320 0.0350176282  -999.250000 2.2920448780 50.707336426 82.314994812 4.8600001335  -999.250000  -999.250000 4.7680001259
 3940.7470703 7.0000000000 14.363000870 0.0460256413  -999.250000 2.3200416565 55.912475586 84.170997620 4.8550000191  -999.250000  -999.250000 4.2680001259
 3940.8996582 7.0000000000 14.567999840 0.0619999990  -999.250000 2.3459935188 63.079208374 84.905998230 4.7540001869  -999.250000  -999.250000 4.2210001945
 3941.0520020 7.0000000000 14.668999672 0.0620016009  -999.250000 2.3439569473 69.066535950 85.089996338 4.6020002365  -999.250000  -999.250000 4.4380002022
 3941.2043457 7.0000000000 14.173999786 0.0630224347  -999.250000 2.3169951439 71.897117615 85.429000854 4.3429999352  -999.250000  -999.250000 4.6970000267
 3941.3566895 7.0000000000 13.673000336 0.0769871771  -999.250000 2.3139934540 71.965644836 82.121002197 4.0060000420  -999.250000  -999.250000 4.9679999352
 3941.5090332 7.0000000000 13.682000160 0.0689999983  -999.250000 2.3099918365 71.117401123 78.791999817 3.8320000172  -999.250000  -999.250000 5.1589999199
 3941.6616211 7.0000000000 13.787000656 0.0689904019  -999.250000 2.3049871922 70.746139526 77.331001282 3.9159998894  -999.250000  -999.250000 5.0580000877
 3941.8139648 7.0000000000 13.804000854 0.0659631416  -999.250000 2.3009536266 70.788299561 77.190002441 4.1420001984  -999.250000  -999.250000 4.7420001030
 3941.9663086 7.0000000000 13.819999695 0.0429951921  -999.250000 2.2719871998 70.346710205 79.083000183 4.2960000038  -999.250000  -999.250000 4.6259999275
 3942.1186523 7.0000000000 14.119000435 0.0400064103  -999.250000 2.2640192509 68.915229797 81.505004883 4.2420001030  -999.250000  -999.250000 4.8109998703
 3942.2712402 7.0000000000 14.713000298 0.0439903997  -999.250000 2.2759969234 66.558700562 82.901000977 4.1810002327  -999.250000  -999.250000 5.0370001793
 3942.4235840 6.0000000000 15.161000252 0.0410240404  -999.250000 2.2750194073 63.656333923 79.711997986 4.4699997902  -999.250000  -999.250000 5.3489999771
 3942.5759277 6.0000000000 15.428000450 0.0560368598  -999.250000 2.2870430946 60.744964600 79.084999084 4.7680001259  -999.250000  -999.250000 5.8189997673
 3942.7282715 6.0000000000 15.298000336 0.0790160298  -999.250000 2.3140192032 58.227703094 78.305000305 4.9310002327  -999.250000  -999.250000 6.1339998245
 3942.8808594 6.0000000000 14.864999771 0.0889680013  -999.250000 2.3259871006 56.168811798 78.401000977 5.0819997787  -999.250000  -999.250000 6.2960000038
 3943.0332031 6.0000000000 14.760999680 0.0789695531  -999.250000 2.3219680786 54.551692963 79.594001770 5.3210000992  -999.250000  -999.250000 6.6230001450
 3943.1855469 6.0000000000 14.876999855 0.0599887818  -999.250000 2.3019728661 53.738437653 77.698997498 5.2760000229  -999.250000  -999.250000 7.0980000496
 3943.3378906 6.0000000000 14.961000443 0.0530096143  -999.250000 2.2849807739 54.640514374 77.623001099 4.7119998932  -999.250000  -999.250000 6.9190001488
 3943.4902344 6.0000000000 14.984999657 0.0590336546  -999.250000 2.2730400562 58.087703705 77.874000549 4.3249998093  -999.250000  -999.250000 5.6750001907
 3943.6428223 6.0000000000 14.928000450 0.0800895989  -999.250000 2.2980480194 64.156959534 80.522994995 4.0890002251  -999.250000  -999.250000 4.3860001564
 3943.7951660 6.0000000000 14.645000458 0.1080544889  -999.250000 2.3130671978 71.629867554 84.935997009 3.7650001049  -999.250000  -999.250000 3.7230000496
 3943.9475098 6.0000000000 15.458000183 0.1420256495  -999.250000 2.3550577164 78.402450562 87.898002625 3.6689999104  -999.250000  -999.250000 3.7200000286
 3944.0998535 7.0000000000 16.759000778 0.1579951942  -999.250000 2.3910224438 82.417427063 88.491996765 3.6480000019  -999.250000  -999.250000 3.9059998989
 3944.2524414 7.0000000000 16.947000504 0.1549327970  -999.250000 2.4049360752 82.674186707 88.331001282 3.6510000229  -999.250000  -999.250000 4.0830001831
 3944.4047852 7.0000000000 16.875999451 0.1339775622  -999.250000 2.3849599361 79.608909607 86.712005615 3.7929999828  -999.250000  -999.250000 4.1570000648
 3944.5571289 7.0000000000 16.868000031 0.1199407056  -999.250000 2.3599004745 74.559722900 84.972999573 3.9649999142  -999.250000  -999.250000 4.2529997826
 3944.7094727 6.0000000000 16.823999405 0.0829631388  -999.250000 2.2979328632 68.772102356 82.982002258 4.1550002098  -999.250000  -999.250000 4.5170001984
 3944.8620605 6.0000000000 16.325000763 0.0599487983  -999.250000 2.2558753490 63.218658447 81.745002747 4.1199998856  -999.250000  -999.250000 5.3270001411
 3945.0144043 6.0000000000 15.766999245 0.0439759605  -999.250000 2.2169327736 59.374195099 77.863998413 3.7760000229  -999.250000  -999.250000 6.0720000267
 3945.1667480 6.0000000000 15.852999687 0.0290336534  -999.250000 2.1750240326 58.878601074 74.068000793 3.7139999866  -999.250000  -999.250000 5.3179998398
 3945.3190918 6.0000000000 15.611000061 0.0499855764  -999.250000 2.1899647713 62.378295898 73.661003113 3.7000000477  -999.250000  -999.250000 4.0440001488
 3945.4714355 6.0000000000 15.387999535 0.0409887843  -999.250000 2.1680369377 68.803344727 77.147003174 3.6589999199  -999.250000  -999.250000 3.5499999523
 3945.6240234 7.0000000000 15.942999840 0.0340640023  -999.250000 2.1911151409 75.886199951 82.750999451 3.5980000496  -999.250000  -999.250000 3.2599999905
 3945.7763672 7.0000000000 16.107000351 0.0540352575  -999.250000 2.2270913124 81.245521545 87.448997498 3.5299999714  -999.250000  -999.250000 3.0439999104
 3945.9287109 7.0000000000 15.944999695 0.0760272443  -999.250000 2.2840576172 83.440696716 89.975997925 3.4860000610  -999.250000  -999.250000 3.1289999485
 3946.0810547 6.0000000000 15.803000450 0.0930224359  -999.250000 2.3200030327 81.997756958 87.343002319 3.4839999676  -999.250000  -999.250000 3.7000000477
 3946.2336426 6.0000000000 15.355999947 0.1070064008  -999.250000 2.3218688965 77.465972900 82.487007141 3.6029999256  -999.250000  -999.250000 5.4320001602
 3946.3859863 6.0000000000 15.099000931 0.1089871749  -999.250000 2.2809278965 71.529624939 77.345001221 3.9539999962  -999.250000  -999.250000 7.3309998512
 3946.5383301 6.0000000000 15.328000069 0.1009791717  -999.250000 2.2359423637 66.305755615 75.244003296 4.3649997711  -999.250000  -999.250000 7.3979997635
 3946.6906738 6.0000000000 15.740000725 0.0879439116  -999.250000 2.1999311447 63.664958954 74.078002930 4.7270002365  -999.250000  -999.250000 6.2049999237
 3946.8432617 6.0000000000 16.047000885 0.0528879985  -999.250000 2.1568977833 64.270576477 71.117996216 5.1090002060  -999.250000  -999.250000 5.0120000839
 3946.9956055 6.0000000000 16.083000183 0.0179759599  -999.250000 2.1250560284 67.257987976 73.043998718 5.3220000267  -999.250000  -999.250000 4.3810000420
 3947.1479492 7.0000000000 15.746998787 0.0029887820  -999.250000 2.1601250172 70.991966248 74.075996399 4.8699998856  -999.250000  -999.250000 3.8529999256
