# LAS format log file from PETREL
# Project units are specified as depth units
#==================================================================
~Version information
VERS.   2.0:
WRAP.   NO:
#==================================================================
~Well
STRT .m      3245.2055664 :
STOP .m      4039.9716797 :
STEP .m     0.00000000 :
NULL .        -999.250000 :
COMP.           : COMPANY
WELL.  35/3-7 S   : WELL
FLD.            : FIELD
LOC.            : LOCATION
SRVC.           : SERVICE COMPANY
DATE.  2018-09-11 14:48:58   : Log Export Date {yyyy-MM-dd HH:mm:ss}
PROV.           : PROVINCE
UWI.   35/3-7 S   : UNIQUE WELL ID
API.            : API NUMBER
#==================================================================
~Curve
DEPT .m                   : DEPTH
Lithology_geolink ._      : Lithology_geolink
CALI .in                  : CALI
BS .in                    : BS
ROP .m/h                  : ROP
DRHO .g/cm3               : DRHO
THOR .ppm                 : THOR
NPHI .m3/m3               : NPHI
RHOB .g/cm3               : RHOB
PEF .b/e                  : PEF
GR .gAPI                  : GR
URAN .ppm                 : URAN
DTC .us/ft                : DTC
DTS .us/ft                : DTS
RDEP .ohm.m               : RDEP
RMIC .ohm.m               : RMIC
RMED .ohm.m               : RMED
~Parameter
#==================================================================
~Ascii
# ...
 3718.8647461 2.0000000000 8.2757997513 8.5000000000 61.056430817 -0.011700000 3.1965999603 0.1556999981 2.4175999165 6.6923999786 75.533897400 0.6306999922 76.403503418 133.14990234 4.1402997971 1.3789000511 3.7980000973
 3719.0170898 2.0000000000 8.2663002014 8.5000000000 62.593177795 -0.014200000 3.6075999737 0.1557999998 2.4251000881 6.5782999992 71.185897827 0.5597000122 75.980102539 132.69940186 4.2796998024 1.3592000008 3.9484000206
 3719.1696777 2.0000000000 8.2663002014 8.5000000000 57.398620605 -0.016200000 3.2925999165 0.1541000009 2.4303998947 6.5055999756 72.380798340 0.4948000312 75.646598816 131.46420288 5.1535000801 1.5765000582 4.7631001472
 3719.3220215 2.0000000000 8.2568998337 8.5000000000 53.998359680 -0.016500000 3.3338000774 0.1529999971 2.4249000549 6.5444998741 75.414299011 0.6470999718 74.771697998 129.90739441 4.9095997810 1.6490000486 4.5008997917
 3719.4743652 1.0000000000 8.2663002014 8.5000000000 55.057090759 -0.017700000 3.1156001091 0.1580999941 2.4117000103 6.6354999542 75.740196228 0.5976999998 74.603401184 128.98109436 4.9657998085 1.4034999609 4.4861001968
 3719.6267090 1.0000000000 8.2805004120 8.5000000000 53.486873627 -0.020500001 3.2455999851 0.1536999941 2.4014000893 6.6944999695 70.096099854 0.5813000202 74.841598511 128.14540100 4.0763998032 1.2412999868 3.6710999012
 3719.7792969 1.0000000000 8.2852001190 8.5000000000 52.645996094 -0.020199999 3.0109999180 0.1509000063 2.4098000526 6.7238001823 67.871597290 0.6215000153 74.758911133 127.78610229 4.7498998642 1.1512000561 4.2846999168
 3719.9316406 1.0000000000 8.2805004120 8.5000000000 56.270336151 -0.016600000 2.8870999813 0.1317999959 2.4182999134 6.7744998932 66.635597229 0.5848000050 74.726699829 127.37470245 5.2448000908 1.2173999548 4.7195000648
 3720.0839844 1.0000000000 8.2718000412 8.5000000000 58.961940765 -0.013000000 2.9096000195 0.1261000037 2.4175999165 6.7418999672 67.040100098 0.4917999804 75.027999878 126.97200012 5.0079998970 1.1377999783 4.5241999626
 3720.2363281 1.0000000000 8.2639999390 8.5000000000 53.813976288 -0.013300000 2.3733999729 0.1221999973 2.3917000294 6.6058998108 68.715202332 0.6467000246 75.330703735 127.01090240 4.0479998589 0.8518999815 3.7337000370
 3720.3889160 1.0000000000 8.2718000412 8.5000000000 46.464897156 -0.017600000 2.7425999641 0.1446000040 2.3599998951 6.4064002037 66.333396912 0.2985000014 76.222801208 127.38710022 3.0046000481 0.6444000006 2.8169000149
 3720.5412598 1.0000000000 8.2852001190 8.5000000000 50.957023621 -0.019600000 2.9855999947 0.1720999926 2.3275001049 6.3463001251 67.138900757 0.2788000107 76.993499756 132.29640198 3.0422000885 0.5187000036 2.8796999454
 3720.6936035 1.0000000000 8.2757997513 8.5000000000 67.994750977 -0.018300001 3.1326999664 0.1917999983 2.3234999180 6.3555002213 69.103897095 0.3242000043 78.618705750 137.56559753 2.6345000267 0.4821999967 2.5190999508
 3720.8459473 1.0000000000 8.2757997513 8.5000000000 78.604988098 -0.015699999 3.5638999939 0.1890999973 2.3480000496 6.3213000298 74.013603210 0.3296000063 79.008300781 139.19929504 2.8376998901 0.5746999979 2.7225999832
 3720.9982910 1.0000000000 8.2852001190 8.5000000000 81.108596802 -0.017300000 3.9539999962 0.1762000024 2.3738999367 6.2800998688 78.938201904 0.3971999884 79.711303711 139.80490112 5.8758997917 0.7638000250 5.6132998466
 3721.1508789 1.0000000000 8.2522001266 8.5000000000 76.943237305 -0.020500001 4.0297999382 0.1665000021 2.3919999599 6.2325000763 77.039802551 0.4806000292 79.303199768 139.91580200 3.1930999756 1.0456000566 3.0959999561
 3721.3032227 1.0000000000 8.2474002838 8.5000000000 66.192260742 -0.022200000 3.9634001255 0.1580000073 2.3942999840 6.2817001343 77.848800659 0.5659999847 77.412101746 139.71499634 3.1612999439 0.9986000061 3.1294999123
 3721.4555664 2.0000000000 8.2379999161 8.5000000000 59.202426910 -0.021199999 3.7827000618 0.1591999978 2.3921000957 6.3580999374 75.556701660 0.5178999901 77.045997620 134.97450256 4.6950998306 1.2316000462 4.6456999779
 3721.6079102 2.0000000000 8.2426996231 8.5000000000 59.244094849 -0.022200000 3.7239000797 0.1620000005 2.3759999275 6.4693999290 76.667098999 0.4014999866 77.308502197 134.74159241 4.1715002060 1.0233000517 4.0826997757
 3721.7604980 2.0000000000 8.2379999161 8.5000000000 57.267059326 -0.025900001 3.7098999023 0.1821999997 2.3508999348 6.5483999252 75.757003784 0.3610999882 79.004394531 135.44389343 3.0107998848 0.7786999941 2.9407999516
 3721.9128418 2.0000000000 8.2379999161 8.5000000000 59.335296631 -0.032400001 4.4993000031 0.1882999986 2.3262000084 6.5977997780 72.723503113 0.0164000001 79.720298767 137.86959839 3.2448000908 0.6215999722 3.1312999725
 3722.0651855 2.0000000000 8.2325000763 8.5000000000 71.549537659 -0.035999998 3.9219999313 0.1982000023 2.3097000122 6.6708998680 70.376899719 0.5593000054 80.397201538 139.13659668 3.0527999401 0.5720000267 2.9351999760
 3722.2175293 2.0000000000 8.2285995483 8.5000000000 86.185035706 -0.034499999 4.1679000854 0.2004999965 2.3110001087 6.7880001068 70.600097656 0.5286999941 81.330703735 142.51600647 2.6284999847 0.5177000165 2.5360000134
 3722.3701172 2.0000000000 8.2333002090 8.5000000000 81.333007813 -0.027500000 4.0784001350 0.1894000024 2.3413999081 6.8751997948 77.172698975 0.8553000093 80.887298584 143.44990540 2.4660999775 0.5683000088 2.3652999401
 3722.5224609 5.0000000000 8.2325000763 8.5000000000 63.014110565 -0.019800000 4.3741002083 0.1656000018 2.3905999660 6.9197998047 82.026298523 1.1502000093 79.807197571 142.40119934 3.6045999527 0.8292999864 3.4209001064
 3722.6748047 5.0000000000 8.3513002396 8.5000000000 50.162731171 -0.013100000 5.2255997658 0.1524000019 2.4426000118 6.8663001060 88.274497986 1.2804000378 79.128501892 138.80220032 8.4235000610 1.4180999994 7.9472999573
 3722.8271484 5.0000000000 8.4787998199 8.5000000000 44.536090851 -0.009000000 5.8682999611 0.1579000056 2.4730000496 6.7557001114 90.195800781 1.2865999937 77.481597900 134.23449707 7.4697999954 2.2757999897 7.0524997711
 3722.9794922 5.0000000000 8.3985004425 8.5000000000 38.909450531 -0.007200000 5.4916000366 0.1655000001 2.4823000431 6.5746002197 91.105796814 1.2110999823 76.394401550 133.27639771 7.0487999916 2.1765999794 6.6125998497
 3723.1320801 5.0000000000 8.2757997513 8.5000000000 34.546913147 -0.008900000 5.3541002274 0.1596000046 2.4763000011 6.4210000038 87.593200684 0.9950999618 74.797302246 128.70799255 4.8534002304 2.3152999878 4.5569000244
 3723.2844238 5.0000000000 8.3662996292 8.5000000000 35.237861633 -0.017000001 4.7192001343 0.1479000002 2.4572999477 6.4787998199 83.149803162 1.0904999971 74.601997375 126.39170074 6.0342001915 1.8624000549 5.4352002144
 3723.4367676 5.0000000000 8.2639999390 8.5000000000 38.609580994 -0.019400002 4.3832001686 0.1396999955 2.4472000599 6.6925997734 77.285102844 1.1486999989 74.830299377 125.99040222 4.1774001122 2.1231999397 3.7632000446
 3723.5891113 2.0000000000 8.2615995407 8.5000000000 38.023948669 -0.019200001 3.2769000530 0.1383000016 2.4437999725 6.9057998657 73.618400574 1.2621999979 74.112098694 127.15239716 4.1230001450 2.0557000637 3.6633999348
 3723.7416992 2.0000000000 8.2639999390 8.5000000000 38.902229309 -0.015699999 2.9075999260 0.1386000067 2.4407999516 6.9383001328 68.455703735 1.0405999422 74.112800598 130.12500000 4.0381999016 1.8860000372 3.5796999931
 3723.8940430 2.0000000000 8.2679004669 8.5000000000 42.427494049 -0.019900000 2.6521999836 0.1483000070 2.4228999615 6.8976001740 65.017799377 1.1511000395 74.321296692 130.44979858 4.0075001717 1.4059000015 3.5910000801
 3724.0463867 1.0000000000 8.2679004669 8.5000000000 53.959976196 -0.022100000 2.7697000504 0.1458999962 2.4063000679 6.8913998604 65.164100647 0.7894999981 74.363296509 129.31770325 4.0960001945 1.2010999918 3.7232999802
 3724.1987305 1.0000000000 8.2757997513 8.5000000000 71.268699646 -0.020199999 3.1050000191 0.1518000066 2.4015998840 6.9618000984 65.871902466 0.4586000144 74.377197266 129.07110596 4.3158998489 1.1711000204 3.9511001110
 3724.3513184 1.0000000000 8.2797002792 8.5000000000 74.466865540 -0.015000000 3.0006999969 0.1489000022 2.4126999378 7.0225000381 68.521797180 0.3670000136 74.647003174 127.09220123 4.5198001862 1.1864000559 4.1399002075
