# LAS format log file from PETREL
# Project units are specified as depth units
#==================================================================
~Version information
VERS.   2.0:
WRAP.   NO:
#==================================================================
~Well
STRT .m      3245.2055664 :
STOP .m      4039.9716797 :
STEP .m     0.00000000 :
NULL .        -999.250000 :
COMP.           : COMPANY
WELL.  35/3-7 S   : WELL
FLD.            : FIELD
LOC.            : LOCATION
SRVC.           : SERVICE COMPANY
DATE.  2018-09-11 14:48:58   : Log Export Date {yyyy-MM-dd HH:mm:ss}
PROV.           : PROVINCE
UWI.   35/3-7 S   : UNIQUE WELL ID
API.            : API NUMBER
#==================================================================
~Curve
DEPT .m                   : DEPTH
Lithology_geolink ._      : Lithology_geolink
CALI .in                  : CALI
BS .in                    : BS
ROP .m/h                  : ROP
DRHO .g/cm3               : DRHO
THOR .ppm                 : THOR
NPHI .m3/m3               : NPHI
RHOB .g/cm3               : RHOB
PEF .b/e                  : PEF
GR .gAPI                  : GR
URAN .ppm                 : URAN
DTC .us/ft                : DTC
DTS .us/ft                : DTS
RDEP .ohm.m               : RDEP
RMIC .ohm.m               : RMIC
RMED .ohm.m               : RMED
~Parameter
#==================================================================
~Ascii
# ...
 3510.2290039 6.0000000000 8.5306997299 8.5000000000 59.631416321 -0.007504160 7.9756999016 0.1755204797 2.6302876472 4.7502136230 94.629623413 1.0339000225 74.733848572 147.54824829 4.9723000526 7.6930150986 5.5334000587
 3510.3815918 6.0000000000 8.5495996475 8.5000000000 67.503120422 -0.007999199 8.1323995590 0.1744017601 2.6262066364 4.7123603821 92.322219849 0.8118000031 74.334144592 146.42730713 4.8892998695 7.5123968124 5.4237999916
 3510.5339355 6.0000000000 8.5591001511 8.5000000000 62.092041016 -0.008798718 8.5728998184 0.1785932630 2.6217072010 4.7451472282 91.180419922 0.7221000195 74.203208923 145.78233337 4.7702999115 7.2440299988 5.2901000977
 3510.6862793 6.0000000000 8.5637998581 8.5000000000 56.037921906 -0.008200961 8.8381004333 0.1798979193 2.6253941059 4.7885303497 89.389770508 0.5307000279 74.888900757 144.30218506 4.7523999214 7.2580766678 5.2701001167
 3510.8386230 6.0000000000 8.5637998581 8.5000000000 47.640758514 -0.007900480 8.7512998581 0.1775038391 2.6289942265 4.7975854874 88.478256226 0.4415999949 74.883201599 143.84432983 4.8931999207 7.2852563858 5.4277000427
 3510.9909668 6.0000000000 8.5778999329 8.5000000000 35.711483002 -0.009096161 8.7054996490 0.1802910417 2.6289002895 4.7535414696 88.804244995 0.5709999800 74.925361633 142.25061035 4.8759999275 6.4047265053 5.4155001640
 3511.1435547 6.0000000000 8.5826997757 8.5000000000 32.929134369 -0.010897116 8.9974002838 0.1906833351 2.6226100922 4.7173576355 90.016754150 0.4101999998 76.167709351 141.51007080 4.6054000854 5.7128062248 5.1181998253
 3511.2958984 6.0000000000 8.5944995880 8.5000000000 33.028541565 -0.012197916 8.9724998474 0.1981879771 2.6139137745 4.6929392815 92.138694763 0.6373999715 76.118881226 145.62438965 4.2062997818 5.3748407364 4.6795001030
 3511.4482422 6.0000000000 8.6022996902 8.5000000000 32.243438721 -0.013697596 8.2861003876 0.1992982477 2.6072106361 4.6783232689 96.054321289 0.7530999780 76.120201111 145.89286804 4.4307999611 5.0607037544 4.9251999855
 3511.6005859 6.0000000000 8.6181001663 8.5000000000 39.981300354 -0.015693599 8.7273998260 0.1953127980 2.5996243954 4.7015256882 91.424087524 0.5690000057 76.065979004 146.49168396 4.5320000648 5.2219805717 5.0473999977
 3511.7531738 6.0000000000 8.6141004562 8.5000000000 48.344161987 -0.015699999 8.8606996536 0.1843176335 2.6031942368 4.7284569740 92.549270630 0.4853999913 75.709175110 146.45376587 4.3596000671 5.9394493103 4.8684000969
 3511.9055176 6.0000000000 8.5944995880 8.5000000000 52.183399200 -0.011307051 8.4742002487 0.1799070537 2.6209714413 4.6964516640 89.102142334 0.6083999872 75.259025574 144.90138245 5.2656998634 6.2660775185 5.8701000214
 3512.0578613 6.0000000000 8.5944995880 8.5000000000 71.992126465 -0.007406250 8.1747999191 0.1796004772 2.6392707825 4.6466794014 92.932846069 0.7383999825 75.340667725 152.88308716 4.4664998055 6.2928581238 4.9791998863
 3512.2102051 6.0000000000 8.5874004364 8.5000000000 94.383857727 -0.007400000 7.2960000038 0.1898670346 2.6444833279 4.6750087738 93.211921692 0.8744999766 75.288963318 144.21905518 4.3836002350 5.7313027382 4.8822999001
 3512.3627930 6.0000000000 8.5967998505 8.5000000000 90.966537476 -0.009296956 6.8249998093 0.1854072064 2.6402068138 4.7633585930 92.724487305 0.8740000129 76.041091919 147.54850769 4.5219001770 5.7344918251 5.0405998230
 3512.5151367 6.0000000000 8.6015996933 8.5000000000 70.180114746 -0.011396634 6.6905999184 0.1842019260 2.6285188198 4.8272976875 90.603706360 1.0691000223 75.313270569 147.85641479 4.6656999588 5.7461814880 5.2006001472
 3512.6674805 6.0000000000 8.5984001160 8.5000000000 45.274604797 -0.011599679 7.0109000206 0.1855977476 2.6193146706 4.7915577888 88.811164856 0.9527000189 75.950981140 147.12437439 4.4449000359 5.5950427055 4.9558000565
 3512.8198242 6.0000000000 8.6063003540 8.5000000000 34.207679749 -0.012298877 7.3250999451 0.1874969602 2.6070199013 4.7648429871 90.423606873 1.0335999727 75.841773987 147.04731750 4.3956999779 5.4578199387 4.9035000801
 3512.9721680 6.0000000000 8.5967998505 8.5000000000 30.455709457 -0.012599040 7.1361999512 0.1776316762 2.6065015793 4.7819452286 90.699226379 0.9108999968 76.038764954 148.02755737 4.6765999794 5.7379999161 5.2214999199
 3513.1247559 6.0000000000 8.5708999634 8.5000000000 34.721458435 -0.012300480 7.4158000946 0.1680153757 2.6092953682 4.8808412552 87.138610840 0.8507000208 75.959831238 149.51042175 5.0255999565 6.2108421326 5.6119999886
 3513.2770996 6.0000000000 8.5495996475 8.5000000000 41.059711456 -0.008705770 6.8682999611 0.1623091400 2.6135931015 4.9914226532 84.508010864 0.9129999876 74.891716003 144.19613647 5.2077999115 6.4198656082 5.8225998878
 3513.4294434 5.0000000000 8.5495996475 8.5000000000 46.485565186 -0.006703205 7.3159999847 0.1649956852 2.6158964634 5.0588917732 82.514198303 0.9007999897 74.818717957 144.92941284 4.8104000092 6.3612942696 5.3705000877
 3513.5817871 5.0000000000 8.5448999405 8.5000000000 46.816928864 -0.006101920 7.1114001274 0.1663955152 2.6236748695 5.0422539711 87.046646118 0.7955999970 74.457962036 145.37107849 4.5892000198 6.1131963730 5.1195001602
 3513.7343750 5.0000000000 8.5448999405 8.5000000000 47.486877441 -0.009594391 6.6568999290 0.1683968008 2.6292910576 5.0186376572 89.080261230 0.7803999782 74.735443115 145.11950684 4.7726998329 5.5804538727 5.3214001656
 3513.8867188 5.0000000000 8.5448999405 8.5000000000 44.991470337 -0.011297276 6.6205000877 0.1705964655 2.6309974194 5.0018267632 90.877326965 0.9369000196 75.342422485 144.80250549 5.0787000656 5.8308963776 5.6765999794
 3514.0390625 5.0000000000 8.5394001007 8.5000000000 33.663059235 -0.011799200 6.9867000580 0.1721974313 2.6267068386 4.9622635841 87.245834351 1.1333999634 75.318435669 143.41772461 5.2051000595 6.0068182945 5.8310999870
 3514.1914063 5.0000000000 8.5473003387 8.5000000000 32.184055328 -0.011999360 7.5672998428 0.1729974300 2.6195230484 4.8922247887 86.864105225 0.9653000236 75.832145691 143.76329041 5.0781002045 6.2405505180 5.6939997673
 3514.3439941 5.0000000000 8.5448999405 8.5000000000 40.561679840 -0.012798717 7.3214001656 0.1707036793 2.6114127636 4.8496675491 84.968147278 1.0132999420 75.412178040 145.76300049 5.0338997841 5.8410425186 5.6602997780
 3514.4963379 5.0000000000 8.5432996750 8.5000000000 69.025260925 -0.012800000 7.1389999390 0.1807838231 2.6092035770 4.8664727211 86.984260559 0.9117000103 75.302375793 145.50222778 5.0267000198 5.8301167488 5.6623997688
 3514.6486816 5.0000000000 8.5543003082 8.5000000000 101.55183411 -0.010403846 7.0156998634 0.1869900674 2.6220793724 4.8944549561 89.080146790 1.0155999660 75.377876282 145.52056885 4.3059000969 6.1010651588 4.8470001221
 3514.8010254 6.0000000000 8.5354995728 8.5000000000 118.24507904 -0.007005449 7.1168999672 0.1943881363 2.6430664063 4.8986935616 91.859642029 1.0630999804 75.722152710 145.56323242 4.1613998413 5.9801945686 4.6767997742
 3514.9533691 6.0000000000 8.5402002335 8.5000000000 154.87794495 -0.005803840 7.2637000084 0.1849303991 2.6525695324 4.9130535126 93.779151917 0.9852999449 75.264472961 145.68441772 4.0812001228 6.5937294960 4.5766000748
 3515.1059570 6.0000000000 8.5394001007 8.5000000000 166.46916199 -0.005200962 6.4955000877 0.1802075207 2.6534986496 4.8762593269 93.381546021 1.0113999844 74.992034912 145.05661011 4.3372001648 6.6373333931 4.8393001556
 3515.2583008 6.0000000000 8.5306997299 8.5000000000 150.46228027 -0.008195193 6.3559999466 0.1738102585 2.6333324909 4.8737039566 90.705696106 1.0853999853 74.694976807 145.23881531 4.3045001030 7.0893745422 4.8022999763
 3515.4106445 6.0000000000 8.5448999405 8.5000000000 115.23458099 -0.010196796 5.9837999344 0.1737001687 2.6184239388 4.8639159203 89.590888977 0.9395999908 74.375610352 145.36019897 4.2982997894 6.4314570427 4.7947001457
 3515.5629883 6.0000000000 8.5629997253 8.5000000000 80.493110657 -0.011894560 6.1465997696 0.1653268784 2.6038467884 4.9629821777 86.464530945 0.9053999782 73.876403809 146.39138794 4.2546000481 5.6661534309 4.7490000725
 3515.7155762 6.0000000000 8.5778999329 8.5000000000 54.630908966 -0.010302564 6.4029998779 0.1522209942 2.6115875244 5.1192498207 83.155998230 0.9106000066 73.636581421 143.65629578 5.2217001915 5.7230048180 5.8548998833
