# LAS format log file from PETREL
# Project units are specified as depth units
#==================================================================
~Version information
VERS.   2.0:
WRAP.   NO:
#==================================================================
~Well
STRT .m      3245.2055664 :
STOP .m      4039.9716797 :
STEP .m     0.00000000 :
NULL .        -999.250000 :
COMP.           : COMPANY
WELL.  35/3-7 S   : WELL
FLD.            : FIELD
LOC.            : LOCATION
SRVC.           : SERVICE COMPANY
DATE.  2018-09-11 14:48:58   : Log Export Date {yyyy-MM-dd HH:mm:ss}
PROV.           : PROVINCE
UWI.   35/3-7 S   : UNIQUE WELL ID
API.            : API NUMBER
#==================================================================
~Curve
DEPT .m                   : DEPTH
Lithology_geolink ._      : Lithology_geolink
CALI .in                  : CALI
BS .in                    : BS
ROP .m/h                  : ROP
DRHO .g/cm3               : DRHO
THOR .ppm                 : THOR
NPHI .m3/m3               : NPHI
RHOB .g/cm3               : RHOB
PEF .b/e                  : PEF
GR .gAPI                  : GR
URAN .ppm                 : URAN
DTC .us/ft                : DTC
DTS .us/ft                : DTS
RDEP .ohm.m               : RDEP
RMIC .ohm.m               : RMIC
RMED .ohm.m               : RMED
~Parameter
#==================================================================
~Ascii
# ...
 3876.7512207 7.0000000000 8.5024003983 8.5000000000 73.217842102 -0.010600000 10.714699745 0.2308000028 2.5590000153 4.0854997635 117.93560028 1.7010999918 80.615997314 150.30108643 3.1410999298 3.0831999779 3.1747000217
 3876.9035645 7.0000000000 8.5024003983 8.5000000000 114.97374725 -0.011400000 10.808099747 0.2419999987 2.5552000999 4.0809001923 119.80359650 1.6190999746 77.814399719 154.02729797 3.0685999393 2.9281001091 3.1057000160
 3877.0559082 7.0000000000 8.5039997101 8.5000000000 117.70013428 -0.011500000 10.424200058 0.2386000007 2.5545001030 4.1055002213 123.53639984 1.4304000139 79.464401245 150.66059875 2.9010000229 2.8993999958 2.9535000324
 3877.2084961 7.0000000000 8.5071001053 8.5000000000 100.88845062 -0.010800000 10.520000458 0.2388000041 2.5550999641 4.1227002144 118.48359680 1.2936999798 80.119499207 150.69389343 3.0553998947 2.9640998840 3.1401000023
 3877.3608398 6.0000000000 8.5117998123 8.5000000000 93.173889160 -0.011200000 10.896599770 0.2291000038 2.5566000938 4.1514000893 116.78600311 1.2662999630 82.593803406 149.05079651 3.0021998882 3.0002999306 3.1149001122
 3877.5131836 6.0000000000 8.5402002335 8.5000000000 89.969818115 -0.010200000 11.174400330 0.2284999937 2.5645000935 4.1414999962 110.91889954 1.4867999554 85.141098022 147.08979797 3.0125000477 2.9263000488 3.1398000717
 3877.6655273 6.0000000000 8.5747995377 8.5000000000 86.253288269 -0.010600000 11.283300400 0.2264000028 2.5659000874 4.1062002182 113.27249908 1.3107999563 86.598999023 153.01640320 2.9609999657 2.9442000389 3.1078000069
 3877.8181152 6.0000000000 8.5778999329 8.5000000000 78.585632324 -0.011400000 11.220499992 0.2305999994 2.5562996864 4.0781002045 113.16230011 1.4627000093 87.327003479 152.79229736 2.7869999409 2.7562999725 2.9525001049
 3877.9704590 6.0000000000 8.5866003036 8.5000000000 73.443244934 -0.012500000 10.622099876 0.2284000069 2.5402998924 4.1244001389 113.56610107 1.5421999693 88.041694641 149.13420105 2.6394999027 2.7697999477 2.8183000088
 3878.1228027 6.0000000000 8.5904998779 8.5000000000 73.520011902 -0.012900000 10.233099937 0.2196999937 2.5306000710 4.2355999947 118.51380157 1.4493000507 84.985099792 154.60208130 2.9693000317 2.9196999073 3.2056000233
 3878.2751465 7.0000000000 8.6771001816 8.5000000000 84.687004089 -0.012100000 10.280699730 0.2228000015 2.5322999954 4.3305001259 122.19110107 1.5099999905 85.899803162 155.71249390 2.9284999371 2.9447999001 3.2026000023
 3878.4277344 7.0000000000 8.7195997238 8.5000000000 108.21358490 -0.011800000 10.732999802 0.2252999991 2.5402998924 4.3445000648 124.13400269 1.7487000227 85.796096802 157.29301453 3.2114000320 2.8942999840 3.5160999298
 3878.5800781 7.0000000000 8.6534996033 8.5000000000 115.23065186 -0.010100000 11.058099747 0.2424000055 2.5520999432 4.2768998146 119.84179688 1.6129000187 83.291488647 154.53309631 3.1802000999 2.7212998867 3.4877998829
 3878.7324219 6.0000000000 8.6440000534 8.5000000000 104.42683411 -0.007900000 10.623499870 0.2339999974 2.5653998852 4.3050999641 115.72329712 2.0527999401 80.862396240 149.33090210 3.1535999775 2.8431000710 3.4602999687
 3878.8847656 6.0000000000 8.6613998413 8.5000000000 102.12204742 -0.005800000 11.081800461 0.2316000015 2.5731999874 4.5482001305 114.20089722 2.1677999496 80.799598694 147.71290588 3.1879999638 2.7393999100 3.5050001144
 3879.0371094 6.0000000000 8.6456003189 8.5000000000 93.155838013 -0.006000000 10.283200264 0.2069000006 2.5752000809 5.0413999557 116.33989716 1.9485000372 83.156501770 146.89810181 3.1317000389 2.8322000504 3.4398000240
 3879.1896973 6.0000000000 8.6613998413 8.5000000000 74.297241211 -0.001000000 9.2434997559 0.1547999978 2.5936999321 5.7045001984 109.35949707 1.9026999474 83.866798401 143.44320679 3.2637000084 3.1347000599 3.5817000866
 3879.3420410 6.0000000000 8.7006998062 8.5000000000 53.131561279 0.0004000000 7.8934998512 0.0944000036 2.6068999767 6.3371000290 97.964500427 1.8977999687 79.398902893 137.76870728 3.4128999710 4.1803002357 3.7541000843
 3879.4943848 6.0000000000 8.5826997757 8.5000000000 41.280185699 -0.004000000 7.3112001419 0.0542999990 2.6094999313 6.8365001678 83.564903259 1.7438999414 76.907501221 133.62849426 5.7217001915 6.6326999664 6.3183999062
 3879.6467285 16.000000000 8.6181001663 8.5000000000 26.107938766 -0.013200000 7.9463996887 0.0964000002 2.5959000587 6.8678998947 83.279403687 2.0065000057 76.875801086 129.49339294 11.702099800 2.6837000847 13.152000427
 3879.7993164 6.0000000000 8.6676998138 8.5000000000 15.981298447 -0.023200000 8.6198997498 0.1527999938 2.5838999748 6.2888998985 93.342300415 2.0845000744 75.805389404 135.20019531 4.7522001266 2.3728001118 5.3814997673
 3879.9516602 6.0000000000 8.5551004410 8.5000000000 10.401574135 -0.019099999 8.8970003128 0.1993999928 2.5866000652 5.4169998169 106.12310028 2.0922000408 75.803604126 141.33659363 3.3345000744 2.1338000298 3.7576000690
 3880.1040039 6.0000000000 8.5511999130 8.5000000000 7.6141734123 -0.014900000 9.1180000305 0.2137999982 2.5882999897 4.6813998222 109.33439636 1.8867000341 77.367202759 149.48289490 3.4242999554 3.4537999630 3.8480999470
 3880.2563477 6.0000000000 8.5551004410 8.5000000000 3.4488189220 -0.005000000 9.0068998337 0.2106000036 2.5992999077 4.4331002235 110.69920349 2.2507998943 78.775100708 155.47169495 3.3685998917 3.5083999634 3.7787001133
 3880.4089355 6.0000000000 8.5637998581 8.5000000000 1.7893701792 -0.003400000 9.5339002609 0.2081000060 2.6096000671 4.4597001076 110.18979645 2.2511000633 79.106101990 158.77000427 3.4677999020 3.5402998924 3.8910000324
 3880.5612793 6.0000000000 8.5904998779 8.5000000000 2.2667324543 -0.004000000 9.0820999146 0.1987999976 2.6161000729 4.6465997696 107.45420074 1.9270999432 80.104499817 158.63278198 3.4086000919 3.6756000519 3.8341000080
 3880.7136230 6.0000000000 8.5197000504 8.5000000000 4.2660760880 -0.007000000 9.2676000595 0.2035000026 2.6119000912 4.8427000046 104.12110138 2.0302999020 80.244201660 157.20700073 3.8403000832 4.0229997635 4.3379998207
 3880.8659668 6.0000000000 8.4834995270 8.5000000000 7.3116798401 -0.009800000 8.7572002411 0.2090000063 2.6003999710 4.9096999168 102.88420105 1.8266999722 78.529502869 156.74819946 3.7351000309 3.9614999294 4.2350001335
 3881.0183105 6.0000000000 8.4882001877 8.5000000000 8.9730968475 -0.011600000 9.2350997925 0.2178999931 2.5876998901 4.8021998405 106.14209747 1.4981000423 78.134399414 157.79609680 3.1763999462 3.8534998894 3.5885999203
 3881.1708984 6.0000000000 8.4764003754 8.5000000000 9.8458003998 -0.012500000 9.5658998489 0.2208999991 2.5818998814 4.6227002144 112.04650116 1.3428000212 76.281600952 159.02651978 3.1426999569 3.6393001080 3.5334000587
 3881.3232422 6.0000000000 8.4694004059 8.5000000000 9.7641077042 -0.012100000 9.4778003693 0.2119999975 2.5841999054 4.4544000626 108.33570099 1.3063000441 77.791900635 158.71600342 3.2464001179 3.7850000858 3.6214001179
 3881.4755859 6.0000000000 8.4804000854 8.5000000000 8.6499338150 -0.010400000 9.3136997223 0.2118999958 2.5892999172 4.3373999596 108.31279755 1.4595999718 78.338203430 157.75450134 3.6268999577 3.8680000305 4.0135002136
 3881.6279297 6.0000000000 8.5079002380 8.5000000000 13.365157127 -0.009800000 9.0282001495 0.1976000071 2.5855000019 4.2697000504 103.16179657 1.4673999548 77.604499817 156.85659790 3.6898999214 3.8582000732 4.0717000961
 3881.7805176 6.0000000000 8.4724998474 8.5000000000 30.452100754 -0.010800000 8.7419004440 0.2005999982 2.5727000237 4.2206001282 107.06289673 1.5519000292 78.188003540 160.97900391 3.3833999634 3.7883999348 3.7262001038
 3881.9328613 7.0000000000 8.5117998123 8.5000000000 37.443897247 -0.011700000 8.8501996994 0.1994999945 2.5596001148 4.1343998909 111.04759979 1.4362000227 79.964599609 162.08850098 3.1073999405 3.5522999763 3.4066998959
 3882.0852051 7.0000000000 8.5079002380 8.5000000000 36.672245026 -0.010700000 9.0714998245 0.2161000073 2.5531001091 4.0693001747 114.25289917 1.1452000141 80.826103210 163.14761353 2.8087999821 3.3410999775 3.0796000957
 3882.2375488 7.0000000000 8.5551004410 8.5000000000 35.181102753 -0.011200000 9.2215995789 0.2252999991 2.5499999523 4.1346001625 115.48979950 1.4262000322 80.712402344 162.71330261 2.7404999733 3.1874001026 3.0034000874
