# LAS format log file from PETREL
# Project units are specified as depth units
#==================================================================
~Version information
VERS.   2.0:
WRAP.   NO:
#==================================================================
~Well
STRT .m      511.89910889 :
STOP .m      4480.0908203 :
STEP .m     0.00000000 :
NULL .        -999.250000 :
COMP.           : COMPANY
WELL.  35/3-1   : WELL
FLD.            : FIELD
LOC.            : LOCATION
SRVC.           : SERVICE COMPANY
DATE.  2018-09-11 14:48:57   : Log Export Date {yyyy-MM-dd HH:mm:ss}
PROV.           : PROVINCE
UWI.   35/3-1   : UNIQUE WELL ID
API.            : API NUMBER
#==================================================================
~Curve
DEPT .m                   : DEPTH
Lithology_geolink ._      : Lithology_geolink
CALI .in                  : CALI
DRHO .g/cm3               : DRHO
NPHI .m3/m3               : NPHI
RHOB .g/cm3               : RHOB
GR .gAPI                  : GR
DTC .us/ft                : DTC
RDEP .ohm.m               : RDEP
SP .mV                    : SP
RSHA .ohm.m               : RSHA
RMED .ohm.m               : RMED
~Parameter
#==================================================================
~Ascii
# ...
 2618.2197266 7.0000000000 18.583999634 0.0470240377  -999.250000 2.1050000191 62.161357880 102.80699921 2.1280000210  -999.250000  -999.250000 1.9659999609
 2618.3720703 7.0000000000 19.392999649 0.0620224364  -999.250000 2.1210000515 61.138435364 97.271011353 2.2109999657  -999.250000  -999.250000 1.9459999800
 2618.5244141 7.0000000000 20.336000443 0.0759919882  -999.250000 2.1470000744 60.786106110 96.916999817 2.2809998989  -999.250000  -999.250000 1.8930000067
 2618.6767578 7.0000000000 20.267002106 0.0709871799  -999.250000 2.1689999104 60.852848053 97.497001648 2.2999999523  -999.250000  -999.250000 1.8799999952
 2618.8293457 7.0000000000 19.799999237 0.0628656000  -999.250000 2.1819999218 60.754547119 96.791000366 2.2590000629  -999.250000  -999.250000 1.9379999638
 2618.9816895 7.0000000000 19.083999634 0.0210288465  -999.250000 2.1570000648 59.988826752 95.316009521 2.1970000267  -999.250000  -999.250000 2.0090000629
 2619.1340332 7.0000000000 18.235000610 0.0390208326  -999.250000 2.1840000153 58.632091522 95.777999878 2.1340000629  -999.250000  -999.250000 1.9939999580
 2619.2863770 7.0000000000 18.562000275 0.0520160273  -999.250000 2.1719999313 57.443752289 95.980003357 2.0580000877  -999.250000  -999.250000 1.8630000353
 2619.4389648 7.0000000000 19.634000778 0.0620287992  -999.250000 2.1610000134 57.292003632 96.694000244 1.9630000591  -999.250000  -999.250000 1.6979999542
 2619.5913086 7.0000000000 20.367000580 0.0709871799  -999.250000 2.1749999523 58.228942871 100.00900269 1.8739999533  -999.250000  -999.250000 1.5449999571
 2619.7436523 7.0000000000 20.760000229 0.0629743636  -999.250000 2.1689999104 59.439407349 103.34200287 1.7920000553  -999.250000  -999.250000 1.4529999495
 2619.8959961 7.0000000000 21.160001755 0.0469839722  -999.250000 2.1530001163 60.318157196 105.11900330 1.7519999743  -999.250000  -999.250000 1.4539999962
 2620.0485840 7.0000000000 21.381000519 0.0370064005  -999.250000 2.1289999485 61.042366028 105.15100098 1.8040000200  -999.250000  -999.250000 1.5089999437
 2620.2009277 7.0000000000 21.494001389 0.0389599353  -999.250000 2.0840001106 62.091762543 106.23500061 1.8750000000  -999.250000  -999.250000 1.6000000238
 2620.3532715 7.0000000000 21.310001373 0.0140000004  -999.250000 2.0369999409 63.189479828 104.43800354 1.9400000572  -999.250000  -999.250000 1.7139999866
 2620.5056152 7.0000000000 20.763999939 0.0140352566  -999.250000 2.0299999714 63.486858368 103.50900269 1.9850000143  -999.250000  -999.250000 1.8470000029
 2620.6579590 7.0000000000 20.479999542 0.0360495970  -999.250000 2.0520000458 62.773921967 100.10199738 2.0060000420  -999.250000  -999.250000 1.9370000362
 2620.8105469 6.0000000000 19.888000488 0.0669919923  -999.250000 2.0769999027 61.474506378 96.541000366 2.0320000648  -999.250000  -999.250000 1.9850000143
 2620.9628906 6.0000000000 19.559999466 0.0620144233  -999.250000 2.0810000896 59.918045044 96.300994873 2.0659999847  -999.250000  -999.250000 2.0169999599
 2621.1152344 6.0000000000 20.049001694 0.0709775686  -999.250000 2.0859999657 58.072799683 96.754997253 2.1370000839  -999.250000  -999.250000 2.0069999695
 2621.2675781 6.0000000000 20.409000397 0.0569935888  -999.250000 2.0759999752 56.077606201 99.127998352 2.1570000648  -999.250000  -999.250000 1.9220000505
 2621.4201660 6.0000000000 20.632999420 0.0530383997  -999.250000 2.0680000782 54.585281372 99.164001465 2.0309998989  -999.250000  -999.250000 1.8070000410
 2621.5725098 6.0000000000 20.719999313 0.0650128201  -999.250000 2.0959999561 54.363788605 97.834999084 1.8949999809  -999.250000  -999.250000 1.7269999981
 2621.7248535 6.0000000000 20.714000702 0.0729647428  -999.250000 2.1480000019 55.481945038 98.979003906 1.8059999943  -999.250000  -999.250000 1.6260000467
 2621.8771973 6.0000000000 21.113000870 0.0509663448  -999.250000 2.1329998970 57.319374084 100.11599731 1.7560000420  -999.250000  -999.250000 1.5260000229
 2622.0297852 7.0000000000 21.494001389 0.0300351996  -999.250000 2.1040000916 59.428066254 101.53299713 1.7359999418  -999.250000  -999.250000 1.4950000048
 2622.1821289 7.0000000000 21.274999619 0.0409791693  -999.250000 2.0869998932 61.632152557 104.93900299 1.7519999743  -999.250000  -999.250000 1.5340000391
 2622.3344727 7.0000000000 20.562000275 0.0279807709  -999.250000 2.0690000057 63.595775604 105.68800354 1.7849999666  -999.250000  -999.250000 1.6059999466
 2622.4868164 7.0000000000 20.044000626 0.0160192307  -999.250000 2.0510001183 64.701515198 103.12800598 1.8250000477  -999.250000  -999.250000 1.7029999495
 2622.6394043 7.0000000000 19.879997253 0.0280672014  -999.250000 2.0520000458 64.391036987 101.30200195 1.8600000143  -999.250000  -999.250000 1.8719999790
 2622.7917480 6.0000000000 19.684999466 0.0490208305  -999.250000 2.0850000381 62.840167999 100.59899139 1.8839999437  -999.250000  -999.250000 1.9980000257
 2622.9440918 6.0000000000 20.013000488 0.0619631410  -999.250000 2.1119999886 61.074504852 98.706001282 1.8949999809  -999.250000  -999.250000 2.0030000210
 2623.0964355 6.0000000000 20.590000153 0.0389791690  -999.250000 2.0810000896 60.143215179 97.605003357 1.8960000277  -999.250000  -999.250000 1.9470000267
 2623.2487793 6.0000000000 20.822000504 0.0260304492  -999.250000 2.0429999828 60.277000427 97.392997742 1.8839999437  -999.250000  -999.250000 1.8370000124
 2623.4013672 6.0000000000 20.836999893 0.0450480022  -999.250000 2.0399999619 60.900684357 99.499000549 1.8470000029  -999.250000  -999.250000 1.7050000429
 2623.5537109 6.0000000000 20.278999329 0.0599983968  -999.250000 2.0859999657 61.426685333 102.23300171 1.7940000296  -999.250000  -999.250000 1.5909999609
 2623.7060547 6.0000000000 19.048000336 0.0589855760  -999.250000 2.1329998970 61.854736328 104.51899719 1.7430000305  -999.250000  -999.250000 1.5219999552
 2623.8583984 6.0000000000 18.584999084 0.0500304513  -999.250000 2.1619999409 62.314216614 104.73100281 1.7100000381  -999.250000  -999.250000 1.4919999838
 2624.0109863 7.0000000000 18.902000427 0.0690415949  -999.250000 2.2039999962 62.446395874 104.23300171 1.7130000591  -999.250000  -999.250000 1.4809999466
 2624.1633301 7.0000000000 18.847000122 0.0819599405  -999.250000 2.2430000305 61.632045746 105.80000305 1.7710000277  -999.250000  -999.250000 1.4910000563
 2624.3156738 7.0000000000 18.788000107 0.0569551289  -999.250000 2.2290000916 59.788730621 107.07599640 1.8719999790  -999.250000  -999.250000 1.5579999685
 2624.4680176 7.0000000000 18.732000351 0.0290144216  -999.250000 2.2090001106 57.749351501 105.65799713 1.9639999866  -999.250000  -999.250000 1.7059999704
 2624.6206055 7.0000000000 18.882999420 0.0380671993  -999.250000 2.2170000076 56.723636627 103.06600189 2.0360000134  -999.250000  -999.250000 1.8789999485
 2624.7729492 7.0000000000 19.364999771 0.0590096153  -999.250000 2.2309999466 57.234992981 100.46900177 2.0880000591  -999.250000  -999.250000 1.9839999676
 2624.9252930 7.0000000000 19.778999329 0.0649839714  -999.250000 2.2149999142 58.475757599 97.789001465 2.1280000210  -999.250000  -999.250000 2.0169999599
 2625.0776367 7.0000000000 20.052999496 0.0550112166  -999.250000 2.1749999523 58.947246552 95.269989014 2.1640000343  -999.250000  -999.250000 2.0559999943
 2625.2299805 7.0000000000 19.999000549 0.0619999990  -999.250000 2.1510000229 57.851928711 95.250999451 2.1760001183  -999.250000  -999.250000 2.0880000591
 2625.3825684 7.0000000000 19.825000763 0.0619871989  -999.250000 2.1380000114 55.934692383 94.935997009 2.1189999580  -999.250000  -999.250000 2.0620000362
 2625.5349121 7.0000000000 19.364999771 0.0580080114  -999.250000 2.1280000210 54.592903137 96.531997681 2.0030000210  -999.250000  -999.250000 1.9490000010
 2625.6872559 7.0000000000 19.149000168 0.0629775673  -999.250000 2.1099998951 54.535823822 97.829002380 1.8689999580  -999.250000  -999.250000 1.7710000277
 2625.8395996 6.0000000000 20.381999969 0.0489903837  -999.250000 2.0780000687 55.673969269 99.761001587 1.7769999504  -999.250000  -999.250000 1.6039999723
