# LAS format log file from PETREL
# Project units are specified as depth units
#==================================================================
~Version information
VERS.   2.0:
WRAP.   NO:
#==================================================================
~Well
STRT .m      511.89910889 :
STOP .m      4480.0908203 :
STEP .m     0.00000000 :
NULL .        -999.250000 :
COMP.           : COMPANY
WELL.  35/3-1   : WELL
FLD.            : FIELD
LOC.            : LOCATION
SRVC.           : SERVICE COMPANY
DATE.  2018-09-11 14:48:57   : Log Export Date {yyyy-MM-dd HH:mm:ss}
PROV.           : PROVINCE
UWI.   35/3-1   : UNIQUE WELL ID
API.            : API NUMBER
#==================================================================
~Curve
DEPT .m                   : DEPTH
Lithology_geolink ._      : Lithology_geolink
CALI .in                  : CALI
DRHO .g/cm3               : DRHO
NPHI .m3/m3               : NPHI
RHOB .g/cm3               : RHOB
GR .gAPI                  : GR
DTC .us/ft                : DTC
RDEP .ohm.m               : RDEP
SP .mV                    : SP
RSHA .ohm.m               : RSHA
RMED .ohm.m               : RMED
~Parameter
#==================================================================
~Ascii
# ...
 4468.0512695  -999.250000 6.9720001221 -0.035000000 0.3652500212 2.5930223465 79.843231201 85.571990967 2.9289200306  -999.250000  -999.250000 2.5615527630
 4468.2036133  -999.250000 6.9530005455 -0.035006411 0.3696300089 2.6000127792 80.226997375 85.569999695 2.9040000439  -999.250000  -999.250000 2.7339999676
 4468.3559570  -999.250000 6.9239997864 -0.036990386 0.3734400272 2.6040031910 80.379997253 85.568000793 2.9070000648  -999.250000  -999.250000 2.9389998913
 4468.5083008  -999.250000 6.8860001564 -0.033980772 0.3725500107 2.6050000191 80.408996582 85.566001892 2.9119999409  -999.250000  -999.250000 3.0190000534
 4468.6611328  -999.250000 6.8639998436 -0.027974360 0.3712900281 2.6050512791 80.727226257 85.563995361 2.9160158634  -999.250000  -999.250000 2.9627916813
 4468.8134766  -999.250000 6.8560004234 -0.023993611 0.3752700090 2.6130573750 81.423141479 85.561988831 2.9210128784  -999.250000  -999.250000 2.8979165554
 4468.9658203  -999.250000 6.8389997482 -0.023019230 0.3804399967 2.6219646931 82.089668274 85.559989929 2.9250159264  -999.250000  -999.250000 2.8719775677
 4469.1181641  -999.250000 6.8039999008 -0.029016025 0.3782700002 2.6109552383 82.297477722 85.557998657 2.9300129414  -999.250000  -999.250000 2.8649775982
 4469.2705078  -999.250000 6.7600002289 -0.034016028 0.3657300174 2.5969967842 82.136199951 85.555992126 2.9340159893  -999.250000  -999.250000 2.8579776287
 4469.4228516  -999.250000 6.7420001030 -0.039025642 0.3576499820 2.5959775448 82.199218750 85.553993225 2.9390127659  -999.250000  -999.250000 2.8509745598
 4469.5751953  -999.250000 6.7859997749 -0.046999998 0.3588600159 2.5890159607 82.890998840 85.552009583 2.9430000782  -999.250000  -999.250000 2.8429999352
 4469.7275391  -999.250000 6.8940000534 -0.046964742 0.3580300212 2.5940384865 84.177001953 85.550003052 2.9479999542  -999.250000  -999.250000 2.8359999657
 4469.8798828  -999.250000 6.9629998207 -0.035955127 0.3529499769 2.6060640812 85.741996765 85.678001404 2.9519999027  -999.250000  -999.250000 2.8299999237
 4470.0327148  -999.250000 6.9489998817 -0.021980770 0.3475999832 2.6260192394 87.380775452 86.218750000 2.9570095539  -999.250000  -999.250000 2.8280000687
 4470.1850586  -999.250000 6.9089994431 -0.019044727 0.3477199972 2.6289424896 89.185356140 87.076042175 2.9600031376  -999.250000  -999.250000 2.8280031681
 4470.3374023  -999.250000 6.8790001869 -0.026006410 0.3532799780 2.6199934483 91.481826782 87.713386536 2.9610030651  -999.250000  -999.250000 2.8289999962
 4470.4897461  -999.250000 6.8590002060 -0.027987180 0.3597499728 2.6180384159 94.548660278 87.834335327 2.9619998932  -999.250000  -999.250000 2.8289999962
 4470.6420898  -999.250000 6.8210000992 -0.023971153 0.3678200245 2.6300384998 98.185539246 87.628021240 2.9619998932  -999.250000  -999.250000 2.8290030956
 4470.7944336  -999.250000 6.7210001945 -0.014974358 0.3777700067 2.6419680119 101.78399658 87.323989868 2.9619998932  -999.250000  -999.250000 2.8299999237
 4470.9467773  -999.250000 6.6370000839 -0.007003205 0.3844600022 2.6319582462 104.80200195 86.992996216 2.9630000591  -999.250000  -999.250000 2.8299999237
 4471.0991211  -999.250000 6.5640001297 -0.008006411 0.3833700120 2.6189775467 106.96700287 86.472000122 2.9630000591  -999.250000  -999.250000 2.8299999237
 4471.2514648  -999.250000 6.4660000801 -0.009990385 0.3805299997 2.6119935513 108.13899994 84.771011353 2.9630000591  -999.250000  -999.250000 2.8310000896
 4471.4042969  -999.250000 6.4120001793 -0.006974441 0.3817699850 2.6099550724 108.04305267 82.425849915 2.9639999866  -999.250000  -999.250000 2.8310000896
 4471.5566406  -999.250000 6.3790001869 -0.002983974 0.3849800229 2.6030192375 106.49804688 81.135108948 2.9639999866  -999.250000  -999.250000 2.8310000896
 4471.7089844  -999.250000 6.3309998512 0.0020128207 0.3870800138 2.6089904308 104.01818848 81.177062988 2.9640030861  -999.250000  -999.250000 2.8310031891
 4471.8613281  -999.250000 6.2779998779 0.0059807692 0.3893399835 2.6059679985 101.89729309 83.066795349 2.9649999142  -999.250000  -999.250000 2.8319969177
 4472.0136719  -999.250000 6.2270007133 -0.000032051 0.3895500302 2.5959839821 101.36918640 84.244438171 2.9649999142  -999.250000  -999.250000 2.8309936523
 4472.1660156  -999.250000 6.1909999847 -0.010019231 0.3836999834 2.5909936428 102.67600250 83.757011414 2.9649999142  -999.250000  -999.250000 2.8289999962
 4472.3183594  -999.250000 6.1669998169 -0.016006410 0.3751400113 2.5889806747 104.86799622 83.546997070 2.9660000801  -999.250000  -999.250000 2.8280000687
 4472.4707031  -999.250000 6.1360001564 -0.017990384 0.3693000078 2.5830128193 106.37699890 83.584999084 2.9660000801  -999.250000  -999.250000 2.8259999752
 4472.6235352  -999.250000 6.1050000191 -0.014967948 0.3673399985 2.5869998932 106.24045563 83.358917236 2.9660031796  -999.250000  -999.250000 2.8249936104
 4472.7758789  -999.250000 6.0799999237 -0.009987220 0.3693899810 2.5869870186 104.82154083 83.021522522 2.9670000076  -999.250000  -999.250000 2.8229935169
 4472.9282227  -999.250000 6.0640001297 -0.007996796 0.3744499981 2.5850129128 103.11900330 83.183593750 2.9670000076  -999.250000  -999.250000 2.8209969997
 4473.0805664  -999.250000 6.0510001183 -0.007000000 0.3808299899 2.5890128613 101.87419128 83.366821289 2.9670031071  -999.250000  -999.250000 2.8199934959
 4473.2329102  -999.250000 6.0349998474 -0.007019231 0.3844900131 2.5929999352 101.31076050 82.684730530 2.9679999352  -999.250000  -999.250000 2.8179936409
 4473.3852539  -999.250000 5.9970006943 -0.013006411 0.3835499883 2.5930094719 101.23699951 81.350997925 2.9679999352  -999.250000  -999.250000 2.8159999847
 4473.5375977  -999.250000 5.9479994774 -0.014990385 0.3838999867 2.5959968567 101.49299622 80.416000366 2.9679999352  -999.250000  -999.250000 2.8150000572
 4473.6899414  -999.250000 5.9169998169 -0.011987180 0.3862600029 2.5949935913 102.14700317 80.250000000 2.9690001011  -999.250000  -999.250000 2.8129999638
 4473.8422852  -999.250000 5.8830003738 -0.008003205 0.3852299750 2.5930128098 103.31300354 81.286003113  -999.250000  -999.250000  -999.250000  -999.250000
 4473.9951172  -999.250000 5.8359999657 -0.009019230 0.3930199742 2.5969228745 104.83861542  -999.250000  -999.250000  -999.250000  -999.250000  -999.250000
 4474.1474609  -999.250000 5.8070001602 -0.012000000 0.4002700150 2.5849936008 106.27652740  -999.250000  -999.250000  -999.250000  -999.250000  -999.250000
 4474.2998047  -999.250000 5.8179998398 -0.012016025 0.4066599905 2.5840001106 107.06140900  -999.250000  -999.250000  -999.250000  -999.250000  -999.250000
 4474.4521484  -999.250000 5.8099999428 -0.017016027 0.4028799832 2.5839970112 106.87620544  -999.250000  -999.250000  -999.250000  -999.250000  -999.250000
 4474.6044922  -999.250000 5.7839999199 -0.021987179 0.3935100138 2.5830447674 106.00502777  -999.250000  -999.250000  -999.250000  -999.250000  -999.250000
 4474.7568359  -999.250000 5.8189997673 -0.017967949 0.3865100145 2.5969903469 105.07599640  -999.250000  -999.250000  -999.250000  -999.250000  -999.250000
 4474.9091797  -999.250000 5.8800001144 -0.007990385 0.3785200119 2.5939807892 104.66200256  -999.250000  -999.250000  -999.250000  -999.250000  -999.250000
 4475.0615234  -999.250000 5.8810000420 -0.005009615 0.3760299981 2.5879969597 104.74099731  -999.250000  -999.250000  -999.250000  -999.250000  -999.250000
 4475.2143555  -999.250000 5.9050006866 -0.007987180 0.3798699975 2.5869934559 104.65457916  -999.250000  -999.250000  -999.250000  -999.250000  -999.250000
 4475.3666992  -999.250000 5.9759998322 -0.005968051 0.3862699866 2.5861148834 103.58325958  -999.250000  -999.250000  -999.250000  -999.250000  -999.250000
 4475.5190430  -999.250000 6.0000000000 -0.001000000 0.3873800039 2.6040289402 101.16419220  -999.250000  -999.250000  -999.250000  -999.250000  -999.250000
 4475.6713867  -999.250000 6.0009999275 -0.001009615 0.3965300024 2.6129806042 97.790939331  -999.250000  -999.250000  -999.250000  -999.250000  -999.250000
