# LAS format log file from PETREL
# Project units are specified as depth units
#==================================================================
~Version information
VERS.   2.0:
WRAP.   NO:
#==================================================================
~Well
STRT .m      3245.2055664 :
STOP .m      4039.9716797 :
STEP .m     0.00000000 :
NULL .        -999.250000 :
COMP.           : COMPANY
WELL.  35/3-7 S   : WELL
FLD.            : FIELD
LOC.            : LOCATION
SRVC.           : SERVICE COMPANY
DATE.  2018-09-11 14:48:58   : Log Export Date {yyyy-MM-dd HH:mm:ss}
PROV.           : PROVINCE
UWI.   35/3-7 S   : UNIQUE WELL ID
API.            : API NUMBER
#==================================================================
~Curve
DEPT .m                   : DEPTH
Lithology_geolink ._      : Lithology_geolink
CALI .in                  : CALI
BS .in                    : BS
ROP .m/h                  : ROP
DRHO .g/cm3               : DRHO
THOR .ppm                 : THOR
NPHI .m3/m3               : NPHI
RHOB .g/cm3               : RHOB
PEF .b/e                  : PEF
GR .gAPI                  : GR
URAN .ppm                 : URAN
DTC .us/ft                : DTC
DTS .us/ft                : DTS
RDEP .ohm.m               : RDEP
RMIC .ohm.m               : RMIC
RMED .ohm.m               : RMED
~Parameter
#==================================================================
~Ascii
# ...
 3983.8884277 6.0000000000 8.4587001801 8.5000000000 31.358264923 -0.001500962 9.8798999786 0.2474910319 2.6881682873 4.3620934486 129.47398376 2.9925000668 70.913597107 129.53709412 12.281299591 10.864299774 14.409600258
 3984.0407715 6.0000000000 8.4511003494 8.5000000000 27.517387390 -0.003396955 9.2103996277 0.2380152345 2.6933915615 4.4323868752 127.73499298 2.8775999546 70.948898315 127.91670227 12.917200089 10.213500023 15.149000168
 3984.1931152 6.0000000000 8.5017004013 8.5000000000 26.389434814 0.0000943910 8.9054002762 0.2202285230 2.6995899677 4.5581984520 121.13877869 2.8155999184 71.216003418 125.76129913 14.666199684 8.0015001297 17.180500031
 3984.3454590 6.0000000000 8.5557003021 8.5000000000 25.975395203 0.0019939202 9.3340997696 0.2238881588 2.6884357929 4.6053495407 119.20497131 2.9168999195 70.774299622 127.47689819 14.110600471 7.6873002052 16.508600235
 3984.4980469 6.0000000000 8.5623998642 8.5000000000 25.561679840 0.0010016026 9.6723003387 0.2184088230 2.6701290607 4.6296615601 118.86193848 2.9354999065 70.920196533 126.08419800 12.959899902 3.2483000755 15.046799660
 3984.6503906 6.0000000000 8.5488996506 8.5000000000 27.427165985 -0.000198077 9.9483995438 0.2293823659 2.6677038670 4.5510263443 116.42451477 3.0599999428 70.254600525 127.32939911 14.298399925 3.6047999859 16.479499817
 3984.8027344 6.0000000000 8.5186004639 8.5000000000 28.753938675 0.0012975961 9.4738998413 0.2300988883 2.6792814732 4.3950505257 115.96942139 3.3160998821 71.057403564 124.52210236 19.986099243 3.8529999256 22.699399948
 3984.9550781 6.0000000000 8.5523004532 8.5000000000 24.908792496 -0.000796635 9.7012996674 0.2554592788 2.6779022217 4.1774492264 115.19963837 3.4551000595 70.243698120 127.62650299 18.265100479 20.801300049 20.680200577
 3985.1074219 6.0000000000 8.5657997131 8.5000000000 21.725393295 -0.003591040 9.7440004349 0.2646705508 2.6773018837 4.1348357201 121.25934601 3.5090999603 70.769699097 128.37489319 16.627099991 17.883100510 18.754100800
 3985.2600098 6.0000000000 8.5855998993 8.5000000000 23.781167984 -0.007893109 9.9625997543 0.2792766094 2.6738057137 4.3095197678 126.11224365 3.3424999714 69.505203247 123.82749176 16.618200302 16.037900925 18.669000626
 3985.4123535 6.0000000000 8.5623998642 8.5000000000 24.668636322 -0.006801763 9.0708999634 0.2668200135 2.6820867062 4.4896116257 123.82528687 3.2895998955 68.031997681 122.85379791 17.924499512 15.640800476 20.066099167
 3985.5646973 6.0000000000 8.4849004745 8.5000000000 21.797571182 -0.006700160 8.2978000641 0.2038011253 2.6559419632 4.7971067429 113.23658752 2.6289000511 67.154403687 121.45250702 21.744899750 23.900100708 24.195199966
 3985.7170410 6.0000000000 8.4477996826 8.5000000000 17.139436722 -0.007995840 7.5327000618 0.1471814364 2.6000792980 5.1529593468 100.34034729 1.9563999176 65.235397339 117.50270844 80.157699585 30.180700302 90.146697998
 3985.8696289 6.0000000000 8.5186004639 8.5000000000 12.527559280 -0.021600001 7.1999998093 0.1190448776 2.5455999374 5.7937998772 97.927703857 1.8944000006 65.954902649 113.62729645 64.143798828 3.3952999115 69.485702515
 3986.0219727 2.0000000000 8.8457002640 8.5000000000 8.9353675842 -0.024700001 7.6807999611 0.1444591433 2.5227999687 6.3685002327 100.66959381 2.0534000397 67.407897949 120.44039917 25.243400574 0.9574999809 27.246200562
 3986.1743164 2.0000000000 9.3009996414 8.5000000000 7.3054461479 -0.020900000 9.9829998016 0.1767482311 2.5557000637 6.3743000031 106.54457855 2.2913999557 69.620597839 125.12831116 26.864400864 0.9319000244 29.110099792
 3986.3266602 2.0000000000 8.5017004013 8.5000000000 10.033792496 -0.008300000 11.640299797 0.2066043168 2.5885999203 5.7680997849 116.03018188 2.4407000542 69.717697144 125.85199738 24.712099075 1.3638999462 26.812700272
 3986.4792480 6.0000000000 8.4780998230 8.5000000000 17.588254929 -0.007500000 12.144000053 0.2416439056 2.6119999886 4.8909001350 120.05958557 2.8269000053 69.834602356 125.81710052 24.256299973 18.472400665 26.475799561
 3986.6315918 6.0000000000 8.4814996719 8.5000000000 21.283136368 -0.010600000 13.327699661 0.2448948771 2.6140999794 4.4072999954 126.17169952 2.9923000336 71.604896545 129.00309753 23.986200333 19.636999130 26.303800583
 3986.7839355 6.0000000000 8.4704999924 8.5000000000 22.723424911 -0.010100000 13.801799774 0.2366133034 2.6185998917 4.2604999542 122.09306335 3.1050999165 71.808998108 134.01249695 26.114200592 21.170200348 28.868099213
 3986.9362793 6.0000000000 8.4849004745 8.5000000000 22.697177887 -0.008500000 14.683799744 0.2346031964 2.6242001057 4.1971998215 123.85526276 2.9038999081 73.206703186 132.90840149 27.771200180 32.157001495 31.223199844
 3987.0886230 6.0000000000 8.4949998856 8.5000000000 21.386812210 -0.008100000 14.605099678 0.2430728078 2.6284000874 4.1083998680 124.57859039 3.2283999920 73.231101990 135.33000183 13.851499557 20.900999069 15.743900299
 3987.2412109 7.0000000000 8.5388002396 8.5000000000 20.827756882 -0.008200000 14.820699692 0.2544817328 2.6370000839 3.9972000122 130.99609375 3.4439001083 73.727798462 138.24310303 11.440799713 13.338800430 13.023099899
 3987.3935547 7.0000000000 8.5928001404 8.5000000000 22.212270737 -0.009800000 14.370100021 0.2493083328 2.6387000084 3.9347000122 139.87466431 3.3682999611 74.152603149 134.63839722 9.6118001938 9.8599004745 10.958700180
 3987.5458984 7.0000000000 9.0041999817 8.5000000000 23.460958481 -0.011300000 14.561100006 0.2301307768 2.6336998940 3.9281001091 143.75131226 3.1793999672 73.105003357 137.43769836 11.648900032 11.242899895 13.275799751
 3987.6982422 7.0000000000 8.6400003433 8.5000000000 23.186351776 -0.012600000 14.450599670 0.2310967892 2.6210000515 4.0061998367 142.03501892 3.2453000546 73.541198730 139.02139282 12.858699799 11.435400009 14.653400421
 3987.8508301 7.0000000000 8.6028995514 8.5000000000 22.721128464 -0.011700000 14.133999825 0.2668426335 2.6106998920 4.1403999329 138.62138367 3.2281000614 75.030296326 136.56359863 9.8947000504 9.7094001770 11.252200127
 3988.0031738 7.0000000000 8.5726003647 8.5000000000 24.280183792 -0.009900000 13.419400215 0.2958535254 2.6043000221 4.2701997757 137.23162842 3.1479001045 76.225097656 132.65950012 15.507900238 10.119500160 17.680500031
 3988.1555176 7.0000000000 8.5691995621 8.5000000000 25.941272736 -0.007500000 13.390199661 0.2925054431 2.6040000916 4.3070998192 135.12406921 2.9707000256 76.558799744 138.11810303 16.579000473 13.423800468 18.911500931
 3988.3078613 7.0000000000 8.5759000778 8.5000000000 26.378938675 -0.006300000 13.266699791 0.2871172726 2.6033000946 4.2954998016 131.25810242 2.6651999950 77.050003052 141.66029358 15.877799988 18.022800446 18.163000107
 3988.4604492 7.0000000000 8.6332998276 8.5000000000 24.327756882 -0.005600000 12.738800049 0.2785137594 2.6050000191 4.3248000145 133.51016235 2.5559999943 76.054702759 139.26499939 16.489000320 15.851499557 18.793300629
 3988.6127930 7.0000000000 8.6298999786 8.5000000000 21.706693649 -0.004900000 12.582699776 0.2768027186 2.6061999798 4.5030999184 134.83818054 3.1198000908 75.882896423 142.05149841 15.967800140 11.185099602 18.059999466
 3988.7651367 7.0000000000 8.6129999161 8.5000000000 20.244750977 -0.002700000 13.019300461 0.2674150467 2.6119000912 4.7371001244 135.14071655 2.9460000992 75.138298035 137.11810303 14.136300087 9.6469001770 15.899499893
 3988.9174805 6.0000000000 8.6063003540 8.5000000000 20.702756882 0.0012000001 13.493800163 0.2718927860 2.6157999039 4.9484000206 130.75453186 2.6856000423 75.477500916 135.80090332 14.273300171 9.0172996521 15.968099594
 3989.0698242 6.0000000000 8.6358003616 8.5000000000 22.767717361 0.0035000001 12.199399948 0.2747907341 2.6256000996 5.0473999977 128.51925659 3.0134000778 74.280502319 136.31140137 15.824999809 7.2946000099 17.590099335
 3989.2224121 6.0000000000 8.6129999161 8.5000000000 26.334974289 0.0048000002 11.640800476 0.2614215016 2.6373999119 5.0229997635 128.15837097 2.7894001007 75.319595337 136.43510437 16.549699783 7.2487001419 18.267400742
 3989.3747559 6.0000000000 8.6231002808 8.5000000000 29.053152084 0.0035000001 12.330900192 0.2516157031 2.6540000439 4.8415999413 125.97341156 2.5434999466 73.553596497 136.01730347 17.323099136 8.9575004578 19.068700790
