# LAS format log file from PETREL
# Project units are specified as depth units
#==================================================================
~Version information
VERS.   2.0:
WRAP.   NO:
#==================================================================
~Well
STRT .m      511.89910889 :
STOP .m      4480.0908203 :
STEP .m     0.00000000 :
NULL .        -999.250000 :
COMP.           : COMPANY
WELL.  35/3-1   : WELL
FLD.            : FIELD
LOC.            : LOCATION
SRVC.           : SERVICE COMPANY
DATE.  2018-09-11 14:48:57   : Log Export Date {yyyy-MM-dd HH:mm:ss}
PROV.           : PROVINCE
UWI.   35/3-1   : UNIQUE WELL ID
API.            : API NUMBER
#==================================================================
~Curve
DEPT .m                   : DEPTH
Lithology_geolink ._      : Lithology_geolink
CALI .in                  : CALI
DRHO .g/cm3               : DRHO
NPHI .m3/m3               : NPHI
RHOB .g/cm3               : RHOB
GR .gAPI                  : GR
DTC .us/ft                : DTC
RDEP .ohm.m               : RDEP
SP .mV                    : SP
RSHA .ohm.m               : RSHA
RMED .ohm.m               : RMED
~Parameter
#==================================================================
~Ascii
# ...
 776.16076660  -999.250000 20.997999191 0.0240160190  -999.250000 1.4570020437 21.131790161 40.188999176 0.9229999781 38.029407501 0.8160048127 0.8159999847
 776.31317139  -999.250000 20.997999191 0.0280040056  -999.250000 1.4620023966 21.027074814 79.376998901 0.9150000215 38.131008148 0.8200083971 0.8199999928
 776.46557617  -999.250000 20.997999191 0.0290280320  -999.250000 1.4680029154 21.064533234 168.46899414 0.9160000086 38.133426666 0.8270144463 0.8270000219
 776.61798096  -999.250000 20.996997833 0.0360240266  -999.250000 1.4750015736 21.332420349 204.11599731 0.9350000024 38.241802216 0.8390167952 0.8389999866
 776.77038574  -999.250000 20.996997833 0.0419799760  -999.250000 1.4769903421 22.043664932 203.82299805 0.9720000029 38.691184998 0.8530156016 0.8529999852
 776.92279053  -999.250000 20.996997833 0.0369359218  -999.250000 1.4649912119 23.376070023 203.53999329 1.0190000534 38.984123230 0.8660168052 0.8659999967
 777.07513428  -999.250000 21.000000000 0.0209495388  -999.250000 1.4539984465 25.409124374 202.36599731 1.0709999800 38.514266968 0.8800151944 0.8799999952
 777.22753906  -999.250000 21.003997803 0.0069927918  -999.250000 1.4500080347 27.983230591 200.57600403 1.1330288649 37.758384705 0.8990200162 0.8989999890
 777.37994385  -999.250000 21.009000778 0.0050036041  -999.250000 1.4700227976 30.623027802 183.37197876 1.2050300837 37.590564728 0.9240192771 0.9240000248
 777.53234863  -999.250000 21.013000488 0.0060180291  -999.250000 1.5270327330 32.632568359 176.43899536 1.2800264359 38.024925232 0.9480192661 0.9480000138
 777.68475342  -999.250000 20.548000336 0.0110280337  -999.250000 1.6090308428 33.412887573 184.53799438 1.3460171223 38.557270050 0.9720192552 0.9720000029
 777.83715820  -999.250000 19.628999710 0.0180921089  -999.250000 1.6860303879 32.854221344 192.63699341 1.3890085220 38.623508453 0.9960184097 0.9959999919
 777.98956299  -999.250000 18.798999786 0.0410841033  -999.250000 1.7620120049 31.468324661 200.73699951 1.4100015163 38.252883911 1.0190185308 1.0190000534
 778.14196777  -999.250000 18.322000504 0.0620120130  -999.250000 1.7920024395 30.133808136 204.31700134 1.4139928818 38.225124359 1.0420176983 1.0420000553
 778.29437256  -999.250000 18.207000732 0.0649639517  -999.250000 1.7980023623 29.540325165 197.10600281 1.3959847689 38.505840302 1.0640276670 1.0640000105
 778.44677734  -999.250000 18.322000504 0.0560881086  -999.250000 1.8040120602 29.702842712 192.51498413 1.3579847813 38.715858459 1.0870120525 1.0870000124
 778.59918213  -999.250000 18.774000168 0.0780320391  -999.250000 1.8339920044 30.123519897 191.27099609 1.3199871778 38.929279327 1.0970023870 1.0970008373
 778.75158691  -999.250000 19.569000244 0.0859359279  -999.250000 1.8139735460 30.383295059 188.53799438 1.2879831791 38.996829987 1.0990047455 1.0990031958
 778.90399170  -999.250000 20.220001221 0.0699279159  -999.250000 1.7809743881 30.531629562 186.12399292 1.2669919729 38.452697754 1.1030024290 1.1030015945
 779.05639648  -999.250000 20.094999313 0.0520000011  -999.250000 1.7489839792 30.846136093 185.40299988 1.2569959164 37.378517151 1.1049964428 1.1049976349
 779.20874023  -999.250000 19.659999847 0.0519783758  -999.250000 1.7289919853 31.414159775 185.48599243 1.2519991398 36.269470215 1.1019911766 1.1019955873
 779.36114502  -999.250000 19.356000900 0.0460108146  -999.250000 1.7089903355 32.138099670 186.76100159 1.2500000000 37.793800354 1.0909879208 1.0909940004
 779.51354980  -999.250000 19.266000748 0.0489567295  -999.250000 1.6849895716 32.824054718 178.67399597 1.2500015497 41.055412292 1.0759984255 1.0759991407
 779.66595459  -999.250000 19.065000534 0.0369839817  -999.250000 1.6590000391 33.349754333 169.42199707 1.2540031672 41.159961700 1.0740096569 1.0740047693
 779.81835938  -999.250000 18.330999374 0.0330240279  -999.250000 1.6590085030 33.726665497 168.87699890 1.2620067596 38.908485413 1.0860111713 1.0860055685
 779.97076416  -999.250000 17.791000366 0.0390120149  -999.250000 1.6800040007 34.057800293 178.32600403 1.2790108919 38.040019989 1.1000112295 1.1000056267
 780.12316895  -999.250000 17.628999710 0.0419839807  -999.250000 1.6900053024 34.457988739 176.49699402 1.3060103655 39.289913177 1.1140111685 1.1140055656
 780.27557373  -999.250000 17.497999191 0.0380400456  -999.250000 1.7030107975 34.950946808 174.71899414 1.3320084810 39.514225006 1.1280120611 1.1280059814
 780.42797852  -999.250000 17.454999924 0.0480120145  -999.250000 1.7300056219 35.422729492 173.13801575 1.3530056477 38.825519562 1.1430096626 1.1430032253
 780.58038330  -999.250000 17.378999710 0.0509639569  -999.250000 1.7440023422 35.786602020 172.39199829 1.3670047522 38.943290710 1.1509952545 1.1509984732
 780.73278809  -999.250000 17.285999298 0.0419479385  -999.250000 1.7499996424 36.087268829 170.84500122 1.3789999485 39.009944916 1.1469879150 1.1469959021
 780.88519287  -999.250000 17.334999084 0.0289839804  -999.250000 1.7490023375 36.219501495 170.99899292 1.3789823055 39.225048065 1.1369843483 1.1369895935
 781.03759766  -999.250000 17.447999954 0.0250400491  -999.250000 1.7520096302 35.968696594 165.50430298 1.3569647074 39.462390900 1.1239855289 1.1239902973
 781.19000244  -999.250000 17.559999466 0.0350560658  -999.250000 1.7640072107 35.316448212 165.86700439 1.3129663467 39.549594879 1.1119855642 1.1119903326
 781.34234619  -999.250000 17.680000305 0.0490648784  -999.250000 1.7730020285 34.541126251 168.33767700 1.2709864378 39.455013275 1.0999855995 1.0999928713
 781.49475098  -999.250000 17.872999191 0.0670504645  -999.250000 1.7779996395 33.995601654 170.02246094 1.2369847298 38.775806427 1.0819791555 1.0819896460
 781.64715576  -999.250000 18.298999786 0.0810288489  -999.250000 1.7770003080 33.796939850 173.71479797 1.1989852190 37.825870514 1.0559775829 1.0559887886
 781.79956055  -999.250000 19.090000153 0.0890200287  -999.250000 1.7780035734 33.766643524 178.19911194 1.1619846821 37.345905304 1.0279815197 1.0279908180
 781.95196533  -999.250000 19.718999863 0.0940200239  -999.250000 1.7870063782 33.588928223 180.97515869 1.1239846945 37.551486969 1.0049871206 1.0049935579
 782.10437012  -999.250000 19.900999069 0.0990200266  -999.250000 1.8030108213 33.053096771 181.34751892 1.0859863758 37.888393402 0.9889888167 0.9889944196
 782.25677490  -999.250000 19.937000275 0.1040080115  -999.250000 1.8300064802 32.101608276 190.20190430 1.0519888401 37.976711273 0.9749904275 0.9749951959
 782.40917969  -999.250000 19.596000671 0.1058638319  -999.250000 1.8459991217 30.906723022 189.98338318 1.0239971876 37.910541534 0.9629939795 0.9629979730
 782.56158447  -999.250000 19.148000717 0.0719199032  -999.250000 1.8440032005 29.770166397 190.94451904 1.0170091391 37.808143616 0.9580035806 0.9580011964
 782.71398926  -999.250000 19.180000305 0.0519839823  -999.250000 1.8519879580 28.855751038 192.24465942 1.0400167704 38.068813324 0.9610084295 0.9610028267
 782.86639404  -999.250000 19.534999847 0.0480200239  -999.250000 1.8219511509 28.232501984 191.42080688 1.0820344687 38.477527618 0.9680120349 0.9680079818
 783.01879883  -999.250000 20.118999481 0.0530040041  -999.250000 1.7609287500 27.984504700 196.15391541 1.1250215769 38.369644165 0.9780083895 0.9780055881
 783.17120361  -999.250000 20.760000229 0.0539839827  -999.250000 1.6719559431 28.237468719 197.30520630 1.1520079374 38.063747406 0.9850072265 0.9850048423
 783.32354736  -999.250000 21.016002655 0.0499675609  -999.250000 1.6169959307 28.970554352 198.81867981 1.1620047092 38.007007599 0.9910072088 0.9910035729
 783.47595215  -999.250000 21.003997803 0.0409639589  -999.250000 1.6070144176 29.940456390 202.99551392 1.1740100384 38.009677887 1.0000047684 1.0000023842
 783.62835693  -999.250000 20.992000580 0.0310108121  -999.250000 1.6430088282 30.849340439 199.30169678 1.1990168095 38.164344788 1.0060024261 1.0060012341
 783.78076172  -999.250000 20.979999542 0.0340324529  -999.250000 1.6649951935 31.518936157 196.07020569 1.2410212755 38.470134735 1.0090023279 1.0090011358
