# LAS format log file from PETREL
# Project units are specified as depth units
#==================================================================
~Version information
VERS.   2.0:
WRAP.   NO:
#==================================================================
~Well
STRT .m      3245.2055664 :
STOP .m      4039.9716797 :
STEP .m     0.00000000 :
NULL .        -999.250000 :
COMP.           : COMPANY
WELL.  35/3-7 S   : WELL
FLD.            : FIELD
LOC.            : LOCATION
SRVC.           : SERVICE COMPANY
DATE.  2018-09-11 14:48:58   : Log Export Date {yyyy-MM-dd HH:mm:ss}
PROV.           : PROVINCE
UWI.   35/3-7 S   : UNIQUE WELL ID
API.            : API NUMBER
#==================================================================
~Curve
DEPT .m                   : DEPTH
Lithology_geolink ._      : Lithology_geolink
CALI .in                  : CALI
BS .in                    : BS
ROP .m/h                  : ROP
DRHO .g/cm3               : DRHO
THOR .ppm                 : THOR
NPHI .m3/m3               : NPHI
RHOB .g/cm3               : RHOB
PEF .b/e                  : PEF
GR .gAPI                  : GR
URAN .ppm                 : URAN
DTC .us/ft                : DTC
DTS .us/ft                : DTS
RDEP .ohm.m               : RDEP
RMIC .ohm.m               : RMIC
RMED .ohm.m               : RMED
~Parameter
#==================================================================
~Ascii
# ...
 3453.8413086 5.0000000000 8.5236997604 8.5000000000 52.321193695 -0.010800000 10.340200424 0.1447000057 2.6249001026 4.6904001236 80.614799500 0.4327999949 71.140197754 136.22009277 6.4541001320 7.9512000084 6.9482002258
 3453.9936523 5.0000000000 8.5197000504 8.5000000000 50.777889252 -0.011500000 10.902799606 0.1430000067 2.6194999218 4.6960000992 78.552200317 0.3558999896 71.064598083 135.15339661 6.1146998405 7.8018999100 6.5813999176
 3454.1459961 5.0000000000 8.5213003159 8.5000000000 46.235893250 -0.011200000 11.180899620 0.1420000046 2.6177000999 4.7174000740 76.405899048 0.1212999895 70.924301147 134.69030762 6.2617001534 7.9015998840 6.7536997795
 3454.2985840 5.0000000000 8.5276002884 8.5000000000 47.037071228 -0.010200000 11.601499557 0.1343999952 2.6196999550 4.7364997864 75.915496826 0.0560000017 71.527999878 135.30419922 6.4598999023 7.9604001045 6.9965000153
 3454.4509277 5.0000000000 8.5276002884 8.5000000000 49.275920868 -0.009000000 11.123000145 0.1361999959 2.6275000572 4.6875000000 79.245697021 0.4099999964 71.619796753 135.46090698 6.3614997864 7.9072999954 7.0088000298
 3454.6032715 6.0000000000 8.5236997604 8.5000000000 52.189960480 -0.008500000 11.014200211 0.1330000013 2.6331999302 4.6189999580 78.951400757 0.2921999991 71.858802795 135.83479309 6.1655998230 7.7711000443 6.8245000839
 3454.7556152 6.0000000000 8.5213003159 8.5000000000 55.522636414 -0.009500000 10.307900429 0.1342000067 2.6328999996 4.5861001015 77.600799561 0.2368000001 72.874801636 137.97290039 6.1711997986 8.0673999786 6.8316998482
 3454.9079590 6.0000000000 8.5236997604 8.5000000000 66.875000000 -0.010300000 9.6219997406 0.1332000047 2.6294000149 4.5524001122 78.742500305 0.4521999955 74.760902405 137.50779724 6.4660000801 8.4542999268 7.1851000786
 3455.0605469 6.0000000000 8.5213003159 8.5000000000 78.500000000 -0.011100000 10.149200439 0.1574999988 2.6164000034 4.4851999283 87.276000977 0.5357999802 77.043197632 149.27439880 6.1577000618 6.8365001678 6.8744997978
 3455.2128906 6.0000000000 8.5236997604 8.5000000000 45.413387299 -0.011600000 10.067799568 0.2018000036 2.6024000645 4.3352999687 92.677001953 0.9258999825 78.409790039 151.69279480 3.4045999050 5.2101001740 3.8403000832
 3455.3652344 6.0000000000 8.5314998627 8.5000000000 31.122047424 -0.012500000 10.678999901 0.2364999950 2.5883998871 4.1979999542 98.290702820 1.0498000383 78.907302856 152.76640320 3.3427000046 4.2941999435 3.7908999920
 3455.5175781 6.0000000000 8.5402002335 8.5000000000 23.607282639 -0.011000000 10.128199577 0.2492000014 2.5913999081 4.1244997978 98.781097412 1.1059000492 80.066497803 153.63710022 3.1965000629 4.1170997620 3.6524999142
 3455.6701660 6.0000000000 8.5276002884 8.5000000000 19.951114655 -0.009000000 9.1820001602 0.2242999971 2.6024999619 4.1989998817 98.400596619 0.8776000142 76.700698853 148.24909973 3.6916999817 4.4175000191 4.2578001022
 3455.8225098 6.0000000000 8.5448999405 8.5000000000 23.695865631 -0.006800000 8.1737003326 0.1877000034 2.6177999973 4.3680000305 89.126296997 0.7890999913 74.279296875 139.55729675 6.1613998413 5.2509999275 7.1339001656
 3455.9748535 6.0000000000 8.5394001007 8.5000000000 25.449474335 -0.006200000 7.1721000671 0.1580000073 2.6236999035 4.4857001305 90.630500793 1.0240000486 74.165199280 140.66999817 6.2839999199 7.1662998199 7.2936000824
 3456.1271973 6.0000000000 8.5354995728 8.5000000000 26.706691742 -0.007400000 8.0135002136 0.1592999995 2.6120998859 4.4679999352 94.286102295 1.1288000345 75.195602417 143.32130432 4.7069997787 6.0015001297 5.4450001717
 3456.2797852 6.0000000000 8.5495996475 8.5000000000 33.560367584 -0.008800000 8.1382999420 0.1950999945 2.5936999321 4.3439002037 97.471000671 1.6197999716 75.756698608 143.94169617 2.8059999943 4.2887001038 3.2246999741
 3456.4321289 6.0000000000 8.5197000504 8.5000000000 43.239501953 -0.009300000 8.1997995377 0.2127999961 2.5838000774 4.2241001129 91.480201721 1.6194000244 75.839897156 144.24800110 3.9709000587 3.3708000183 4.5064001083
 3456.5844727 6.0000000000 8.5213003159 8.5000000000 50.943241119 -0.008300000 8.5201997757 0.2119999975 2.5896000862 4.1991000175 87.253601074 1.3631000519 74.561096191 143.63040161 4.0378999710 3.9252998829 4.5791001320
 3456.7368164 6.0000000000 8.5213003159 8.5000000000 56.690940857 -0.005800000 7.9803004265 0.1873999983 2.6112999916 4.2409000397 87.477897644 1.2572000027 74.036697388 140.55029297 5.4267997742 5.4310002327 6.0541000366
 3456.8891602 6.0000000000 8.5276002884 8.5000000000 69.102363586 -0.004800000 7.4721999168 0.1676999927 2.6263000965 4.4123997688 88.641799927 0.8453000188 71.793998718 136.15190125 8.5069999695 8.2671003342 9.4132995605
 3457.0417480 6.0000000000 8.5079002380 8.5000000000 78.511817932 -0.004200000 6.7003002167 0.1562999934 2.6340999603 4.6303000450 90.516403198 0.7096999884 71.265602112 135.23890686 7.3692998886 9.8756999969 8.1807003021
 3457.1940918 6.0000000000 8.5039997101 8.5000000000 84.957679749 -0.006600000 6.5288000107 0.1473000050 2.6243999004 4.8611998558 86.494903564 0.7347999811 71.350303650 134.40629578 6.6174998283 8.5871000290 7.3312997818
 3457.3464355 6.0000000000 8.4976997375 8.5000000000 89.434715271 -0.008800000 6.2502999306 0.1448999941 2.6164999008 4.9723000526 85.422698975 0.9208999872 70.969200134 133.94209290 7.1497998238 7.6508998871 7.9593000412
 3457.4987793 6.0000000000 8.5024003983 8.5000000000 100.08956909 -0.010600000 6.2871999741 0.1412999928 2.6143999100 4.9756999016 81.955398560 1.1176999807 70.856399536 131.98829651 7.0514001846 7.9854001999 7.8309998512
 3457.6513672 6.0000000000 8.5000000000 8.5000000000 100.20833588 -0.008500000 6.6610999107 0.1429000050 2.6277999878 4.8839001656 84.159797668 1.0291999578 70.367103577 133.19020081 7.1191000938 8.4582004547 7.8750000000
 3457.8037109 6.0000000000 8.5000000000 8.5000000000 85.558731079 -0.007700000 7.0925002098 0.1451999992 2.6342000961 4.8414998055 82.645500183 0.9193999767 70.397697449 131.81149292 7.1510000229 8.9278001785 7.8933000565
 3457.9560547 5.0000000000 8.5039997101 8.5000000000 74.238845825 -0.007600000 7.1251001358 0.1440999955 2.6336998940 4.8562998772 79.693397522 0.7476000190 69.795402527 132.50190735 7.5065999031 8.9347000122 8.2441997528
 3458.1083984 5.0000000000 8.4961004257 8.5000000000 76.589897156 -0.009800000 6.4127001762 0.1362999976 2.6252999306 4.9092001915 74.435699463 0.7128999829 69.872299194 131.32640076 8.4457998276 9.6480998993 9.2423000336
 3458.2609863 5.0000000000 8.4976997375 8.5000000000 86.510498047 -0.009000000 5.8867001534 0.1272999942 2.6294000149 4.8885002136 74.332397461 0.6869000196 69.694297791 131.27029419 8.3816995621 9.8353996277 9.1581001282
 3458.4133301 5.0000000000 8.5000000000 8.5000000000 93.132545471 -0.008300000 5.4239997864 0.1206000000 2.6335000992 4.8449001312 73.227996826 0.7612000108 67.323699951 131.25660706 7.9295997620 10.261300087 8.6211996078
 3458.5656738 5.0000000000 8.5024003983 8.5000000000 86.626312256 -0.008400000 6.2284002304 0.1279000044 2.6306002140 4.8231000900 76.558197021 0.9175000191 65.754203796 129.52380371 7.5475001335 9.7543001175 8.1413002014
 3458.7180176 5.0000000000 8.5000000000 8.5000000000 75.048233032 -0.008400000 6.3801999092 0.1361999959 2.6275999546 4.7870001793 77.175903320 1.0115000010 64.268501282 129.65139771 6.6276001930 9.1588001251 7.1409997940
 3458.8703613 5.0000000000 8.4976997375 8.5000000000 64.739501953 -0.009200000 6.5999999046 0.1451999992 2.6226999760 4.7607998848 80.851501465 1.1583000422 65.295997620 134.72819519 6.6939001083 8.4500999451 7.2087001801
 3459.0229492 5.0000000000 8.5079002380 8.5000000000 52.835304260 -0.005700000 6.9369997978 0.1474999934 2.6194999218 4.7407999039 77.902000427 1.3966000080 66.528701782 133.58549500 6.7358999252 8.2230997086 7.2589001656
 3459.1752930 5.0000000000 8.5024003983 8.5000000000 52.526573181 -0.006000000 6.6970000267 0.1441999972 2.6122999191 4.7751998901 77.569702148 1.1382999420 68.235198975 133.64739990 6.5095000267 8.2799997330 7.0278000832
 3459.3276367 5.0000000000 8.4976997375 8.5000000000 58.270019531 -0.001600000 6.6856999397 0.1429000050 2.6122999191 4.8074998856 78.013702393 0.9034000039 70.628303528 133.64739990 6.6828999519 8.2573995590 7.2108001709
