# LAS format log file from PETREL
# Project units are specified as depth units
#==================================================================
~Version information
VERS.   2.0:
WRAP.   NO:
#==================================================================
~Well
STRT .m      3245.2055664 :
STOP .m      4039.9716797 :
STEP .m     0.00000000 :
NULL .        -999.250000 :
COMP.           : COMPANY
WELL.  35/3-7 S   : WELL
FLD.            : FIELD
LOC.            : LOCATION
SRVC.           : SERVICE COMPANY
DATE.  2018-09-11 14:48:58   : Log Export Date {yyyy-MM-dd HH:mm:ss}
PROV.           : PROVINCE
UWI.   35/3-7 S   : UNIQUE WELL ID
API.            : API NUMBER
#==================================================================
~Curve
DEPT .m                   : DEPTH
Lithology_geolink ._      : Lithology_geolink
CALI .in                  : CALI
BS .in                    : BS
ROP .m/h                  : ROP
DRHO .g/cm3               : DRHO
THOR .ppm                 : THOR
NPHI .m3/m3               : NPHI
RHOB .g/cm3               : RHOB
PEF .b/e                  : PEF
GR .gAPI                  : GR
URAN .ppm                 : URAN
DTC .us/ft                : DTC
DTS .us/ft                : DTS
RDEP .ohm.m               : RDEP
RMIC .ohm.m               : RMIC
RMED .ohm.m               : RMED
~Parameter
#==================================================================
~Ascii
# ...
 3295.9548340 6.0000000000 8.5213003159 8.5000000000 95.002296448 -0.010100000 7.3362998962 0.1649000049 2.6024000645 4.4429001808 82.224296570 0.6564000249 76.272300720 150.55810547 4.4194002151 5.5394001007 4.8715000153
 3296.1071777 6.0000000000 8.4787998199 8.5000000000 92.373031616 -0.009600000 7.4899001122 0.1563999951 2.6061999798 4.4611001015 87.381202698 0.3955999911 77.085899353 145.01719666 4.1592998505 5.3666000366 4.5882000923
 3296.2597656 6.0000000000 8.4764003754 8.5000000000 96.509513855 -0.010300000 6.3390002251 0.1577000022 2.6040999889 4.5585999489 86.597297668 0.5662000179 76.848297119 149.20719910 4.2852997780 5.3675999641 4.7389998436
 3296.4121094 6.0000000000 8.4694004059 8.5000000000 99.183403015 -0.011600000 7.3362998962 0.1571000069 2.6019999981 4.6588001251 85.650802612 0.4092999995 75.979896545 148.88630676 4.4028000832 5.5577001572 4.8699998856
 3296.5644531 5.0000000000 8.4686002731 8.5000000000 102.94554138 -0.012100000 6.9183998108 0.1606000066 2.5999000072 4.7498002052 82.314002991 0.6965000033 75.957702637 146.21060181 4.5054001808 5.6658000946 4.9973998070
 3296.7167969 5.0000000000 8.4645996094 8.5000000000 97.922569275 -0.011400000 7.1076998711 0.1601999998 2.6047000885 4.7733001709 80.991203308 0.8009999990 75.745201111 145.69560242 4.3670997620 5.8670001030 4.8688998222
 3296.8691406 5.0000000000 8.4645996094 8.5000000000 86.352691650 -0.011400000 6.8720998764 0.1555999964 2.6063001156 4.7937002182 75.530899048 0.7965000272 76.212402344 150.83329773 4.6905999184 5.9742999077 5.2628998756
 3297.0217285 5.0000000000 8.4741001129 8.5000000000 77.513450623 -0.010100000 7.0585999489 0.1460999995 2.6110000610 4.7554001808 75.935401917 0.6678000093 78.291488647 150.47700500 4.7781000137 6.5254001617 5.3807001114
 3297.1740723 5.0000000000 8.4724998474 8.5000000000 73.136817932 -0.009500000 7.7687001228 0.1433999985 2.6078999043 4.6770000458 73.632301331 0.7063000202 80.493797302 160.30329895 5.0315999985 6.3517999649 5.6858000755
 3297.3264160 5.0000000000 8.4741001129 8.5000000000 83.356300354 -0.009800000 7.9098000526 0.1596000046 2.5978000164 4.5473999977 79.497001648 0.9704999924 81.145103455 159.70190430 4.1168999672 5.5717000961 4.6696000099
 3297.4787598 5.0000000000 8.4804000854 8.5000000000 97.362533569 -0.010700000 7.6862998009 0.1805000007 2.5848999023 4.4317998886 82.468696594 1.3336000443 81.290092468 159.66029358 3.3866999149 4.6750001907 3.8376998901
 3297.6313477 6.0000000000 8.4834995270 8.5000000000 117.07119751 -0.011400000 7.2305998802 0.1932999939 2.5718998909 4.4200000763 85.684799194 1.2786999941 80.354301453 159.71060181 3.4152998924 4.1230998039 3.8791999817
 3297.7836914 6.0000000000 8.5024003983 8.5000000000 111.24933624 -0.010100000 6.8846998215 0.1988999993 2.5703001022 4.4590997696 87.251899719 1.3970999718 79.860000610 158.32868958 3.3111000061 4.0149002075 3.7627000809
 3297.9360352 6.0000000000 8.4882001877 8.5000000000 103.01837158 -0.008200000 7.2442002296 0.2020999938 2.5771000385 4.5085000992 88.425903320 1.2660000324 78.224197388 158.66450500 3.1805999279 4.0732998848 3.6271998882
 3298.0883789 6.0000000000 8.4834995270 8.5000000000 116.86679840 -0.006200000 7.1476001740 0.2081999928 2.5934998989 4.5118999481 93.207099915 1.3516000509 77.679901123 156.04440308 3.1721000671 4.2802000046 3.6308000088
 3298.2409668 6.0000000000 8.4921998978 8.5000000000 125.03904724 -0.005000000 7.0086998940 0.1968999952 2.6101999283 4.5139999390 93.109100342 1.1516000032 77.330398560 151.73260498 3.2960999012 4.7958998680 3.7669000626
 3298.3933105 6.0000000000 8.4834995270 8.5000000000 112.00394440 -0.006300000 7.1015000343 0.1811999977 2.6159999371 4.5664000511 94.423599243 1.1219999790 77.340698242 147.98089600 3.7946000099 5.1314997673 4.3372001648
 3298.5456543 6.0000000000 8.4921998978 8.5000000000 95.848426819 -0.008800000 6.6932001114 0.1670999974 2.6112000942 4.6326999664 89.366203308 1.2252999544 76.675300598 148.64909363 4.2653999329 5.8108000755 4.8421001434
 3298.6979980 6.0000000000 8.4921998978 8.5000000000 94.178802490 -0.010600000 6.8674998283 0.1615999937 2.6045999527 4.6600999832 89.413902283 1.0212999582 76.223396301 147.00939941 4.6725001335 5.9699001312 5.2871999741
 3298.8503418 6.0000000000 8.5024003983 8.5000000000 95.834320068 -0.011500000 6.7863001823 0.1727000028 2.6020998955 4.6529002190 87.612602234 1.1407999992 75.027000427 144.19349670 4.4910998344 5.6824002266 5.0732998848
 3299.0029297 6.0000000000 8.4930000305 8.5000000000 87.816925049 -0.011300000 6.4899001122 0.1703999937 2.6057000160 4.6918997765 83.237396240 0.8191000223 72.108398438 141.58959961 3.5095999241 6.0261001587 3.9460000992
 3299.1552734 6.0000000000 8.4976997375 8.5000000000 81.803482056 -0.012500000 6.1572999954 0.1580000073 2.6085000038 4.8063998222 80.739799500 0.5903000236 72.667900085 138.46620178 4.8350000381 7.0485000610 5.3854999542
 3299.3076172 6.0000000000 8.4921998978 8.5000000000 83.813652039 -0.012200000 5.7147998810 0.1353999972 2.6143000126 4.8843998909 75.241996765 0.4180999994 72.910598755 138.95730591 6.6385998726 8.3881998062 7.3852000237
 3299.4599609 5.0000000000 8.4930000305 8.5000000000 84.473754883 -0.011800000 5.8769001961 0.1297000051 2.6180000305 4.8590998650 76.758796692 0.6448000073 73.284400940 138.57330322 6.4630999565 8.1389999390 7.1817998886
 3299.6125488 5.0000000000 8.5071001053 8.5000000000 79.868438721 -0.011500000 6.3013000488 0.1402000040 2.6143999100 4.7859997749 73.694999695 0.7987999916 73.520500183 138.47270203 6.1405000687 7.4888000488 6.8060998917
 3299.7648926 5.0000000000 8.4842996597 8.5000000000 75.503608704 -0.011400000 6.0329999924 0.1498000026 2.6099998951 4.7158999443 75.806900024 1.0434999466 73.357200623 138.93789673 5.3860998154 7.2400999069 5.9528999329
 3299.9172363 5.0000000000 8.5000000000 8.5000000000 71.966209412 -0.009800000 6.1793999672 0.1552000046 2.6135001183 4.6475000381 77.626998901 0.9939000010 72.938400269 138.81959534 5.5859999657 7.0041999817 6.1676998138
 3300.0695801 5.0000000000 8.4834995270 8.5000000000 74.626640320 -0.007000000 6.0367999077 0.1546999961 2.6247000694 4.5680999756 75.537696838 0.7448999882 72.452796936 139.25590515 5.6055002213 7.4004998207 6.1897997856
 3300.2221680 5.0000000000 8.5024003983 8.5000000000 82.418640137 -0.005400000 6.1870999336 0.1502999961 2.6310999393 4.5173001289 73.545700073 0.7700999975 72.000801086 138.91589355 5.7462000847 7.0429000854 6.3255000114
 3300.3745117 5.0000000000 8.5079002380 8.5000000000 86.145668030 -0.006200000 6.0314998627 0.1442999989 2.6275000572 4.5212998390 73.603996277 1.0433000326 71.728500366 140.55960083 5.6227998734 7.1907000542 6.1627998352
 3300.5268555 5.0000000000 8.4834995270 8.5000000000 88.209640503 -0.008600000 6.7213997841 0.1393000036 2.6187996864 4.5650000572 77.816703796 0.7928000093 73.621803284 138.56140137 5.8137998581 7.2631998062 6.3863000870
 3300.6791992 5.0000000000 8.4882001877 8.5000000000 89.346130371 -0.010100000 7.0026001930 0.1369999945 2.6133999825 4.6270999908 80.298797607 0.9254999757 73.793197632 137.95109558 5.9959001541 7.3860001564 6.5946002007
 3300.8315430 5.0000000000 8.4834995270 8.5000000000 80.417320251 -0.010300000 7.4769001007 0.1386000067 2.6108999252 4.7023000717 77.009498596 0.9121999741 75.083297729 141.23480225 5.8053002357 7.4702000618 6.3899002075
 3300.9841309 5.0000000000 8.4764003754 8.5000000000 72.938980103 -0.008200000 7.8422999382 0.1416999996 2.6145000458 4.7200999260 77.009498596 1.2618000507 75.396202087 141.11289978 5.4879999161 6.8496999741 6.0387997627
 3301.1364746 5.0000000000 8.5000000000 8.5000000000 70.237861633 -0.006900000 8.3709001541 0.1468999982 2.6150000095 4.6799001694 78.577400208 1.0508999825 75.208198547 142.60600281 5.2698998451 6.8428997993 5.8078999519
 3301.2888184 5.0000000000 8.4741001129 8.5000000000 67.536743164 -0.006900000 8.4443998337 0.1497000009 2.6147999763 4.5701999664 81.100601196 1.1016000509 74.900901794 143.13580322 5.3137001991 6.6521000862 5.8647999763
 3301.4411621 5.0000000000 8.4882001877 8.5000000000 65.821853638 -0.009100000 8.7381000519 0.1562000066 2.6087000370 4.4857997894 87.196197510 0.8191000223 75.691902161 143.92480469 5.3227000237 6.8062000275 5.8870000839
