# LAS format log file from PETREL
# Project units are specified as depth units
#==================================================================
~Version information
VERS.   2.0:
WRAP.   NO:
#==================================================================
~Well
STRT .m      511.89910889 :
STOP .m      4480.0908203 :
STEP .m     0.00000000 :
NULL .        -999.250000 :
COMP.           : COMPANY
WELL.  35/3-1   : WELL
FLD.            : FIELD
LOC.            : LOCATION
SRVC.           : SERVICE COMPANY
DATE.  2018-09-11 14:48:57   : Log Export Date {yyyy-MM-dd HH:mm:ss}
PROV.           : PROVINCE
UWI.   35/3-1   : UNIQUE WELL ID
API.            : API NUMBER
#==================================================================
~Curve
DEPT .m                   : DEPTH
Lithology_geolink ._      : Lithology_geolink
CALI .in                  : CALI
DRHO .g/cm3               : DRHO
NPHI .m3/m3               : NPHI
RHOB .g/cm3               : RHOB
GR .gAPI                  : GR
DTC .us/ft                : DTC
RDEP .ohm.m               : RDEP
SP .mV                    : SP
RSHA .ohm.m               : RSHA
RMED .ohm.m               : RMED
~Parameter
#==================================================================
~Ascii
# ...
 1833.2073975 6.0000000000 18.857999802 0.0410080142  -999.250000 2.0849857330 53.106456757 142.59504700 0.9590272307 45.881156921 1.0270159245 1.0270063877
 1833.3597412 6.0000000000 18.930999756 0.0429799855  -999.250000 2.0759968758 53.713527679 141.37908936 0.9760104418 46.668201447 1.0310159922 1.0310032368
 1833.5120850 6.0000000000 19.111999512 0.0380064100  -999.250000 2.0720047951 55.292331696 140.24015808 0.9890064001 47.214099884 1.0350128412 1.0350031853
 1833.6645508 6.0000000000 19.322000504 0.0400320254  -999.250000 2.0780081749 57.370063782 137.94128418 0.9970048070 46.617572784 1.0390200615 1.0390040874
 1833.8168945 6.0000000000 19.468999863 0.0480128191  -999.250000 2.0880095959 59.059082031 138.29568481 1.0030032396 45.270015717 1.0440064669 1.0440015793
 1833.9693604 6.0000000000 19.420999527 0.0519679487  -999.250000 2.0999958515 59.731998444 140.38362122 1.0069984198 46.209884644 1.0459879637 1.0459976196
 1834.1217041 6.0000000000 19.124000549 0.0439879894  -999.250000 2.0949943066 59.313220978 141.15686035 1.0049959421 46.673381805 1.0429840088 1.0429967642
 1834.2741699 6.0000000000 18.850000381 0.0410360582  -999.250000 2.0880072117 58.202705383 142.22340393 0.9999960065 45.522403717 1.0389879942 1.0389976501
 1834.4265137 6.0000000000 18.757999420 0.0500560440  -999.250000 2.0970063210 56.831420898 141.47988892 0.9949935675 45.125991821 1.0359840393 1.0359967947
 1834.5789795 6.0000000000 18.819999695 0.0640000030  -999.250000 2.1049935818 55.221630096 140.08055115 0.9869839549 45.124557495 1.0319799185 1.0319919586
 1834.7313232 6.0000000000 18.982999802 0.0639759824  -999.250000 2.1009831429 53.403461456 138.55564880 0.9769887924 45.264091492 1.0269799232 1.0269958973
 1834.8837891 7.0000000000 19.080999374 0.0580120161  -999.250000 2.0799646378 51.819923401 136.86341858 0.9629743695 45.535987854 1.0219799280 1.0219919682
 1835.0361328 7.0000000000 19.216999054 0.0609599687  -999.250000 2.0579943657 50.957950592 138.38134766 0.9469879866 45.532035828 1.0169759989 1.0169951916
 1835.1885986 7.0000000000 19.791000366 0.0509238765  -999.250000 2.0509858131 50.927501678 141.32543945 0.9319791794 45.290527344 1.0109759569 1.0109903812
 1835.3409424 7.0000000000 20.129999161 0.0319799855  -999.250000 2.0420095921 51.553573608 144.71084595 0.9190016389 44.923595428 1.0049799681 1.0049959421
 1835.4932861 7.0000000000 19.688997269 0.0270256419  -999.250000 2.0540046692 52.536605835 145.75402832 0.9210128188 44.826068878 0.9999807477 0.9999951720
 1835.6457520 7.0000000000 19.954999924 0.0350240208  -999.250000 2.0599975586 53.539348602 145.78593445 0.9370151758 45.780162811 0.9939880371 0.9939976335
 1835.7980957 7.0000000000 21.079000473 0.0409711562  -999.250000 2.0569806099 54.382152557 146.95317078 0.9560127854 45.817901611 0.9909999967 0.9909999967
 1835.9505615 7.0000000000 21.667999268 0.0319038481  -999.250000 2.0329768658 55.100639343 145.93318176 0.9720032215 44.855365753 0.9909999967 0.9909999967
 1836.1029053 7.0000000000 22.006999969 0.0079479590  -999.250000 2.0039863586 55.782665253 146.16201782 0.9759920239 45.202766418 0.9909999967 0.9909999967
 1836.2553711 7.0000000000 22.261999130 -0.005000000  -999.250000 1.9869935513 56.195014954 146.18190002 0.9659888148 47.130649567 0.9909999967 0.9909999967
 1836.4077148 7.0000000000 22.249000549 -0.004983987  -999.250000 1.9789823294 55.784755707 143.55720520 0.9519928098 46.042011261 0.9909999967 0.9909999967
 1836.5601807 7.0000000000 22.181999207 -0.000975962  -999.250000 1.9569559097 54.382549286 143.80900574 0.9430032372 44.060909271 0.9909999967 0.9909999967
 1836.7125244 7.0000000000 21.663000107 0.0050160126  -999.250000 1.9019334316 52.530471802 143.81007385 0.9470088482 45.534389496 0.9909999967 0.9909999967
 1836.8649902 6.0000000000 20.718000412 0.0089959931  -999.250000 1.8188302517 50.951488495 142.66154480 0.9580288529 46.623779297 0.9909999967 0.9909999967
 1837.0173340 6.0000000000 21.097000122 0.0079959976  -999.250000 1.7129431963 49.907863617 145.49588013 0.9760120511 45.821147919 0.9909999967 0.9909999967
 1837.1697998 6.0000000000 22.138000488 0.0070160259  -999.250000 1.6419743299 49.197910309 140.34776306 0.9910160303 45.357219696 0.9909999967 0.9909999967
 1837.3221436 6.0000000000 22.313999176 0.0109999999  -999.250000 1.6260056496 48.745182037 136.46372986 1.0010024309 44.670402527 0.9909999967 0.9909999967
 1837.4746094 6.0000000000 22.309000015 0.0109879803  -999.250000 1.6330624819 48.862071991 139.87506104 1.0039839745 45.776935577 0.9909999967 0.9909999967
 1837.6269531 6.0000000000 22.305002213 0.0080040032  -999.250000 1.6720465422 49.723674774 139.28025818 0.9939920306 48.494640350 0.9909999967 0.9909999967
 1837.7792969 6.0000000000 22.283000946 0.0089839743  -999.250000 1.7300000191 50.768585205 138.34524536 0.9840056300 48.149776459 0.9909999967 0.9909999967
 1837.9317627 6.0000000000 22.268999100 0.0039559295  -999.250000 1.7299823761 51.130558014 142.39404297 0.9910160303 45.898845673 0.9909999967 0.9909999967
 1838.0841064 6.0000000000 22.277000427 -0.006991994  -999.250000 1.7079846859 50.530464172 139.95097351 1.0110192299 44.865631104 0.9909999967 0.9909999967
 1838.2365723 6.0000000000 22.278001785 -0.004931891  -999.250000 1.6889896393 49.572025299 132.43312073 1.0350087881 44.772686005 0.9909999967 0.9909999967
 1838.3889160 6.0000000000 21.833999634 0.0120080067  -999.250000 1.6760008335 49.166744232 132.58439636 1.0460032225 44.456161499 0.9909920096 0.9909983873
 1838.5413818 6.0000000000 21.681999207 0.0139719555  -999.250000 1.6770097017 49.630989075 135.57601929 1.0499991179 46.984169006 0.9889719486 0.9889944196
 1838.6937256 6.0000000000 22.121997833 0.0069879908  -999.250000 1.6889976263 50.456867218 140.58105469 1.0489840508 46.772918701 0.9819719791 0.9819943905
 1838.8461914 6.0000000000 22.264997482 0.0040200320  -999.250000 1.6859647036 50.996070862 148.13658142 1.0289520025 45.758136749 0.9749679565 0.9749872088
 1838.9985352 6.0000000000 22.256999969 0.0090080062  -999.250000 1.6640104055 51.025363922 147.88314819 0.9989895821 46.041492462 0.9669679999 0.9669935703
 1839.1510010 6.0000000000 22.247999191 0.0109759616  -999.250000 1.6770097017 50.627410889 146.80213928 0.9860079885 46.163185120 0.9589879513 0.9589951634
 1839.3033447 6.0000000000 22.239999771 0.0049559646  -999.250000 1.6829870939 49.965831757 140.65606689 0.9910104275 45.958145142 0.9560079575 0.9560015798
 1839.4558105 6.0000000000 22.237001419 -0.006020032  -999.250000 1.6669985056 49.236652374 136.99308777 1.0040191412 45.495899200 0.9580200315 0.9580079913
 1839.6080322 6.0000000000 21.958999634 -0.011006405  -999.250000 1.6660000086 48.676708221 135.80700684 1.0160000324 45.223049164 0.9630160332 0.9629999995
 1839.7603760 6.0000000000 21.489000320 -0.013002404  -999.250000 1.6480000019 48.315582275 134.99800110 1.0190000534 45.551010132 0.9680095911 0.9679999948
 1839.9128418 6.0000000000 21.194002151 -0.013983987  -999.250000 1.6089999676 47.790214539 140.15800476 1.0219999552 45.971199036 0.9720032215 0.9720000029
 1840.0651855 5.0000000000 21.259000778 -0.009007211  -999.250000 1.6050000191 46.674701691 140.95100403 1.0269999504 46.032054901 0.9729999900 0.9729999900
 1840.2176514 5.0000000000 21.842000961 -0.012022436  -999.250000 1.6390000582 45.055610657 136.70100403 1.0290000439 45.637870789 0.9729999900 0.9729999900
 1840.3699951 5.0000000000 22.254999161 -0.018993594  -999.250000 1.6840000153 43.565319061 135.27999878 1.0299999714 45.285987854 0.9729999900 0.9729999900
 1840.5224609 5.0000000000 22.254999161 -0.016983975  -999.250000 1.7020000219 42.711456299 136.12199402 1.0329999924 44.970188141 0.9729999900 0.9729999900
 1840.6748047 5.0000000000 22.254999161 -0.011974379  -999.250000 1.6790000200 42.370723724 134.64300537 1.0360000134 44.717784882 0.9729999900 0.9729999900
 1840.8271484 5.0000000000 22.253999710 -0.003978366  -999.250000 1.6779999733 42.027519226 135.84500122 1.0390000343 44.650371552 0.9729999900 0.9729999900
