# LAS format log file from PETREL
# Project units are specified as depth units
#==================================================================
~Version information
VERS.   2.0:
WRAP.   NO:
#==================================================================
~Well
STRT .m      3245.2055664 :
STOP .m      4039.9716797 :
STEP .m     0.00000000 :
NULL .        -999.250000 :
COMP.           : COMPANY
WELL.  35/3-7 S   : WELL
FLD.            : FIELD
LOC.            : LOCATION
SRVC.           : SERVICE COMPANY
DATE.  2018-09-11 14:48:58   : Log Export Date {yyyy-MM-dd HH:mm:ss}
PROV.           : PROVINCE
UWI.   35/3-7 S   : UNIQUE WELL ID
API.            : API NUMBER
#==================================================================
~Curve
DEPT .m                   : DEPTH
Lithology_geolink ._      : Lithology_geolink
CALI .in                  : CALI
BS .in                    : BS
ROP .m/h                  : ROP
DRHO .g/cm3               : DRHO
THOR .ppm                 : THOR
NPHI .m3/m3               : NPHI
RHOB .g/cm3               : RHOB
PEF .b/e                  : PEF
GR .gAPI                  : GR
URAN .ppm                 : URAN
DTC .us/ft                : DTC
DTS .us/ft                : DTS
RDEP .ohm.m               : RDEP
RMIC .ohm.m               : RMIC
RMED .ohm.m               : RMED
~Parameter
#==================================================================
~Ascii
# ...
 3769.6140137 7.0000000000 8.6141004562 8.5000000000 51.166011810 -0.010400000 15.186100006 0.2682000101 2.5710000992 4.0805997849 144.94529724 2.3241999149 90.761001587 184.85249329 3.4319000244 3.3875000477 3.6006000042
 3769.7666016 7.0000000000 8.5732002258 8.5000000000 58.680770874 -0.008100000 15.873399734 0.2739999890 2.5876998901 4.2196998596 144.88800049 2.2346999645 91.197402954 179.35429382 3.4182999134 3.6036000252 3.5903999805
 3769.9189453 7.0000000000 8.5354995728 8.5000000000 69.815940857 -0.005100000 15.527098656 0.2759999931 2.5996000767 4.4453001022 140.43890381 1.9232000113 89.195198059 178.15269470 3.8951001167 4.3111000061 4.0855998993
 3770.0712891 7.0000000000 8.5276002884 8.5000000000 71.578079224 -0.004000000 15.126199722 0.2698000073 2.5943000317 4.7581000328 136.55099487 1.5793000460 87.497703552 177.17669678 6.1585001945 4.6778001785 6.3734002113
 3770.2236328 7.0000000000 8.5071001053 8.5000000000 68.706687927 -0.003200000 14.772700310 0.2788999975 2.5729000568 5.0992999077 135.59719849 1.6237000227 86.533599854 169.84718323 5.6484999657 5.0482997894 5.8018999100
 3770.3762207 6.0000000000 8.4741001129 8.5000000000 63.662071228 -0.005200000 14.553199768 0.2633999884 2.5246999264 5.4327001572 130.84469604 1.9013999701 84.906997681 167.64340210 5.4591999054 4.0314998627 5.6304001808
 3770.5285645 6.0000000000 8.3041000366 8.5000000000 55.096454620 -0.007700000 14.700400352 0.2316000015 2.4711999893 5.6845002174 114.50099945 1.5255999565 84.106002808 167.53900146 5.9587001801 2.7369000912 6.0718002319
 3770.6809082 2.0000000000 8.2568998337 8.5000000000 46.944881439 -0.011600000 13.758799553 0.2025000006 2.4219000340 5.9354000092 95.086700439 1.0822999477 83.606399536 157.17770386 2.8635001183 1.4946999550 2.9467999935
 3770.8332520 2.0000000000 8.2663002014 8.5000000000 42.741798401 -0.014500000 10.986000061 0.1987999976 2.3935000896 6.1778998375 84.368301392 0.6733000278 85.027900696 152.85360718 2.8322000504 1.0582000017 2.9175000191
 3770.9855957 2.0000000000 8.2615995407 8.5000000000 47.594486237 -0.016700000 8.4942998886 0.2137999982 2.3777000904 6.3826999664 83.750297546 0.7876999974 85.315399170 157.72169495 2.9770998955 0.8913999796 3.0827999115
 3771.1381836 2.0000000000 8.2600002289 8.5000000000 74.772964478 -0.017400000 7.0605001450 0.2266000062 2.3719000816 6.4449000359 84.053596497 0.5360000134 85.756500244 162.45039368 3.1417000294 0.8748999834 3.2839999199
 3771.2905273 2.0000000000 8.2639999390 8.5000000000 121.93798065 -0.015400000 6.9309000969 0.2197999954 2.3693997860 6.3768000603 82.840202332 0.1486999989 86.127899170 165.11430359 2.8387999535 0.8561000228 3.0057001114
 3771.4428711 2.0000000000 8.2757997513 8.5000000000 150.22999573 -0.007400000 6.8994002342 0.1978999972 2.3861000538 6.1886000633 83.016601563 0.2861000001 86.199401855 165.29759216 2.7174999714 0.8901000023 2.8824000359
 3771.5952148 6.0000000000 8.2852001190 8.5000000000 148.55314636 -0.002900000 6.9622998238 0.1720999926 2.4317998886 5.8720002174 84.230003357 0.3643000126 86.136398315 165.09111023 2.7837998867 1.1512999535 2.9670000076
 3771.7478027 6.0000000000 8.2994003296 8.5000000000 131.43832397 0.0004000000 6.7822999954 0.1881999969 2.5013999939 5.3919000626 90.600303650 0.5762000084 86.270301819 165.32009888 5.4973998070 1.8776999712 5.8702998161
 3771.9001465 6.0000000000 8.4961004257 8.5000000000 108.82775879 -0.004600000 6.8611001968 0.2386000007 2.5515000820 4.8962998390 106.98979950 0.5665000081 86.741302490 167.48280334 5.4513998032 3.7042000294 5.8206000328
 3772.0524902 7.0000000000 8.5448999405 8.5000000000 88.691596985 -0.004900000 10.323399544 0.2858000100 2.5782001019 4.4734001160 125.94339752 0.4289000034 87.537002563 170.70820618 4.4949002266 4.1694998741 4.7581000328
 3772.2048340 7.0000000000 8.5591001511 8.5000000000 73.602035522 -0.008600000 13.977899551 0.3054000139 2.5776998997 4.3408999443 138.98739624 0.7124999762 87.841003418 173.62480164 4.0100998878 3.7988998890 4.1854000092
 3772.3574219 7.0000000000 8.5826997757 8.5000000000 72.244422913 -0.009900000 16.830499649 0.2994999886 2.5894999504 4.4485001564 143.47349548 0.7006999850 87.875999451 172.94749451 3.7548000813 3.6268000603 3.8807001114
 3772.5097656 7.0000000000 8.5778999329 8.5000000000 73.837928772 -0.009600000 15.278599739 0.2982999980 2.5957999229 4.7624998093 138.27180481 1.0134999752 87.542999268 174.50129700 4.0212001801 4.0109000206 4.1435999870
 3772.6621094 7.0000000000 8.5637998581 8.5000000000 66.409446716 -0.007500000 13.383299828 0.2766000032 2.6078000069 4.9835000038 130.84330750 0.7746000290 86.565696716 171.48469543 5.6827998161 3.8383998871 5.8541998863
 3772.8144531 6.0000000000 8.5306997299 8.5000000000 53.040679932 -0.006300000 13.238499641 0.2294999957 2.6284000874 5.1477999687 120.38269806 0.8431000113 84.698600769 163.09710693 6.3889999390 3.3993999958 6.5577998161
 3772.9667969 6.0000000000 8.5117998123 8.5000000000 43.623687744 -0.004400000 12.932399750 0.1779000014 2.6765999794 5.3882999420 105.11409760 1.0556999445 79.445098877 156.53251648 15.469599724 3.8691000938 15.759200096
 3773.1193848 2.0000000000 8.5213003159 8.5000000000 33.424213409 -0.004300000 12.579600334 0.1326999962 2.7177999020 5.6778998375 92.243202209 1.0462000370 75.728698730 141.71670532 19.806900024 6.2094998360 19.751300812
 3773.2717285 2.0000000000 8.5495996475 8.5000000000 25.349739075 -0.004500000 10.689599991 0.1280000061 2.6731998920 5.9253001213 79.098098755 1.0866999626 74.212303162 134.46009827 17.639999390 7.1620998383 17.342300415
 3773.4240723 2.0000000000 8.4552001953 8.5000000000 22.737205505 -0.008000000 10.158900261 0.1351999938 2.5701000690 5.9015002251 79.401397705 0.8853999972 72.967201233 132.55630493 7.4787001610 2.9312999249 7.3580999374
 3773.5764160 6.0000000000 8.2757997513 8.5000000000 25.552822113 -0.007400000 10.185099602 0.1601999998 2.4693999290 5.8530998230 80.930297852 1.1383999586 72.915100098 129.76679993 3.3882999420 1.6098999977 3.3478000164
 3773.7290039 6.0000000000 8.2663002014 8.5000000000 33.285762787 -0.005900000 11.596099854 0.1842000037 2.4442000389 5.7967000008 83.761596680 1.6186000109 74.074203491 136.58749390 2.5759000778 1.3094999790 2.5653998852
 3773.8813477 6.0000000000 8.2711000443 8.5000000000 43.614501953 -0.003100000 12.231599808 0.1816000044 2.4774999619 5.7561001778 87.603996277 1.9609999657 77.669197083 150.35339355 3.8754000664 1.6920000315 3.9500999451
 3774.0336914 6.0000000000 8.3559999466 8.5000000000 60.739830017 -0.003600000 11.685500145 0.1836999953 2.5164999962 5.7274999619 94.341598511 2.1923999786 81.966499329 146.37440491 8.7695999146 2.9981999397 9.1057996750
 3774.1860352 6.0000000000 8.4741001129 8.5000000000 100.13516998 -0.002600000 11.351900101 0.2079000026 2.5294001102 5.7122001648 106.17230225 2.3313000202 82.880493164 155.59339905 9.1429996490 4.2621002197 9.5734996796
 3774.3386230 6.0000000000 8.4331998825 8.5000000000 119.02626038 -0.004500000 11.124400139 0.2161000073 2.4893000126 5.7410998344 106.17230225 2.3864998817 85.017807007 156.70339966 8.0982999802 3.3994998932 8.5195999146
 3774.4909668 6.0000000000 8.3465995789 8.5000000000 96.054794312 -0.012600000 10.700499535 0.2161000073 2.4088997841 5.9005999565 96.083900452 2.3836998940 85.667297363 156.74971008 4.1880002022 1.3756999969 4.4305000305
 3774.6433105 2.0000000000 8.2568998337 8.5000000000 84.346786499 -0.018700000 10.454000473 0.2064000070 2.3443999290 6.0973000526 82.730201721 2.0604999065 86.147697449 156.69000244 2.3306000233 0.8661999702 2.5355000496
 3774.7956543 2.0000000000 8.2482004166 8.5000000000 79.299537659 -0.020800000 9.1224002838 0.2274000049 2.3171999454 6.3200001717 78.786697388 1.6769000292 86.240501404 155.19050598 2.7184000015 0.6786999702 2.8729999065
 3774.9479980 2.0000000000 8.2679004669 8.5000000000 105.95538330 -0.014600000 8.4401998520 0.2317000031 2.3297998905 6.3733000755 81.898002625 1.2070000172 86.994003296 151.77009583 2.8938000202 0.7315000296 3.0569000244
 3775.1005859 2.0000000000 8.2663002014 8.5000000000 163.49081421 -0.011800000 6.2869000435 0.2349999994 2.3552999496 6.2797999382 81.286003113 0.9179000258 88.392303467 156.40769958 2.8694000244 0.8108000159 3.0604999065
