# LAS format log file from PETREL
# Project units are specified as depth units
#==================================================================
~Version information
VERS.   2.0:
WRAP.   NO:
#==================================================================
~Well
STRT .m      511.89910889 :
STOP .m      4480.0908203 :
STEP .m     0.00000000 :
NULL .        -999.250000 :
COMP.           : COMPANY
WELL.  35/3-1   : WELL
FLD.            : FIELD
LOC.            : LOCATION
SRVC.           : SERVICE COMPANY
DATE.  2018-09-11 14:48:57   : Log Export Date {yyyy-MM-dd HH:mm:ss}
PROV.           : PROVINCE
UWI.   35/3-1   : UNIQUE WELL ID
API.            : API NUMBER
#==================================================================
~Curve
DEPT .m                   : DEPTH
Lithology_geolink ._      : Lithology_geolink
CALI .in                  : CALI
DRHO .g/cm3               : DRHO
NPHI .m3/m3               : NPHI
RHOB .g/cm3               : RHOB
GR .gAPI                  : GR
DTC .us/ft                : DTC
RDEP .ohm.m               : RDEP
SP .mV                    : SP
RSHA .ohm.m               : RSHA
RMED .ohm.m               : RMED
~Parameter
#==================================================================
~Ascii
# ...
 4203.7895508 6.0000000000 14.357999802 -0.077983975 0.4080199897 2.4349904060 59.495029449 79.974998474 5.7379999161  -999.250000  -999.250000 5.2220001221
 4203.9418945 6.0000000000 14.274999619 -0.073073715 0.3764810860 2.4320127964 59.192787170 81.322998047 5.6539998055  -999.250000  -999.250000 5.3159999847
 4204.0942383 6.0000000000 14.187999725 -0.096031949 0.3257527649 2.4359745979 58.814464569 83.022003174 5.5789999962  -999.250000  -999.250000 5.4140000343
 4204.2465820 6.0000000000 14.034000397 -0.105999999 0.3010289669 2.4279999733 58.334999084 83.586997986 5.5669999123  -999.250000  -999.250000 5.5560002327
 4204.3989258 6.0000000000 13.699000359 -0.115999997 0.2924074829 2.4049999714 57.841999054 83.113998413 5.6119999886  -999.250000  -999.250000 5.6890001297
 4204.5512695 6.0000000000 13.419000626 -0.122000001 0.2879741490 2.4040000439 57.613998413 83.152999878 5.6929998398  -999.250000  -999.250000 5.6209998131
 4204.7041016 6.0000000000 13.348999977 -0.124009617 0.2918600142 2.3989551067 57.868415833 83.680999756 5.8169999123  -999.250000  -999.250000 5.3850002289
 4204.8564453 6.0000000000 13.314000130 -0.127003208 0.2962999940 2.3849968910 58.307823181 84.277000427 5.9289999008  -999.250000  -999.250000 5.2059998512
 4205.0087891 6.0000000000 13.279999733 -0.127980769 0.3007099926 2.3839840889 58.250495911 83.617996216 5.9930000305  -999.250000  -999.250000 5.2509999275
 4205.1611328 5.0000000000 13.190999985 -0.122003205 0.3046799898 2.3789904118 57.468544006 82.977996826 6.0050001144  -999.250000  -999.250000 5.4910001755
 4205.3134766 5.0000000000 12.892000198 -0.122996800 0.3046002686 2.3760223389 56.391635895 82.687995911 5.9869999886  -999.250000  -999.250000 5.7659997940
 4205.4658203 5.0000000000 12.424000740 -0.122003198 0.3079193234 2.3829839230 55.655395508 81.801002502 5.9899997711  -999.250000  -999.250000 6.0999999046
 4205.6181641 5.0000000000 12.102999687 -0.123000003 0.3211475015 2.3780000210 55.466999054 80.657997131 6.0920000076  -999.250000  -999.250000 6.4029998779
 4205.7705078 5.0000000000 11.994999886 -0.131999999 0.3296727538 2.3589999676 55.338001251 79.732002258 6.2639999390  -999.250000  -999.250000 6.4619998932
 4205.9228516 5.0000000000 11.946000099 -0.137999997 0.3229217827 2.3640000820 54.715000153 79.482994080 6.3639998436  -999.250000  -999.250000 6.3569998741
 4206.0756836 5.0000000000 11.895998955 -0.138955131 0.3066599965 2.3540546894 53.823005676 79.763000488 6.3489999771  -999.250000  -999.250000 6.2319998741
 4206.2280273 5.0000000000 11.843999863 -0.124974363 0.2834199965 2.3710546494 53.515460968 80.133003235 6.2369999886  -999.250000  -999.250000 6.1250000000
 4206.3803711 5.0000000000 11.798000336 -0.117019229 0.2644000053 2.3879551888 54.286018372 80.487998962 6.0260000229  -999.250000  -999.250000 5.9489998817
 4206.5327148 5.0000000000 11.773000717 -0.123032056 0.2531360984 2.3739454746 55.851573944 80.615997314 5.7690000534  -999.250000  -999.250000 5.6440000534
 4206.6850586 5.0000000000 11.766000748 -0.133028761 0.2326158583 2.3569457531 57.274730682 81.069000244 5.6220002174  -999.250000  -999.250000 5.1960000992
 4206.8374023 5.0000000000 11.758999825 -0.142000005 0.2085571438 2.3399999142 57.502998352 82.022003174 5.6919999123  -999.250000  -999.250000 4.8639998436
 4206.9897461 5.0000000000 11.751000404 -0.143999994 0.2351741642 2.3410000801 56.047000885 82.364997864 5.9569997787  -999.250000  -999.250000 4.8449997902
 4207.1420898 5.0000000000 11.744999886 -0.133000001 0.3144254684 2.3699998856 53.097999573 81.595001221 6.3470001221  -999.250000  -999.250000 4.9850001335
 4207.2944336 5.0000000000 11.746000290 -0.128000006 0.3380149305 2.4149999619 49.048999786 79.722999573 6.7340002060  -999.250000  -999.250000 5.6510000229
 4207.4472656 5.0000000000 11.857000351 -0.124951921 0.3251999915 2.4831218719 44.403743744 75.364997864 7.0279998779  -999.250000  -999.250000 8.7489995956
 4207.5996094 16.000000000 12.085000038 -0.109913461 0.3138699830 2.5211217403 40.273784637 68.385002136 7.1290001869  -999.250000  -999.250000 18.350000381
 4207.7519531 16.000000000 12.244000435 -0.082951918 0.2996699810 2.5590353012 38.031772614 61.201000214 7.1279997826  -999.250000  -999.250000 37.990001678
 4207.9042969 16.000000000 12.244999886 -0.068070516 0.2822400033 2.5697884560 38.594047546 56.870002747 7.3969998360  -999.250000  -999.250000 42.493000031
 4208.0566406 16.000000000 12.001999855 -0.090073489 0.2682400048 2.5037634373 41.732990265 57.674999237 7.9060001373  -999.250000  -999.250000 19.773000717
 4208.2089844 5.0000000000 11.883999825 -0.112999998 0.2725999951 2.4300000668 46.097000122 62.646999359 8.1300001144  -999.250000  -999.250000 9.4020004272
 4208.3613281 5.0000000000 12.201000214 -0.123999998 0.2899299860 2.4140000343 50.117000580 68.414001465 8.1490001678  -999.250000  -999.250000 6.7540001869
 4208.5136719 5.0000000000 12.576999664 -0.129999995 0.3037000000 2.4230000973 52.805000305 74.137001038 8.1210002899  -999.250000  -999.250000 5.6030001640
 4208.6665039 5.0000000000 12.939999580 -0.122990385 0.3101800084 2.4319903851 54.373573303 78.696998596 7.7919998169  -999.250000  -999.250000 5.6989998817
 4208.8188477 5.0000000000 13.512999535 -0.119967945 0.3130300045 2.4290480614 55.487564087 80.446998596 7.0570001602  -999.250000  -999.250000 6.3439998627
 4208.9711914 5.0000000000 14.213999748 -0.109967947 0.3044799864 2.4440865517 56.284465790 80.686996460 6.5890002251  -999.250000  -999.250000 6.9409999847
 4209.1235352 5.0000000000 14.743000031 -0.100003205 0.2734099925 2.4710416794 56.111343384 81.554000854 6.7080001831  -999.250000  -999.250000 7.1570000648
 4209.2758789 5.0000000000 15.095998764 -0.101019174 0.2556900084 2.4840254784 54.027816772 80.897003174 7.1620001793  -999.250000  -999.250000 7.0279998779
 4209.4282227 5.0000000000 15.569999695 -0.107000001 0.2785699964 2.4920001030 49.915000916 80.723999023 7.8369998932  -999.250000  -999.250000 6.6339998245
 4209.5805664 2.0000000000 16.097999573 -0.105999999 0.3039000034 2.5039999485 44.747001648 82.600997925 8.3570003510  -999.250000  -999.250000 6.1259999275
 4209.7329102 2.0000000000 16.441999435 -0.093999997 0.2981899977 2.5199999809 39.946998596 84.271003723 8.3669996262  -999.250000  -999.250000 5.9790000916
 4209.8852539 2.0000000000 16.709999084 -0.082000002 0.2804299891 2.5350000858 36.458999634 85.488998413 7.8159999847  -999.250000  -999.250000 6.6110000610
 4210.0380859 2.0000000000 16.981000900 -0.082054488 0.2588100135 2.5359392166 34.905891418 83.848999023 7.1570000648  -999.250000  -999.250000 7.7649998665
 4210.1904297 2.0000000000 17.121999741 -0.099038459 0.2166200131 2.5169775486 35.499649048 82.038009644 6.7729997635  -999.250000  -999.250000 8.5760002136
 4210.3427734 2.0000000000 16.874000549 -0.110980771 0.1753000021 2.5100448132 37.260650635 81.364997864 6.6909999847  -999.250000  -999.250000 8.4750003815
 4210.4951172 2.0000000000 15.838998795 -0.104996793 0.1606599987 2.5239164829 38.393634796 81.867996216 6.6909999847  -999.250000  -999.250000 7.5599999428
 4210.6474609 2.0000000000 14.923999786 -0.104028754 0.1636199951 2.4979488850 37.650646210 84.872001648 6.8959999084  -999.250000  -999.250000 6.4809999466
 4210.7998047 2.0000000000 14.913000107 -0.112999998 0.1929900050 2.4820001125 35.355998993 87.767997742 7.2010002136  -999.250000  -999.250000 5.6690001488
 4210.9521484 2.0000000000 15.079999924 -0.103000000 0.2282099873 2.4890000820 32.956001282 88.193000793 7.3169999123  -999.250000  -999.250000 5.5710000992
 4211.1044922 2.0000000000 15.129999161 -0.101999998 0.2688300014 2.5020000935 31.620000839 86.992996216 7.4850001335  -999.250000  -999.250000 6.3800001144
 4211.2573242 2.0000000000 15.166999817 -0.101990379 0.2901499867 2.5230257511 31.473455429 85.925010681 7.6669998169  -999.250000  -999.250000 8.8690004349
 4211.4096680 2.0000000000 15.199000359 -0.098983973 0.2954400182 2.5310029984 32.242649078 83.943000793 7.5729999542  -999.250000  -999.250000 13.449000359
