# LAS format log file from PETREL
# Project units are specified as depth units
#==================================================================
~Version information
VERS.   2.0:
WRAP.   NO:
#==================================================================
~Well
STRT .m      511.89910889 :
STOP .m      4480.0908203 :
STEP .m     0.00000000 :
NULL .        -999.250000 :
COMP.           : COMPANY
WELL.  35/3-1   : WELL
FLD.            : FIELD
LOC.            : LOCATION
SRVC.           : SERVICE COMPANY
DATE.  2018-09-11 14:48:57   : Log Export Date {yyyy-MM-dd HH:mm:ss}
PROV.           : PROVINCE
UWI.   35/3-1   : UNIQUE WELL ID
API.            : API NUMBER
#==================================================================
~Curve
DEPT .m                   : DEPTH
Lithology_geolink ._      : Lithology_geolink
CALI .in                  : CALI
DRHO .g/cm3               : DRHO
NPHI .m3/m3               : NPHI
RHOB .g/cm3               : RHOB
GR .gAPI                  : GR
DTC .us/ft                : DTC
RDEP .ohm.m               : RDEP
SP .mV                    : SP
RSHA .ohm.m               : RSHA
RMED .ohm.m               : RMED
~Parameter
#==================================================================
~Ascii
 511.89910889  -999.250000 19.980998993 0.1318972558  -999.250000 2.1349999905 53.758762360 187.92900085 2.5489649773 36.897254944 1.9020040035 1.9019999504
 512.05151367  -999.250000 19.277000427 0.1049319133  -999.250000 2.1040000916 53.073471069 183.82800293 2.3739836216 36.960414886 1.9220048189 1.9220000505
 512.20391846  -999.250000 18.990999222 0.0879839808  -999.250000 2.0769999027 52.311740875 190.95599365 2.3329670429 36.813896179 1.9340044260 1.9340000153
 512.35632324  -999.250000 18.919000626 0.0839599520  -999.250000 2.0659999847 52.183803558 189.62899780 2.2509939671 36.540115356 1.9450044632 1.9450000525
 512.50872803  -999.250000 18.761999130 0.0739319175  -999.250000 2.0420000553 53.087345123 187.11999512 2.2360205650 36.570613861 1.9560043812 1.9559999704
 512.66113281  -999.250000 18.583000183 0.0569199026  -999.250000 2.0250000954 54.758647919 173.57899475 2.2870187759 36.935394287 1.9670035839 1.9670035839
 512.81353760  -999.250000 18.510000229 0.0369359218  -999.250000 2.0169999599 56.578907013 163.93600464 2.3340089321 37.022754669 1.9760035276 1.9760035276
 512.96594238  -999.250000 18.590999603 0.0210640766  -999.250000 2.0260000229 58.028507233 159.57800293 2.3560028076 36.739986420 1.9850035906 1.9850035906
 513.11834717  -999.250000 18.719999313 0.0370800979  -999.250000 2.0390000343 58.778720856 166.74899292 2.3629968166 36.283695221 1.9940035343 1.9940035343
 513.27069092  -999.250000 18.818000793 0.0570324399  -999.250000 2.0420000553 58.637313843 161.27099609 2.3550000191 35.989009857 2.0030000210 2.0030000210
 513.42309570  -999.250000 18.822000504 0.0659783706  -999.250000 2.0360000134 57.583209991 163.56900024 2.3359999657 35.993053436 2.0009999275 2.0009999275
 513.57550049  -999.250000 18.815000534 0.0599387251  -999.250000 2.0329999924 55.842212677 162.95500183 2.3139998913 36.255413055 1.9880000353 1.9880000353
 513.72790527  -999.250000 18.976999283 0.0429783687  -999.250000 2.0399999619 53.951431274 163.14599609 2.2969999313 36.357315063 1.9750000238 1.9750000238
 513.88031006  -999.250000 19.006999969 0.0369839817  -999.250000 2.0439999104 52.671649933 162.25199890 2.2760000229 36.186614990 1.9620000124 1.9620000124
 514.03271484  -999.250000 18.670999527 0.0329719670  -999.250000 2.0490000248 52.497451782 161.17199707 2.2560000420 36.090660095 1.9490000010 1.9490000010
 514.18511963  -999.250000 18.320999146 0.0260000005  -999.250000 2.0499999523 53.223922729 160.12500000 2.2520031929 36.005249023 1.9379951954 1.9379951954
 514.33752441  -999.250000 18.160999298 0.0260080099  -999.250000 2.0590000153 54.184345245 160.53799438 2.2599983215 35.819877625 1.9259943962 1.9259943962
 514.48992920  -999.250000 18.284999847 0.0280000009  -999.250000 2.0699999332 54.856685638 159.47000122 2.2559959888 36.289890289 1.9119946957 1.9119946957
 514.64233398  -999.250000 18.624000549 0.0279955957  -999.250000 2.0820000172 55.199386597 158.83900452 2.2459959984 37.007175446 1.8989959955 1.8989959955
 514.79473877  -999.250000 18.927000046 0.0269867852  -999.250000 2.0810000896 55.392250061 158.68499756 2.2359981537 36.592685699 1.8889988661 1.8889988661
 514.94714355  -999.250000 19.023000717 0.0240088105  -999.250000 2.0690000057 55.518180847 158.21998596 2.2310023308 36.068794250 1.8859996796 1.8859996796
 515.09954834  -999.250000 18.966999054 0.0260440540  -999.250000 2.0559999943 55.608299255 158.23800659 2.2370030880 36.023288727 1.8849979639 1.8849979639
 515.25195313  -999.250000 18.820999146 0.0360220261  -999.250000 2.0499999523 55.756732941 158.43299866 2.2450010777 36.315414429 1.8799976110 1.8799976110
 515.40429688  -999.250000 18.729000092 0.0410120152  -999.250000 2.0369999409 56.122955322 158.53799438 2.2479999065 36.407299042 1.8739999533 1.8739999533
 515.55670166  -999.250000 18.972000122 0.0440640785  -999.250000 2.0260000229 56.719150543 159.37899780 2.2479999065 35.983303070 1.8669999838 1.8669999838
 515.70910645  -999.250000 19.350000381 0.0600680821  -999.250000 2.0280001163 57.437377930 161.09500122 2.2650001049 35.809818268 1.8669999838 1.8669999838
 515.86151123  -999.250000 19.510999680 0.0769919902  -999.250000 2.0260000229 58.123809814 162.03300476 2.2869999409 35.764556885 1.8689999580 1.8689999580
 516.01391602  -999.250000 19.143999100 0.0748558268  -999.250000 2.0190000534 58.525806427 162.10800171 2.2950000763 35.903755188 1.8700000048 1.8700000048
 516.16632080  -999.250000 18.659999847 0.0389158987  -999.250000 2.0369999409 58.426769257 160.93099976 2.3040041924 36.091812134 1.8679991961 1.8679991961
 516.31872559  -999.250000 18.478000641 0.0180040039  -999.250000 2.0669999123 57.811222076 158.00799561 2.3150041103 36.046730042 1.8659988642 1.8659988642
 516.47113037  -999.250000 18.579000473 0.0190240275  -999.250000 2.0789999962 56.924114227 156.50500488 2.3250017166 36.476589203 1.8629992008 1.8629992008
 516.62353516  -999.250000 18.853000641 0.0250280444  -999.250000 2.0859999657 55.982093811 155.79499817 2.3289952278 36.371685028 1.8609987497 1.8609987497
 516.77593994  -999.250000 18.934999466 0.0320528634  -999.250000 2.0840001106 55.029018402 155.42399597 2.3169887066 35.789455414 1.8579992056 1.8579992056
 516.92834473  -999.250000 18.947999954 0.0440704860  -999.250000 2.0810000896 54.040916443 155.50100708 2.2889893055 34.289710999 1.8559987545 1.8559987545
 517.08074951  -999.250000 19.089000702 0.0600220263  -999.250000 2.0729999542 53.000026703 156.15499878 2.2619917393 29.733114243 1.8529984951 1.8529984951
 517.23309326  -999.250000 19.375000000 0.0649359226  -999.250000 2.0570063591 52.016933441 156.94200134 2.2409999371 36.339946747 1.8489999771 1.8489999771
 517.38549805  -999.250000 19.643999100 0.0489919893  -999.250000 2.0410063267 51.351932526 156.81300354 2.2300000191 43.021770477 1.8459999561 1.8459999561
 517.53790283  -999.250000 19.767999649 0.0470440499  -999.250000 2.0599999428 51.308998108 157.77000427 2.2260000706 37.983642578 1.8420000076 1.8420000076
 517.69030762  -999.250000 19.658000946 0.0579599515  -999.250000 2.0490000248 51.933853149 158.10299683 2.2230000496 36.154472351 1.8259999752 1.8259999752
 517.84271240  -999.250000 19.455999374 0.0479118936  -999.250000 2.0280001163 52.858512878 157.20899963 2.2200000286 36.271499634 1.8070000410 1.8070000410
 517.99511719  -999.250000 19.423000336 0.0260120146  -999.250000 2.0420000553 53.613685608 157.61799622 2.2160000801 36.146286011 1.7979999781 1.7979999781
 518.14752197  -999.250000 19.524000168 0.0290520620  -999.250000 2.0680000782 53.955875397 157.33500671 2.2130000591 35.968498230 1.7929999828 1.7929999828
 518.29986572  -999.250000 19.681999207 0.0420144163  -999.250000 2.0799999237 53.892681122 156.99699402 2.2090001106 35.842803955 1.7899999619 1.7899999619
 518.45227051  -999.250000 19.645000458 0.0459279120  -999.250000 2.0610001087 53.692241669 157.24499512 2.2060000896 35.789001465 1.7849999666 1.7849999666
 518.60467529  -999.250000 19.540000916 0.0259819720  -999.250000 2.0490000248 53.842208862 158.00500488 2.2019999027 35.789684296 1.7790000439 1.7790000439
 518.75708008  -999.250000 19.688001633 0.0210040044  -999.250000 2.0480000973 54.597637177 157.65100098 2.1989998817 35.980358124 1.7730000019 1.7730000019
 518.90948486  -999.250000 19.926002502 0.0220560674  -999.250000 2.0539999008 55.619041443 158.64799500 2.1930000782 36.569114685 1.7690000534 1.7690000534
 519.06188965  -999.250000 19.861000061 0.0360320359  -999.250000 2.0620000362 56.266742706 159.34199524 2.1840000153 37.095252991 1.7680000067 1.7680000067
 519.21429443  -999.250000 19.552999496 0.0440080091  -999.250000 2.0569999218 56.105789185 159.13000488 2.1730000973 37.156757355 1.7690000534 1.7690000534
 519.36669922  -999.250000 19.416999817 0.0459759720  -999.250000 2.0550000668 55.351997375 158.93800354 2.1619999409 36.846729279 1.7730000019 1.7730000019
 519.51910400  -999.250000 19.382999420 0.0399239063  -999.250000 2.0469999313 54.727024078 158.82699585 2.1570000648 36.780010223 1.7849999666 1.7849999666
