# LAS format log file from PETREL
# Project units are specified as depth units
#==================================================================
~Version information
VERS.   2.0:
WRAP.   NO:
#==================================================================
~Well
STRT .m      511.89910889 :
STOP .m      4480.0908203 :
STEP .m     0.00000000 :
NULL .        -999.250000 :
COMP.           : COMPANY
WELL.  35/3-1   : WELL
FLD.            : FIELD
LOC.            : LOCATION
SRVC.           : SERVICE COMPANY
DATE.  2018-09-11 14:48:57   : Log Export Date {yyyy-MM-dd HH:mm:ss}
PROV.           : PROVINCE
UWI.   35/3-1   : UNIQUE WELL ID
API.            : API NUMBER
#==================================================================
~Curve
DEPT .m                   : DEPTH
Lithology_geolink ._      : Lithology_geolink
CALI .in                  : CALI
DRHO .g/cm3               : DRHO
NPHI .m3/m3               : NPHI
RHOB .g/cm3               : RHOB
GR .gAPI                  : GR
DTC .us/ft                : DTC
RDEP .ohm.m               : RDEP
SP .mV                    : SP
RSHA .ohm.m               : RSHA
RMED .ohm.m               : RMED
~Parameter
#==================================================================
~Ascii
# ...
 3675.2663574 6.0000000000 13.503000259 0.0080192313  -999.250000 2.5690369606 61.045402527 81.358711243 2.5709857941  -999.250000  -999.250000 2.5429470539
 3675.4187012 6.0000000000 13.477999687 0.0140128210  -999.250000 2.5920336246 60.671264648 81.799797058 2.5619935989  -999.250000  -999.250000 2.5099806786
 3675.5712891 6.0000000000 13.468999863 0.0179903843  -999.250000 2.6129968166 59.587215424 82.287590027 2.5580289364  -999.250000  -999.250000 2.4980413914
 3675.7236328 6.0000000000 13.461999893 0.0160000008  -999.250000 2.6119935513 58.407058716 81.847007751 2.5670046806  -999.250000  -999.250000 2.5110929012
 3675.8759766 6.0000000000 13.456001282 0.0160320513  -999.250000 2.6080176830 57.819374084 81.228645325 2.5700030327  -999.250000  -999.250000 2.5691683292
 3676.0283203 6.0000000000 13.449000359 0.0259807706  -999.250000 2.6189742088 58.052860260 81.009552002 2.5720496178  -999.250000  -999.250000 2.6741666794
 3676.1809082 6.0000000000 13.442998886 0.0199567303  -999.250000 2.6029326916 58.588989258 80.726425171 2.6033198833  -999.250000  -999.250000 2.7781729698
 3676.3332520 6.0000000000 13.437000275 0.0109903999  -999.250000 2.5819871426 58.583126068 80.548637390 2.7033014297  -999.250000  -999.250000 2.8318862915
 3676.4855957 6.0000000000 13.430999756 0.0090160249  -999.250000 2.5740222931 57.411880493 80.314857483 2.8913798332  -999.250000  -999.250000 2.7607820034
 3676.6379395 6.0000000000 13.427000046 0.0140032051  -999.250000 2.5880320072 54.839984894 80.849739075 3.1283767223  -999.250000  -999.250000 2.6253156662
 3676.7905273 6.0000000000 13.421999931 0.0149711538  -999.250000 2.6080319881 51.077800751 81.305458069 3.3639535904  -999.250000  -999.250000 2.8244159222
 3676.9428711 6.0000000000 13.416999817 0.0089615993  -999.250000 2.6180064678 46.960464478 79.574813843 3.6615624428  -999.250000  -999.250000 3.5786280632
 3677.0952148 6.0000000000 13.411999702 0.0009775641  -999.250000 2.6220047474 43.508434296 75.714141846 4.0125112534  -999.250000  -999.250000 4.5937833786
 3677.2475586 6.0000000000 13.406999588 -0.006003205  -999.250000 2.6249918938 41.284133911 72.058876038 4.3314499855  -999.250000  -999.250000 5.0817065239
 3677.3999023 5.0000000000 13.402999878 -0.006996795  -999.250000 2.6199934483 40.119880676 70.116012573 4.6124949455  -999.250000  -999.250000 4.8989233971
 3677.5524902 5.0000000000 13.397999763 -0.005995193  -999.250000 2.6160094738 39.422210693 70.125129700 4.9222383499  -999.250000  -999.250000 4.8519916534
 3677.7048340 5.0000000000 13.392999649 -0.005000000  -999.250000 2.6190094948 38.864456177 69.540824890 5.3085451126  -999.250000  -999.250000 5.1621150970
 3677.8571777 5.0000000000 13.387999535 -0.005003205  -999.250000 2.6249935627 38.523975372 68.182853699 5.6482753754  -999.250000  -999.250000 5.8582081795
 3678.0095215 5.0000000000 13.381999969 -0.006009615  -999.250000 2.6209905148 38.510478973 66.848205566 5.8201270103  -999.250000  -999.250000 6.6114296913
 3678.1621094 5.0000000000 13.376999855 -0.009014423  -999.250000 2.6149616241 38.812683105 66.351799011 5.8991026878  -999.250000  -999.250000 6.8776111603
 3678.3144531 5.0000000000 13.371999741 -0.011990400  -999.250000 2.6029918194 39.338199615 66.289543152 5.9309716225  -999.250000  -999.250000 6.4442214966
 3678.4667969 5.0000000000 13.366999626 -0.009987179  -999.250000 2.5980000496 40.086730957 66.630249023 5.9128561020  -999.250000  -999.250000 5.9586858749
 3678.6191406 5.0000000000 13.362000465 -0.005996795  -999.250000 2.5979983807 41.167354584 67.412452698 5.8227581978  -999.250000  -999.250000 5.7629952431
 3678.7717285 5.0000000000 13.357000351 -0.004980769  -999.250000 2.5970351696 42.638580322 68.316833496 5.6713757515  -999.250000  -999.250000 5.7606244087
 3678.9240723 5.0000000000 13.352999687 -0.000952000  -999.250000 2.6080272198 44.379920959 68.888137817 5.4765901566  -999.250000  -999.250000 5.9553122520
 3679.0764160 6.0000000000 13.354999542 0.0090192305  -999.250000 2.6250095367 46.202877045 68.973327637 5.2205500603  -999.250000  -999.250000 6.1497178078
 3679.2287598 6.0000000000 13.359999657 0.0149903847  -999.250000 2.6309857368 47.996879578 69.805015564 4.9395127296  -999.250000  -999.250000 5.9730367661
 3679.3811035 6.0000000000 13.364999771 0.0119807692  -999.250000 2.6219823360 49.793994904 71.684722900 4.6353864670  -999.250000  -999.250000 5.3718028069
 3679.5336914 6.0000000000 13.369999886 0.0059807692  -999.250000 2.6109871864 51.666275024 72.764938354 4.2515821457  -999.250000  -999.250000 4.6244926453
 3679.6860352 6.0000000000 13.374999046 0.0020336001  -999.250000 2.6070113182 53.624103546 73.993057251 3.8093557358  -999.250000  -999.250000 4.1546235085
 3679.8383789 6.0000000000 13.380999565 0.0090032043  -999.250000 2.6139919758 55.560676575 75.278152466 3.4075384140  -999.250000  -999.250000 3.9195079803
 3679.9907227 6.0000000000 13.385999680 0.0099935895  -999.250000 2.6089887619 57.231201172 75.374397278 3.1197514534  -999.250000  -999.250000 3.6123669147
 3680.1433105 6.0000000000 13.387999535 0.0080000004  -999.250000 2.6019680500 58.607540131 75.004028320 2.9647247791  -999.250000  -999.250000 3.2170302868
 3680.2956543 6.0000000000 13.387999535 0.0080096005  -999.250000 2.5919919014 60.023757935 76.573493958 2.8788414001  -999.250000  -999.250000 2.9147002697
 3680.4479980 6.0000000000 13.387000084 0.0100064101  -999.250000 2.5869998932 61.745605469 79.374343872 2.7798957825  -999.250000  -999.250000 2.7278027534
 3680.6003418 6.0000000000 13.387000084 0.0120032048  -999.250000 2.5870094299 63.368911743 82.083473206 2.7150592804  -999.250000  -999.250000 2.6048445702
 3680.7529297 6.0000000000 13.387000084 0.0130000003  -999.250000 2.5930063725 63.932762146 83.622550964 2.7525506020  -999.250000  -999.250000 2.5076928139
 3680.9052734 6.0000000000 13.385999680 0.0129760001  -999.250000 2.5950031281 62.607528687 83.479797363 2.9244599342  -999.250000  -999.250000 2.4123284817
 3681.0576172 6.0000000000 13.385999680 0.0079807695  -999.250000 2.5969870090 59.191093445 82.102455139 3.2115640640  -999.250000  -999.250000 2.6188158989
 3681.2099609 6.0000000000 13.385999680 0.0019871795  -999.250000 2.5890207291 54.256401062 79.264450073 3.5635352135  -999.250000  -999.250000 3.7528188229
 3681.3623047 6.0000000000 13.387999535 -0.002003205  -999.250000 2.6020128727 48.892761230 76.425453186 3.8975737095  -999.250000  -999.250000 5.5109581947
 3681.5148926 6.0000000000 13.390000343 -0.003014423  -999.250000 2.6099646091 44.372482300 73.581443787 4.2565875053  -999.250000  -999.250000 6.7328877449
 3681.6672363 16.000000000 13.392000198 -0.006014400  -999.250000 2.5989792347 41.718162537 69.975181580 4.7517180443  -999.250000  -999.250000 7.3214535713
 3681.8195801 16.000000000 13.394999504 -0.008983974  -999.250000 2.5859806538 41.197052002 66.967521667 5.1989660263  -999.250000  -999.250000 7.6047868729
 3681.9719238 16.000000000 13.397000313 -0.003977564  -999.250000 2.5740141869 42.479248047 66.043907166 5.1773090363  -999.250000  -999.250000 8.0958156586
 3682.1245117 5.0000000000 13.399999619 0.0030336538  -999.250000 2.5830352306 45.137847900 65.363876343 4.7454128265  -999.250000  -999.250000 8.6001987457
 3682.2768555 5.0000000000 13.402000427 0.0100240000  -999.250000 2.5940017700 48.835624695 65.953475952 4.2502884865  -999.250000  -999.250000 7.4116282463
 3682.4291992 5.0000000000 13.402000427 0.0150128203  -999.250000 2.5950031281 52.969566345 69.373390198 3.8064470291  -999.250000  -999.250000 4.6855435371
 3682.5815430 5.0000000000 13.399000168 0.0189967938  -999.250000 2.5969934464 56.439086914 73.985542297 3.4614903927  -999.250000  -999.250000 3.1540737152
 3682.7341309 5.0000000000 13.397000313 0.0179711524  -999.250000 2.5929775238 58.363197327 78.697395325 3.1431424618  -999.250000  -999.250000 2.5765070915
 3682.8864746 7.0000000000 13.394000053 0.0119615998  -999.250000 2.5859856606 58.735366821 82.873596191 2.8756778240  -999.250000  -999.250000 2.4229969978
