# LAS format log file from PETREL
# Project units are specified as depth units
#==================================================================
~Version information
VERS.   2.0:
WRAP.   NO:
#==================================================================
~Well
STRT .m      511.89910889 :
STOP .m      4480.0908203 :
STEP .m     0.00000000 :
NULL .        -999.250000 :
COMP.           : COMPANY
WELL.  35/3-1   : WELL
FLD.            : FIELD
LOC.            : LOCATION
SRVC.           : SERVICE COMPANY
DATE.  2018-09-11 14:48:57   : Log Export Date {yyyy-MM-dd HH:mm:ss}
PROV.           : PROVINCE
UWI.   35/3-1   : UNIQUE WELL ID
API.            : API NUMBER
#==================================================================
~Curve
DEPT .m                   : DEPTH
Lithology_geolink ._      : Lithology_geolink
CALI .in                  : CALI
DRHO .g/cm3               : DRHO
NPHI .m3/m3               : NPHI
RHOB .g/cm3               : RHOB
GR .gAPI                  : GR
DTC .us/ft                : DTC
RDEP .ohm.m               : RDEP
SP .mV                    : SP
RSHA .ohm.m               : RSHA
RMED .ohm.m               : RMED
~Parameter
#==================================================================
~Ascii
# ...
 3411.0046387 6.0000000000 13.866000175 0.0090192305  -999.250000 2.5760176182 52.404808044 80.468002319 2.8440001011  -999.250000  -999.250000 3.4760000706
 3411.1569824 6.0000000000 13.859000206 0.0210112184  -999.250000 2.5869917870 52.286224365 81.223999023 2.8629999161  -999.250000  -999.250000 3.2320001125
 3411.3093262 6.0000000000 13.850999832 0.0280032065  -999.250000 2.5820143223 52.427158356 81.639007568 2.8420000076  -999.250000  -999.250000 3.2920000553
 3411.4616699 6.0000000000 13.861000061 0.0300096143  -999.250000 2.5910193920 53.151035309 80.709999084 2.8289999962  -999.250000  -999.250000 3.7230000496
 3411.6142578 6.0000000000 13.911000252 0.0359807983  -999.250000 2.6030063629 54.425331116 79.451004028 2.8519999981  -999.250000  -999.250000 4.0359997749
 3411.7666016 6.0000000000 13.956999779 0.0299903844  -999.250000 2.6050081253 55.775035858 80.019996643 2.9230000973  -999.250000  -999.250000 3.9449999332
 3411.9189453 7.0000000000 13.977000237 0.0239919871  -999.250000 2.6099951267 56.421157837 80.944000244 3.0060000420  -999.250000  -999.250000 3.6459999084
 3412.0712891 7.0000000000 13.994000435 0.0189839732  -999.250000 2.6069777012 55.893917084 81.248001099 3.0320000648  -999.250000  -999.250000 3.5999999046
 3412.2238770 7.0000000000 14.003999710 0.0089711994  -999.250000 2.5929071903 54.592716217 81.348999023 2.9570000172  -999.250000  -999.250000 3.7449998856
 3412.3762207 7.0000000000 13.998999596 -0.000001603  -999.250000 2.5639503002 53.570129395 80.958000183 2.7880001068  -999.250000  -999.250000 3.8099999428
 3412.5285645 7.0000000000 13.972999573 -0.000995192  -999.250000 2.5329327583 53.653915405 80.385002136 2.5869998932  -999.250000  -999.250000 3.7039999962
 3412.6809082 7.0000000000 13.937999725 0.0020144233  -999.250000 2.4908926487 54.850849152 80.468002319 2.4159998894  -999.250000  -999.250000 3.4200000763
 3412.8334961 6.0000000000 13.916998863 0.0110959997  -999.250000 2.4237759113 56.632606506 81.484001160 2.2880001068  -999.250000  -999.250000 3.0799999237
 3412.9858398 6.0000000000 13.936999321 0.0410432704  -999.250000 2.3538751602 58.695087433 84.060997009 2.1740000248  -999.250000  -999.250000 2.7279999256
 3413.1381836 6.0000000000 14.225999832 0.0680320561  -999.250000 2.2759406567 61.245944977 87.710998535 2.0720000267  -999.250000  -999.250000 2.4119999409
 3413.2905273 6.0000000000 14.899000168 0.0880288482  -999.250000 2.2390449047 64.330581665 90.632003784 1.9589999914  -999.250000  -999.250000 2.1649999619
 3413.4428711 6.0000000000 15.321999550 0.1060016006  -999.250000 2.2670416832 67.188476563 92.304000854 1.8380000591  -999.250000  -999.250000 2.0399999619
 3413.5954590 6.0000000000 15.281000137 0.1069040000  -999.250000 2.2930319309 68.734725952 92.818000793 1.7619999647  -999.250000  -999.250000 2.0490000248
 3413.7478027 6.0000000000 15.206000328 0.0769663453  -999.250000 2.3030335903 68.648178101 92.319000244 1.7450000048  -999.250000  -999.250000 2.0710000992
 3413.9001465 6.0000000000 15.230999947 0.0560000017  -999.250000 2.3240945339 67.508605957 91.879997253 1.7899999619  -999.250000  -999.250000 2.1029999256
 3414.0524902 6.0000000000 15.237000465 0.0559807718  -999.250000 2.3831169605 66.014587402 91.538002014 1.8650000095  -999.250000  -999.250000 2.2730000019
 3414.2050781 6.0000000000 14.901000023 0.0439103991  -999.250000 2.4561505318 64.509841919 90.818000793 1.9349999428  -999.250000  -999.250000 2.5299999714
 3414.3574219 6.0000000000 14.373001099 0.0159951933  -999.250000 2.5030353069 63.213645935 89.647003174 2.0169999599  -999.250000  -999.250000 2.7469999790
 3414.5097656 6.0000000000 14.103999138 0.0130192311  -999.250000 2.5250177383 62.369483948 88.323997498 2.1029999256  -999.250000  -999.250000 2.8840000629
 3414.6621094 6.0000000000 14.102999687 0.0250064097  -999.250000 2.5360047817 62.047946930 87.058998108 2.2060000896  -999.250000  -999.250000 2.8789999485
 3414.8146973 6.0000000000 14.154000282 0.0289487988  -999.250000 2.5389423370 62.015216827 86.198997498 2.2839999199  -999.250000  -999.250000 2.8129999638
 3414.9670410 6.0000000000 14.137000084 0.0129807694  -999.250000 2.5209503174 62.083591461 85.928009033 2.2909998894  -999.250000  -999.250000 2.7990000248
 3415.1193848 6.0000000000 14.070000648 0.0009951923  -999.250000 2.4899375439 62.453651428 85.831993103 2.2390000820  -999.250000  -999.250000 2.8929998875
 3415.2717285 6.0000000000 14.043999672 -0.001983974  -999.250000 2.4509150982 63.484916687 86.095001221 2.1459999084  -999.250000  -999.250000 2.9010000229
 3415.4240723 7.0000000000 14.105999947 0.0080753211  -999.250000 2.3979182243 65.306648254 87.188003540 2.0580000877  -999.250000  -999.250000 2.6640000343
 3415.5766602 7.0000000000 14.363000870 0.0551632009  -999.250000 2.3468911648 67.587181091 88.847999573 1.9869999886  -999.250000  -999.250000 2.3889999390
 3415.7290039 7.0000000000 14.975999832 0.1059967950  -999.250000 2.3129487038 69.513153076 90.668991089 1.9359999895  -999.250000  -999.250000 2.2170000076
 3415.8813477 6.0000000000 15.593999863 0.1039967984  -999.250000 2.2809791565 70.230949402 92.487007141 1.8839999437  -999.250000  -999.250000 2.1189999580
 3416.0336914 6.0000000000 15.763998985 0.1019839719  -999.250000 2.2679822445 69.573089600 93.788002014 1.8209999800  -999.250000  -999.250000 2.0869998932
 3416.1862793 6.0000000000 15.777999878 0.0919808000  -999.250000 2.2570767403 68.384452820 93.631996155 1.7450000048  -999.250000  -999.250000 2.0829999447
 3416.3386230 6.0000000000 15.800000191 0.0860080123  -999.250000 2.2810816765 67.589126587 92.408996582 1.7029999495  -999.250000  -999.250000 2.0959999561
 3416.4909668 6.0000000000 15.614000320 0.0910240337  -999.250000 2.3320400715 67.044967651 91.280990601 1.7400000095  -999.250000  -999.250000 2.1280000210
 3416.6433105 6.0000000000 15.192999840 0.1060240343  -999.250000 2.3570306301 65.777839661 90.917999268 1.8480000496  -999.250000  -999.250000 2.1619999409
 3416.7958984 6.0000000000 14.657999992 0.1209712029  -999.250000 2.3760447502 63.175304413 91.342002869 2.0199999809  -999.250000  -999.250000 2.2200000286
 3416.9482422 6.0000000000 14.342000008 0.1119615436  -999.250000 2.3900082111 59.525646210 90.504997253 2.2260000706  -999.250000  -999.250000 2.3819999695
 3417.1005859 6.0000000000 14.286000252 0.0879807696  -999.250000 2.3950641155 55.560451508 87.221000671 2.4019999504  -999.250000  -999.250000 2.7969999313
 3417.2529297 6.0000000000 14.254000664 0.0759230778  -999.250000 2.4350752831 52.098289490 83.750999451 2.5409998894  -999.250000  -999.250000 3.5320000648
 3417.4052734 6.0000000000 14.208000183 0.0279471166  -999.250000 2.4821090698 49.785499573 81.001007080 2.6510000229  -999.250000  -999.250000 4.2389998436
 3417.5578613 6.0000000000 14.166999817 -0.005000000  -999.250000 2.5501055717 48.852939606 78.355010986 2.7639999390  -999.250000  -999.250000 4.6659998894
 3417.7102051 6.0000000000 14.154000282 -0.004985577  -999.250000 2.5829758644 49.147476196 76.733001709 2.8429999352  -999.250000  -999.250000 4.8369998932
 3417.8625488 6.0000000000 14.161000252 0.0040208334  -999.250000 2.5679376125 50.694164276 76.559997559 2.8570001125  -999.250000  -999.250000 4.4200000763
 3418.0148926 6.0000000000 14.173000336 0.0170320515  -999.250000 2.5289070606 53.918796539 78.384002686 2.7560000420  -999.250000  -999.250000 3.6419999599
 3418.1674805 6.0000000000 14.194000244 0.0370800011  -999.250000 2.4708464146 58.793350220 81.811004639 2.5480000973  -999.250000  -999.250000 2.9309999943
 3418.3198242 6.0000000000 14.312999725 0.0620048083  -999.250000 2.4229166508 63.891433716 86.216003418 2.2660000324  -999.250000  -999.250000 2.5539999008
 3418.4721680 6.0000000000 14.715999603 0.0650096163  -999.250000 2.3709311485 67.276527405 88.747001648 2.0220000744  -999.250000  -999.250000 2.4809999466
 3418.6245117 6.0000000000 15.333999634 0.0710272491  -999.250000 2.3279631138 68.226081848 88.894996643 1.8730000257  -999.250000  -999.250000 2.4030001163
