# LAS format log file from PETREL
# Project units are specified as depth units
#==================================================================
~Version information
VERS.   2.0:
WRAP.   NO:
#==================================================================
~Well
STRT .m      511.89910889 :
STOP .m      4480.0908203 :
STEP .m     0.00000000 :
NULL .        -999.250000 :
COMP.           : COMPANY
WELL.  35/3-1   : WELL
FLD.            : FIELD
LOC.            : LOCATION
SRVC.           : SERVICE COMPANY
DATE.  2018-09-11 14:48:57   : Log Export Date {yyyy-MM-dd HH:mm:ss}
PROV.           : PROVINCE
UWI.   35/3-1   : UNIQUE WELL ID
API.            : API NUMBER
#==================================================================
~Curve
DEPT .m                   : DEPTH
Lithology_geolink ._      : Lithology_geolink
CALI .in                  : CALI
DRHO .g/cm3               : DRHO
NPHI .m3/m3               : NPHI
RHOB .g/cm3               : RHOB
GR .gAPI                  : GR
DTC .us/ft                : DTC
RDEP .ohm.m               : RDEP
SP .mV                    : SP
RSHA .ohm.m               : RSHA
RMED .ohm.m               : RMED
~Parameter
#==================================================================
~Ascii
# ...
 1304.6839600 5.0000000000 17.511999130 0.0140160136  -999.250000 2.0690000057 37.744934082 127.74600220 0.8870000243 44.505153656 0.9120240211 0.9120000005
 1304.8364258 5.0000000000 17.548000336 0.0180120189  -999.250000 2.0829999447 36.456489563 127.75199890 0.9029999971 45.043380737 0.9270336032 0.9269999862
 1304.9887695 5.0000000000 17.593000412 0.0210080054  -999.250000 2.0910000801 36.245162964 127.23699951 0.9179999828 45.634998322 0.9410240054 0.9409999847
 1305.1412354 5.0000000000 17.634000778 0.0230040066  -999.250000 2.0950000286 36.974018097 126.24400330 0.9449999928 45.634998322 0.9560359716 0.9559999704
 1305.2935791 5.0000000000 17.648000717 0.0239879899  -999.250000 2.0940001011 38.647216797 127.28899384 0.9779999852 45.634452820 0.9710224271 0.9710000157
 1305.4459229 5.0000000000 17.618999481 0.0209871791  -999.250000 2.0969998837 41.907508850 130.32000732 1.0379999876 45.497066498 0.9850336909 0.9850000143
 1305.5983887 6.0000000000 17.566999435 0.0169959981  -999.250000 2.0789999962 47.225360870 139.23899841 1.0980000496 44.892539978 1.0060504675 1.0060000420
 1305.7507324 6.0000000000 17.530000687 0.0159935914  -999.250000 2.0559999943 53.614452362 146.65899658 1.1579999924 44.031429291 1.0270320177 1.0269999504
 1305.9031982 6.0000000000 17.611000061 0.0140000004  -999.250000 2.0420000553 58.887310028 148.28399658 1.2159999609 43.856937408 1.0470504761 1.0470000505
 1306.0555420 6.0000000000 17.790000916 0.0139959976  -999.250000 2.0409998894 61.091339111 149.68099976 1.2719999552 44.585807800 1.0680512190 1.0679999590
 1306.2080078 6.0000000000 17.701000214 0.0130360583  -999.250000 2.0529999733 60.051517487 143.97399902 1.3120000362 44.287971497 1.1000216007 1.1000000238
 1306.3603516 6.0000000000 17.454999924 0.0220320262  -999.250000 2.0769999027 57.355903625 136.05400085 1.3109999895 44.030723572 1.1090064049 1.1089999676
 1306.5128174 6.0000000000 17.445999146 0.0299759600  -999.250000 2.0989999771 54.799945831 129.33000183 1.2970000505 43.714385986 1.1129808426 1.1130000353
 1306.6651611 6.0000000000 17.577999115 0.0239679739  -999.250000 2.0899999142 53.113090515 124.29299927 1.2619999647 44.062137604 1.1049696207 1.1050000191
 1306.8176270 6.0000000000 17.658000946 0.0160080139  -999.250000 2.0720000267 51.919681549 122.41300201 1.2259999514 44.843002319 1.0859471560 1.0859999657
 1306.9699707 6.0000000000 17.603000641 0.0179999992  -999.250000 2.0639998913 50.539154053 123.87099457 1.1690000296 44.843563080 1.0639663935 1.0640000105
 1307.1224365 2.0000000000 17.518999100 0.0179879796  -999.250000 2.0680000782 48.762805939 129.03399658 1.1059999466 44.732353210 1.0429471731 1.0429999828
 1307.2747803 2.0000000000 17.496000290 0.0149879903  -999.250000 2.0599999428 47.018623352 131.22300720 1.0379999876 44.321903229 1.0209664106 1.0210000277
 1307.4271240 2.0000000000 17.493999481 0.0119807692  -999.250000 2.0620000362 45.536697388 130.44200134 0.9819999933 44.049003601 0.9999647737 1.0000000000
 1307.5795898 2.0000000000 17.489999771 0.0059639714  -999.250000 2.0499999523 44.097530365 129.75700378 0.9340000153 44.050796509 0.9779791236 0.9779999852
 1307.7319336 2.0000000000 17.486000061 -0.003009615  -999.250000 2.0280001163 42.556785583 130.75700378 0.8970000148 44.248321533 0.9649791121 0.9649999738
 1307.8843994 2.0000000000 17.482000351 -0.005983974  -999.250000 2.0130000114 41.176292419 132.02200317 0.8659999967 44.034439087 0.9519687891 0.9520000219
 1308.0367432 2.0000000000 17.481000900 -0.001971978  -999.250000 2.0079998970 40.466259003 132.63600159 0.8470000029 43.396060944 0.9389791489 0.9390000105
 1308.1892090 2.0000000000 17.483999252 0.0050240383  -999.250000 2.0109999180 40.628997803 132.68600464 0.8320000172 42.922359467 0.9259783626 0.9259999990
 1308.3415527 2.0000000000 17.488000870 0.0109799840  -999.250000 2.0239999294 41.460987091 132.50199890 0.8190000057 44.995418549 0.9170032144 0.9169999957
 1308.4940186 2.0000000000 17.492000580 0.0059679486  -999.250000 2.0320000648 42.702434540 132.47900391 0.8140000105 43.857589722 0.9190072417 0.9190000296
 1308.6463623 2.0000000000 17.496999741 -0.001983987  -999.250000 2.0199999809 44.130073547 132.83599854 0.8209999800 44.252998352 0.9220032096 0.9219999909
 1308.7988281 2.0000000000 17.499000549 0.0020280450  -999.250000 2.0260000229 45.426128387 132.69200134 0.8389999866 44.253002167 0.9240384698 0.9240000248
 1308.9511719 2.0000000000 17.496000290 0.0089879902  -999.250000 2.0380001068 46.311870575 132.56700134 0.8659999967 44.255302429 0.9400256276 0.9399999976
 1309.1036377 2.0000000000 17.474000931 0.0059959935  -999.250000 2.0360000134 46.854274750 133.05400085 0.8930000067 44.583129883 0.9560384154 0.9559999704
 1309.2559814 2.0000000000 17.430000305 0.0050320253  -999.250000 2.0290000439 47.385250092 133.24699402 0.9309999943 45.610160828 0.9720256329 0.9720000029
 1309.4084473 2.0000000000 17.395999908 0.0130280452  -999.250000 2.0390000343 48.167152405 133.44000244 0.9729999900 45.649765015 0.9880384207 0.9879999757
 1309.5607910 2.0000000000 17.384000778 0.0199999996  -999.250000 2.0539999008 49.062263489 133.63600159 1.0149999857 45.588989258 1.0040255785 1.0039999485
 1309.7131348 2.0000000000 17.381999969 0.0199807696  -999.250000 2.0639998913 49.851161957 133.65299988 1.0509999990 45.086811066 1.0200303793 1.0199999809
 1309.8656006 2.0000000000 17.382999420 0.0139879808  -999.250000 2.0620000362 50.577632904 134.21800232 1.0720000267 44.403495789 1.0390433073 1.0390000343
 1310.0179443 2.0000000000 17.382999420 0.0109919934  -999.250000 2.0629999638 51.256774902 134.42999268 1.0950000286 43.781795502 1.0570304394 1.0570000410
 1310.1704102 2.0000000000 17.381999969 0.0090040062  -999.250000 2.0580000877 51.740295410 134.02999878 1.1230000257 43.982570648 1.0760456324 1.0759999752
 1310.3227539 2.0000000000 17.377000809 0.0100080064  -999.250000 2.0539999008 51.862709045 133.76400757 1.1540000439 44.623271942 1.0950304270 1.0950000286
 1310.4752197 2.0000000000 17.365999222 0.0120160254  -999.250000 2.0539999008 51.681251526 134.00599670 1.1859999895 44.937347412 1.1140456200 1.1139999628
 1310.6275635 6.0000000000 17.351999283 0.0160320271  -999.250000 2.0520000458 51.370357513 137.35899353 1.2339999676 44.524589539 1.1330304146 1.1330000162
 1310.7800293 6.0000000000 17.332000732 0.0240400638  -999.250000 2.0499999523 50.968875885 142.05299377 1.3229999542 43.924747467 1.1521031857 1.1519999504
 1310.9323730 6.0000000000 17.306999207 0.0339799859  -999.250000 2.0360000134 50.501510620 147.23100281 1.3969999552 43.862640381 1.1950641870 1.1950000525
 1311.0848389 6.0000000000 17.278999329 0.0289839730  -999.250000 2.0220000744 50.197547913 148.09899902 1.4400000572 44.020469666 1.2350648642 1.2350000143
 1311.2371826 6.0000000000 17.259000778 0.0250160135  -999.250000 2.0380001068 50.427337646 146.40199280 1.4600000381 43.637706757 1.2620255947 1.2619999647
 1311.3896484 6.0000000000 17.263999939 0.0289519224  -999.250000 2.0799999237 51.264850616 142.10400391 1.4700000286 43.067035675 1.2779760361 1.2779999971
 1311.5419922 6.0000000000 17.288999557 0.0169639718  -999.250000 2.0929999352 52.449981689 136.22999573 1.4670000076 43.076961517 1.2679888010 1.2680000067
 1311.6943359 6.0000000000 17.319000244 0.0080128210  -999.250000 2.0789999962 53.684417725 134.52999878 1.4520000219 43.316772461 1.2609808445 1.2610000372
 1311.8468018 6.0000000000 17.347000122 0.0119839869  -999.250000 2.0810000896 54.567863464 134.76499939 1.4170000553 43.556961060 1.2489639521 1.2489999533
 1311.9991455 6.0000000000 17.371000290 0.0079871798  -999.250000 2.0859999657 54.508682251 134.80099487 1.3799999952 43.796226501 1.2339726686 1.2339999676
 1312.1516113 6.0000000000 17.391000748 0.0040160259  -999.250000 2.0869998932 53.058418274 134.30799866 1.3300000429 43.865497589 1.2169760466 1.2170000076
 1312.3039551 6.0000000000 17.400999069 0.0080280229  -999.250000 2.0810000896 50.737083435 133.65299988 1.3020000458 43.737712860 1.2069871426 1.2070000172
