# LAS format log file from PETREL
# Project units are specified as depth units
#==================================================================
~Version information
VERS.   2.0:
WRAP.   NO:
#==================================================================
~Well
STRT .m      3245.2055664 :
STOP .m      4039.9716797 :
STEP .m     0.00000000 :
NULL .        -999.250000 :
COMP.           : COMPANY
WELL.  35/3-7 S   : WELL
FLD.            : FIELD
LOC.            : LOCATION
SRVC.           : SERVICE COMPANY
DATE.  2018-09-11 14:48:58   : Log Export Date {yyyy-MM-dd HH:mm:ss}
PROV.           : PROVINCE
UWI.   35/3-7 S   : UNIQUE WELL ID
API.            : API NUMBER
#==================================================================
~Curve
DEPT .m                   : DEPTH
Lithology_geolink ._      : Lithology_geolink
CALI .in                  : CALI
BS .in                    : BS
ROP .m/h                  : ROP
DRHO .g/cm3               : DRHO
THOR .ppm                 : THOR
NPHI .m3/m3               : NPHI
RHOB .g/cm3               : RHOB
PEF .b/e                  : PEF
GR .gAPI                  : GR
URAN .ppm                 : URAN
DTC .us/ft                : DTC
DTS .us/ft                : DTS
RDEP .ohm.m               : RDEP
RMIC .ohm.m               : RMIC
RMED .ohm.m               : RMED
~Parameter
#==================================================================
~Ascii
# ...
 3668.1154785 2.0000000000 8.2474002838 8.5000000000  -999.250000 -0.013700801 6.0615000725 0.1700578630 2.3865401745 6.1038675308 88.860061646 0.6351000071 77.776428223 130.51548767 5.4608998299 1.2232947350 4.0134000778
 3668.2678223 2.0000000000 8.2639999390 8.5000000000  -999.250000 -0.014098721 5.4935998917 0.1735887975 2.3687570095 6.1105790138 87.496795654 0.8216000199 79.610511780 132.33288574 5.4286999702 1.0521478653 4.0286002159
 3668.4204102 2.0000000000 8.2718000412 8.5000000000  -999.250000 -0.016196635 5.2473998070 0.1774937510 2.3540236950 6.0859394073 88.642852783 0.7990000248 79.844230652 133.68972778 4.9377999306 0.9391804338 3.8271999359
 3668.5727539 2.0000000000 8.2718000412 8.5000000000  -999.250000 -0.017298238 5.4337000847 0.1803953499 2.3466119766 6.0763154030 84.825531006 0.8245000243 80.256233215 134.12271118 5.0356001854 0.8910769224 4.0095000267
 3668.7250977 1.0000000000 8.2639999390 8.5000000000  -999.250000 -0.016800800 5.2932000160 0.1863903850 2.3494954109 6.0793952942 84.133895874 0.8274000287 80.245811462 134.61830139 5.2588000298 0.8588516116 4.1277999878
 3668.8774414 1.0000000000 8.2639999390 8.5000000000  -999.250000 -0.017399039 4.7185001373 0.1850022525 2.3563890457 6.0533418655 81.393295288 0.8698999882 80.088951111 134.73262024 5.3853998184 0.9406685829 4.1273999214
 3669.0297852 1.0000000000 8.2718000412 8.5000000000  -999.250000 -0.018695841 4.3513998985 0.1797169596 2.3554031849 6.0082445145 80.411132813 0.8980000019 80.005668640 136.08805847 5.3243999481 0.9596394897 3.9711000919
 3669.1823730 1.0000000000 8.2718000412 8.5000000000  -999.250000 -0.018799840 4.2569999695 0.1778030396 2.3431198597 5.9967179298 78.155715942 0.6955999732 80.112724304 135.61346436 5.0064997673 0.9293487072 3.6893000603
 3669.3347168 1.0000000000 8.2757997513 8.5000000000  -999.250000 -0.020097917 4.1753997803 0.1791977435 2.3312189579 6.0209608078 78.663772583 0.6373999715 80.305389404 136.83563232 4.9233999252 0.8183780313 3.6254999638
 3669.4870605 1.0000000000 8.2852001190 8.5000000000  -999.250000 -0.022496155 3.7706999779 0.1829939038 2.3259086609 6.0617346764 77.979202271 0.8594999909 80.227424622 137.30744934 4.8046998978 0.7287436128 3.5257000923
 3669.6394043 1.0000000000 8.2852001190 8.5000000000  -999.250000 -0.023795841 4.2687001228 0.1861897558 2.3282923698 6.0924019814 76.585273743 0.8970999718 79.908020020 137.63206482 4.2684998512 0.6119743586 3.1112999916
 3669.7919922 1.0000000000 8.2805004120 8.5000000000  -999.250000 -0.025297595 4.6875000000 0.1881967932 2.3248057365 6.1577949524 79.755203247 0.9168000221 79.781799316 138.05082703 3.5653998852 0.5315285325 2.5910000801
 3669.9443359 1.0000000000 8.2757997513 8.5000000000  -999.250000 -0.026597917 4.8152999878 0.1930921525 2.3251993656 6.2094173431 84.071380615 0.9064999819 79.521919250 138.10353088 3.2785000801 0.4933610559 2.4054999352
 3670.0966797 1.0000000000 8.2757997513 8.5000000000  -999.250000 -0.027698237 5.5901999474 0.1951966286 2.3259987831 6.2732973099 86.746322632 0.5709000230 79.252632141 137.94386292 2.9605000019 0.4890068769 2.2284998894
 3670.2490234 1.0000000000 8.2663002014 8.5000000000  -999.250000 -0.021220800 5.4316000938 0.1985891163 2.3329775333 6.3142690659 85.439010620 0.4767999947 78.077972412 136.92816162 2.7562000751 0.5023571253 2.1256000996
 3670.4016113 1.0000000000 8.2757997513 8.5000000000  -999.250000 -0.012314263 5.3418002129 0.1893149018 2.3442819118 6.3244838715 83.599647522 0.5899000168 77.184326172 136.07505798 2.7667000294 0.5445323586 2.1659998894
 3670.5539551 1.0000000000 8.2568998337 8.5000000000  -999.250000 -0.009005288 5.3097000122 0.1787169874 2.3569798470 6.2930507660 81.870567322 0.5648999810 77.581855774 135.46307373 3.2262001038 0.6188808084 2.5027000904
 3670.7062988 2.0000000000 8.2568998337 8.5000000000  -999.250000 -0.010597436 5.4607000351 0.1769028902 2.3684816360 6.2543621063 83.140853882 0.5274000168 78.067520142 134.33412170 3.8371000290 0.6665236950 2.8847999573
 3670.8586426 2.0000000000 8.2560997009 8.5000000000  -999.250000 -0.014893109 5.3502001762 0.1770996749 2.3702971935 6.2540006638 85.242630005 0.7062000036 78.159057617 133.94462585 3.8355998993 0.6582134962 2.8173000813
 3671.0109863 2.0000000000 8.2679004669 8.5000000000  -999.250000 -0.016494879 5.2241997719 0.1792929620 2.3703997135 6.2304754257 84.622795105 0.7684999704 78.131980896 134.35258484 3.9447000027 0.6442448497 2.8450999260
 3671.1635742 2.0000000000 8.2639999390 8.5000000000  -999.250000 -0.019595033 4.9331998825 0.1790004820 2.3636109829 6.2247090340 82.074691772 0.5985999703 77.790451050 133.27374268 3.8592000008 0.6255300045 2.7360000610
 3671.3159180 2.0000000000 8.2639999390 8.5000000000  -999.250000 -0.020199038 4.5928001404 0.1775023937 2.3617031574 6.2190089226 79.649383545 0.7132999897 77.453041077 133.36354065 3.6368000507 0.6069297791 2.5662999153
 3671.4682617 2.0000000000 8.2679004669 8.5000000000  -999.250000 -0.019700801 4.3741998672 0.1792971045 2.3611009121 6.2705173492 81.212379456 0.8001999855 76.429138184 132.90065002 3.5229001045 0.5969160199 2.5083000660
 3671.6206055 2.0000000000 8.2639999390 8.5000000000  -999.250000 -0.016908959 4.8905000687 0.1760105640 2.3682768345 6.3175492287 84.513008118 0.8197000027 76.315361023 131.72875977 3.4124999046 0.6237139106 2.4628999233
 3671.7731934 2.0000000000 8.2522001266 8.5000000000  -999.250000 -0.015202724 4.4906001091 0.1763993651 2.3787829876 6.3324761391 85.600868225 1.2595000267 76.374206543 129.83563232 3.5357000828 0.6523541808 2.5764999390
 3671.9255371 2.0000000000 8.2474002838 8.5000000000  -999.250000 -0.012803846 4.2553000450 0.1758009642 2.3913798332 6.2926640511 85.308769226 1.6022000313 75.834770203 129.73675537 3.6593000889 0.7040171623 2.6817998886
 3672.0778809 2.0000000000 8.2600002289 8.5000000000  -999.250000 -0.012001283 4.8482999802 0.1701091379 2.4035806656 6.2371892929 85.601829529 1.5892000198 75.594879150 127.40005493 4.1040000916 0.7608090043 2.9909999371
 3672.2302246 2.0000000000 8.2663002014 8.5000000000  -999.250000 -0.011900321 4.8972997665 0.1668105721 2.4147644043 6.1690182686 91.566352844 1.4615999460 75.160789490 126.43578339 4.1159000397 0.8087463975 3.0160999298
 3672.3828125 2.0000000000 8.2663002014 8.5000000000  -999.250000 -0.013297756 4.6037998199 0.1564166546 2.4227871895 6.1183810234 94.621322632 1.4831999540 74.195350647 126.13368988 4.0742998123 0.8478374481 2.9877998829
 3672.5351563 2.0000000000 8.2522001266 8.5000000000  -999.250000 -0.012900641 4.2857999802 0.1498105824 2.4258949757 6.0918426514 94.848442078 1.3533999920 74.289146423 125.32939148 4.2947998047 0.8706634641 3.1361999512
 3672.6875000 2.0000000000 8.2482004166 8.5000000000  -999.250000 -0.013299359 4.3298001289 0.1429110616 2.4283959866 6.0733294487 89.168914795 1.2739000320 74.597702026 125.76629639 4.5795001984 0.9224169850 3.3408000469
 3672.8398438 2.0000000000 8.2663002014 8.5000000000 0.0000000000 -0.013998878 4.4147000313 0.1458951831 2.4266028404 6.0682082176 86.000770569 1.2381999493 75.070648193 125.90208435 4.8109002113 0.9955826998 3.5281000137
 3672.9921875 2.0000000000 8.2442998886 8.5000000000 0.0000000000 -0.015794240 4.4092001915 0.1469964832 2.4217157364 6.0661067963 82.694999695 1.0928000212 75.660911560 125.65270233 5.0952000618 0.9872272015 3.7683999538
 3673.1447754 2.0000000000 8.2426996231 8.5000000000 2.1735565662 -0.015400641 4.3614997864 0.1478985548 2.4112169743 6.1100292206 80.505897522 1.1849000454 76.090415955 125.16418457 4.5900998116 0.9308903813 3.4702000618
 3673.2971191 2.0000000000 8.2568998337 8.5000000000 3.9917974472 -0.014102084 4.0451002121 0.1463025659 2.4089033604 6.1382546425 81.604927063 1.1301000118 75.560554504 125.09141541 3.9798998833 0.8393468261 3.0625000000
 3673.4494629 2.0000000000 8.2482004166 8.5000000000 8.2831363678 -0.013800480 4.0700998306 0.1422065645 2.4132928848 6.1380004883 83.541694641 1.0504000187 75.232635498 124.48417664 4.2493000031 0.9009009600 3.2864000797
 3673.6018066 2.0000000000 8.2568998337 8.5000000000 16.153871536 -0.015992960 4.5145998001 0.1366179287 2.4157919884 6.1265368462 83.349426270 0.7745000124 74.180282593 123.20700836 4.9236998558 0.9999822974 3.8208999634
