# LAS format log file from PETREL
# Project units are specified as depth units
#==================================================================
~Version information
VERS.   2.0:
WRAP.   NO:
#==================================================================
~Well
STRT .m      511.89910889 :
STOP .m      4480.0908203 :
STEP .m     0.00000000 :
NULL .        -999.250000 :
COMP.           : COMPANY
WELL.  35/3-1   : WELL
FLD.            : FIELD
LOC.            : LOCATION
SRVC.           : SERVICE COMPANY
DATE.  2018-09-11 14:48:57   : Log Export Date {yyyy-MM-dd HH:mm:ss}
PROV.           : PROVINCE
UWI.   35/3-1   : UNIQUE WELL ID
API.            : API NUMBER
#==================================================================
~Curve
DEPT .m                   : DEPTH
Lithology_geolink ._      : Lithology_geolink
CALI .in                  : CALI
DRHO .g/cm3               : DRHO
NPHI .m3/m3               : NPHI
RHOB .g/cm3               : RHOB
GR .gAPI                  : GR
DTC .us/ft                : DTC
RDEP .ohm.m               : RDEP
SP .mV                    : SP
RSHA .ohm.m               : RSHA
RMED .ohm.m               : RMED
~Parameter
#==================================================================
~Ascii
# ...
 2097.4689941 6.0000000000 22.236000061 0.0680384636  -999.250000 1.9190512896 47.655998230 128.15499878 1.2120000124 49.169952393 1.0440000296 1.0440000296
 2097.6213379 6.0000000000 22.232999802 0.0800320506  -999.250000 1.9510176182 47.031314850 131.31199646 1.1569999456 49.465877533 1.0440000296 1.0440000296
 2097.7736816 6.0000000000 22.229000092 0.0899743661  -999.250000 1.9620192051 46.604980469 126.75399780 1.1900000572 49.426963806 1.0440320969 1.0440000296
 2097.9260254 6.0000000000 22.225999832 0.0819232017  -999.250000 1.9739999771 47.218223572 122.45999908 1.2630000114 49.104713440 1.0540448427 1.0540000200
 2098.0783691 6.0000000000 21.558000565 0.0579711534  -999.250000 1.9900000095 48.605392456 123.98000336 1.3190000057 49.327590942 1.0680640936 1.0679999590
 2098.2309570 6.0000000000 21.416000366 0.0399487168  -999.250000 1.9678719044 49.472259521 123.38500214 1.3320000172 49.697643280 1.0880818367 1.0880000591
 2098.3833008 6.0000000000 22.108999252 0.0239615384  -999.250000 1.8878784180 48.927295685 127.12300110 1.3090000153 49.899238586 1.1049903631 1.1050000191
 2098.5356445 6.0000000000 22.111999512 0.0120032001  -999.250000 1.8120000362 47.239253998 128.24499512 1.2779999971 50.286499023 1.1029711962 1.1030000448
 2098.6879883 6.0000000000 21.729999542 0.0129983975  -999.250000 1.8120000362 45.525485992 125.19499969 1.2359999418 50.752475739 1.0939487219 1.0939999819
 2098.8405762 6.0000000000 21.086999893 0.0119711543  -999.250000 1.8590753078 44.581089020 126.61399841 1.2079999447 50.425254822 1.0779325962 1.0779999495
 2098.9929199 6.0000000000 19.939998627 0.0030224358  -999.250000 1.9060047865 44.296829224 129.00599670 1.2230000496 49.882003784 1.0639376640 1.0640000105
 2099.1452637 6.0000000000 19.030000687 0.0100256409  -999.250000 1.9089519978 44.189689636 125.35699463 1.2660000324 49.572586060 1.0509551764 1.0509999990
 2099.2976074 6.0000000000 19.320999146 0.0179679990  -999.250000 1.8789999485 43.995716095 125.37999725 1.3200000525 49.756858826 1.0369614363 1.0369999409
 2099.4501953 6.0000000000 20.360000610 0.0079487180  -999.250000 1.8028124571 43.820781708 124.40200043 1.3750000000 50.336154938 1.0249711275 1.0249999762
 2099.6025391 6.0000000000 21.156000137 -0.008038462  -999.250000 1.6858509779 43.752838135 121.36399841 1.4170000553 50.690853119 1.0189520121 1.0190000534
 2099.7548828 5.0000000000 21.601999283 -0.019996794  -999.250000 1.5929312706 43.652557373 126.41300201 1.3619999886 49.090454102 1.0089646578 1.0089999437
 2099.9072266 5.0000000000 21.646999359 -0.019019200  -999.250000 1.5499999523 43.375129700 128.05299377 1.2560000420 48.919124603 0.9979615808 0.9980000257
 2100.0595703 5.0000000000 21.733999252 -0.025012821  -999.250000 1.5360000134 42.831554413 142.37399292 1.1339999437 48.333465576 0.9859711528 0.9860000014
 2100.2121582 5.0000000000 22.135999680 -0.032993589  -999.250000 1.5199840069 41.926979065 138.27600098 1.0279999971 47.999263763 0.9770095944 0.9769999981
 2100.3645020 5.0000000000 22.076000214 -0.030974358  -999.250000 1.5100256205 40.672775269 146.65400696 1.0099999905 47.768409729 0.9790048003 0.9789999723
 2100.5168457 5.0000000000 21.639999390 -0.022968000  -999.250000 1.5260000229 39.285106659 150.00000000 1.0590000153 47.274391174 0.9800449014 0.9800000191
 2100.6691895 5.0000000000 21.340000153 -0.012983975  -999.250000 1.5509999990 38.105903625 154.65199280 1.1200000048 47.397323608 0.9940320849 0.9940000176
 2100.8217773 5.0000000000 21.568000793 -0.002996795  -999.250000 1.5830479860 37.423732758 153.68400574 1.1590000391 47.600036621 1.0039902925 1.0039999485
 2100.9741211 5.0000000000 22.068000793 -0.001983974  -999.250000 1.6130545139 37.340679169 150.60499573 1.1790000200 47.612285614 1.0019711256 1.0019999743
 2101.1264648 5.0000000000 22.275999069 0.0030288461  -999.250000 1.6470896006 37.765472412 149.69401550 1.1959999800 47.700790405 0.9960320592 0.9959999919
 2101.2788086 5.0000000000 22.285001755 0.0120224003  -999.250000 1.7029999495 38.686286926 145.52900696 1.1950000525 47.634849548 1.0059936047 1.0060000420
 2101.4313965 5.0000000000 21.991998672 0.0189807694  -999.250000 1.7630400658 40.118083954 141.52600098 1.2239999771 47.275886536 1.0039807558 1.0039999485
 2101.5837402 5.0000000000 21.135999680 0.0129871797  -999.250000 1.7879967690 41.703796387 131.01699829 1.3090000153 47.240833282 1.0000767708 1.0000000000
 2101.7360840 5.0000000000 20.089000702 0.0089999996  -999.250000 1.7859952450 42.822376251 125.79000092 1.4220000505 47.500923157 1.0160865784 1.0160000324
 2101.8884277 5.0000000000 18.735000610 0.0089935996  -999.250000 1.7829999924 43.056186676 122.73799896 1.5329999924 47.786869049 1.0430159569 1.0429999828
 2102.0407715 5.0000000000 17.888999939 0.0069903848  -999.250000 1.7740000486 42.548999786 130.30000305 1.5260000229 47.434947968 1.0479743481 1.0479999781
 2102.1933594 5.0000000000 19.079000473 0.0010000000  -999.250000 1.7509679794 41.926349640 130.39900208 1.4079999924 47.401058197 1.0399422646 1.0399999619
 2102.3457031 5.0000000000 21.049999237 0.0010288463  -999.250000 1.7309727669 41.724132538 127.43900299 1.3159999847 47.419040680 1.0279040337 1.0279999971
 2102.4980469 5.0000000000 22.047000885 0.0100352000  -999.250000 1.7139999866 41.807697296 127.81999969 1.2549999952 47.430225372 1.0080353022 1.0080000162
 2102.6503906 5.0000000000 22.232999802 0.0209983978  -999.250000 1.7309999466 41.618003845 125.13899994 1.2580000162 46.878295898 1.0190064907 1.0190000534
 2102.8029785 5.0000000000 22.232000351 0.0199551284  -999.250000 1.7830079794 40.994731903 124.42299652 1.2710000277 47.058052063 1.0210192204 1.0210000277
 2102.9553223 5.0000000000 22.232000351 0.0059615383  -999.250000 1.7879006863 40.287193298 124.09400177 1.3120000362 45.533233643 1.0249903202 1.0249999762
 2103.1076660 5.0000000000 22.231000900 -0.006016026  -999.250000 1.7258559465 39.784465790 130.84399414 1.3600000143 49.954223633 1.0230385065 1.0230000019
 2103.2600098 5.0000000000 22.231000900 -0.010993600  -999.250000 1.6360000372 39.451526642 128.71600342 1.3880000114 48.468299866 1.0349999666 1.0349999666
 2103.4125977 5.0000000000 22.229999542 -0.008974358  -999.250000 1.5770064592 39.155761719 124.93000031 1.3689999580 48.254016876 1.0350096226 1.0349999666
 2103.5649414 5.0000000000 22.229999542 -0.000987180  -999.250000 1.5810480118 39.082740784 127.35399628 1.3519999981 49.501937866 1.0370143652 1.0369999409
 2103.7172852 5.0000000000 22.229000092 0.0029775642  -999.250000 1.6110415459 39.545505524 122.89900208 1.3509999514 49.170543671 1.0399839878 1.0399999619
 2103.8696289 5.0000000000 22.229000092 -0.003993600  -999.250000 1.6369999647 40.485466003 123.39700317 1.3789999485 48.713710785 1.0350064039 1.0349999666
 2104.0219727 5.0000000000 22.228000641 -0.001988782  -999.250000 1.6440000534 41.397460938 122.09899902 1.4509999752 47.689537048 1.0370320082 1.0369999409
 2104.1745605 5.0000000000 22.228000641 0.0049807690  -999.250000 1.6450111866 41.682201385 120.62200928 1.4349999428 47.401947021 1.0470674038 1.0470000505
 2104.3269043 5.0000000000 22.226999283 -0.001003205  -999.250000 1.6519999504 41.121284485 123.59799957 1.4140000343 47.384304047 1.0610336065 1.0609999895
 2104.4792480 5.0000000000 22.226999283 -0.001968000  -999.250000 1.6519999504 40.051742554 122.86900330 1.3730000257 47.168113708 1.0680096149 1.0679999590
 2104.6315918 5.0000000000 22.225999832 0.0080192313  -999.250000 1.6560000181 39.268260956 122.69200134 1.3279999495 47.204315186 1.0710128546 1.0709999800
 2104.7841797 5.0000000000 22.225999832 0.0200673081  -999.250000 1.6781601906 39.434478760 120.93499756 1.3170000315 47.402473450 1.0750192404 1.0750000477
 2104.9365234 5.0000000000 21.964002609 0.0410160273  -999.250000 1.7782387733 40.520175934 122.73000336 1.3559999466 47.550319672 1.0790191889 1.0789999962
 2105.0888672 5.0000000000 21.052999496 0.0459326915  -999.250000 1.9271647930 41.875545502 123.78600311 1.3660000563 47.959537506 1.0830096006 1.0829999447
