# LAS format log file from PETREL
# Project units are specified as depth units
#==================================================================
~Version information
VERS.   2.0:
WRAP.   NO:
#==================================================================
~Well
STRT .m      3245.2055664 :
STOP .m      4039.9716797 :
STEP .m     0.00000000 :
NULL .        -999.250000 :
COMP.           : COMPANY
WELL.  35/3-7 S   : WELL
FLD.            : FIELD
LOC.            : LOCATION
SRVC.           : SERVICE COMPANY
DATE.  2018-09-11 14:48:58   : Log Export Date {yyyy-MM-dd HH:mm:ss}
PROV.           : PROVINCE
UWI.   35/3-7 S   : UNIQUE WELL ID
API.            : API NUMBER
#==================================================================
~Curve
DEPT .m                   : DEPTH
Lithology_geolink ._      : Lithology_geolink
CALI .in                  : CALI
BS .in                    : BS
ROP .m/h                  : ROP
DRHO .g/cm3               : DRHO
THOR .ppm                 : THOR
NPHI .m3/m3               : NPHI
RHOB .g/cm3               : RHOB
PEF .b/e                  : PEF
GR .gAPI                  : GR
URAN .ppm                 : URAN
DTC .us/ft                : DTC
DTS .us/ft                : DTS
RDEP .ohm.m               : RDEP
RMIC .ohm.m               : RMIC
RMED .ohm.m               : RMED
~Parameter
#==================================================================
~Ascii
# ...
 3927.5004883 7.0000000000 8.4849004745 8.5000000000 33.958992004 -0.014700000  -999.250000 0.2678000033 2.5643000603 3.9147000313 131.84759521  -999.250000 82.132095337 157.95730591 2.9858000278 2.7000000477 3.3427999020
 3927.6528320 7.0000000000 8.4331998825 8.5000000000 30.634515762 -0.017999999  -999.250000 0.2542000115 2.5606999397 4.0520000458 127.54879761  -999.250000 82.740402222 162.20950317 2.8308000565 2.6296000481 3.1958999634
 3927.8054199 7.0000000000 8.4489002228 8.5000000000 29.264436722 -0.016100001  -999.250000 0.2498999983 2.5615000725 4.1420998573 126.71929932  -999.250000 84.362503052 161.15170288 2.9307000637 2.6675999165 3.3276000023
 3927.9577637 7.0000000000 8.4371004105 8.5000000000 30.740489960 -0.014300000  -999.250000 0.2536999881 2.5645000935 4.0996999741 129.12649536  -999.250000 84.884407043 153.88099670 2.9781999588 3.3566999435 3.3975999355
 3928.1101074 7.0000000000 8.4579000473 8.5000000000 30.476707458 -0.011900000  -999.250000 0.2560000122 2.5664000511 3.9921000004 132.86189270  -999.250000 83.965400696 149.06210327 2.9482998848 3.2511999607 3.3924999237
 3928.2624512 7.0000000000 8.4579000473 8.5000000000 27.197834015 -0.013000000  -999.250000 0.2576999962 2.5690000057 3.8991999626 131.70069885  -999.250000 82.819198608 153.86300659 2.7525999546 3.1489999294 3.2005000114
 3928.4150391 6.0000000000 8.4449996948 8.5000000000 21.616142273 -0.012200000  -999.250000 0.2317000031 2.5704998970 3.8907001019 126.19120026  -999.250000 81.784202576 155.36239624 3.1103000641 3.1305000782 3.5998001099
 3928.5673828 6.0000000000 8.3971996307 8.5000000000 17.484251022 -0.007300000  -999.250000 0.2213999927 2.5864000320 3.9019000530 121.37680054  -999.250000 81.781097412 159.10450745 3.8208000660 3.9986000061 4.3548998833
 3928.7197266 6.0000000000 8.3702001572 8.5000000000 16.216535568 -0.003400000  -999.250000 0.2202000022 2.5929000378 3.9298999310 118.83529663  -999.250000 80.545303345 158.67930603 4.1851000786 3.8513000011 4.7740001678
 3928.8720703 6.0000000000 8.4017000198 8.5000000000 17.206365585 -0.002100000  -999.250000 0.2381999940 2.5906999111 3.9574000835 119.16709900  -999.250000 78.849403381 155.01031494 3.1026999950 3.4862999916 3.5518999100
 3929.0244141 6.0000000000 8.4489002228 8.5000000000 20.839895248 -0.005400000  -999.250000 0.2619999945 2.5759999752 3.9900999069 120.20189667  -999.250000 78.119491577 147.92559814 2.9877998829 3.0868000984 3.4065001011
 3929.1770020 6.0000000000 8.4072999954 8.5000000000 22.768371582 -0.008100000  -999.250000 0.2460999936 2.5787000656 4.0430002213 119.12550354  -999.250000 77.799697876 149.88989258 2.9623999596 3.2664000988 3.3603999615
 3929.3293457 6.0000000000 8.3702001572 8.5000000000 16.642061234 -0.005700000  -999.250000 0.2084999979 2.6177999973 4.1888999939 115.93930054  -999.250000 78.094795227 151.25289917 4.2947998047 4.1821999550 4.8478999138
 3929.4816895 16.000000000 8.3668003082 8.5000000000 12.122703552 0.0033000000  -999.250000 0.1609999985 2.6756000519 4.4222002029 105.18450165  -999.250000 79.161499023 149.46740723 5.7017998695 7.3843002319 6.4581999779
 3929.6340332 16.000000000 8.3622999191 8.5000000000 10.279855728 0.0173000004  -999.250000 0.1634999961 2.7328999043 4.5384998322 108.27799988  -999.250000 80.590499878 145.83999634 10.713700294 11.637000084 12.055999756
 3929.7866211 6.0000000000 8.3702001572 8.5000000000 8.9455375671 0.0181000009  -999.250000 0.2034000009 2.7067000866 4.4302000999 110.87100220  -999.250000 82.605796814 148.48249817 4.5813999176 7.2838997841 5.1255998611
 3929.9389648 6.0000000000 8.4208002090 8.5000000000 7.0964570045 0.0093000000  -999.250000 0.2416000068 2.6447999477 4.1946001053 126.39510345  -999.250000 85.209396362 148.50929260 3.0952999592 4.0718002319 3.4858999252
 3930.0913086 7.0000000000 8.4409999847 8.5000000000 6.3517060280 -0.005200000  -999.250000 0.2579999864 2.5738000870 4.0197000504 133.18269348  -999.250000 85.354103088 141.46980286 3.1605999470 3.2739999294 3.5789999962
 3930.2436523 7.0000000000 8.4568004608 8.5000000000 7.7473745346 -0.010100000  -999.250000 0.2585999966 2.5599999428 3.9256000519 139.34109497  -999.250000 85.075691223 145.31900024 3.3582000732 3.0897998810 3.7925000191
 3930.3962402 7.0000000000 8.4292001724 8.5000000000 17.530183792 -0.010500000  -999.250000 0.2459000051 2.5660998821 3.8564999104 137.84790039  -999.250000 83.157608032 150.93080139 3.3608999252 3.1802000999 3.7950000763
 3930.5485840 7.0000000000 8.4242000580 8.5000000000 51.632877350 -0.009000000  -999.250000 0.2410999984 2.5762999058 3.7976000309 134.06919861  -999.250000 81.508003235 153.47740173 3.3761000633 3.1649000645 3.8055999279
 3930.7009277 7.0000000000 8.4292001724 8.5000000000 63.458992004 -0.009700001  -999.250000 0.2321999967 2.5741999149 3.8145000935 129.80059814  -999.250000 80.001098633 155.29100037 3.3185000420 3.4019999504 3.7444000244
 3930.8532715 7.0000000000 8.4252996445 8.5000000000 55.718833923 -0.009700001  -999.250000 0.2289000005 2.5762000084 3.8840999603 128.34849548  -999.250000 80.056602478 155.30160522 3.3041000366 3.5346999168 3.7291998863
 3931.0056152 7.0000000000 8.4449996948 8.5000000000 50.456363678 -0.010200000  -999.250000 0.2270999998 2.5759999752 4.0121002197 125.16760254  -999.250000 80.500602722 154.07269287 3.4679000378 3.9047999382 3.9166998863
 3931.1582031 7.0000000000 8.4449996948 8.5000000000 52.343505859 -0.008900000  -999.250000 0.2299000025 2.5813000202 4.0802001953 124.95110321  -999.250000 80.460899353 152.53970337 4.0186624527 3.8722999096 4.4988288879
 3931.3105469 7.0000000000 8.4242000580 8.5000000000 51.617454529 -0.008500000  -999.250000 0.2384999990 2.5806999207 4.0128998756 122.32559967  -999.250000 78.736801147 152.09979248 3.5706710815 3.8759999275 3.9470131397
 3931.4628906 7.0000000000 8.4449996948 8.5000000000 40.798557281 -0.009100000  -999.250000 0.2461999953 2.5736999512 3.8861000538 126.22480011  -999.250000 79.273597717 156.93798828 3.4900078773 3.6059000492 3.8302576542
 3931.6152344 7.0000000000 8.4511003494 8.5000000000 31.434057236 -0.009300000  -999.250000 0.2488999963 2.5694000721 3.7927999496 126.67440033  -999.250000 78.786102295 159.75090027 3.3077335358 3.5062999725 3.6166796684
 3931.7678223 7.0000000000 8.4579000473 8.5000000000 31.099081039 -0.009100000  -999.250000 0.2469999939 2.5685000420 3.7948000431 129.62579346  -999.250000 80.904510498 155.12019348 3.1422967911 3.4999001026 3.4177305698
 3931.9201660 7.0000000000 8.4568004608 8.5000000000 37.452754974 -0.009600000  -999.250000 0.2506999969 2.5722000599 3.8113000393 130.70599365  -999.250000 80.261100769 150.77250671 3.3592042923 3.3334999084 3.6450743675
 3932.0725098 7.0000000000 8.4527997971 8.5000000000 51.577754974 -0.010500000  -999.250000 0.2506999969 2.5757999420 3.8085999489 133.18659973  -999.250000 79.175498962 149.54669189 3.2369315624 3.2664999962 3.5041847229
 3932.2248535 7.0000000000 8.4680004120 8.5000000000 61.943901062 -0.011800000  -999.250000 0.2498999983 2.5766000748 3.7941999435 133.03559875  -999.250000 76.577697754 153.72471619 3.0081129074 3.2941000462 3.2460422516
 3932.3774414 7.0000000000 8.4780998230 8.5000000000 58.111873627 -0.012200000  -999.250000 0.2434999943 2.5764999390 3.7809000015 128.63259888  -999.250000 79.353103638 153.84730530 3.3896305561 3.3698999882 3.6458158493
 3932.5297852 7.0000000000 8.4680004120 8.5000000000 58.948497772 -0.011400000  -999.250000 0.2386000007 2.5785999298 3.7662000656 125.70240021  -999.250000 82.307502747 152.31910706 3.2746372223 3.6461999416 3.5263459682
 3932.6821289 7.0000000000 8.4724998474 8.5000000000 54.966865540 -0.009500000  -999.250000 0.2478999943 2.5824999809 3.7630000114 127.67900085  -999.250000 83.173202515 148.57650757 3.3602328300 3.6063001156 3.6172301769
 3932.8344727 7.0000000000 8.4645996094 8.5000000000 48.120735168 -0.007400000  -999.250000 0.2531000078 2.5868000984 3.7720999718 132.44169617  -999.250000 81.802101135 147.79980469 3.3805713654 3.5387001038 3.6358499527
 3932.9868164 7.0000000000 8.4842996597 8.5000000000 47.074802399 -0.006900000  -999.250000 0.2583999932 2.5868999958 3.8057999611 134.74290466  -999.250000 78.858001709 150.74729919 3.2378990650 3.4107999802 3.4797809124
