# LAS format log file from PETREL
# Project units are specified as depth units
#==================================================================
~Version information
VERS.   2.0:
WRAP.   NO:
#==================================================================
~Well
STRT .m      1335.2409668 :
STOP .m      4939.9580078 :
STEP .m     0.00000000 :
NULL .        -999.250000 :
COMP.           : COMPANY
WELL.  35/4-1   : WELL
FLD.            : FIELD
LOC.            : LOCATION
SRVC.           : SERVICE COMPANY
DATE.  2018-09-11 14:48:59   : Log Export Date {yyyy-MM-dd HH:mm:ss}
PROV.           : PROVINCE
UWI.   35/4-1   : UNIQUE WELL ID
API.            : API NUMBER
#==================================================================
~Curve
DEPT .m                   : DEPTH
Lithology_geolink ._      : Lithology_geolink
CALI .in                  : CALI
DRHO .g/cm3               : DRHO
NPHI .m3/m3               : NPHI
RHOB .g/cm3               : RHOB
GR .gAPI                  : GR
DTC .us/ft                : DTC
RDEP .ohm.m               : RDEP
RMED .ohm.m               : RMED
~Parameter
#==================================================================
~Ascii
# ...
 3735.2358398 7.0000000000 9.5740003586 0.0099903848 0.3930192292 2.5421237946 67.553031921 100.84129333 1.8020000458 1.7970000505
 3735.3884277 7.0000000000 9.5760002136 0.0119935898 0.3860224485 2.5453178883 69.067581177 100.25629425 1.7361056805 1.7970000505
 3735.5407715 7.0000000000 9.5790004730 0.0120000001 0.3909839690 2.5448691845 67.288864136 101.17601013 1.7659519911 1.7990000248
 3735.6931152 7.0000000000 9.5749998093 0.0080128210 0.3999711573 2.5443470478 67.766227722 101.46116638 1.7759840488 1.7999999523
 3735.8454590 7.0000000000 9.5819997787 0.0080000004 0.4039808214 2.5524573326 66.395202637 101.23975372 1.7011201382 1.8009999990
 3735.9978027 7.0000000000 9.5889997482 0.0119807692 0.4099711478 2.5684409142 69.048477173 101.27785492 1.7897151709 1.7999999523
 3736.1503906 7.0000000000 9.5799999237 0.0159871802 0.4030224383 2.5774381161 68.534835815 100.40425873 1.9038172960 1.7970000505
 3736.3027344 7.0000000000 9.5869998932 0.0160000008 0.4139647484 2.5831937790 64.358695984 100.90752411 1.9728894234 1.7999999523
 3736.4550781 7.0000000000 9.5889997482 0.0269472003 0.4020576179 2.5913083553 60.413322449 100.91712189 1.9819855690 1.9830000401
 3736.6074219 7.0000000000 9.5909996033 0.0240144227 0.3990144134 2.5788891315 61.611137390 101.17394257 2.1693985462 2.2730000019
 3736.7600098 7.0000000000 9.5469999313 0.0150288455 0.3830512762 2.5520279408 59.317687988 101.89051056 2.0661666393 2.2980000973
 3736.9123535 7.0000000000 9.5019998550 0.0110128205 0.3989486992 2.5312912464 64.114295959 102.11984253 2.2576920986 2.2980000973
 3737.0646973 7.0000000000 9.4980001450 0.0119952001 0.4019856155 2.5299322605 64.286735535 101.38710022 2.3109152317 2.3239998817
 3737.2170410 7.0000000000 9.4989995956 0.0110048074 0.4089663625 2.5365657806 62.313335419 100.43305969 2.3169806004 2.4509999752
 3737.3696289 7.0000000000 9.4530000687 0.0129935900 0.4010256231 2.5417170525 60.647663116 100.45861053 2.3379664421 2.5109999180
 3737.5219727 7.0000000000 9.3509998322 0.0120032048 0.4129615128 2.5436499119 63.201896667 101.54146576 2.3579680920 2.5160000324
 3737.6743164 7.0000000000 9.3520002365 0.0100064101 0.4269551039 2.5376203060 63.099170685 101.00836182 2.3580000401 2.5179998875
 3737.8266602 7.0000000000 9.3520002365 0.0050240001 0.4240143895 2.5283043385 59.216232300 100.91867065 2.3520095348 2.5690000057
 3737.9792480 7.0000000000 9.2950000763 0.0049999999 0.4210096300 2.5186831951 61.225769043 101.67661285 2.3460094929 2.3989999294
 3738.1315918 7.0000000000 9.2799997330 0.0020096155 0.4210000038 2.5038003922 59.059482574 102.86641693 2.3610000610 2.3239998817
 3738.2839355 7.0000000000 9.2819995880 0.0010032052 0.4190064073 2.4984905720 58.441986084 102.67508698 2.3489999771 2.3239998817
 3738.4362793 7.0000000000 9.2840003967 0.0019952001 0.4239760041 2.5055491924 60.038436890 102.15839386 2.1819999218 2.3029999733
 3738.5886230 7.0000000000 9.2869997025 0.0059807692 0.4040961564 2.5256206989 62.844997406 102.29064178 2.1770000458 2.2780001163
 3738.7412109 7.0000000000 9.2899999619 0.0050032050 0.4089839756 2.5349035263 61.722816467 102.46166229 2.2449998856 2.2769999504
 3738.8935547 7.0000000000 9.3009996414 0.0049999999 0.3910576999 2.5339889526 61.753948212 102.00237274 2.2409999371 2.2829999924
 3739.0458984 7.0000000000 9.2860002518 0.0020144002 0.3969712257 2.5224065781 61.366622925 101.27957916 2.1600000858 2.2869999409
 3739.1982422 7.0000000000 9.2840003967 0.0020000001 0.3960047960 2.5180423260 59.802021027 101.36361694 2.0529999733 2.2660000324
 3739.3508301 7.0000000000 9.2880001068 0.0029967949 0.3999871910 2.5290534496 57.565582275 101.29076385 2.0510001183 2.1410000324
 3739.5031738 7.0000000000 9.2799997330 0.0069871796 0.4029903710 2.5580897331 58.209957123 101.31975555 2.0329999924 2.1449999809
 3739.6555176 7.0000000000 9.2810001373 0.0089935893 0.4010064006 2.5852432251 59.749530792 102.47820282 2.0329999924 2.1449999809
 3739.8078613 7.0000000000 9.2840003967 0.0119856000 0.4099567831 2.6032009125 62.409469604 103.50898743 1.9420000315 2.1440000534
 3739.9604492 7.0000000000 9.2840003967 0.0080128210 0.4139871895 2.5928938389 61.141048431 103.75601196 2.0409998894 2.1370000839
 3740.1127930 7.0000000000 9.2819995880 0.0050096153 0.4179871976 2.5656907558 61.226860046 103.40467072 2.0399999619 2.1419999599
 3740.2651367 7.0000000000 9.3210000992 0.0049999999 0.4110224545 2.5359792709 61.013343811 103.34353638 2.0369999409 2.1250000000
 3740.4174805 7.0000000000 9.3669996262 0.0059952000 0.4010480046 2.5182206631 59.632217407 104.45476532 2.0409998894 2.2539999485
 3740.5698242 7.0000000000 9.3690004349 0.0069951927 0.3980144262 2.5145466328 59.345912933 105.24727631 2.0539999008 2.3310000896
 3740.7224121 7.0000000000 9.3669996262 0.0109871794 0.4159423113 2.5145192146 59.124355316 105.00993347 2.1809999943 2.3459999561
 3740.8747559 7.0000000000 9.3730001450 0.0100032045 0.4209839702 2.5066266060 58.609825134 104.94906616 2.2679998875 2.3570001125
 3741.0270996 7.0000000000 9.3649997711 0.0060192002 0.4349327981 2.4955899715 57.953052521 104.53569031 2.2509999275 2.3699998856
 3741.1794434 7.0000000000 9.3620004654 0.0040096156 0.4320144355 2.4872992039 59.213947296 104.57888794 2.2209999561 2.3659999371
 3741.3320313 7.0000000000 9.3669996262 0.0020064104 0.4320000112 2.4822247028 60.184448242 104.09533691 2.2369999886 2.3629999161
 3741.4843750 7.0000000000 9.3690004349 0.0000064103 0.4130608737 2.4857332706 57.948589325 103.23432922 2.4179999828 2.3540000916
 3741.6367188 7.0000000000 9.3520002365 0.0019904000 0.4120047987 2.5003509521 58.439205170 104.50426483 2.4800000191 2.3870000839
 3741.7890625 7.0000000000 9.3489999771 0.0020000001 0.4129951894 2.5181250572 57.738254547 103.26824951 2.4990000725 2.5239999294
 3741.9416504 7.0000000000 9.3439998627 0.0039935899 0.4129999876 2.5303525925 59.386352539 103.41559601 2.4900000095 2.4849998951
 3742.0939941 7.0000000000 9.3459997177 0.0030032052 0.4010384679 2.5323264599 57.903385162 106.58106995 2.4920001030 2.4860000610
 3742.2463379 7.0000000000 9.3420000076 0.0020032052 0.3840544820 2.5294151306 57.558547974 108.04978943 2.4900000095 2.4990000725
 3742.3986816 7.0000000000 9.3199996948 0.0020000001 0.4019136131 2.5278680325 58.840938568 107.84947968 2.4939999580 2.4939999580
 3742.5510254 7.0000000000 9.3059997559 0.0039903848 0.4079711437 2.5264117718 60.601352692 107.42861176 2.4869999886 2.5829999447
 3742.7036133 7.0000000000 9.3000001907 0.0020064104 0.4389006495 2.5269968510 54.641574860 107.24626923 2.5060000420 2.8380000591
 3742.8559570 7.0000000000 9.2989997864 0.0039935899 0.4330192208 2.5281307697 55.216060638 107.38804626 2.6600000858 2.8599998951
 3743.0083008 7.0000000000 9.3050003052 0.0030048001 0.4379760027 2.5273139477 55.246952057 107.26583099 2.7409999371 2.8670001030
 3743.1606445 7.0000000000 9.2810001373 0.0010096155 0.4370048046 2.5148997307 53.472694397 106.54127502 2.6380000114 2.8599998951
 3743.3132324 7.0000000000 9.2690000534 -0.000993590 0.4389936030 2.5149910450 53.974185944 106.44237518 2.5320000648 2.8599998951
 3743.4655762 7.0000000000 9.2679996490 -0.001000000 0.4449807703 2.5179903507 50.785118103 106.50438690 2.6389999390 2.8599998951
 3743.6179199 7.0000000000 9.2679996490 -0.001000000 0.4310671985 2.5183091164 49.419185638 106.72209930 2.5369999409 2.8599998951
 3743.7702637 7.0000000000 9.2500000000 -0.001000000 0.4300048053 2.5032484531 50.363960266 105.40106964 2.4449999332 2.8420000076
 3743.9228516 7.0000000000 9.2399997711 -0.005983974 0.4100641012 2.4864311218 48.780548096 105.85522461 2.6219999790 2.6470000744
 3744.0751953 7.0000000000 9.2119998932 -0.003009615 0.4199679494 2.5004925728 51.646396637 106.11302948 2.5750000477 2.5739998817
 3744.2275391 7.0000000000 9.1870002747 0.0019839744 0.4299679697 2.5346889496 49.788986206 106.24367523 2.6150000095 2.6730000973
 3744.3798828 7.0000000000 9.2290000916 0.0059807999 0.4359712005 2.5718100071 47.807178497 105.30754089 2.5209999084 2.8039999008
 3744.5322266 7.0000000000 9.2270002365 0.0050048074 0.4379903674 2.5874192715 47.717277527 106.77599335 2.6970000267 2.6640000343
