# LAS format log file from PETREL
# Project units are specified as depth units
#==================================================================
~Version information
VERS.   2.0:
WRAP.   NO:
#==================================================================
~Well
STRT .m      1335.2409668 :
STOP .m      4939.9580078 :
STEP .m     0.00000000 :
NULL .        -999.250000 :
COMP.           : COMPANY
WELL.  35/4-1   : WELL
FLD.            : FIELD
LOC.            : LOCATION
SRVC.           : SERVICE COMPANY
DATE.  2018-09-11 14:48:59   : Log Export Date {yyyy-MM-dd HH:mm:ss}
PROV.           : PROVINCE
UWI.   35/4-1   : UNIQUE WELL ID
API.            : API NUMBER
#==================================================================
~Curve
DEPT .m                   : DEPTH
Lithology_geolink ._      : Lithology_geolink
CALI .in                  : CALI
DRHO .g/cm3               : DRHO
NPHI .m3/m3               : NPHI
RHOB .g/cm3               : RHOB
GR .gAPI                  : GR
DTC .us/ft                : DTC
RDEP .ohm.m               : RDEP
RMED .ohm.m               : RMED
~Parameter
#==================================================================
~Ascii
# ...
 2053.3496094 6.0000000000 18.229999542 -0.007990385 0.4229503274 2.0527718067 103.86407471 128.19511414 1.2489293814 0.7960000038
 2053.5021973 6.0000000000 19.120000839 -0.011000000 0.4339999855 2.0601525307 102.78771973 128.38203430 1.4513504505 0.8121330142
 2053.6545410 6.0000000000 19.309999466 -0.011000000 0.4290079772 2.0955901146 105.07732391 128.48298645 1.2167563438 0.8949135542
 2053.8068848 6.0000000000 19.070999146 -0.002014423 0.4260047972 2.1536028385 112.11770630 128.24662781 1.2279615402 0.8410000205
 2053.9592285 6.0000000000 18.658000946 -0.005993590 0.4180128276 2.1625466347 112.19976807 127.23860168 1.2230160236 0.8349999785
 2054.1118164 6.0000000000 18.396999359 -0.010000000 0.4339999855 2.1650991440 109.92564392 127.52543640 1.1760753393 0.8430464864
 2054.2641602 6.0000000000 18.337999344 -0.002000000 0.4090000093 2.1733174324 104.89606476 127.30720520 1.2288303375 0.8719936013
 2054.4165039 6.0000000000 18.326999664 0.0059872000 0.4139920175 2.1768264771 106.93571472 126.91129303 1.2130513191 0.8679999709
 2054.5688477 6.0000000000 18.356000900 0.0079967957 0.4000224471 2.1674759388 107.03369141 127.44505310 1.2070192099 0.8700000048
 2054.7214355 6.0000000000 18.319000244 0.0130000003 0.4210000038 2.1526138783 103.08534241 128.35108948 1.2559214830 0.8680223823
 2054.8737793 6.0000000000 18.183000565 0.0309999995 0.4120000005 2.1259946823 100.67885590 128.74681091 1.2928816080 0.8820625544
 2055.0261230 6.0000000000 18.246999741 0.0230128001 0.4229823947 2.0570738316 100.09393311 128.72509766 1.2830320597 0.9210895896
 2055.1784668 6.0000000000 18.233999252 0.0080240387 0.4190064073 2.0222971439 102.60197449 131.04409790 1.2989487648 0.9769999981
 2055.3310547 6.0000000000 18.288000107 0.0020000001 0.3930000067 2.0640418530 101.47680664 131.33006287 1.3029935360 0.9789487123
 2055.4833984 6.0000000000 17.993000031 0.0010000000 0.4009999931 2.1727066040 101.27133179 126.98481750 1.2631280422 0.9469615817
 2055.6357422 6.0000000000 18.003000259 -0.001995200 0.3830287755 2.2690551281 101.93793488 125.74650574 1.2231281996 0.9229567647
 2055.7880859 6.0000000000 18.007999420 -0.011983975 0.4079599380 2.3021221161 104.40104675 126.28943634 1.2040609121 0.8960000277
 2055.9404297 6.0000000000 18.023000717 -0.016991988 0.4010111988 2.3035809994 106.10255432 127.88950348 1.1691122055 0.8669999838
 2056.0930176 6.0000000000 17.979000092 -0.014000000 0.4390000105 2.2714235783 106.46942139 127.93336487 1.1799823046 0.8370016217
 2056.2453613 6.0000000000 17.986000061 -0.014998400 0.4599664211 2.2269322872 106.98517609 128.21897888 1.1879743338 0.8380528092
 2056.3977051 6.0000000000 18.115999222 -0.020990385 0.4360384643 2.1998479366 108.59641266 127.23964691 1.1939808130 0.8709999919
 2056.5500488 6.0000000000 17.929000854 -0.019003205 0.4190272391 2.2268579006 109.00370026 124.07340240 1.2099487782 0.9039999843
 2056.7026367 6.0000000000 17.954000473 -0.012000000 0.3869999945 2.2830519676 107.56830597 123.90694427 1.1870368719 0.9029920101
 2056.8549805 6.0000000000 17.934000015 -0.017000001 0.4280000031 2.3139967918 104.73754120 124.07465363 1.1650704145 0.8979823589
 2057.0073242 6.0000000000 17.937999725 -0.018996799 0.4270015955 2.3225007057 102.28592682 123.74569702 1.1689871550 0.8869552016
 2057.1596680 6.0000000000 17.951000214 -0.018999999 0.4449711442 2.3167567253 103.22596741 123.79961395 1.1560417414 0.8590000272
 2057.3122559 6.0000000000 17.958000183 -0.018999999 0.4320000112 2.2787640095 106.25514221 123.66852570 1.1639871597 0.8279407024
 2057.4645996 6.0000000000 17.962999344 -0.030999999 0.4449999928 2.1710724831 107.98522949 122.22616577 1.4251616001 0.7909759879
 2057.6169434 6.0000000000 17.937999725 -0.038987201 0.4330191910 2.0830264091 107.41991425 122.13675690 1.2126859426 0.7761088014
 2057.7692871 6.0000000000 17.943000793 -0.044990387 0.4629519284 2.0471289158 106.28382111 120.88280487 1.2040256262 0.8439999819
 2057.9216309 6.0000000000 17.944999695 -0.029025640 0.4749807715 2.0959775448 105.93212128 121.84752655 1.2010096312 0.8429999948
 2058.0742188 6.0000000000 17.993000031 -0.015000000 0.4790000021 2.1406755447 106.54801178 120.40962982 1.1162720919 0.8009615541
 2058.2265625 6.0000000000 18.027000427 -0.007012800 0.4520432055 2.1106765270 105.34693146 122.17957306 1.1289582253 0.7770112157
 2058.3789063 6.0000000000 18.267999649 -0.001009615 0.4250432849 2.0560281277 106.68384552 123.37770844 1.1359776258 0.7839999795
 2058.5312500 6.0000000000 18.221000671 0.0039919876 0.4180112183 2.0168094635 105.39215088 125.14247131 1.1798589230 0.8399999738
 2058.6838379 6.0000000000 18.114999771 0.0070000002 0.4269999862 2.0446398258 104.88581085 126.13760376 1.2019647360 0.8709887862
 2058.8361816 7.0000000000 18.458999634 0.0089999996 0.4339999855 2.0683386326 106.59126282 126.13257599 1.2498464584 0.8639695644
 2058.9885254 7.0000000000 18.525999069 0.0050063999 0.4349983931 2.0666401386 107.19602966 124.47721100 1.2480064631 0.8451936245
 2059.1408691 7.0000000000 18.472999573 -0.003985577 0.4449839592 2.0774431229 107.63558960 122.92168427 1.2639487982 0.9660000205
 2059.2934570 7.0000000000 17.996000290 -0.008000000 0.4490000010 2.1434402466 105.58529663 122.99094391 1.2959487438 0.9929983616
 2059.4458008 6.0000000000 17.902999878 -0.001000000 0.4569999874 2.2574596405 106.16506195 122.46802521 1.2820447683 0.9919518828
 2059.5981445 6.0000000000 17.868000031 -0.005992000 0.4150671959 2.3205659389 108.77381134 119.62394714 1.2660512924 0.9618992209
 2059.7504883 6.0000000000 17.832000732 -0.006998398 0.4050160348 2.3198106289 109.81134796 120.08015442 1.2669967413 0.8989999890
 2059.9028320 6.0000000000 17.798999786 -0.008996795 0.4030032158 2.2848927975 110.44995880 119.14030457 1.3198301792 0.8820000291
 2060.0554199 6.0000000000 17.822000504 -0.001000000 0.4160000086 2.2366445065 108.75472260 120.74629974 1.3509007692 0.8810368180
 2060.2077637 6.0000000000 18.399999619 -0.003995200 0.4060159922 2.2039809227 109.15534973 119.86735535 1.3549871445 0.9040703773
 2060.3601074 6.0000000000 17.900999069 -0.003001603 0.4000096321 2.1985273361 107.38983917 119.91497803 1.3410447836 0.9480000138
 2060.5124512 6.0000000000 18.504999161 -0.008990385 0.3790336549 2.2178106308 106.28752899 121.66902161 1.3100992441 0.9549999833
 2060.6650391 6.0000000000 18.542999268 -0.010000000 0.3899999857 2.2454037666 103.46053314 123.42967224 1.2670688629 0.9369134307
 2060.8173828 6.0000000000 17.850000381 -0.017000001 0.4000000060 2.2489056587 103.45800018 123.01874542 1.2829488516 0.8829727769
 2060.9697266 6.0000000000 17.858999252 -0.011009600 0.4369408190 2.2387254238 104.43143463 118.76000214 1.4235481024 0.8662015796
 2061.1220703 6.0000000000 17.870000839 -0.011000000 0.4699470997 2.2173562050 102.84410095 116.29618835 1.4598846436 0.9919999838
 2061.2746582 6.0000000000 17.878999710 -0.011000000 0.4699999988 2.2423999310 103.47497559 113.25827789 1.4560064077 1.0299935341
 2061.4270020 6.0000000000 17.827999115 0.0099999998 0.4429999888 2.3297600746 98.391166687 114.13549042 1.4380575418 1.0259679556
 2061.5793457 6.0000000000 18.211999893 0.0349600017 0.4000688195 2.3991365433 98.794334412 112.70828247 1.4330159426 1.0059183836
 2061.7316895 6.0000000000 18.982999802 0.0140336547 0.3970048130 2.3466343880 99.867279053 113.96696472 1.4459582567 0.9549999833
 2061.8840332 6.0000000000 17.965999603 0.0080096154 0.4539086521 2.2534379959 103.92198944 121.30932617 1.4659358263 0.9250000119
 2062.0366211 6.0000000000 17.781000137 0.0189999994 0.4819999933 2.1802968979 103.24610901 119.87282562 1.4620127678 0.9289759994
 2062.1889648 6.0000000000 17.853000641 0.0140080005 0.4839968085 2.1409192085 100.28774261 121.70938873 1.3832532167 0.9139727950
 2062.3413086 6.0000000000 17.865999222 0.0040160259 0.4420672953 2.1216342449 104.32750702 122.35153198 1.3361506462 0.8970000148
 2062.4936523 6.0000000000 17.943000793 0.0069951927 0.3990688920 2.1303348541 108.34013367 122.78186798 1.2911442518 0.8840000033
 2062.6462402 6.0000000000 17.974000931 0.0099999998 0.4020000100 2.1458237171 110.51552582 124.61663055 1.2929967642 0.8559695482
