# LAS format log file from PETREL
# Project units are specified as depth units
#==================================================================
~Version information
VERS.   2.0:
WRAP.   NO:
#==================================================================
~Well
STRT .m      1335.2409668 :
STOP .m      4939.9580078 :
STEP .m     0.00000000 :
NULL .        -999.250000 :
COMP.           : COMPANY
WELL.  35/4-1   : WELL
FLD.            : FIELD
LOC.            : LOCATION
SRVC.           : SERVICE COMPANY
DATE.  2018-09-11 14:48:59   : Log Export Date {yyyy-MM-dd HH:mm:ss}
PROV.           : PROVINCE
UWI.   35/4-1   : UNIQUE WELL ID
API.            : API NUMBER
#==================================================================
~Curve
DEPT .m                   : DEPTH
Lithology_geolink ._      : Lithology_geolink
CALI .in                  : CALI
DRHO .g/cm3               : DRHO
NPHI .m3/m3               : NPHI
RHOB .g/cm3               : RHOB
GR .gAPI                  : GR
DTC .us/ft                : DTC
RDEP .ohm.m               : RDEP
RMED .ohm.m               : RMED
~Parameter
#==================================================================
~Ascii
 1335.2409668  -999.250000 18.739999771 -1.398000002 0.5429999828 1.6722373962 47.985073090 150.60890198  -999.250000 1.0080088377
 1335.3934326  -999.250000 18.739999771 -1.414999962 0.5690000057 1.6726206541 47.315071106 150.59182739  -999.250000 1.0190353394
 1335.5457764  -999.250000 18.739000320 -1.404000044 0.5559999943 1.6730082035 46.402465820 150.57475281  -999.250000 1.0410504341
 1335.6982422  -999.250000 18.732000351 -1.389000058 0.5279999971 1.6734004021 45.163982391 150.55764771  -999.250000 1.1040992737
 1335.8505859 5.0000000000 18.735000610 -1.383000016 0.5239999890 1.6737958193 44.533012390 150.54058838  -999.250000 1.1660047770
 1336.0029297 5.0000000000 18.749000549 -1.381999969 0.5339999795 1.6741958857 44.100040436 150.52345276  -999.250000 1.1720072031
 1336.1553955 5.0000000000 18.731000900 -1.363000035 0.5649999976 1.6746004820 43.806468964 150.50636292  -999.250000 1.1809855700
 1336.3077393 5.0000000000 18.732999802 -1.361999989 0.5379999876 1.6750088930 44.179103851 150.48921204  -999.250000 1.1629775763
 1336.4602051 5.0000000000 18.746999741 -1.356999993 0.5270000100 1.6754215956 44.554397583 150.47204590  -999.250000 1.1350159645
 1336.6125488 5.0000000000 18.733999252 -1.345000029 0.5400000215 1.6758383512 45.874820709 150.45492554  -999.250000 1.1550103426
 1336.7650146 5.0000000000 18.733999252 -1.335000038 0.5509999990 1.6762596369 46.634788513 150.43772888  -999.250000 1.1678757668
 1336.9173584 5.0000000000 18.742000580 -1.297999978 0.6159999967 1.6766848564 45.363063812 150.42056274  -999.250000 1.0130136013
 1337.0698242 5.0000000000 18.715000153 -1.269999981 0.6029999852 1.6771136522 45.041511536 150.40338135  -999.250000 1.0301088095
 1337.2221680 5.0000000000 18.740999222 -1.231999993 0.5939999819 1.6775470972 46.816722870 150.38616943  -999.250000 1.0980209112
 1337.3746338 5.0000000000 18.753999710 -1.197000027 0.5400000215 1.6779843569 47.627708435 150.36897278  -999.250000 1.1240639687
 1337.5269775 5.0000000000 18.783000946 -1.184999943 0.5299999714 1.6784255505 48.434062958 150.35176086  -999.250000 1.1640152931
 1337.6794434 5.0000000000 18.770999908 -1.230999947 0.5419999957 1.6788704395 48.839351654 150.33450317  -999.250000 1.1831248999
 1337.8317871 5.0000000000 18.702999115 -1.251000047 0.5270000100 1.6793190241 48.698230743 150.31729126  -999.250000 1.2609920502
 1337.9841309 5.0000000000 18.691999435 -1.322000027 0.5460000038 1.6797714233 47.899921417 150.30004883  -999.250000 1.2510024309
 1338.1365967 5.0000000000 18.711000443 -1.384999990 0.5379999876 1.6802279949 46.698925018 150.28280640  -999.250000 1.2540055513
 1338.2889404 5.0000000000 18.712999344 -1.393000007 0.5440000296 1.6806883812 43.427867889 150.26551819  -999.250000 1.2610713243
 1338.4414063 5.0000000000 18.743000031 -1.361999989 0.5159999728 1.6811529398 44.119876862 150.24824524  -999.250000 1.3499871492
 1338.5937500 5.0000000000 18.716999054 -1.378000021 0.5019999743 1.6816202402 45.170475006 150.23098755  -999.250000 1.3339743614
 1338.7462158 5.0000000000 18.718000412 -1.388000011 0.5139999986 1.6820920706 46.588726044 150.21366882  -999.250000 1.3019744158
 1338.8985596 5.0000000000 18.732000351 -1.391000032 0.5210000277 1.6825672388 47.533729553 150.19638062  -999.250000 1.2700608969
 1339.0510254 5.0000000000 18.714000702 -1.399999976 0.5509999990 1.6830459833 47.893428802 150.17906189  -999.250000 1.3459631205
 1339.2033691 5.0000000000 18.718000412 -1.404999971 0.5789999962 1.6835278273 48.429710388 150.16175842  -999.250000 1.3229262829
 1339.3558350 5.0000000000 18.721000671 -1.406999946 0.6200000048 1.6840142012 47.530445099 150.14443970  -999.250000 1.2310143709
 1339.5081787 5.0000000000 18.739000320 -1.401999950 0.6129999757 1.6845035553 45.461978912 150.12712097  -999.250000 1.2400103807
 1339.6606445 5.0000000000 18.729999542 -1.396000028 0.5490000248 1.6849963665 43.988357544 150.10977173  -999.250000 1.2529935837
 1339.8129883 5.0000000000 18.732999802 -1.384999990 0.4990000129 1.6854923964 42.369594574 150.09242249  -999.250000 1.2489975691
 1339.9653320 5.0000000000 18.739000320 -1.388000011 0.4729999900 1.6859915257 77.355758667 150.07505798  -999.250000 1.2459576130
 1340.1177979 5.0000000000 18.731000900 -1.394000053 0.4930000007 1.6864948273 74.939010620 150.05772400  -999.250000 1.1929975748
 1340.2701416 5.0000000000 18.745000839 -1.407999992 0.5090000033 1.6870013475 75.304115295 150.04035950  -999.250000 1.1899904013
 1340.4226074 5.0000000000 18.735000610 -1.424999952 0.5669999719 1.6875114441 76.415214539 150.02294922  -999.250000 1.1779919863
 1340.5749512 5.0000000000 18.739000320 -1.434000015 0.5680000186 1.6880236864 76.339187622 150.00553894  -999.250000 1.1680439711
 1340.7274170 5.0000000000 18.729999542 -1.440000057 0.5580000281 1.6885403395 76.662483215 149.98818970  -999.250000 1.2230104208
 1340.8797607 5.0000000000 18.735000610 -1.440999985 0.5090000033 1.6890594959 77.904006958 149.97080994  -999.250000 1.2360415459
 1341.0322266 5.0000000000 18.726999283 -1.435999990 0.5329999924 1.6895817518 78.880439758 149.95336914  -999.250000 1.2879543304
 1341.1845703 5.0000000000 18.742000580 -1.434000015 0.5350000262 1.6901071072 77.819557190 149.93598938  -999.250000 1.2310191393
 1341.3370361 5.0000000000 18.742000580 -1.430999994 0.5600000024 1.6906356812 75.443809509 149.91856384  -999.250000 1.2551521063
 1341.4893799 5.0000000000 18.735000610 -1.440999985 0.5580000281 1.6911671162 74.930229187 149.90115356  -999.250000 1.3499879837
 1341.6418457 5.0000000000 18.732000351 -1.440999985 0.5749999881 1.6917014122 74.709350586 149.88371277  -999.250000 1.3349039555
 1341.7941895 5.0000000000 18.743999481 -1.447999954 0.5690000057 1.6922383308 77.273880005 149.86630249  -999.250000 1.2750015259
 1341.9466553 5.0000000000 18.768999100 -1.447000027 0.5509999990 1.6927784681 75.849288940 149.84884644  -999.250000 1.2770127058
 1342.0989990 5.0000000000 18.750000000 -1.455999970 0.5379999876 1.6933214664 76.266326904 149.83142090  -999.250000 1.2850232124
 1342.2513428 5.0000000000 18.766000748 -1.449000001 0.5339999795 1.6938669682 73.542564392 149.81393433  -999.250000 1.3140368462
 1342.4038086 5.0000000000 18.764999390 -1.444000006 0.5889999866 1.6944158077 72.436759949 149.79650879  -999.250000 1.3600064516
 1342.5561523 5.0000000000 18.759000778 -1.440999985 0.5950000286 1.6949665546 71.761627197 149.77905273  -999.250000 1.3679776192
 1342.7086182 5.0000000000 18.768999100 -1.445999980 0.5910000205 1.6955207586 70.897384644 149.76158142  -999.250000 1.3399655819
 1342.8609619 5.0000000000 18.754999161 -1.432000041 0.5419999957 1.6960772276 71.940483093 149.74414063  -999.250000 1.2970064878
 1343.0134277 5.0000000000 18.757999420 -1.424999952 0.5450000167 1.6966358423 74.367111206 149.72663879  -999.250000 1.3050031662
 1343.1657715 5.0000000000 18.767000198 -1.429999948 0.5730000138 1.6971968412 76.525810242 149.70915222  -999.250000 1.3090096712
 1343.3182373 5.0000000000 18.750999451 -1.432999969 0.5910000205 1.6977610588 77.436546326 149.69165039  -999.250000 1.3210079670
 1343.4705811 5.0000000000 18.750999451 -1.437999964 0.5669999719 1.6983270645 75.568504333 149.67420959  -999.250000 1.3260176182
 1343.6230469 5.0000000000 18.747999191 -1.447000027 0.5540000200 1.6988955736 75.268470764 149.65670776  -999.250000 1.3480240107
 1343.7753906 5.0000000000 18.754999161 -1.445999980 0.5559999943 1.6994657516 75.403671265 149.63920593  -999.250000 1.3629952669
 1343.9278564 5.0000000000 18.766000748 -1.445000052 0.5799999833 1.7000390291 76.708900452 149.62173462  -999.250000 1.3570239544
 1344.0802002 5.0000000000 18.756999969 -1.444000006 0.5669999719 1.7006137371 76.086997986 149.60421753  -999.250000 1.3720488548
 1344.2325439 5.0000000000 18.763999939 -1.430999994 0.5590000153 1.7011917830 76.615722656 149.58670044  -999.250000 1.4329727888
 1344.3850098 5.0000000000 18.739000320 -1.427999973 0.5410000086 1.7017710209 76.606018066 149.56918335  -999.250000 1.3989583254
 1344.5373535 5.0000000000 18.738000870 -1.429000020 0.5509999990 1.7023527622 77.411064148 149.55169678  -999.250000 1.3469728231
