# LAS format log file from PETREL
# Project units are specified as depth units
#==================================================================
~Version information
VERS.   2.0:
WRAP.   NO:
#==================================================================
~Well
STRT .m      1335.2409668 :
STOP .m      4939.9580078 :
STEP .m     0.00000000 :
NULL .        -999.250000 :
COMP.           : COMPANY
WELL.  35/4-1   : WELL
FLD.            : FIELD
LOC.            : LOCATION
SRVC.           : SERVICE COMPANY
DATE.  2018-09-11 14:48:59   : Log Export Date {yyyy-MM-dd HH:mm:ss}
PROV.           : PROVINCE
UWI.   35/4-1   : UNIQUE WELL ID
API.            : API NUMBER
#==================================================================
~Curve
DEPT .m                   : DEPTH
Lithology_geolink ._      : Lithology_geolink
CALI .in                  : CALI
DRHO .g/cm3               : DRHO
NPHI .m3/m3               : NPHI
RHOB .g/cm3               : RHOB
GR .gAPI                  : GR
DTC .us/ft                : DTC
RDEP .ohm.m               : RDEP
RMED .ohm.m               : RMED
~Parameter
#==================================================================
~Ascii
# ...
 4453.3447266 4.0000000000 8.9340000153 0.0090032043 0.1499711573 2.5889172554 29.051000595 75.450302124 6.7760000229 6.7610001564
 4453.4970703 4.0000000000 8.9329996109 0.0070064105 0.1619615406 2.5762102604 31.668609619 76.033584595 6.7360000610 6.5446934700
 4453.6494141 4.0000000000 8.9340000153 0.0099903848 0.1729647368 2.5838110447 38.593761444 76.298133850 6.6370000839 6.5649328232
 4453.8017578 2.0000000000 8.9309997559 0.0109967953 0.1700096130 2.5805962086 27.771867752 76.485275269 6.5040001869 6.6018815041
 4453.9541016 2.0000000000 8.9309997559 0.0080191698 0.1620511115 2.5540413857 25.221088409 76.283836365 6.3049998283 6.5621280670
 4454.1064453 2.0000000000 8.9289999008 0.0050192308 0.1490833312 2.5169560909 23.668964386 76.108345032 5.9879999161 6.3805832863
 4454.2592773 2.0000000000 8.9289999008 0.0049999999 0.1440160125 2.5065145493 23.035999298 76.048652649 5.7150001526 6.1129999161
 4454.4116211 2.0000000000 8.9280004501 0.0059967949 0.1430032104 2.5214202404 25.635999680 76.261001587 5.5689997673 5.8289999962
 4454.5639648 2.0000000000 8.9189996719 0.0099871792 0.1549615413 2.5444247723 30.944000244 76.474548340 5.4450001717 5.7239999771
 4454.7163086 2.0000000000 8.9110002518 0.0109967953 0.1639711559 2.5459716320 31.386581421 77.028785706 5.2259998322 5.6562175751
 4454.8686523 2.0000000000 8.8529996872 0.0090064099 0.1719743609 2.5216875076 27.287185669 76.581497192 5.0390000343 5.5642948151
 4455.0209961 2.0000000000 8.8009996414 0.0089999996 0.1949262768 2.4917807579 25.278415680 76.646530151 4.9050002098 5.3716182709
 4455.1733398 2.0000000000 8.7939996719 0.0099967951 0.1989871860 2.4660747051 22.103189468 76.226562500 4.8029999733 5.1915769577
 4455.3256836 1.0000000000 8.7849998474 0.0090063894 0.1880702823 2.4486608505 18.686952591 75.529731750 4.7350001335 5.1770448685
 4455.4785156 1.0000000000 8.7880001068 0.0099967951 0.1511185765 2.4478769302 19.704999924 73.905403137 4.7979998589 5.3359999657
 4455.6308594 1.0000000000 8.7880001068 0.0119935898 0.1330576986 2.4639768600 18.801000595 70.530258179 5.0019998550 5.5840001106
 4455.7832031 1.0000000000 8.7989997864 0.0110032046 0.1110705137 2.5026524067 15.147999763 68.323822021 5.2760000229 6.0409998894
 4455.9355469 1.0000000000 8.8159999847 0.0109999999 0.0920609012 2.5378153324 16.075000763 66.919372559 5.4819998741 6.4930000305
 4456.0878906 1.0000000000 8.8190002441 0.0119967954 0.0880128220 2.5589423180 15.027358055 66.550346375 5.6090002060 6.7820734978
 4456.2402344 1.0000000000 8.8159999847 0.0070160259 0.1079358980 2.5397546291 16.059669495 68.793136597 5.7100000381 6.8946409225
 4456.3925781 1.0000000000 8.8339996338 0.0050064102 0.1369070411 2.5059461594 15.289486885 70.987365723 5.8140001297 6.8561248779
 4456.5449219 1.0000000000 8.8389997482 0.0020191695 0.1459424943 2.4765388966 14.088852882 74.049217224 5.8639998436 6.5150961876
 4456.6972656 1.0000000000 8.8459997177 0.0039871796 0.1599102467 2.4895458221 26.026603699 76.098510742 5.8210000992 5.9567914009
 4456.8500977 4.0000000000 8.8850002289 0.0059935898 0.1659807563 2.5276935101 39.025001526 76.683090210 5.7849998474 5.6700000763
 4457.0024414 4.0000000000 8.8950004578 0.0089903846 0.1879294813 2.5783145428 40.530998230 77.027778625 5.7379999161 5.6449999809
 4457.1547852 4.0000000000 8.8990001678 0.0070064105 0.1929839849 2.6006016731 40.115001678 76.925041199 5.6599998474 5.6779999733
 4457.3071289 4.0000000000 8.8990001678 0.0060032052 0.1930000037 2.6097061634 38.733428955 76.595535278 5.6230001450 5.7258462906
 4457.4594727 4.0000000000 8.8990001678 0.0079935901 0.1880160123 2.6132996082 38.751926422 76.383033752 5.6919999123 5.7957754135
 4457.6118164 4.0000000000 8.8959999084 0.0089967949 0.1800256521 2.6023182869 38.302444458 76.178314209 5.7659997940 5.9106311798
 4457.7641602 4.0000000000 8.8940000534 0.0070064105 0.1780064106 2.5902030468 37.389930725 76.041160583 5.8260002136 5.9269485474
 4457.9165039 4.0000000000 8.8979997635 0.0050127795 0.1730319411 2.5819809437 37.179668427 75.987457275 5.8689999580 5.9050707817
 4458.0688477 4.0000000000 8.8999996185 0.0079807695 0.1729999930 2.5895228386 36.765331268 76.366462708 5.8730001450 5.8461894989
 4458.2216797 4.0000000000 8.8950004578 0.0080000004 0.1749935895 2.5967679024 40.252998352 76.255393982 5.8420000076 5.6989998817
 4458.3740234 4.0000000000 8.8970003128 0.0099935895 0.1829743534 2.5940537453 39.504001617 76.051002502 5.8610000610 5.5960001945
 4458.5263672 4.0000000000 8.8999996185 0.0119935898 0.1839967966 2.5748779774 38.397998810 75.512695313 5.9239997864 5.6529998779
 4458.6787109 4.0000000000 8.8940000534 0.0120000001 0.1740320474 2.5578587055 38.099952698 74.358741760 6.1050000191 5.7696261406
 4458.8310547 4.0000000000 8.9010000229 0.0100064101 0.1560577005 2.5516657829 38.598392487 72.563072205 6.4099998474 6.0012564659
 4458.9833984 4.0000000000 8.8940000534 0.0109967953 0.1390544921 2.5796935558 36.727024078 69.882812500 6.7969999313 6.4734840393
 4459.1357422 4.0000000000 8.8739995956 0.0129872207 0.1260830760 2.6292150021 36.017261505 67.152305603 7.2210001945 7.4398970604
 4459.2880859 4.0000000000 8.8750000000 0.0149871791 0.1140769199 2.6817011833 39.677223206 66.932815552 7.5749998093 8.4168682098
 4459.4409180 4.0000000000 8.8870000839 0.0179903843 0.1090160236 2.7125902176 38.657001495 68.076919556 7.6370000839 8.6949996948
 4459.5932617 4.0000000000 8.8959999084 0.0130160255 0.1139839739 2.7064437866 37.563999176 69.778335571 7.6100001335 8.2989997864
 4459.7456055 4.0000000000 8.9040002823 0.0120032048 0.1349326968 2.6945574284 38.214000702 71.282882690 7.4029998779 7.6620001793
 4459.8979492 4.0000000000 8.9300003052 0.0090096146 0.1559326947 2.6765418053 43.568000793 73.907447815 7.1799998283 7.0479998589
 4460.0502930 6.0000000000 8.9409999847 0.0030192309 0.1769326925 2.6675791740 48.714504242 77.218467712 6.9229998589 6.5306577682
 4460.2026367 6.0000000000 8.9549999237 0.0010064103 0.1989294887 2.6755797863 52.522808075 79.568824768 6.6180000305 6.1970672607
 4460.3549805 6.0000000000 8.9680004120 0.0029935897 0.2129551321 2.6935873032 56.938838959 79.708641052 6.1380000114 5.9328465462
 4460.5073242 6.0000000000 8.9870004654 0.0000191693 0.2269105464 2.7040717602 57.560047150 79.402534485 5.8850002289 5.7655353546
 4460.6596680 5.0000000000 8.9870004654 -0.001987180 0.2220320553 2.7028872967 53.951606750 78.713203430 5.8740000725 5.8357725143
 4460.8125000 5.0000000000 8.9940004349 -0.000006410 0.2170160115 2.6984765530 52.730998993 77.718513489 5.8969998360 5.9809999466
 4460.9648438 5.0000000000 9.0150003433 0.0000000000 0.2000544965 2.6918301582 51.584999084 76.759017944 5.9169998169 6.0409998894
 4461.1171875 5.0000000000 9.0200004578 -0.001993590 0.1850480735 2.6875317097 51.272998810 76.094284058 5.9749999046 6.0679998398
 4461.2695313 5.0000000000 9.0170001984 -0.001003205 0.1770256460 2.6769802570 51.348754883 75.691986084 6.1009998322 6.0809583664
 4461.4218750 5.0000000000 9.0270004272 0.0029871794 0.1740096062 2.6697511673 46.958118439 75.056915283 6.2880001068 6.1158881187
 4461.5742188 5.0000000000 9.0319995880 0.0039967950 0.1769903898 2.6637661457 47.920860291 74.808464050 6.4949998856 6.2535576820
 4461.7265625 5.0000000000 9.0439996719 0.0059935898 0.1809871793 2.6652622223 46.223464966 74.769042969 6.5960001945 6.5041956902
 4461.8789063 4.0000000000 9.0450000763 0.0099744406 0.1800063998 2.6580247879 43.122951508 75.217185974 6.6199998856 6.6266088486
 4462.0312500 4.0000000000 9.0450000763 0.0119871795 0.1700641066 2.6411077976 35.509449005 75.633438110 6.6380000114 6.6888012886
 4462.1840820 4.0000000000 9.0439996719 0.0100064101 0.1550480723 2.6125013828 34.418998718 75.941360474 6.6680002213 6.7439999580
 4462.3364258 4.0000000000 9.0450000763 0.0070096157 0.1450320482 2.5846259594 33.910999298 76.280433655 6.6970000267 6.7249999046
 4462.4887695 4.0000000000 9.0469999313 0.0060032052 0.1469935924 2.5614175797 34.001998901 76.889221191 6.7340002060 6.6550002098
 4462.6411133 4.0000000000 9.0439996719 0.0040064105 0.1539775580 2.5457766056 32.402126312 77.237350464 6.7199997902 6.5254154205
