# LAS format log file from PETREL
# Project units are specified as depth units
#==================================================================
~Version information
VERS.   2.0:
WRAP.   NO:
#==================================================================
~Well
STRT .m      1335.2409668 :
STOP .m      4939.9580078 :
STEP .m     0.00000000 :
NULL .        -999.250000 :
COMP.           : COMPANY
WELL.  35/4-1   : WELL
FLD.            : FIELD
LOC.            : LOCATION
SRVC.           : SERVICE COMPANY
DATE.  2018-09-11 14:48:59   : Log Export Date {yyyy-MM-dd HH:mm:ss}
PROV.           : PROVINCE
UWI.   35/4-1   : UNIQUE WELL ID
API.            : API NUMBER
#==================================================================
~Curve
DEPT .m                   : DEPTH
Lithology_geolink ._      : Lithology_geolink
CALI .in                  : CALI
DRHO .g/cm3               : DRHO
NPHI .m3/m3               : NPHI
RHOB .g/cm3               : RHOB
GR .gAPI                  : GR
DTC .us/ft                : DTC
RDEP .ohm.m               : RDEP
RMED .ohm.m               : RMED
~Parameter
#==================================================================
~Ascii
# ...
 4217.1250000 5.0000000000 8.7629995346 0.0070096157 0.2939743698 2.6188709736 39.199001312 79.347503662 5.6950001717 6.7080001831
 4217.2773438 5.0000000000 8.7589998245 0.0040096156 0.2969903648 2.6233346462 39.553001404 77.843856812 6.0910000801 6.7020001411
 4217.4296875 5.0000000000 8.7629995346 0.0069903848 0.3149423003 2.6334948540 42.858001709 77.908439636 5.5190000534 6.7020001411
 4217.5820313 5.0000000000 8.7620000839 0.0079967957 0.3199839592 2.6442739964 44.457874298 77.951271057 6.1510000229 6.6970000267
 4217.7343750 5.0000000000 8.7629995346 0.0070032054 0.3309647441 2.6416895390 43.269836426 78.243530273 6.1570000648 6.6869997978
 4217.8867188 5.0000000000 8.7620000839 0.0099903848 0.3359839618 2.6385285854 45.337341309 78.209724426 6.1830000877 6.6770000458
 4218.0390625 5.0000000000 8.7770004272 0.0090032043 0.3340063989 2.6295132637 46.482337952 78.389495850 6.0549998283 6.6560001373
 4218.1914063 5.0000000000 8.7880001068 0.0070127798 0.3171086311 2.6265873909 42.836734772 78.462448120 5.9520001411 6.1719999313
 4218.3442383 5.0000000000 8.7860002518 0.0079967957 0.2940737307 2.6236784458 39.719001770 78.470161438 5.9460000992 6.0100002289
 4218.4965820 5.0000000000 8.7899999619 0.0080000004 0.2790480852 2.6227900982 39.951999664 77.917045593 5.9510002136 6.2049999237
 4218.6489258 5.0000000000 8.7849998474 0.0060064103 0.2839839756 2.6170980930 38.801998138 77.756278992 6.0859999657 6.0320000648
 4218.8012695 5.0000000000 8.7849998474 0.0069967951 0.2969583273 2.6155977249 41.980998993 76.903915405 6.1310000420 5.9590001106
 4218.9536133 5.0000000000 8.7840003967 0.0060032052 0.3159391284 2.6130094528 44.004516602 76.377449036 6.2329998016 6.0199999809
 4219.1059570 5.0000000000 8.7860002518 0.0050032050 0.3169967830 2.6112160683 45.654716492 76.443305969 6.2459998131 6.3260002136
 4219.2583008 5.0000000000 8.7939996719 0.0069935899 0.3209871948 2.6169190407 41.392723083 76.050003052 6.1960000992 6.3070001602
 4219.4106445 5.0000000000 8.7819995880 0.0079936106 0.3160319626 2.6287899017 49.073257446 76.679779053 6.1779999733 6.3060002327
 4219.5629883 5.0000000000 8.7860002518 0.0109807691 0.3160000145 2.6402523518 52.739292145 77.244903564 6.1979999542 6.2849998474
 4219.7158203 5.0000000000 8.7869997025 0.0129935900 0.3179935813 2.6459875107 51.188999176 77.284194946 6.2020001411 6.2509999275
 4219.8681641 5.0000000000 8.8020000458 0.0130000003 0.3100256324 2.6408584118 51.152999878 76.898078918 6.2449998856 6.2769999504
 4220.0205078 5.0000000000 8.8170003891 0.0110064102 0.3189711571 2.6374981403 51.694999695 77.685607910 6.1970000267 6.2319998741
 4220.1728516 5.0000000000 8.8159999847 0.0090064099 0.3309615254 2.6345708370 52.872226715 78.244438171 6.1719999313 6.1469998360
 4220.3251953 5.0000000000 8.8149995804 0.0089999996 0.3459519148 2.6437518597 53.851860046 77.412933350 6.1659998894 6.1110000610
 4220.4775391 5.0000000000 8.8170003891 0.0060096155 0.3430096209 2.6496574879 53.918792725 77.127113342 6.1669998169 6.1020002365
 4220.6298828 5.0000000000 8.8640003204 0.0050032050 0.3170833290 2.6551558971 53.601020813 76.968551636 6.0650000572 6.0780000687
 4220.7822266 5.0000000000 8.8680000305 0.0020191695 0.2852044702 2.6460068226 52.995941162 76.920654297 5.8920001984 6.0549998283
 4220.9345703 5.0000000000 8.8730001450 0.0000128205 0.2541987300 2.6341450214 47.215579987 77.007606506 5.8420000076 5.9470000267
 4221.0874023 5.0000000000 8.8739995956 -0.000996795 0.2390480638 2.6234271526 42.518001556 76.904731750 5.8899998665 5.8319997787
 4221.2397461 5.0000000000 8.8839998245 -0.001000000 0.2429871857 2.6158301830 41.127998352 76.541061401 5.8949999809 5.7940001488
 4221.3920898 5.0000000000 8.8800001144 0.0009935898 0.2499775589 2.6134085655 40.319000244 76.399948120 5.8860001564 5.7919998169
 4221.5444336 5.0000000000 8.8839998245 0.0059839743 0.2519935966 2.6137287617 43.270538330 77.010749817 5.8410000801 5.7890000343
 4221.6967773 5.0000000000 8.8830003738 0.0050032050 0.2569839656 2.6131372452 43.322864532 77.884315491 5.9640002251 5.7579998970
 4221.8491211 5.0000000000 8.8809995651 0.0059967949 0.2569999993 2.6128659248 40.124282837 78.694770813 6.0929999352 6.2300000191
 4222.0014648 5.0000000000 8.8859996796 0.0089808302 0.2589872181 2.6103944778 41.867362976 79.037857056 6.1040000916 6.5510001183
 4222.1538086 5.0000000000 8.8830003738 0.0099935895 0.2639679611 2.5986824036 42.050426483 79.127021790 6.1139998436 6.5529999733
 4222.3066406 5.0000000000 8.8889999390 0.0099999998 0.2630032301 2.5829641819 39.002998352 78.831115723 6.1490001678 6.5900001526
 4222.4589844 5.0000000000 8.8879995346 0.0099999998 0.2620032132 2.5690357685 39.082000732 78.532569885 6.1589999199 6.5799999237
 4222.6113281 5.0000000000 8.8909997940 0.0099999998 0.2550224364 2.5730569363 37.481998444 78.695137024 6.1640000343 6.6739997864
 4222.7636719 5.0000000000 8.8509998322 0.0090032043 0.2809166610 2.5923199654 39.582000732 78.857513428 6.2360000610 6.6090002060
 4222.9160156 5.0000000000 8.8120002747 0.0070064105 0.3258557618 2.6152527332 45.359481812 78.969322205 5.9920001030 6.4809999466
 4223.0683594 5.0000000000 8.8159999847 0.0070000002 0.3708557487 2.6319897175 75.101425171 80.062423706 5.0240001678 6.4759998322
 4223.2207031 6.0000000000 8.8179998398 0.0060032052 0.3889423013 2.6320095062 75.679450989 84.242553711 5.0009999275 6.4650001526
 4223.3730469 6.0000000000 8.8149995804 0.0050063897 0.3929744363 2.6290173531 74.507766724 86.602127075 4.9990000725 6.4099998474
 4223.5253906 6.0000000000 8.8159999847 0.0049999999 0.3910128176 2.6261446476 74.306632996 86.135269165 5.0009999275 6.3930001259
 4223.6782227 6.0000000000 8.8179998398 0.0030064103 0.3860160410 2.6245486736 75.769996643 80.165893555 4.9939999580 6.3940000534
 4223.8305664 6.0000000000 8.8179998398 0.0020032052 0.3750352561 2.6266653538 73.763999939 77.839714050 5.0739998817 6.2280001640
 4223.9829102 6.0000000000 8.8179998398 0.0029967949 0.3750000000 2.6324412823 73.677001953 78.052780151 4.9559998512 5.1279997826
 4224.1352539 6.0000000000 8.8579998016 0.0020032052 0.3690192103 2.6365265846 71.866798401 78.935531616 4.9559998512 5.7529997826
 4224.2875977 6.0000000000 8.8859996796 0.0029967949 0.3590320349 2.6416368484 72.131134033 79.056678772 4.9569997787 5.8730001450
 4224.4399414 5.0000000000 8.8879995346 0.0020032052 0.3540160358 2.6392052174 67.165969849 79.139328003 4.9549999237 5.8730001450
 4224.5922852 5.0000000000 8.8859996796 0.0000064103 0.3490160406 2.6319673061 62.580696106 80.594902039 4.9549999237 5.8750000000
 4224.7446289 5.0000000000 8.8859996796 0.0009936102 0.3440319598 2.6295461655 57.089607239 81.361083984 4.9670000076 5.8779997826
 4224.8969727 5.0000000000 8.8889999390 0.0029871794 0.3390320241 2.6309862137 56.724117279 81.815200806 5.0320000648 5.8790001869
 4225.0498047 5.0000000000 8.8859996796 0.0049935896 0.3330192268 2.6323280334 56.465999603 81.855155945 5.3249998093 5.8810000420
 4225.2021484 5.0000000000 8.8859996796 0.0049999999 0.3489487171 2.6298956871 56.893001556 81.364509583 5.5289998055 5.8819999695
 4225.3544922 5.0000000000 8.8839998245 0.0089871790 0.3450128138 2.6259069443 56.194999695 81.297042847 5.5560002327 5.8829998970
 4225.5068359 5.0000000000 8.8839998245 0.0089999996 0.3539711535 2.6224954128 57.171867371 80.858734131 5.5580000877 5.8860001564
 4225.6591797 5.0000000000 8.8850002289 0.0099967951 0.3480192125 2.6272490025 53.769947052 80.081497192 5.6999998093 5.9010000229
 4225.8115234 5.0000000000 8.8739995956 0.0099999998 0.3450096250 2.6359128952 53.413112640 80.000549316 6.0000000000 5.9759998322
 4225.9638672 5.0000000000 8.8710002899 0.0119872205 0.3300958574 2.6481747627 52.032436371 79.977630615 6.7540001869 6.1030001640
 4226.1162109 5.0000000000 8.8699998856 0.0120000001 0.3270192146 2.6517195702 51.648220062 79.919227600 6.7490000725 6.4689998627
 4226.2690430 5.0000000000 8.8719997406 0.0100064101 0.3190256357 2.6518666744 51.090999603 80.114471436 6.7360000610 6.3969998360
 4226.4213867 5.0000000000 8.8830003738 0.0070096157 0.3080352545 2.6527462006 52.585998535 80.629219055 6.7399997711 6.6319999695
