# LAS format log file from PETREL
# Project units are specified as depth units
#==================================================================
~Version information
VERS.   2.0:
WRAP.   NO:
#==================================================================
~Well
STRT .m      1335.2409668 :
STOP .m      4939.9580078 :
STEP .m     0.00000000 :
NULL .        -999.250000 :
COMP.           : COMPANY
WELL.  35/4-1   : WELL
FLD.            : FIELD
LOC.            : LOCATION
SRVC.           : SERVICE COMPANY
DATE.  2018-09-11 14:48:59   : Log Export Date {yyyy-MM-dd HH:mm:ss}
PROV.           : PROVINCE
UWI.   35/4-1   : UNIQUE WELL ID
API.            : API NUMBER
#==================================================================
~Curve
DEPT .m                   : DEPTH
Lithology_geolink ._      : Lithology_geolink
CALI .in                  : CALI
DRHO .g/cm3               : DRHO
NPHI .m3/m3               : NPHI
RHOB .g/cm3               : RHOB
GR .gAPI                  : GR
DTC .us/ft                : DTC
RDEP .ohm.m               : RDEP
RMED .ohm.m               : RMED
~Parameter
#==================================================================
~Ascii
# ...
 3017.1271973 6.0000000000 17.735000610 -0.016000001 0.3180111945 2.4803500175 91.513740540 94.596473694 2.7219998837 1.1180000305
 3017.2795410 6.0000000000 17.732000351 -0.016000001 0.3339743614 2.4899673462 88.448921204 95.086715698 2.6700835228 1.1269999743
 3017.4318848 6.0000000000 17.721000671 -0.014006400 0.3479551971 2.5012350082 86.454383850 95.531982422 2.5583584309 1.1200000048
 3017.5844727 6.0000000000 17.704999924 -0.012003205 0.3559871912 2.5107295513 87.303627014 96.344291687 2.4312036037 1.1109999418
 3017.7368164 6.0000000000 17.690000534 -0.013996796 0.3520064056 2.5035607815 89.497482300 98.023803711 2.3311603069 1.0809999704
 3017.8891602 6.0000000000 17.695999146 -0.015996795 0.3679743707 2.4957528114 93.291908264 98.284194946 2.2730929852 1.0579999685
 3018.0415039 6.0000000000 17.694999695 -0.016000001 0.3749775887 2.4868936539 92.430786133 98.788612366 2.2311344147 1.0449999571
 3018.1940918 6.0000000000 17.697999954 -0.018995192 0.3839855790 2.4778282642 88.940597534 98.628433228 2.1740913391 1.0410000086
 3018.3464355 6.0000000000 17.705999374 -0.020996794 0.3580416739 2.4743592739 86.641677856 98.142395020 2.1520352364 1.0460000038
 3018.4987793 6.0000000000 17.690999985 -0.019003205 0.3450208306 2.4791162014 85.318122864 97.655723572 2.1519999504 1.0559999943
 3018.6511230 6.0000000000 17.700000763 -0.017003207 0.3390096128 2.4847609997 87.865913391 97.001350403 2.1799552441 1.0750000477
 3018.8034668 6.0000000000 17.697000504 -0.019990399 0.3290320039 2.4830603600 86.853263855 96.391166687 2.2408046722 1.0989999771
 3018.9560547 6.0000000000 17.701000214 -0.020998398 0.3379855752 2.4766392708 88.640121460 96.068786621 2.2819342613 1.1310000420
 3019.1083984 6.0000000000 17.694000244 -0.019003205 0.3360032141 2.4779944420 89.078300476 95.984352112 2.3319199085 1.1449999809
 3019.2607422 6.0000000000 17.702999115 -0.018001601 0.3479807675 2.4805853367 87.491546631 95.900596619 2.3599550724 1.1599999666
 3019.4130859 6.0000000000 17.697000504 -0.018996799 0.3450095952 2.4804592133 85.827331543 95.778015137 2.3639872074 1.1610000134
 3019.5656738 6.0000000000 17.698999405 -0.016004808 0.3430032134 2.4766001701 85.368721008 95.736427307 2.3440320492 1.1629999876
 3019.7180176 6.0000000000 17.659000397 -0.016998399 0.3449967802 2.4708237648 86.069869995 95.575340271 2.3080577850 1.1549999714
 3019.8703613 6.0000000000 17.697000504 -0.017000001 0.3629711568 2.4694051743 87.410850525 95.796478271 2.2411072254 1.1469999552
 3020.0227051 6.0000000000 17.704999924 -0.019990399 0.3759583831 2.4707231522 86.694305420 95.826087952 2.1791982651 1.1469999552
 3020.1752930 6.0000000000 17.695999146 -0.020000000 0.3620224297 2.4709999561 87.332969666 95.957336426 2.1190960407 1.1490000486
 3020.3276367 6.0000000000 17.697000504 -0.020998398 0.3570080101 2.4715406895 88.205604553 96.289207458 1.9842163324 1.1469999552
 3020.4799805 6.0000000000 17.708999634 -0.019003205 0.3560016155 2.4743177891 88.111152649 97.194381714 1.8731778860 1.1469999552
 3020.6323242 6.0000000000 17.704000473 -0.019998398 0.3909439147 2.4741382599 88.555290222 98.063896179 1.8360592127 1.1339999437
 3020.7846680 6.0000000000 17.701000214 -0.020996800 0.3680736125 2.4730539322 86.653114319 98.355964661 1.7951312065 1.1260000467
 3020.9372559 6.0000000000 17.708000183 -0.021998398 0.3610112071 2.4683651924 88.587890625 98.192779541 1.7949999571 1.1519999504
 3021.0895996 6.0000000000 17.701999664 -0.020003205 0.3350416720 2.4698593616 90.557838440 97.669616699 1.8199599981 1.1770000458
 3021.2419434 6.0000000000 17.711999893 -0.020000000 0.3529711366 2.4733459949 91.495498657 96.829742432 1.8279870749 1.2050000429
 3021.3942871 6.0000000000 17.693000793 -0.018006399 0.3460223973 2.4830155373 91.805007935 96.074180603 1.8409583569 1.2619999647
 3021.5468750 6.0000000000 17.694000244 -0.017001603 0.3659679592 2.4888567924 88.423431396 95.419082642 1.8559758663 1.3009999990
 3021.6992188 6.0000000000 17.684999466 -0.015003204 0.3759839535 2.4923167229 87.177993774 94.835494995 1.8939391375 1.3170000315
 3021.8515625 6.0000000000 17.677000046 -0.016996795 0.3750016093 2.4921381474 86.244491577 94.591407776 1.9758685827 1.3550000191
 3022.0039063 6.0000000000 17.684999466 -0.017996799 0.3560608029 2.4909188747 88.044219971 94.403213501 2.0288305283 1.3730000257
 3022.1564941 6.0000000000 17.680999756 -0.017999999 0.3560000062 2.4846897125 88.863693237 94.425514221 2.0419793129 1.3810000420
 3022.3088379 6.0000000000 17.670000076 -0.017001603 0.3729727566 2.4819517136 87.762771606 94.839271545 2.0060577393 1.3849999905
 3022.4611816 6.0000000000 17.697999954 -0.016001603 0.3879759610 2.4855241776 88.981040955 95.241455078 1.9431009293 1.3680000305
 3022.6135254 6.0000000000 17.697000504 -0.016000001 0.3860032260 2.4920279980 88.366989136 96.103073120 1.8930801153 1.3580000401
 3022.7658691 6.0000000000 17.700000763 -0.015003200 0.3780255914 2.4923748970 91.546791077 97.244895935 1.8152496815 1.3430000544
 3022.9184570 6.0000000000 17.701999664 -0.017995192 0.3700128198 2.4843716621 90.422821045 97.930145264 1.7421169281 1.3179999590
 3023.0708008 6.0000000000 17.697999954 -0.017999999 0.3500320315 2.4821372032 92.679374695 98.075592041 1.6920801401 1.2840000391
 3023.2231445 6.0000000000 17.697999954 -0.018998398 0.3639775515 2.4828112125 89.866523743 98.017211914 1.6760256290 1.2649999857
 3023.3754883 6.0000000000 17.697000504 -0.018003199 0.3709775805 2.4873049259 90.042419434 98.122795105 1.6750031710 1.2769999504
 3023.5280762 6.0000000000 17.702999115 -0.017999999 0.3839791715 2.4881858826 88.301795959 98.001892090 1.6640176773 1.2970000505
 3023.6804199 6.0000000000 17.694999695 -0.016003206 0.3879936039 2.4838738441 91.576736450 97.914024353 1.6719871759 1.3200000525
 3023.8327637 6.0000000000 17.700000763 -0.016998399 0.3949888051 2.4794981480 92.321807861 97.455375671 1.6839808226 1.3300000429
 3023.9851074 6.0000000000 17.704000473 -0.017000001 0.3999840021 2.4828479290 91.683052063 96.423370361 1.7029391527 1.3389999866
 3024.1376953 7.0000000000 17.701000214 -0.016001603 0.3870208263 2.4872641563 88.514083862 95.289016724 1.7559151649 1.3719999790
 3024.2900391 7.0000000000 17.708999634 -0.014003205 0.3690288365 2.4913668633 87.730247498 94.908645630 1.7919423580 1.4060000181
 3024.4423828 7.0000000000 17.677000046 -0.014998397 0.3620111942 2.4884924889 90.171081543 94.873710632 1.8209534883 1.4240000248
 3024.5947266 7.0000000000 17.679000854 -0.015998399 0.3500192165 2.4932005405 92.928581238 95.397438049 1.8040273190 1.4340000153
 3024.7470703 7.0000000000 17.676000595 -0.014006400 0.3519935906 2.5044686794 94.062377930 96.372863770 1.7451888323 1.4040000439
 3024.8996582 7.0000000000 17.659999847 -0.012003205 0.3549951911 2.5076413155 92.563407898 97.894203186 1.7250320911 1.3550000191
 3025.0520020 7.0000000000 17.662000656 -0.014995192 0.3599919975 2.5013368130 90.510292053 98.791664124 1.7000401020 1.3120000362
 3025.2043457 7.0000000000 17.659000397 -0.016996795 0.3799679577 2.4911172390 90.484039307 99.505409241 1.6660544872 1.2460000515
 3025.3566895 6.0000000000 17.659000397 -0.014009601 0.3839872181 2.4865534306 93.272048950 99.412544250 1.7008879185 1.2480000257
 3025.5092773 6.0000000000 17.666999817 -0.013001603 0.4029695392 2.4849169254 93.144218445 97.785484314 1.7219663858 1.2630000114
 3025.6616211 6.0000000000 17.683000565 -0.015995193 0.3930160403 2.4799070358 92.286376953 96.781944275 1.7200032473 1.3450000286
 3025.8139648 6.0000000000 17.672000885 -0.013004808 0.3850128055 2.4833047390 89.453544617 96.404579163 1.7399679422 1.4279999733
 3025.9663086 6.0000000000 17.687999725 -0.012003200 0.3760287762 2.4833745956 88.429275513 96.331176758 1.7788752317 1.4299999475
 3026.1188965 6.0000000000 17.673999786 -0.016991988 0.3660160303 2.4749653339 87.228919983 96.404716492 1.8548781872 1.4689999819
 3026.2712402 6.0000000000 17.656999588 -0.018996794 0.3689951897 2.4691960812 90.269119263 96.372177124 1.9388654232 1.5670000315
 3026.4235840 6.0000000000 17.652000427 -0.021995192 0.3759887815 2.4612364769 91.304344177 96.512878418 1.9689519405 1.5959999561
