# LAS format log file from PETREL
# Project units are specified as depth units
#==================================================================
~Version information
VERS.   2.0:
WRAP.   NO:
#==================================================================
~Well
STRT .m      1335.2409668 :
STOP .m      4939.9580078 :
STEP .m     0.00000000 :
NULL .        -999.250000 :
COMP.           : COMPANY
WELL.  35/4-1   : WELL
FLD.            : FIELD
LOC.            : LOCATION
SRVC.           : SERVICE COMPANY
DATE.  2018-09-11 14:48:59   : Log Export Date {yyyy-MM-dd HH:mm:ss}
PROV.           : PROVINCE
UWI.   35/4-1   : UNIQUE WELL ID
API.            : API NUMBER
#==================================================================
~Curve
DEPT .m                   : DEPTH
Lithology_geolink ._      : Lithology_geolink
CALI .in                  : CALI
DRHO .g/cm3               : DRHO
NPHI .m3/m3               : NPHI
RHOB .g/cm3               : RHOB
GR .gAPI                  : GR
DTC .us/ft                : DTC
RDEP .ohm.m               : RDEP
RMED .ohm.m               : RMED
~Parameter
#==================================================================
~Ascii
# ...
 2299.0183105 7.0000000000 21.847000122 -0.000971200 0.4809263945 2.1319050789 97.998153687 124.14822388 1.2503526211 0.6290000081
 2299.1708984 7.0000000000 22.165000916 -0.008987179 0.4770064056 1.9408481121 103.85819244 123.94396210 1.3287471533 0.5809999704
 2299.3232422 7.0000000000 22.168998718 -0.038951922 0.4829903841 1.7700891495 107.71765137 123.16430664 1.4615737200 0.6230000257
 2299.4755859 6.0000000000 22.156000137 -0.065956734 0.4730160236 1.6883492470 107.47880554 123.36647797 1.4689775705 0.6940000057
 2299.6279297 6.0000000000 22.152000427 -0.078958407 0.4889487922 1.6664803028 103.24660492 124.32734680 1.4929231405 0.7670000196
 2299.7805176 6.0000000000 22.170000076 -0.076004803 0.4710288346 1.6897454262 102.54210663 125.65190887 1.5359311104 0.8999999762
 2299.9328613 6.0000000000 22.153999329 -0.055033654 0.4550256431 1.7975200415 106.30392456 126.11363220 1.4462879896 0.9739999771
 2300.0852051 6.0000000000 22.179000854 -0.035032053 0.4150640965 1.9837077856 106.94099426 126.67243195 1.4699231386 0.9639999866
 2300.2375488 6.0000000000 21.864000320 -0.012073600 0.3980543911 2.2144498825 104.70818329 127.73719025 1.5467532873 0.8859999776
 2300.3901367 6.0000000000 22.065000534 0.0039743590 0.3730400503 2.3452031612 99.517326355 128.35153198 1.6877739429 0.8590000272
 2300.5424805 6.0000000000 22.152000427 0.0119871795 0.3280721307 2.3546237946 97.135620117 128.45288086 1.9690976143 0.8560000062
 2300.6948242 6.0000000000 22.161998749 0.0110016027 0.3180160224 2.3255102634 97.571571350 127.93341064 2.2790064812 0.8519999981
 2300.8471680 6.0000000000 22.160999298 0.0129967956 0.3489503264 2.3222644329 97.257011414 126.99356079 2.3218653202 0.8769999743
 2300.9995117 6.0000000000 22.170000076 0.0139968004 0.3868784010 2.3496899605 99.327339172 126.10182953 1.9312564135 0.9990000129
 2301.1520996 6.0000000000 22.163999557 0.0130016031 0.4299311042 2.3718564510 99.631050110 125.88314819 1.4834336042 1.0190000534
 2301.3044434 6.0000000000 22.177999496 0.0090064099 0.4270047843 2.3728673458 98.408927917 125.78555298 1.4291698933 0.9950000048
 2301.4567871 6.0000000000 22.167999268 0.0080016032 0.4230064154 2.3699631691 103.02613831 125.65420532 1.4170385599 0.9409999847
 2301.6091309 6.0000000000 22.166000366 0.0080000004 0.4239968061 2.3765699863 103.63708496 125.49304199 1.3492178917 0.8539999723
 2301.7617188 6.0000000000 22.173999786 0.0189823713 0.4379775524 2.3928511143 106.19489288 125.26199341 1.4338637590 0.8230000138
 2301.9140625 6.0000000000 22.150999069 0.0189999994 0.4619615376 2.3931195736 101.49310303 125.21495819 1.6333599091 0.8539999723
 2302.0664063 6.0000000000 22.100002289 0.0160048082 0.4570080042 2.3975956440 101.97041321 124.96516418 1.6369903088 0.9520000219
 2302.2187500 6.0000000000 22.163000107 0.0110160001 0.4380607903 2.4099073410 104.14999390 124.95433044 1.6340095997 1.0010000467
 2302.3713379 7.0000000000 22.184999466 0.0159919877 0.4270176291 2.4152750969 106.26161957 124.93014526 1.5800865889 0.9810000062
 2302.5236816 7.0000000000 22.175998688 0.0130048078 0.4200111926 2.3583562374 105.26620483 125.01432037 1.5680383444 0.9789999723
 2302.6760254 7.0000000000 22.179000854 0.0070096157 0.4060224295 2.2730426788 105.41053009 125.55390930 1.5620192289 0.8719999790
 2302.8283691 7.0000000000 22.170000076 -0.003982372 0.4299615324 2.1250638962 106.27024078 125.33518219 1.5081731081 0.8220000267
 2302.9807129 7.0000000000 22.175998688 -0.021942399 0.4409648180 1.9589227438 108.54470062 125.57553101 1.5239487886 0.7639999986
 2303.1333008 7.0000000000 22.187000275 -0.036975961 0.4759439230 1.8237986565 104.18701172 126.18086243 1.5648688078 0.7580000162
 2303.2856445 6.0000000000 22.179000854 -0.061959933 0.4999615252 1.7334071398 100.90550232 125.90793610 1.3546762466 0.7609999776
 2303.4379883 6.0000000000 22.175998688 -0.068988778 0.5069888234 1.7002424002 101.77416992 125.79011536 1.2254134417 0.7549999952
 2303.5903320 6.0000000000 22.177000046 -0.072987199 0.5359072089 1.6888977289 104.78632355 125.59155273 1.2588909864 0.6150000095
 2303.7429199 6.0000000000 22.165000916 -0.073998399 0.4930689037 1.7605866194 107.60349274 125.72409821 1.2709808350 0.6499999762
 2303.8952637 6.0000000000 21.827999115 -0.059024040 0.4800208211 1.9340376854 105.17082977 125.70249939 1.3487503529 0.7409999967
 2304.0476074 6.0000000000 22.161998749 -0.021060897 0.4710144103 2.1814579964 104.72640228 125.83638000 1.6061730385 0.7829999924
 2304.1999512 6.0000000000 22.168998718 -0.007044800 0.4849552214 2.3529555798 105.03300476 125.98368073 1.6767756939 0.8799999952
 2304.3525391 6.0000000000 22.142999649 -0.001009615 0.5139535069 2.4306616783 107.09868622 125.74295044 1.6829903126 1.0030000210
 2304.5048828 6.0000000000 21.530000687 0.0039919876 0.4920352697 2.4920380116 106.65742493 126.08493042 1.7039327621 0.9499999881
 2304.6572266 6.0000000000 19.371000290 0.0010048078 0.4640448689 2.4893307686 106.57027435 126.08214569 1.5315544605 0.8100000024
 2304.8095703 6.0000000000 18.082000732 -0.013975962 0.4859647453 2.3681526184 103.85174561 126.11911011 1.6057596207 0.6990000010
 2304.9621582 6.0000000000 18.336000443 -0.043951999 0.5039712191 2.0990583897 103.73018646 126.11466217 1.7757276297 0.5640000105
 2305.1145020 6.0000000000 18.457000732 -0.071955122 0.5499262810 1.8526126146 102.90166473 125.70235443 1.8736863136 0.6159999967
 2305.2668457 6.0000000000 18.950000763 -0.072998397 0.5010784864 1.7195684910 105.53054047 125.10429382 1.9517500401 0.6690000296
 2305.4191895 6.0000000000 20.813999176 -0.073998399 0.4820304513 1.6757527590 104.51429749 125.10491180 1.5183942318 0.6970000267
 2305.5715332 6.0000000000 21.143999100 -0.074996807 0.5168880224 1.6749532223 102.27518463 125.22756195 1.4362596273 0.8019999862
 2305.7241211 6.0000000000 20.642997742 -0.073003203 0.5359695554 1.6811577082 98.909393311 124.81180573 1.3990592957 0.8909999728
 2305.8764648 6.0000000000 20.754999161 -0.071003206 0.5399935842 1.6849761009 103.00981903 124.65336609 1.5375552177 0.8379999995
 2306.0288086 6.0000000000 20.760999680 -0.071000002 0.4900801480 1.6896722317 104.75742340 124.59955597 1.5300256014 0.8299999833
 2306.1811523 6.0000000000 20.476999283 -0.065019198 0.4800319970 1.7168819904 106.22530365 124.56645966 1.6894872189 0.8230000138
 2306.3337402 7.0000000000 18.951999664 -0.054017629 0.4939775467 1.8180335760 105.63994598 124.56588745 1.8856859207 0.8939999938
 2306.4860840 7.0000000000 17.899000168 -0.038025640 0.4949983954 2.0101194382 106.41550446 124.36644745 1.9806959629 1.1310000420
 2306.6384277 7.0000000000 20.096998215 -0.005052885 0.4670448899 2.2558836937 109.46321106 124.42935944 1.9780097008 1.0529999733
 2306.7907715 7.0000000000 21.986000061 0.0169296004 0.4271279871 2.4032561779 111.49848175 124.30052948 1.8444294930 1.0490000248
 2306.9433594 7.0000000000 22.159999847 0.0359695479 0.4120240510 2.4036650658 112.25779724 124.34534454 1.6942403316 0.6880000234
 2307.0957031 7.0000000000 22.173000336 0.0469823703 0.4399551153 2.3540747166 112.52315521 124.43946838 1.5624223948 1.0340000391
 2307.2480469 7.0000000000 22.170000076 0.0529903844 0.4519807696 2.3349149227 111.66476440 125.07769012 1.4892339706 0.9200000167
 2307.4003906 7.0000000000 22.115999222 0.0180560891 0.4739647508 2.2353072166 111.64505005 124.57365417 1.3703813553 0.7540000081
 2307.5527344 7.0000000000 21.482000351 -0.000939200 0.4690160155 2.0853204727 110.19367218 124.55621338 1.5524134636 0.7179999948
 2307.7053223 7.0000000000 22.093000412 -0.024961539 0.4560208321 1.8978958130 109.79127502 124.38758850 1.6736128330 0.8180000186
 2307.8576660 7.0000000000 21.891000748 -0.038977563 0.4250496924 1.8428065777 109.64247131 124.42752075 1.6700128317 1.0930000544
 2308.0100098 7.0000000000 21.468000412 -0.038001601 0.4329871833 1.9136768579 111.36346436 124.79411316 1.6839551926 1.4800000191
 2308.1623535 7.0000000000 22.114002228 -0.022051200 0.4559263885 2.0733582973 107.62702942 124.90679932 1.6311699152 1.2890000343
 2308.3149414 6.0000000000 22.153999329 -0.002032051 0.4919423163 2.1899669170 108.78711700 124.93429565 1.8167020082 1.0920000076
