# LAS format log file from PETREL
# Project units are specified as depth units
#==================================================================
~Version information
VERS.   2.0:
WRAP.   NO:
#==================================================================
~Well
STRT .m      1335.2409668 :
STOP .m      4939.9580078 :
STEP .m     0.00000000 :
NULL .        -999.250000 :
COMP.           : COMPANY
WELL.  35/4-1   : WELL
FLD.            : FIELD
LOC.            : LOCATION
SRVC.           : SERVICE COMPANY
DATE.  2018-09-11 14:48:59   : Log Export Date {yyyy-MM-dd HH:mm:ss}
PROV.           : PROVINCE
UWI.   35/4-1   : UNIQUE WELL ID
API.            : API NUMBER
#==================================================================
~Curve
DEPT .m                   : DEPTH
Lithology_geolink ._      : Lithology_geolink
CALI .in                  : CALI
DRHO .g/cm3               : DRHO
NPHI .m3/m3               : NPHI
RHOB .g/cm3               : RHOB
GR .gAPI                  : GR
DTC .us/ft                : DTC
RDEP .ohm.m               : RDEP
RMED .ohm.m               : RMED
~Parameter
#==================================================================
~Ascii
# ...
 1817.1297607 5.0000000000 19.813999176 -0.019001601 0.4509935975 2.0512359142 83.012413025 152.69073486 0.6929687858 0.5170000196
 1817.2821045 5.0000000000 19.752000809 -0.015003204 0.4599927962 2.0736143589 87.082916260 153.00091553 0.7179199457 0.5109999776
 1817.4344482 5.0000000000 19.690000534 -0.016996799 0.4779711664 2.0924375057 90.615684509 150.21319580 0.7668429613 0.5040000081
 1817.5869141 5.0000000000 20.160999298 -0.018998398 0.4959855676 2.1120114326 90.510375977 130.79026794 0.8736573458 0.6060432792
 1817.7392578 5.0000000000 20.496000290 -0.018001601 0.4550656676 2.1629972458 85.498085022 133.45158386 0.8989198804 0.6600392461
 1817.8917236 5.0000000000 19.628000259 -0.008008013 0.4220264256 2.2423450947 77.603652954 129.80310059 0.8262337446 0.7089230418
 1818.0440674 5.0000000000 19.413999557 0.0019839874 0.3710816503 2.2949678898 75.183799744 123.34358978 0.7462564111 0.6129495502
 1818.1965332 5.0000000000 19.768999100 0.0039983978 0.4139655530 2.2694706917 77.307579041 117.06562042 0.7739326954 0.5499815941
 1818.3488770 5.0000000000 19.753999710 -0.002994391 0.4759503305 2.2053086758 84.213386536 111.75274658 0.8786637187 0.5270096064
 1818.5013428 5.0000000000 19.614999771 -0.003999200 0.5229623914 2.1630890369 86.442451477 104.71665955 1.0455985069 0.5391264558
 1818.6536865 5.0000000000 19.503999710 -0.004999198 0.5110095739 2.1644277573 86.561714172 103.06823730 1.1377053261 0.6181305647
 1818.8061523 16.000000000 19.184000015 -0.008996797 0.4650368392 2.2408871651 75.206230164 103.42825317 1.0970985889 0.7811377048
 1818.9584961 16.000000000 18.742000580 -0.010998397 0.3960552812 2.3562374115 64.837921143 102.90836334 0.9654226899 0.8669711351
 1819.1109619 16.000000000 18.834999084 0.0029887911 0.3400448263 2.4751539230 59.010314941 104.92534637 0.8802043200 0.8308126330
 1819.2633057 16.000000000 18.643999100 0.0079959938 0.3340047896 2.4329233170 66.133544922 132.57377625 0.9238591194 0.7139615417
 1819.4156494 16.000000000 18.673000336 -0.005977582 0.3779295385 2.2959623337 77.991470337 136.74804688 1.0216858387 0.6660104394
 1819.5681152 16.000000000 18.774000168 -0.005000801 0.4439471066 2.1716098785 86.655136108 136.02926636 1.1107149124 0.6789823771
 1819.7204590 16.000000000 19.152999878 0.0069807847 0.4599743783 2.0865051746 90.131660461 137.10281372 1.0452115536 0.6569775939
 1819.8729248 5.0000000000 20.103998184 0.0109967953 0.4829815924 2.0441801548 87.243644714 136.26756287 0.9433266521 0.6289775968
 1820.0252686 5.0000000000 20.593000412 0.0060080066 0.4770095944 2.0295212269 85.331596375 138.04724121 0.7974679470 0.6009808183
 1820.1777344 5.0000000000 20.301002502 0.0099967951 0.4670080245 2.0407533646 83.558837891 138.48460388 0.7052211165 0.5769503713
 1820.3300781 5.0000000000 19.742002487 0.0139967958 0.4809888005 2.0407097340 87.360839844 138.26483154 0.6721056700 0.5149887800
 1820.4825439 5.0000000000 20.055000305 0.0060064052 0.4660120010 1.9942966700 87.712448120 137.01234436 0.7228773832 0.5010167956
 1820.6348877 5.0000000000 20.069002151 0.0069991988 0.5049687624 1.9623953104 88.047195435 134.84204102 1.0858342648 0.5220537186
 1820.7873535 5.0000000000 20.459999084 0.0079991994 0.4830176234 1.9493609667 82.281257629 131.90071106 0.7917115688 0.5890800357
 1820.9396973 5.0000000000 20.270000458 0.0060016024 0.4530240595 1.9803878069 81.420051575 130.49549866 0.9016445279 0.6390512586
 1821.0921631 5.0000000000 19.600999832 0.0030024019 0.4190272093 2.0372667313 76.965148926 131.68945313 0.9548726082 0.7030432224
 1821.2445068 5.0000000000 19.364999771 0.0109935896 0.3800312579 2.0866601467 76.528686523 135.22195435 1.0407246351 0.7299832106
 1821.3969727 5.0000000000 20.330999374 0.0070032026 0.3929896057 2.0557003021 73.947143555 133.27220154 1.1946299076 0.7090272307
 1821.5493164 5.0000000000 19.809999466 -0.005989583 0.3959975839 1.9401640892 78.731315613 132.50595093 1.0684067011 0.7260064483
 1821.7016602 5.0000000000 19.829000473 -0.003004804 0.4429247379 1.8674511909 81.358688354 134.05915833 1.2464262247 0.7339951992
 1821.8541260 5.0000000000 19.923999786 0.0039943913 0.4310096204 1.8686505556 85.164901733 133.73294067 1.2788975239 0.7279518843
 1822.0064697 5.0000000000 19.381000519 0.0030016012 0.4509679675 1.9279654026 87.146247864 134.99914551 1.1773269176 0.6679807901
 1822.1589355 5.0000000000 19.535999298 0.0049983975 0.4400088191 1.9725409746 88.652587891 132.03556824 1.1051731110 0.6440032125
 1822.3112793 5.0000000000 20.283000946 0.0000080064 0.4609663785 1.9940246344 90.962448120 127.67610931 0.7252201438 0.6479951739
 1822.4637451 5.0000000000 20.412000656 -0.005995193 0.4679943919 2.0125579834 89.875755310 125.81018066 1.0362474918 0.6420000196
 1822.6160889 5.0000000000 19.454000473 -0.006999199 0.4739952087 2.0599446297 91.633766174 126.22708893 0.9602465630 0.6420007944
 1822.7685547 5.0000000000 19.291000366 -0.003003203 0.4630088210 2.1069452763 91.746826172 125.55435944 0.9250841737 0.6428831220
 1822.9208984 5.0000000000 18.961999893 -0.003000000 0.4460136294 2.1129751205 89.591186523 127.99855042 0.8392754197 0.5699943900
 1823.0733643 5.0000000000 18.822999954 -0.003000000 0.4390056133 2.0618636608 90.922859192 136.68313599 0.7352499962 0.5629888177
 1823.2257080 5.0000000000 19.517000198 0.0019959938 0.4499911666 1.9871047735 93.399040222 140.20997620 0.6672177911 0.5559943914
 1823.3781738 5.0000000000 19.731000900 0.0020000001 0.4789767861 1.9234228134 96.058746338 145.22514343 0.6241033673 0.5489888191
 1823.5305176 5.0000000000 19.474000931 -0.001996795 0.5069776177 1.8762475252 94.953781128 146.66699219 0.6080512404 0.5419943929
 1823.6828613 5.0000000000 19.083999634 -0.005993595 0.5289647579 1.8224450350 94.495101929 145.60862732 0.5990288258 0.5349944234
 1823.8353271 5.0000000000 18.722000122 -0.009996795 0.5469855666 1.8235242367 94.279342651 139.28817749 0.5720865130 0.5279943943
 1823.9876709 5.0000000000 18.250999451 -0.018985588 0.5729584098 1.8651577234 94.875564575 138.03849792 0.5540577173 0.5209944248
 1824.1401367 5.0000000000 17.917999268 -0.015003204 0.5550144315 1.9607325792 92.801330566 137.95252991 0.5579872131 0.5139951706
 1824.2924805 5.0000000000 18.239999771 -0.014001601 0.4960944653 2.0147173405 95.283020020 138.98330688 0.5839166641 0.5079944134
 1824.4449463 6.0000000000 17.964000702 -0.015998399 0.4570312500 2.0369756222 95.032409668 139.33842468 0.6608149409 0.5010151863
 1824.5972900 6.0000000000 18.093000412 -0.012003205 0.4599975944 2.0538892746 96.708961487 139.13650513 0.8155035973 0.5200183988
 1824.7497559 6.0000000000 17.972000122 -0.010001601 0.4729895890 2.0647144318 96.257736206 138.80996704 0.8908196688 0.5430736542
 1824.9020996 6.0000000000 18.243999481 -0.003005609 0.4620088339 2.0710799694 97.439155579 137.80516052 0.9258878827 0.5890616775
 1825.0545654 6.0000000000 18.165000916 0.0059927944 0.4530072212 2.0667273998 97.358139038 137.05714417 1.0018172264 0.6660832763
 1825.2069092 6.0000000000 18.149999619 0.0089975959 0.4470047951 2.0583224297 103.43038177 134.90866089 1.2183049917 0.7180817127
 1825.3593750 6.0000000000 17.660999298 0.0139959976 0.4569919705 2.0502369404 104.60314178 131.62042236 1.3347212076 0.8201136589
 1825.5117188 6.0000000000 17.222999573 0.0209943913 0.4410128295 2.0626158714 105.79908752 131.69508362 1.3698879480 0.8909975886
 1825.6640625 6.0000000000 17.222000122 0.0249935947 0.4479888082 2.0748581886 102.14580536 131.22444153 1.3959167004 0.8879680037
 1825.8165283 6.0000000000 17.350999832 0.0200040061 0.4360096157 2.1019122601 104.09585571 130.83332825 1.3840383291 0.8479847908
 1825.9688721 6.0000000000 17.826000214 0.0140096080 0.4459840059 2.1362800598 105.65724945 131.89385986 1.2394647598 0.8289551735
 1826.1213379 6.0000000000 18.077999115 0.0110024037 0.4469991922 2.1663262844 105.40042114 132.00482178 1.2090960741 0.7728902102
 1826.2736816 6.0000000000 18.297000885 0.0080048041 0.4549871981 2.1822025776 100.08180237 132.68789673 1.1501890421 0.6359831691
 1826.4261475 6.0000000000 18.277000427 -0.000992788 0.4559991956 2.1740131378 95.523292542 134.61938477 1.0073437691 0.6150023937
