# LAS format log file from PETREL
# Project units are specified as depth units
#==================================================================
~Version information
VERS.   2.0:
WRAP.   NO:
#==================================================================
~Well
STRT .m      1335.2409668 :
STOP .m      4939.9580078 :
STEP .m     0.00000000 :
NULL .        -999.250000 :
COMP.           : COMPANY
WELL.  35/4-1   : WELL
FLD.            : FIELD
LOC.            : LOCATION
SRVC.           : SERVICE COMPANY
DATE.  2018-09-11 14:48:59   : Log Export Date {yyyy-MM-dd HH:mm:ss}
PROV.           : PROVINCE
UWI.   35/4-1   : UNIQUE WELL ID
API.            : API NUMBER
#==================================================================
~Curve
DEPT .m                   : DEPTH
Lithology_geolink ._      : Lithology_geolink
CALI .in                  : CALI
DRHO .g/cm3               : DRHO
NPHI .m3/m3               : NPHI
RHOB .g/cm3               : RHOB
GR .gAPI                  : GR
DTC .us/ft                : DTC
RDEP .ohm.m               : RDEP
RMED .ohm.m               : RMED
~Parameter
#==================================================================
~Ascii
# ...
 1571.4610596 5.0000000000 18.659000397 -0.007000000 0.5649999976 1.7798234224 93.888557434 152.71781921 0.8200168014 0.5030032396
 1571.6134033 5.0000000000 17.888999939 -0.012000000 0.5339999795 1.7896848917 97.085868835 154.30169678 0.8100320101 0.5049992204
 1571.7658691 5.0000000000 17.878000259 -0.015000000 0.5440000296 1.8023692369 98.912078857 154.95475769 0.7870553136 0.5040016174
 1571.9182129 5.0000000000 17.906000137 -0.017000001 0.5139999986 1.8020769358 97.602104187 155.84738159 0.7640736699 0.5049999952
 1572.0705566 5.0000000000 18.483999252 -0.023000000 0.5329999924 1.7699047327 94.157287598 154.70655823 0.7291121483 0.5050007701
 1572.2230225 5.0000000000 19.389999390 -0.023000000 0.5509999990 1.7160532475 91.227691650 153.87576294 0.7050768733 0.5059999824
 1572.3753662 5.0000000000 19.079000473 -0.018999999 0.5370000005 1.6878720522 88.740974426 155.42707825 0.7040032148 0.5059999824
 1572.5278320 5.0000000000 19.035999298 -0.011000000 0.5569999814 1.6843760014 88.550300598 159.37724304 0.7838076949 0.5060007572
 1572.6801758 5.0000000000 18.997999191 -0.007000000 0.5189999938 1.7089138031 88.050209045 159.92353821 0.7112337947 0.5070000291
 1572.8326416 5.0000000000 19.023000717 0.0000000000 0.5440000296 1.7473477125 90.234489441 159.05314636 0.7349423170 0.5070008039
 1572.9849854 5.0000000000 19.047000885 0.0070000002 0.5249999762 1.7818143368 91.005157471 157.72196960 0.7300160527 0.5080000162
 1573.1374512 5.0000000000 19.040000916 0.0089999996 0.5379999876 1.8001831770 92.463668823 156.65112305 0.7060576677 0.5080000162
 1573.2897949 5.0000000000 18.049999237 0.0060000001 0.5120000243 1.7987343073 96.320724487 158.77243042 0.7030096054 0.5080007911
 1573.4422607 5.0000000000 17.305000305 0.0040000002 0.4790000021 1.8085553646 96.154281616 155.27539063 0.7020024061 0.5090000033
 1573.5946045 5.0000000000 18.194000244 0.0030000000 0.4979999959 1.8241385221 97.324188232 154.63647461 0.7059871554 0.5090007782
 1573.7470703 5.0000000000 18.209999084 -0.001000000 0.5279999971 1.8393706083 93.173667908 154.80380249 0.7249543667 0.5099999905
 1573.8994141 5.0000000000 17.742000580 -0.003000000 0.5540000200 1.8469579220 91.101318359 156.61123657 0.7449359298 0.5099999905
 1574.0517578 5.0000000000 17.716999054 -0.008000000 0.5320000052 1.8569055796 86.637741089 157.65676880 0.7360288501 0.5100007653
 1574.2042236 5.0000000000 17.583999634 -0.005000000 0.5139999986 1.8635047674 83.842468262 156.41168213 0.7260320187 0.5109999776
 1574.3565674 5.0000000000 17.871999741 -0.008000000 0.4909999967 1.8753587008 85.083999634 154.71148682 0.7289903760 0.5110007524
 1574.5090332 5.0000000000 17.895000458 -0.009000000 0.4769999981 1.8813710213 89.493927002 153.83775330 0.7319903970 0.5120000243
 1574.6613770 5.0000000000 17.948999405 -0.006000000 0.4799999893 1.8902672529 90.284118652 154.78054810 0.7369839549 0.5120000243
 1574.8138428 5.0000000000 18.131999969 -0.001000000 0.5040000081 1.8831202984 88.342117310 155.91314697 0.7369999886 0.5120000243
 1574.9661865 4.0000000000 18.270000458 -0.012000000 0.4900000095 1.8614158630 86.500427246 155.11961365 0.7360032201 0.5119992495
 1575.1186523 4.0000000000 18.652999878 -0.013000000 0.5040000081 1.8555451632 91.161506653 154.77331543 0.7379951477 0.5109983683
 1575.2709961 4.0000000000 18.507999420 -0.011000000 0.4810000062 1.8531280756 92.265357971 151.44902039 0.7469711304 0.5099999905
 1575.4234619 4.0000000000 19.274999619 -0.011000000 0.5220000148 1.8358494043 90.953109741 150.20178223 0.7669519186 0.5099983811
 1575.5758057 4.0000000000 18.875999451 -0.017000001 0.5289999843 1.8210153580 87.151145935 147.15093994 0.7859391570 0.5089992285
 1575.7282715 4.0000000000 19.280000687 -0.012000000 0.5400000215 1.8407512903 86.814529419 147.10632324 0.8019615412 0.5080208182
 1575.8806152 4.0000000000 19.885002136 -0.006000000 0.5249999762 1.8755342960 89.117301941 146.09889221 0.8179487586 0.5209992528
 1576.0329590 4.0000000000 20.030000687 -0.003000000 0.5090000033 1.8777145147 88.452606201 147.65298462 0.8020512462 0.5199999809
 1576.1854248 4.0000000000 19.693000793 -0.006000000 0.4880000055 1.8445510864 89.858741760 146.53187561 0.7820640802 0.5200007558
 1576.3377686 4.0000000000 18.746000290 -0.005000000 0.4909999967 1.8283741474 89.770217896 140.16033936 0.7800064087 0.5210000277
 1576.4902344 4.0000000000 18.437999725 0.0020000001 0.4860000014 1.8421597481 89.938735962 138.16662598 0.7799999714 0.5210000277
 1576.6425781 4.0000000000 18.840999603 0.0080000004 0.5189999938 1.8715347052 88.609207153 137.28340149 0.7869775891 0.5210008025
 1576.7950439 4.0000000000 19.243000031 0.0049999999 0.5360000134 1.8721240759 89.893936157 139.18035889 0.7979735136 0.5220000148
 1576.9473877 4.0000000000 19.177999496 0.0030000000 0.5189999938 1.8547326326 90.926521301 142.72279358 0.7830480337 0.5220000148
 1577.0998535 4.0000000000 19.188999176 0.0020000001 0.5410000086 1.8483132124 92.874877930 143.77706909 0.7829999924 0.5220007896
 1577.2521973 4.0000000000 19.399000168 0.0000000000 0.4869999886 1.8396313190 90.772071838 146.30180359 0.7979519367 0.5230000019
 1577.4044189 4.0000000000 19.628999710 -0.005990393 0.5269359350 1.8234257698 90.438056946 148.22817993 0.8418236971 0.5230000019
 1577.5568848 4.0000000000 20.199001312 -0.007998398 0.4970240593 1.8097865582 88.494239807 150.80061340 0.8549479842 0.5630000234
 1577.7092285 4.0000000000 20.117998123 -0.008998399 0.5069839954 1.8113253117 86.164466858 152.44105530 0.8291041851 0.5559999943
 1577.8616943 4.0000000000 19.378999710 -0.004004007 0.4860168397 1.8392853737 86.199890137 156.89744568 0.8120680451 0.5109999776
 1578.0140381 4.0000000000 20.208000183 -0.004000000 0.5019743443 1.8538099527 86.248840332 160.12660217 0.8090120554 0.5170000196
 1578.1665039 4.0000000000 20.327999115 -0.002001603 0.5089944005 1.8643434048 86.256980896 157.37168884 0.8080040216 0.5239999890
 1578.3188477 4.0000000000 19.872001648 -0.003998398 0.5209904313 1.8463753462 85.636993408 156.46681213 0.8348917961 0.5310000181
 1578.4713135 4.0000000000 19.576999664 -0.007996798 0.5040135980 1.8025883436 82.816787720 155.09562683 0.8519319296 0.5379999876
 1578.6236572 4.0000000000 19.542999268 -0.014994390 0.5429687500 1.7779377699 85.709686279 150.84634399 0.8430360556 0.5450000167
 1578.7761230 4.0000000000 19.097999573 -0.017997596 0.5459976196 1.7917512655 86.250717163 150.01153564 0.8300416470 0.6029999852
 1578.9284668 4.0000000000 19.569999695 -0.016001603 0.5410040021 1.8557137251 86.829147339 150.47055054 0.8290039897 0.5979999900
 1579.0809326 4.0000000000 18.688999176 -0.014001601 0.5130224228 1.9181450605 85.170997620 149.45808411 0.8200288415 0.5849999785
 1579.2332764 4.0000000000 17.974000931 -0.012001603 0.5130000114 1.9537783861 84.629722595 149.02134705 0.8349399567 0.5419999957
 1579.3856201 4.0000000000 18.364000320 -0.012998399 0.4890384376 1.9549977779 84.321983337 148.19050598 0.8738437891 0.5019999743
 1579.5380859 4.0000000000 19.364000320 -0.013999199 0.4600232542 1.9358355999 84.571197510 147.43055725 0.8789799809 0.5019999743
 1579.6904297 4.0000000000 19.606000900 -0.015996799 0.4649919868 1.9197900295 87.788658142 152.08456421 0.8441402316 0.5019999743
 1579.8428955 4.0000000000 19.681999207 -0.012003205 0.4919783771 1.9122265577 88.528656006 154.41119385 0.7782642245 0.5059999824
 1579.9952393 4.0000000000 19.447999954 -0.016991995 0.5309375525 1.8975614309 90.846549988 152.04922485 0.7341763377 0.5109999776
 1580.1477051 4.0000000000 19.667999268 -0.014002404 0.5359960198 1.8815494776 88.373970032 152.42227173 0.7340000272 0.5149999857
 1580.3000488 4.0000000000 19.951999664 -0.014000000 0.5120192766 1.8571232557 89.489395142 153.73513794 0.7499359250 0.5199999809
 1580.4525146 4.0000000000 20.729000092 -0.012001601 0.4670360386 1.8515907526 85.624320984 154.05174255 0.7938238978 0.5239999890
 1580.6048584 2.0000000000 20.554000854 -0.012000000 0.4759927988 1.8433625698 82.592712402 152.52276611 0.8547556400 0.5490000248
 1580.7573242 2.0000000000 20.512998581 -0.010001601 0.5049767494 1.8157439232 81.494621277 148.65911865 0.8420520425 0.6140000224
