# LAS format log file from PETREL
# Project units are specified as depth units
#==================================================================
~Version information
VERS.   2.0:
WRAP.   NO:
#==================================================================
~Well
STRT .m      1335.2409668 :
STOP .m      4939.9580078 :
STEP .m     0.00000000 :
NULL .        -999.250000 :
COMP.           : COMPANY
WELL.  35/4-1   : WELL
FLD.            : FIELD
LOC.            : LOCATION
SRVC.           : SERVICE COMPANY
DATE.  2018-09-11 14:48:59   : Log Export Date {yyyy-MM-dd HH:mm:ss}
PROV.           : PROVINCE
UWI.   35/4-1   : UNIQUE WELL ID
API.            : API NUMBER
#==================================================================
~Curve
DEPT .m                   : DEPTH
Lithology_geolink ._      : Lithology_geolink
CALI .in                  : CALI
DRHO .g/cm3               : DRHO
NPHI .m3/m3               : NPHI
RHOB .g/cm3               : RHOB
GR .gAPI                  : GR
DTC .us/ft                : DTC
RDEP .ohm.m               : RDEP
RMED .ohm.m               : RMED
~Parameter
#==================================================================
~Ascii
# ...
 3253.3474121 6.0000000000 12.406000137 -0.018001601 0.3170160353 2.5746519566 51.045829773 98.095283508 1.4069999456 1.5770000219
 3253.4997559 6.0000000000 12.444999695 -0.023990385 0.3509455323 2.5477719307 56.756847382 99.156791687 1.4129999876 1.5490000248
 3253.6520996 6.0000000000 12.440999031 -0.020006409 0.3589871824 2.5291705132 59.095260620 98.212211609 1.4029999971 1.5490000248
 3253.8044434 7.0000000000 12.449999809 -0.020000000 0.3530191779 2.5254919529 60.454647064 99.448783875 1.3910000324 1.5369999409
 3253.9570313 7.0000000000 12.473999977 -0.019001601 0.3310352564 2.5325262547 64.391693115 100.74929047 1.3719999790 1.5180000067
 3254.1093750 7.0000000000 12.432000160 -0.013009615 0.3210160434 2.5402200222 63.075126648 101.16757965 1.3600000143 1.5310000181
 3254.2617188 7.0000000000 12.444001198 -0.011003205 0.3459599316 2.5285468102 66.725143433 100.62535858 1.4079999924 1.6019999981
 3254.4138184 6.0000000000 12.453000069 -0.008014400 0.3678944111 2.5159029961 68.158119202 100.10264587 1.5417853594 1.7008413076
 3254.5661621 6.0000000000 12.432999611 -0.008995192 0.3819327056 2.5080103874 69.371170044 99.113433838 1.6775647402 1.8076575994
 3254.7187500 6.0000000000 12.425000191 -0.007006411 0.3730288446 2.5277273655 60.206485748 96.596298218 1.7289181948 1.9178236723
 3254.8710938 6.0000000000 12.385000229 -0.003012821 0.3221634626 2.5532882214 53.368892670 92.760948181 1.7579535246 1.9988701344
 3255.0234375 6.0000000000 12.362999916 -0.004990400 0.2702496052 2.5576934814 48.048553467 91.073799133 1.7889503241 2.0868587494
 3255.1757813 6.0000000000 12.420998573 -0.007985577 0.2560673058 2.5445594788 51.334003448 90.905128479 1.8179072142 2.1169040203
 3255.3283691 6.0000000000 12.444001198 -0.012983975 0.3088301122 2.5240237713 57.041698456 91.061340332 1.8439582586 2.0550994873
 3255.4807129 6.0000000000 12.461001396 -0.012003205 0.3458814025 2.5182762146 62.853374481 92.228080750 1.8789438009 2.0080752373
 3255.6330566 7.0000000000 12.470999718 -0.015987180 0.3479935825 2.5180847645 68.513854980 92.895164490 1.8510447741 1.9341186285
 3255.7854004 7.0000000000 12.482000351 -0.015004800 0.3251103759 2.5249226093 64.502433777 93.842475891 1.7291954756 1.8501346111
 3255.9377441 7.0000000000 12.519001007 -0.015000000 0.2971346080 2.5365979671 63.516670227 96.440124512 1.6632112265 1.7961728573
 3256.0903320 7.0000000000 12.450999260 -0.010016025 0.3109551072 2.5403785706 60.637241364 96.764640808 1.6520175934 1.7720384598
 3256.2426758 7.0000000000 12.463000298 -0.009003204 0.3119967878 2.5350980759 63.120986938 96.918273926 1.6559935808 1.7739968300
 3256.3950195 7.0000000000 12.440999031 -0.008004800 0.3428511918 2.5361592770 59.882659912 98.301399231 1.6520063877 1.7889759541
 3256.5473633 7.0000000000 12.470999718 -0.004019231 0.3041874766 2.5509970188 55.485168457 97.517379761 1.6340575218 1.8169103861
 3256.6999512 7.0000000000 12.468999863 -0.000012821 0.3059935868 2.5684263706 50.518898010 97.294357300 1.6110367775 1.8319759369
 3256.8522949 7.0000000000 12.465999603 -0.005980769 0.3079935908 2.5567607880 51.782882690 97.807273865 1.6030129194 1.7930624485
 3257.0046387 7.0000000000 12.467999458 -0.007990400 0.3796544075 2.5383012295 59.227115631 98.280509949 1.6339502335 1.7740304470
 3257.1569824 7.0000000000 12.470999718 -0.008000000 0.3989086449 2.5236179829 65.162498474 99.289344788 1.7396608591 1.8238400221
 3257.3095703 7.0000000000 12.506999969 -0.008996795 0.4199326932 2.5247368813 67.140731812 99.887138367 1.8498237133 1.9468028545
 3257.4619141 6.0000000000 12.479000092 -0.009000000 0.3721538484 2.5416278839 58.483856201 97.459320068 1.8559902906 2.0688045025
 3257.6142578 6.0000000000 12.506999969 -0.004016026 0.3281410336 2.5770893097 52.222045898 94.760620117 1.8490111828 2.1698381901
 3257.7666016 6.0000000000 12.538999557 -0.004995200 0.2682880163 2.5976946354 48.139591217 93.015670776 1.8599823713 2.2139294147
 3257.9189453 6.0000000000 12.545000076 -0.009975961 0.2610336542 2.5939998627 48.134925842 91.756515503 1.8819295168 2.1751246452
 3258.0715332 6.0000000000 12.584000587 -0.014983974 0.2919006348 2.5671167374 49.309223175 91.946266174 1.9119518995 2.1011185646
 3258.2238770 6.0000000000 12.569000244 -0.017990384 0.3328686059 2.5477104187 50.907871246 92.359191895 1.9379582405 2.0301136971
 3258.3762207 6.0000000000 12.588000298 -0.020985600 0.3568848073 2.5357954502 57.939109802 92.455200195 1.8920736313 1.9680993557
 3258.5285645 6.0000000000 12.581000328 -0.022990385 0.3540144265 2.5353379250 58.176017761 96.196464539 1.8022880554 1.9370992184
 3258.6811523 7.0000000000 12.588000298 -0.022003205 0.3300769329 2.5449063778 60.552364349 96.541206360 1.7311136723 1.9080464840
 3258.8334961 7.0000000000 12.562000275 -0.021003205 0.2931185961 2.5605621338 54.289165497 95.517646790 1.6601136923 1.8670656681
 3258.9858398 7.0000000000 12.549999237 -0.019009599 0.2790672183 2.5726606846 52.536357880 94.745201111 1.5990977287 1.8021042347
 3259.1381836 7.0000000000 12.545000076 -0.018999999 0.2750192285 2.5706610680 51.940837860 96.135963440 1.5910255909 1.7421920300
 3259.2907715 7.0000000000 12.538000107 -0.017006410 0.3108845949 2.5587706566 57.001720428 98.065299988 1.6029808521 1.7060576677
 3259.4431152 7.0000000000 12.549999237 -0.017996794 0.3528653681 2.5449757576 63.902862549 96.963882446 1.6010031700 1.7099936008
 3259.5954590 7.0000000000 12.549999237 -0.017003207 0.3779198527 2.5368251801 64.838066101 96.496604919 1.5870224237 1.7439454794
 3259.7478027 7.0000000000 12.546999931 -0.016004801 0.3789952099 2.5352210999 61.046302795 97.560668945 1.5750192404 1.7729535103
 3259.9001465 7.0000000000 12.532999039 -0.016995193 0.3431730866 2.5400311947 58.533054352 96.538177490 1.5680223703 1.7889488935
 3260.0527344 7.0000000000 12.534000397 -0.015006410 0.3270512819 2.5411338806 56.360946655 96.159408569 1.5739903450 1.8049743176
 3260.2050781 7.0000000000 12.513999939 -0.011012821 0.3210192323 2.5426750183 55.889495850 95.530860901 1.5939679146 1.8359502554
 3260.3574219 7.0000000000 12.517000198 -0.009009600 0.3309519887 2.5481162071 54.082710266 93.726310730 1.6249502897 1.8379968405
 3260.5097656 7.0000000000 12.516000748 -0.009000000 0.3280144334 2.5559046268 52.847923279 94.746292114 1.6439392567 1.8290288448
 3260.6623535 7.0000000000 12.538999557 -0.004016026 0.3120512962 2.5658717155 54.731922150 95.804763794 1.6420031786 1.8240079880
 3260.8146973 7.0000000000 12.491000175 -0.006990385 0.3149903715 2.5601520538 52.188198090 96.001083374 1.6390048265 1.8230015039
 3260.9670410 7.0000000000 12.513999939 -0.009985600 0.3259471953 2.5532402992 52.642768860 95.011360168 1.6429935694 1.8210031986
 3261.1193848 7.0000000000 12.520999908 -0.009004807 0.3150528967 2.5525918007 52.111579895 94.138755798 1.6489808559 1.8180096149
 3261.2719727 7.0000000000 12.516000748 -0.009000000 0.3149999976 2.5522124767 54.915973663 93.518486023 1.6629775763 1.8199968338
 3261.4243164 7.0000000000 12.534000397 -0.009000000 0.2970576882 2.5559561253 54.684768677 95.481132507 1.6839663982 1.8439614773
 3261.5766602 6.0000000000 12.489999771 -0.009996795 0.3099583387 2.5505542755 50.642993927 94.632873535 1.7049664259 1.8899263144
 3261.7290039 6.0000000000 12.516000748 -0.012985600 0.2970623970 2.5468225479 46.699954987 90.779037476 1.7069967985 1.9479069710
 3261.8813477 6.0000000000 12.516000748 -0.012004808 0.2820721269 2.5499980450 42.010562897 88.962493896 1.7089935541 1.9689327478
 3262.0339355 6.0000000000 12.512998581 -0.009009615 0.2670480609 2.5630688667 40.082126617 88.040153503 1.7099984884 1.9590159655
 3262.1862793 6.0000000000 12.522998810 -0.011990385 0.2739775479 2.5681300163 41.636978149 88.943786621 1.7030111551 1.9440240860
 3262.3386230 6.0000000000 12.522998810 -0.012000000 0.2889280021 2.5718524456 44.643524170 91.008766174 1.6960111856 1.9430015087
 3262.4909668 7.0000000000 12.534000397 -0.009014423 0.2899951935 2.5756552219 49.894699097 91.861198425 1.6750671864 1.9071151018
 3262.6435547 7.0000000000 12.517999649 -0.008003205 0.2850160301 2.5819017887 52.854560852 92.989509583 1.6610224247 1.8650673628
