# LAS format log file from PETREL
# Project units are specified as depth units
#==================================================================
~Version information
VERS.   2.0:
WRAP.   NO:
#==================================================================
~Well
STRT .m      1335.2409668 :
STOP .m      4939.9580078 :
STEP .m     0.00000000 :
NULL .        -999.250000 :
COMP.           : COMPANY
WELL.  35/4-1   : WELL
FLD.            : FIELD
LOC.            : LOCATION
SRVC.           : SERVICE COMPANY
DATE.  2018-09-11 14:48:59   : Log Export Date {yyyy-MM-dd HH:mm:ss}
PROV.           : PROVINCE
UWI.   35/4-1   : UNIQUE WELL ID
API.            : API NUMBER
#==================================================================
~Curve
DEPT .m                   : DEPTH
Lithology_geolink ._      : Lithology_geolink
CALI .in                  : CALI
DRHO .g/cm3               : DRHO
NPHI .m3/m3               : NPHI
RHOB .g/cm3               : RHOB
GR .gAPI                  : GR
DTC .us/ft                : DTC
RDEP .ohm.m               : RDEP
RMED .ohm.m               : RMED
~Parameter
#==================================================================
~Ascii
# ...
 2771.4584961 6.0000000000 15.477001190 -0.015003204 0.4140000045 2.4294977188 90.211128235 105.90286255 1.6300656796 1.2020000219
 2771.6108398 6.0000000000 15.494999886 -0.015998399 0.4179936051 2.4277384281 88.221199036 105.94793701 1.6100320816 1.1909999847
 2771.7631836 6.0000000000 15.557999611 -0.014006400 0.4110224247 2.4234218597 86.634078979 105.69200897 1.6169775724 1.2070000172
 2771.9157715 6.0000000000 15.597999573 -0.014998397 0.3970224559 2.4210033417 86.613021851 105.44777679 1.6439567804 1.2109999657
 2772.0681152 6.0000000000 15.595999718 -0.015998399 0.4109775722 2.4196801186 87.828048706 105.09983063 1.6769471169 1.2339999676
 2772.2204590 6.0000000000 15.583999634 -0.017996794 0.3990192115 2.4221262932 89.122924805 104.63262939 1.7049552202 1.2610000372
 2772.3728027 6.0000000000 15.593999863 -0.017999999 0.4139519930 2.4263913631 89.431015015 104.13398743 1.7309167385 1.2960000038
 2772.5253906 6.0000000000 15.529999733 -0.018998398 0.3950304687 2.4309575558 89.386077881 103.86098480 1.7869101763 1.3370000124
 2772.6777344 6.0000000000 15.506999969 -0.020996794 0.3979952037 2.4251482487 90.824691772 103.86895752 1.9507371187 1.3569999933
 2772.8300781 6.0000000000 15.486000061 -0.023995193 0.3930080235 2.4182820320 90.131111145 103.73905945 1.9140592813 1.3810000420
 2772.9824219 6.0000000000 15.454000473 -0.024998398 0.4169615209 2.4147722721 88.960876465 103.70712280 1.9279775620 1.4090000391
 2773.1347656 6.0000000000 15.442999840 -0.023006400 0.3930768073 2.4204382896 86.477966309 103.84896088 1.9030799866 1.4520000219
 2773.2873535 6.0000000000 15.434000015 -0.022001602 0.3690384626 2.4241819382 87.608177185 104.05222321 1.9000047445 1.4529999495
 2773.4396973 6.0000000000 15.404999733 -0.019004807 0.3420432806 2.4225969315 86.378974915 104.09089661 1.8780353069 1.4609999657
 2773.5920410 6.0000000000 15.392001152 -0.016004808 0.3739487231 2.4184200764 88.834053040 104.28081512 1.8170977831 1.4459999800
 2773.7443848 6.0000000000 15.395000458 -0.014006400 0.3959296048 2.4166812897 85.011283875 104.66490173 1.7651664019 1.4249999523
 2773.8969727 6.0000000000 15.390999794 -0.015996795 0.4279487133 2.4192659855 88.125976563 104.77384186 1.7380433083 1.3999999762
 2774.0493164 6.0000000000 15.387999535 -0.016000001 0.3890624940 2.4242627621 87.990226746 104.73721313 1.7280160189 1.4090000391
 2774.2016602 6.0000000000 15.392999649 -0.016998399 0.3770192266 2.4300332069 91.380561829 104.55854034 1.7210111618 1.4579999447
 2774.3540039 6.0000000000 15.383999825 -0.017996799 0.3460991979 2.4315397739 88.461395264 104.16116333 1.7259839773 1.4919999838
 2774.5065918 6.0000000000 15.387000084 -0.018998398 0.3589791656 2.4343163967 87.230957031 103.65869904 1.7379808426 1.5249999762
 2774.6589355 6.0000000000 15.373999596 -0.018999999 0.3570032120 2.4337308407 86.567062378 103.28844452 1.7549726963 1.5249999762
 2774.8112793 6.0000000000 15.354000092 -0.018999999 0.3689807653 2.4303278923 89.526245117 103.20183563 1.8029230833 1.5640000105
 2774.9636230 6.0000000000 15.355000496 -0.019998398 0.3859727681 2.4227530956 88.976890564 103.32554626 1.8329519033 1.5870000124
 2775.1159668 6.0000000000 15.365000725 -0.020996800 0.4169007838 2.4137022495 86.922592163 103.67494202 1.8888208866 1.6959999800
 2775.2685547 6.0000000000 15.359000206 -0.021998398 0.4169999957 2.4089548588 85.279624939 103.88616180 1.9339278936 1.7100000381
 2775.4208984 6.0000000000 15.366999626 -0.018006409 0.4030224383 2.4094552994 84.020011902 103.95906067 1.9330015182 1.6950000525
 2775.5732422 6.0000000000 15.362000465 -0.017001603 0.3850288391 2.4082763195 86.510002136 104.11166382 1.9409871101 1.6640000343
 2775.7255859 6.0000000000 15.355999947 -0.017000001 0.3830063939 2.4074604511 86.831977844 104.19502258 1.9370127916 1.6150000095
 2775.8781738 6.0000000000 15.355999947 -0.017998397 0.3949807882 2.4049544334 89.985939026 104.36671448 1.9100432396 1.6069999933
 2776.0305176 6.0000000000 15.350999832 -0.016003206 0.3999919891 2.4063181877 88.327667236 104.32923126 1.8790496588 1.5970000029
 2776.1828613 6.0000000000 15.355999947 -0.018995192 0.3850240409 2.4060871601 89.023880005 104.16750336 1.8520432711 1.5839999914
 2776.3352051 6.0000000000 15.354000092 -0.018003199 0.3720416129 2.4117891788 90.540130615 103.83036804 1.8290735483 1.5850000381
 2776.4877930 6.0000000000 15.348000526 -0.015004807 0.3739967942 2.4223031998 92.877250671 103.53254700 1.7840721607 1.5499999523
 2776.6401367 6.0000000000 15.354000092 -0.015000000 0.3799903691 2.4302597046 92.559516907 103.19065857 1.7760128975 1.5299999714
 2776.7924805 6.0000000000 15.340000153 -0.014001603 0.3680192232 2.4381730556 90.402465820 102.92211151 1.7480448484 1.5230000019
 2776.9448242 6.0000000000 15.342000008 -0.013001603 0.3560192287 2.4414503574 86.817741394 102.21614838 1.7370176315 1.5369999409
 2777.0974121 6.0000000000 15.352999687 -0.013998400 0.3540031910 2.4404544830 87.195381165 101.92156219 1.7549711466 1.5440000296
 2777.2497559 6.0000000000 15.338000298 -0.015996795 0.3619871736 2.4360070229 86.484146118 101.75801086 1.7530032396 1.5340000391
 2777.4020996 6.0000000000 15.333000183 -0.014003205 0.3729823530 2.4314141273 88.828239441 101.63082886 1.7619855404 1.5549999475
 2777.5544434 6.0000000000 15.331999779 -0.014998397 0.3759951890 2.4286003113 89.584793091 101.58451080 1.7610015869 1.5670000315
 2777.7067871 6.0000000000 15.328000069 -0.017990399 0.3740064204 2.4238822460 91.636413574 101.42208862 1.7699711323 1.5939999819
 2777.8593750 6.0000000000 15.329999924 -0.019996794 0.3480416536 2.4184160233 92.683326721 101.42118835 1.7979551554 1.6330000162
 2778.0117188 6.0000000000 15.333999634 -0.020000000 0.3529919684 2.4151401520 92.579170227 102.03945160 1.7979999781 1.6210000515
 2778.1640625 6.0000000000 15.317999840 -0.021996794 0.3390224278 2.4139521122 93.776077271 101.67010498 1.7960032225 1.6059999466
 2778.3164063 6.0000000000 15.309000015 -0.022000000 0.3380031884 2.4182527065 92.962615967 101.85498047 1.7760640383 1.5870000124
 2778.4689941 6.0000000000 15.316999435 -0.018006409 0.3320096135 2.4244468212 93.330406189 102.17877197 1.7260800600 1.5479999781
 2778.6213379 6.0000000000 15.266000748 -0.016003206 0.3369919956 2.4273180962 91.324218750 102.31267548 1.7050336599 1.5230000019
 2778.7736816 6.0000000000 15.260999680 -0.016000001 0.3419919908 2.4268157482 91.764289856 102.75926971 1.6660624743 1.4739999771
 2778.9260254 7.0000000000 15.265000343 -0.016998399 0.3459935784 2.4305291176 90.711692810 102.92325592 1.6520223618 1.4049999714
 2779.0786133 7.0000000000 15.277000427 -0.011009600 0.3509920239 2.4378502369 93.407676697 102.88291168 1.6549952030 1.3830000162
 2779.2309570 7.0000000000 15.270999908 -0.011000000 0.3470064104 2.4436342716 96.194534302 102.76742554 1.6490097046 1.3860000372
 2779.3833008 7.0000000000 15.260000229 -0.009003204 0.3430064023 2.4418692589 102.98011017 102.85937500 1.6440080404 1.4370000362
 2779.5356445 7.0000000000 15.279998779 -0.006004808 0.3499887884 2.4374709129 101.49639893 103.78282928 1.6539840698 1.5110000372
 2779.6879883 7.0000000000 15.279998779 -0.005003200 0.3659487963 2.4308369160 97.387184143 103.78255463 1.6589840651 1.5140000582
 2779.8405762 7.0000000000 15.283000946 -0.006996795 0.3699935973 2.4290864468 88.019012451 103.94167328 1.6819632053 1.5130000114
 2779.9929199 6.0000000000 15.277999878 -0.009995192 0.3580192327 2.4330425262 86.302734375 103.72059631 1.7279263735 1.5290000439
 2780.1452637 6.0000000000 15.279000282 -0.013993590 0.3460192084 2.4334084988 85.203765869 103.85284424 1.7689343691 1.5249999762
 2780.2976074 6.0000000000 15.281999588 -0.015993601 0.3420127928 2.4340486526 86.581573486 103.54364777 1.8018944263 1.5260000229
 2780.4501953 6.0000000000 15.319999695 -0.018995192 0.3479903638 2.4310915470 85.563636780 102.83910370 1.8429343700 1.5049999952
 2780.6025391 6.0000000000 15.313999176 -0.019998398 0.3460032046 2.4329953194 87.603721619 103.23624420 1.8919214010 1.5099999905
 2780.7548828 6.0000000000 15.310001373 -0.017004808 0.3370144367 2.4362659454 88.214019775 103.35356903 1.8999871016 1.5169999599
