# LAS format log file from PETREL
# Project units are specified as depth units
#==================================================================
~Version information
VERS.   2.0:
WRAP.   NO:
#==================================================================
~Well
STRT .m      1335.2409668 :
STOP .m      4939.9580078 :
STEP .m     0.00000000 :
NULL .        -999.250000 :
COMP.           : COMPANY
WELL.  35/4-1   : WELL
FLD.            : FIELD
LOC.            : LOCATION
SRVC.           : SERVICE COMPANY
DATE.  2018-09-11 14:48:59   : Log Export Date {yyyy-MM-dd HH:mm:ss}
PROV.           : PROVINCE
UWI.   35/4-1   : UNIQUE WELL ID
API.            : API NUMBER
#==================================================================
~Curve
DEPT .m                   : DEPTH
Lithology_geolink ._      : Lithology_geolink
CALI .in                  : CALI
DRHO .g/cm3               : DRHO
NPHI .m3/m3               : NPHI
RHOB .g/cm3               : RHOB
GR .gAPI                  : GR
DTC .us/ft                : DTC
RDEP .ohm.m               : RDEP
RMED .ohm.m               : RMED
~Parameter
#==================================================================
~Ascii
# ...
 3499.0161133 7.0000000000 12.701999664 -0.008996795 0.3600032330 2.5596992970 52.931549072 102.54615021 1.3470000029 1.5559999943
 3499.1684570 7.0000000000 12.722999573 -0.012993590 0.3410304487 2.5751910210 52.628482819 103.16300201 1.3259999752 1.5520000458
 3499.3208008 7.0000000000 12.739999771 -0.016993592 0.3639631271 2.5946249962 49.302337646 102.10490417 1.3289999962 1.5499999523
 3499.4731445 7.0000000000 12.774000168 -0.015006400 0.3679872155 2.6013653278 49.535236359 100.60379791 1.3420000076 1.5490000248
 3499.6257324 7.0000000000 12.788000107 -0.012004808 0.4009470940 2.5947093964 46.550792694 99.321128845 1.3569999933 1.5499999523
 3499.7780762 7.0000000000 12.727999687 -0.012998397 0.3890192211 2.5775563717 45.437778473 99.212051392 1.3710000515 1.5620000362
 3499.9304199 7.0000000000 12.805998802 -0.008008013 0.3979855776 2.5773885250 44.329772949 99.251411438 1.3890000582 1.6069999933
 3500.0827637 7.0000000000 12.909000397 -0.006006400 0.3740768135 2.5828373432 45.549079895 99.850105286 1.4329999685 1.6299999952
 3500.2353516 6.0000000000 12.999999046 -0.008995192 0.3839839697 2.5870456696 48.573150635 99.568634033 1.5019999743 1.6859999895
 3500.3876953 6.0000000000 12.947999954 -0.009998397 0.3889919817 2.5841114521 50.723556519 100.66396332 1.5559999943 1.7649999857
 3500.5400391 6.0000000000 12.850000381 -0.010998397 0.4069711566 2.5685729980 52.011936188 102.97343445 1.5889999866 1.8289999962
 3500.6923828 6.0000000000 13.067000389 -0.017988781 0.4199791551 2.5494134426 49.725673676 101.87689209 1.6130000353 1.8890000582
 3500.8449707 6.0000000000 13.359999657 -0.015004800 0.3890495896 2.5692367554 47.158107758 101.71527100 1.6330000162 1.9229999781
 3500.9973145 6.0000000000 13.564000130 -0.005016026 0.3750224411 2.6283857822 44.856689453 100.29579926 1.6690000296 1.9409999847
 3501.1496582 6.0000000000 13.225000381 0.0009903846 0.3440496922 2.6804909706 41.376579285 98.441215515 1.6879999638 1.9739999771
 3501.3020020 16.000000000 13.432000160 -0.001995192 0.3469952047 2.7007260323 40.016174316 92.026237488 1.6410000324 1.8910000324
 3501.4543457 16.000000000 13.782999992 -0.005987200 0.3260672092 2.7115087509 41.799270630 91.219421387 1.5390000343 1.7239999771
 3501.6069336 16.000000000 14.189999580 -0.004003205 0.3220064044 2.7337327003 38.896667480 90.648574829 1.4370000362 1.5889999866
 3501.7592773 6.0000000000 13.517000198 -0.002003205 0.3499551117 2.7460210323 38.534572601 91.947608948 1.3370000124 1.5069999695
 3501.9116211 6.0000000000 13.355999947 -0.002000000 0.3789535463 2.7244474888 40.798362732 94.202720642 1.2560000420 1.4620000124
 3502.0639648 7.0000000000 13.248000145 0.0069712000 0.3979392052 2.6923511028 47.891242981 97.637596130 1.2059999704 1.3990000486
 3502.2165527 7.0000000000 13.239999771 0.0139887827 0.3980000019 2.6592776775 52.679351807 101.90470123 1.1759999990 1.3420000076
 3502.3688965 7.0000000000 13.263999939 0.0419551283 0.4099807739 2.6457111835 52.347545624 104.15448761 1.1670000553 1.3309999704
 3502.5212402 7.0000000000 13.128999710 0.0469919853 0.4010144174 2.6232326031 53.523113251 104.61669922 1.1790000200 1.3650000095
 3502.6735840 7.0000000000 12.911001205 0.0380287990 0.4109680057 2.5931928158 54.126068115 104.87126160 1.2050000429 1.4010000229
 3502.8261719 7.0000000000 13.135999680 0.0190304480 0.3840432763 2.5592637062 53.530956268 105.50052643 1.2460000515 1.4450000525
 3502.9785156 7.0000000000 13.352000237 0.0090160249 0.3939839602 2.5361745358 53.529998779 105.23761749 1.2810000181 1.5230000019
 3503.1308594 7.0000000000 13.633000374 -0.006974359 0.4049823582 2.5175235271 55.485858917 106.79455566 1.3240000010 1.5829999447
 3503.2832031 7.0000000000 13.613000870 -0.009995192 0.4079951942 2.5066373348 56.701053619 107.91307831 1.3509999514 1.6080000401
 3503.4355469 7.0000000000 13.347000122 -0.015980801 0.4030160010 2.4946563244 57.894176483 108.50566101 1.3559999466 1.5980000496
 3503.5881348 7.0000000000 12.927999496 -0.023987180 0.3740464747 2.4827358723 56.598087311 110.65274048 1.3559999466 1.5620000362
 3503.7404785 7.0000000000 12.694000244 -0.026995193 0.3740000129 2.4847204685 56.815650940 110.44313812 1.3660000563 1.5390000343
 3503.8928223 7.0000000000 12.713998795 -0.029995192 0.3809888065 2.4871838093 56.000308990 108.82891846 1.4090000391 1.5609999895
 3504.0451660 6.0000000000 12.706998825 -0.033987202 0.3919647932 2.4847466946 59.438957214 108.89168549 1.4930000305 1.6150000095
 3504.1977539 6.0000000000 12.623000145 -0.035996795 0.4039807916 2.4829654694 57.626926422 108.84571838 1.5880000591 1.7350000143
 3504.3500977 6.0000000000 12.576000214 -0.033004809 0.3900224268 2.4953436852 53.905967712 107.30218506 1.7100000381 1.9199999571
 3504.5024414 6.0000000000 12.864999771 -0.031003205 0.3780192137 2.5029370785 45.487503052 105.57023621 1.8229999542 2.0940001011
 3504.6547852 6.0000000000 13.069000244 -0.025019201 0.3510864079 2.5140819550 43.378726959 99.270256042 1.9190000296 2.2290000916
 3504.8073730 6.0000000000 13.425000191 -0.019009614 0.3150576949 2.5242772102 42.894767761 97.099403381 2.0069999695 2.3480000496
 3504.9597168 16.000000000 13.637001038 -0.007019231 0.2640817165 2.5174403191 40.286186218 97.320671082 2.0829999447 2.3789999485
 3505.1120605 16.000000000 12.914999962 -0.007998398 0.2610048056 2.4935064316 39.698936462 98.472434998 2.1150000095 2.3080000877
 3505.2644043 16.000000000 12.963999748 -0.010995192 0.3189070523 2.4701528549 42.728137970 97.983680725 2.1040000916 2.2760000229
 3505.4167480 6.0000000000 13.003999710 -0.008009600 0.3788080215 2.4785265923 46.783000946 100.67381287 2.0590000153 2.2790000439
 3505.5693359 6.0000000000 13.039999962 -0.001011218 0.3989679515 2.4896235466 46.171001434 99.850006104 1.9630000591 2.1630001068
 3505.7216797 6.0000000000 13.245000839 -0.012980769 0.3610608876 2.4957001209 46.104106903 101.50402832 1.8439999819 2.0120000839
 3505.8740234 6.0000000000 13.137999535 -0.006011218 0.3779727519 2.5149049759 53.200611115 102.08010101 1.7840000391 1.9570000172
 3506.0263672 6.0000000000 12.765999794 -0.002012800 0.3670352101 2.5334153175 57.720527649 102.22676849 1.7500000000 1.9450000525
 3506.1789551 6.0000000000 12.693000793 -0.002000000 0.3719919920 2.5323424339 58.568660736 102.31488037 1.7070000172 1.9199999571
 3506.3312988 7.0000000000 12.774000168 -0.012982372 0.3560256362 2.5265893936 53.501136780 103.60672760 1.6449999809 1.8700000048
 3506.4836426 7.0000000000 12.892000198 -0.009006410 0.3969343007 2.5319540501 56.177688599 106.19277954 1.5880000591 1.8129999638
 3506.6359863 7.0000000000 12.829999924 -0.011990400 0.4079647958 2.5278170109 57.510734558 107.71924591 1.5460000038 1.7589999437
 3506.7885742 7.0000000000 12.689000130 -0.015993591 0.3810432851 2.5155811310 56.203105927 109.58985901 1.5269999504 1.7339999676
 3506.9409180 7.0000000000 12.623000145 -0.019993590 0.3470544815 2.5063726902 52.102581024 108.75283051 1.5360000134 1.7410000563
 3507.0932617 7.0000000000 12.584000587 -0.020998398 0.3569839597 2.5025668144 51.097602844 108.50748444 1.5490000248 1.7610000372
 3507.2456055 7.0000000000 12.574000359 -0.026990386 0.3889487088 2.4885501862 53.920467377 108.60041809 1.5570000410 1.7840000391
 3507.3979492 7.0000000000 12.571000099 -0.027996801 0.3870064020 2.4797658920 55.830883026 108.82090759 1.5599999428 1.8200000525
 3507.5505371 7.0000000000 12.576999664 -0.029996794 0.3720240593 2.4741308689 55.302856445 109.00016785 1.5820000172 1.8589999676
 3507.7028809 7.0000000000 12.586999893 -0.022012820 0.3769919872 2.4845688343 50.156257629 109.58108521 1.6130000353 1.8660000563
 3507.8552246 7.0000000000 12.578000069 -0.016009616 0.3779983819 2.4952833652 47.881637573 110.30999756 1.6399999857 1.8810000420
 3508.0075684 7.0000000000 12.569000244 -0.012012800 0.3750095963 2.4988937378 46.446598053 109.52348328 1.6690000296 1.9570000172
 3508.1601563 7.0000000000 12.566999435 -0.012000000 0.3500400484 2.4858586788 51.086547852 108.11060333 1.7029999495 2.0499999523
 3508.3125000 7.0000000000 12.545999527 -0.010003204 0.3430112004 2.4764575958 52.490756989 109.04964447 1.7230000496 2.1010000706
