# LAS format log file from PETREL
# Project units are specified as depth units
#==================================================================
~Version information
VERS.   2.0:
WRAP.   NO:
#==================================================================
~Well
STRT .m      1335.2409668 :
STOP .m      4939.9580078 :
STEP .m     0.00000000 :
NULL .        -999.250000 :
COMP.           : COMPANY
WELL.  35/4-1   : WELL
FLD.            : FIELD
LOC.            : LOCATION
SRVC.           : SERVICE COMPANY
DATE.  2018-09-11 14:48:59   : Log Export Date {yyyy-MM-dd HH:mm:ss}
PROV.           : PROVINCE
UWI.   35/4-1   : UNIQUE WELL ID
API.            : API NUMBER
#==================================================================
~Curve
DEPT .m                   : DEPTH
Lithology_geolink ._      : Lithology_geolink
CALI .in                  : CALI
DRHO .g/cm3               : DRHO
NPHI .m3/m3               : NPHI
RHOB .g/cm3               : RHOB
GR .gAPI                  : GR
DTC .us/ft                : DTC
RDEP .ohm.m               : RDEP
RMED .ohm.m               : RMED
~Parameter
#==================================================================
~Ascii
# ...
 2535.2385254 6.0000000000 17.659999847 -0.009000000 0.4289999902 2.3841874599 93.838905334 107.89888763 1.7412559986 0.9159615636
 2535.3911133 6.0000000000 17.666000366 -0.010000000 0.4219999909 2.3794069290 90.721000671 108.40908813 1.6920785904 0.8919776082
 2535.5434570 6.0000000000 17.652999878 -0.010000000 0.4309999943 2.3772208691 92.916465759 108.53989410 1.6370880604 0.8849920034
 2535.6958008 6.0000000000 17.659000397 -0.010000000 0.4350000024 2.3813226223 95.311164856 108.72264862 1.5840848684 0.8799903989
 2535.8481445 6.0000000000 17.662000656 -0.010000000 0.4199999869 2.3827285767 94.287651062 108.70122528 1.5211009979 0.8739871979
 2536.0004883 6.0000000000 17.676000595 -0.014000000 0.4199999869 2.3828139305 95.047561646 108.49941254 1.4083615541 0.8659904003
 2536.1530762 6.0000000000 17.687999725 -0.013000000 0.4169999957 2.3863217831 96.339935303 107.72349548 1.3630721569 0.8600032330
 2536.3054199 6.0000000000 17.708999634 -0.014000000 0.4320000112 2.3864529133 95.643119812 106.72553253 1.3520176411 0.8610095978
 2536.4577637 6.0000000000 17.716999054 -0.017000001 0.4449999928 2.3836774826 94.161376953 106.46636200 1.3549952507 0.8670176268
 2536.6101074 6.0000000000 17.709999084 -0.017999999 0.4160000086 2.3852176666 94.304534912 106.28858185 1.3759328127 0.8780288696
 2536.7626953 6.0000000000 17.711000443 -0.016000001 0.4120000005 2.3937287331 95.047813416 105.63053131 1.4059519768 0.8960896134
 2536.9150391 6.0000000000 17.733999252 -0.014000000 0.4099999964 2.4026782513 96.604507446 103.27691650 1.4599134922 0.9241154194
 2537.0673828 6.0000000000 17.716999054 -0.017999999 0.4440000057 2.4219906330 94.294708252 103.33126831 1.4749759436 0.9960176349
 2537.2197266 16.000000000 17.663999557 -0.016000001 0.4280000031 2.4823143482 93.054969788 108.58148193 1.4819775820 1.0069870949
 2537.3723145 16.000000000 17.666999817 -0.006000000 0.4070000052 2.5553834438 89.261077881 110.97586823 1.4899871349 0.9989776015
 2537.5246582 6.0000000000 17.676000595 -0.007000000 0.3720000088 2.5509765148 90.702674866 109.92028046 1.5029791594 0.9919951558
 2537.6770020 6.0000000000 17.716999054 -0.020000000 0.3910000026 2.4666233063 90.155883789 109.75382233 1.5199726820 0.9890064597
 2537.8293457 6.0000000000 17.726999283 -0.023000000 0.4300000072 2.3923935890 92.222679138 110.39787292 1.5429631472 0.9930079579
 2537.9816895 6.0000000000 17.722000122 -0.015000000 0.4709999859 2.3688685894 92.063522339 111.44242859 1.5101056099 0.9980240464
 2538.1342773 6.0000000000 17.732000351 -0.014000000 0.4769999981 2.3692715168 95.350723267 110.81793213 1.4600801468 1.0130383968
 2538.2866211 6.0000000000 17.736000061 -0.011000000 0.4530000091 2.3745527267 95.703445435 110.50177002 1.4669888020 1.0250096321
 2538.4389648 6.0000000000 17.735000610 -0.010000000 0.4250000119 2.3825948238 95.998527527 110.23309326 1.4729903936 1.0310080051
 2538.5913086 6.0000000000 17.724000931 -0.011000000 0.4199999869 2.3888566494 96.659881592 109.02811432 1.4839648008 1.0360096693
 2538.7438965 6.0000000000 17.715000153 -0.015000000 0.4230000079 2.3934574127 96.364479065 108.24102020 1.5239359140 1.0421216488
 2538.8962402 6.0000000000 17.697999954 -0.014000000 0.4280000031 2.3945930004 94.312294006 106.69084930 1.5998781919 1.0801891088
 2539.0485840 6.0000000000 17.677999496 -0.017000001 0.4199999869 2.3929977417 93.853729248 105.56921387 1.7697275877 1.1981185675
 2539.2009277 6.0000000000 17.672000885 -0.017000001 0.4050000012 2.3911375999 92.613975525 104.59539795 1.8038911819 1.2719984055
 2539.3535156 6.0000000000 17.684999466 -0.015000000 0.4099999964 2.3904070854 93.956840515 105.24282837 1.8149824142 1.2709968090
 2539.5058594 6.0000000000 17.690999985 -0.012000000 0.4329999983 2.3906433582 92.448425293 105.65546417 1.8199920654 1.2699967623
 2539.6582031 6.0000000000 17.688999176 -0.015000000 0.4749999940 2.3845381737 93.802825928 105.66552734 1.8219968081 1.2679888010
 2539.8105469 6.0000000000 17.687999725 -0.016000001 0.4609999955 2.3798635006 95.535224915 106.07812500 1.7690849304 1.2609246969
 2539.9628906 6.0000000000 17.683000565 -0.016000001 0.4499999881 2.3756840229 95.689514160 107.07012939 1.4729504585 1.2138704062
 2540.1154785 6.0000000000 17.698999405 -0.017000001 0.4390000105 2.3747286797 96.159248352 109.06456757 1.5219198465 1.1329423189
 2540.2678223 6.0000000000 17.669000626 -0.016000001 0.4609999955 2.3734080791 95.179573059 111.39331055 1.4551074505 1.0969791412
 2540.4201660 6.0000000000 17.608999252 -0.016000001 0.4729999900 2.3737289906 93.665428162 111.85388184 1.4230512381 1.0839823484
 2540.5725098 6.0000000000 17.610000610 -0.009000000 0.4740000069 2.3719177246 92.609382629 111.35112762 1.4359583855 1.0729663372
 2540.7246094 6.0000000000 17.658000946 -0.005012800 0.4829712212 2.3644344807 93.688766479 110.38401031 1.3305096626 1.0520000458
 2540.8771973 6.0000000000 17.662000656 -0.001006410 0.4670256376 2.3590929508 98.407836914 110.43248749 1.2871377468 1.0470000505
 2541.0295410 6.0000000000 17.700000763 -0.002996795 0.4630064070 2.3615007401 97.822929382 110.74553680 1.3059390783 1.0640000105
 2541.1818848 6.0000000000 17.729999542 -0.002001603 0.4380400479 2.3718831539 97.017875671 110.44564819 1.3458079100 1.1119999886
 2541.3342285 6.0000000000 17.714000702 -0.007980800 0.4200575948 2.3773083687 92.625198364 109.74623108 1.3818268776 1.1399999857
 2541.4868164 6.0000000000 17.708999634 -0.010995192 0.3970368803 2.3775937557 94.363349915 108.95321655 1.4268558025 1.1540000439
 2541.6391602 6.0000000000 17.649999619 -0.014993589 0.4129743576 2.3751380444 93.809799194 108.16159821 1.4618878365 1.1759999990
 2541.7915039 6.0000000000 17.650999069 -0.015998399 0.4329679608 2.3732733727 97.631698608 107.52229309 1.5138334036 1.2280000448
 2541.9438477 6.0000000000 17.645000458 -0.016000001 0.4379839897 2.3735406399 94.158805847 107.22105408 1.6344192028 1.2890000343
 2542.0964355 6.0000000000 17.652999878 -0.014003205 0.4459871948 2.3767228127 93.267807007 106.98319244 1.7755481005 1.2990000248
 2542.2487793 6.0000000000 17.687000275 -0.013001603 0.4460000098 2.3781797886 90.671340942 106.81027222 1.8128813505 1.3159999847
 2542.4011230 6.0000000000 17.688999176 -0.013998398 0.4400096238 2.3759534359 93.790946960 106.94995117 1.8159903288 1.3179999590
 2542.5534668 6.0000000000 17.670000076 -0.012003205 0.4240256250 2.3775856495 93.447700500 107.66696930 1.7503168583 1.3020000458
 2542.7058105 6.0000000000 17.667999268 -0.010006400 0.4040639997 2.3780000210 94.025199890 108.28348541 1.6892932653 1.2849999666
 2542.8583984 6.0000000000 17.687000275 -0.010998397 0.4259647429 2.3767814636 97.867652893 108.85844421 1.5972949266 1.2539999485
 2543.0107422 7.0000000000 17.625999451 -0.011000000 0.4459679723 2.3692772388 100.45172882 109.04791260 1.4833654165 1.1829999685
 2543.1630859 7.0000000000 17.535999298 -0.010001603 0.4579807818 2.3616135120 101.29895782 109.49756622 1.4143311977 1.0620000362
 2543.3154297 7.0000000000 17.503000259 -0.006012800 0.4779359996 2.3552753925 96.881362915 110.29000092 1.4030529261 1.0820000172
 2543.4680176 7.0000000000 17.502000809 -0.006000000 0.4750047922 2.3777575493 95.289047241 111.35659027 1.3691089153 1.1419999599
 2543.6203613 7.0000000000 17.513999939 -0.013987180 0.4849839807 2.4788289070 93.099029541 111.45549774 1.3321186304 1.2000000477
 2543.7727051 7.0000000000 17.547000885 0.0029727565 0.4440657198 2.6306385994 94.614654541 111.40944672 1.2961728573 1.3120000362
 2543.9250488 7.0000000000 17.580999374 0.0030000000 0.4479872286 2.6422595978 95.990394592 111.31459045 1.2561923265 1.2209999561
 2544.0776367 7.0000000000 17.583999634 -0.023956731 0.4450047910 2.5100965500 98.654457092 110.50308228 1.3407275677 1.1940000057
 2544.2299805 7.0000000000 17.663999557 -0.044966348 0.4459984004 2.3910903931 97.941322327 109.86233521 1.4117723703 1.2259999514
 2544.3823242 7.0000000000 17.732999802 -0.013051283 0.4300256371 2.3834559917 96.721916199 108.77007294 1.4468878508 1.2810000181
 2544.5346680 7.0000000000 17.736999512 -0.011003205 0.4459743798 2.3781616688 94.184219360 107.75167847 1.3614127636 1.3339999914
