# LAS format log file from PETREL
# Project units are specified as depth units
#==================================================================
~Version information
VERS.   2.0:
WRAP.   NO:
#==================================================================
~Well
STRT .m      1335.2409668 :
STOP .m      4939.9580078 :
STEP .m     0.00000000 :
NULL .        -999.250000 :
COMP.           : COMPANY
WELL.  35/4-1   : WELL
FLD.            : FIELD
LOC.            : LOCATION
SRVC.           : SERVICE COMPANY
DATE.  2018-09-11 14:48:59   : Log Export Date {yyyy-MM-dd HH:mm:ss}
PROV.           : PROVINCE
UWI.   35/4-1   : UNIQUE WELL ID
API.            : API NUMBER
#==================================================================
~Curve
DEPT .m                   : DEPTH
Lithology_geolink ._      : Lithology_geolink
CALI .in                  : CALI
DRHO .g/cm3               : DRHO
NPHI .m3/m3               : NPHI
RHOB .g/cm3               : RHOB
GR .gAPI                  : GR
DTC .us/ft                : DTC
RDEP .ohm.m               : RDEP
RMED .ohm.m               : RMED
~Parameter
#==================================================================
~Ascii
# ...
 4699.0131836 6.0000000000 8.7030000687 0.0040000002 0.2810192108 2.6942100525 69.923278809 89.217262268 3.3640000820 2.5665576458
 4699.1655273 6.0000000000 8.7259998322 0.0049935896 0.2800064087 2.6875853539 68.450622559 89.572975159 3.3580000401 3.3893461227
 4699.3183594 6.0000000000 8.7290000916 0.0049999999 0.2899679542 2.6842193604 70.786453247 90.807830811 3.3540000916 3.3859999180
 4699.4707031 6.0000000000 8.7299995422 0.0089744404 0.2890063822 2.6885204315 68.614013672 89.826751709 3.3759999275 3.3750000000
 4699.6230469 6.0000000000 8.7320003510 0.0080064107 0.2840320468 2.6965663433 75.847717285 90.180831909 3.4079999924 3.3880000114
 4699.7753906 6.0000000000 8.7320003510 0.0080000004 0.2840000093 2.7029640675 72.252632141 89.948829651 3.4319999218 3.4507987499
 4699.9277344 6.0000000000 8.7329998016 0.0080000004 0.2859871984 2.7068595886 70.252395630 89.366752625 3.4460000992 3.5337338448
 4700.0800781 6.0000000000 8.7309999466 0.0080000004 0.2800384760 2.6998414993 70.595878601 88.986480713 3.4500000477 3.5688877106
 4700.2324219 6.0000000000 8.7340002060 0.0080000004 0.2790064216 2.6960926056 70.161796570 88.852073669 3.4419999123 3.5699968338
 4700.3847656 6.0000000000 8.7360000610 0.0089935893 0.2780064046 2.6989741325 72.227653503 88.993370056 3.4360001087 3.5580384731
 4700.5375977 6.0000000000 8.7500000000 0.0109935896 0.2799935937 2.7027189732 73.000556946 87.313056946 3.4409999847 3.5399999619
 4700.6899414 6.0000000000 8.7569999695 0.0109999999 0.2809967697 2.7033846378 72.524543762 88.147628784 3.4379999638 3.5329999924
 4700.8422852 6.0000000000 8.7589998245 0.0090127792 0.2829872072 2.6963725090 72.163162231 87.927337646 3.4189999104 3.5299999714
 4700.9946289 6.0000000000 8.7539997101 0.0070128208 0.2849871814 2.6956679821 72.171966553 87.871994019 3.4019999504 3.5280001163
 4701.1469727 6.0000000000 8.7580003738 0.0089871790 0.2780448794 2.6989192963 72.521881104 88.249481201 3.3870000839 3.5289969444
 4701.2993164 6.0000000000 8.8000001907 0.0070128208 0.2720384896 2.6978075504 69.575477600 89.537277222 3.3689999580 3.5299968719
 4701.4516602 6.0000000000 8.8179998398 0.0050128205 0.2729935944 2.6981117725 75.794975281 90.211418152 3.3750000000 3.5240192413
 4701.6040039 6.0000000000 8.8249998093 0.0030128206 0.2749871910 2.6895990372 75.690803528 90.149291992 3.4289999008 3.5210094452
 4701.7563477 6.0000000000 8.8159999847 0.0010128205 0.2809615135 2.6809763908 74.987533569 89.692649841 3.5690000057 3.5977532864
 4701.9091797 6.0000000000 8.7899999619 -0.001990385 0.2770128250 2.6703996658 74.247367859 87.956016541 3.7239999771 3.7869999409
 4702.0615234 6.0000000000 8.7880001068 -0.000012780 0.2750127912 2.6775043011 73.411674500 83.995292664 3.8519999981 3.9349999428
 4702.2138672 6.0000000000 8.7899999619 0.0019871795 0.2630769312 2.6951107979 73.593406677 81.592147827 3.9830000401 4.0650000572
 4702.3662109 6.0000000000 8.8129997253 0.0010064103 0.2480961531 2.7375738621 73.359756470 78.800491333 4.1220002174 4.2613706589
 4702.5185547 6.0000000000 8.8620004654 0.0079551283 0.2340897471 2.7895810604 60.574108124 76.877990723 4.3550000191 4.4802980423
 4702.6708984 6.0000000000 8.8760004044 0.0099871792 0.2419487238 2.8105792999 50.997657776 74.877494812 4.8899998665 4.8577885628
 4702.8232422 6.0000000000 8.8739995956 0.0060256412 0.2578974366 2.7661683559 69.397735596 75.187805176 5.6370000839 5.4730253220
 4702.9755859 6.0000000000 8.8739995956 0.0000384615 0.2570064068 2.6918814182 71.433288574 75.257827759 5.9479999542 5.9863557816
 4703.1284180 6.0000000000 8.8769998550 -0.001993590 0.2241057754 2.6295533180 66.851768494 75.125045776 6.4809999466 6.3639998436
 4703.2807617 2.0000000000 8.8750000000 -0.002000000 0.1861218065 2.5887923241 45.518547058 74.165924072 7.1050000191 6.6979999542
 4703.4331055 2.0000000000 8.8739995956 -0.001006390 0.1641405821 2.5568487644 37.447731018 75.344047546 7.2129998207 6.9539999962
 4703.5854492 2.0000000000 8.8730001450 -0.001000000 0.1560512781 2.5362753868 28.999082565 74.816574097 7.2719998360 7.1510000229
 4703.7377930 2.0000000000 8.8780002594 -0.000006410 0.1540128142 2.5274815559 28.435724258 74.291770935 7.5019998550 7.2795882225
 4703.8901367 2.0000000000 8.8739995956 0.0059615383 0.1460512727 2.5383784771 30.138519287 75.215225220 7.7020001411 7.3986186981
 4704.0424805 2.0000000000 8.8769998550 0.0099743586 0.1450064033 2.5483503342 29.527978897 75.656105042 7.6840000153 7.4598045349
 4704.1948242 2.0000000000 8.8760004044 0.0099999998 0.1549358964 2.5468678474 28.226358414 75.608512878 7.6490001678 7.3164615631
 4704.3471680 2.0000000000 8.8769998550 0.0090064099 0.1599679440 2.5315747261 30.405883789 75.587257385 7.4499998093 6.9541635513
 4704.5000000 2.0000000000 8.8710002899 0.0060096155 0.1629903913 2.5121397972 30.424983978 75.782859802 7.0130000114 6.9239997864
 4704.6523438 2.0000000000 8.8509998322 0.0010160257 0.1500416696 2.5001866817 23.202224731 76.241302490 6.7709999084 6.9010000229
 4704.8046875 2.0000000000 8.8170003891 0.0010000000 0.1430447400 2.5021967888 24.597438812 76.177795410 6.7010002136 6.7630000114
 4704.9570313 2.0000000000 8.8140001297 0.0019935898 0.1380320489 2.5118873119 25.074480057 75.729904175 6.6799998283 9.4633455276
 4705.1093750 2.0000000000 8.8229999542 0.0020000001 0.1370064020 2.5188155174 27.066598892 75.132560730 6.6090002060 6.5703301430
 4705.2617188 2.0000000000 8.8420000076 0.0039871796 0.1429615468 2.5352787971 26.882612228 75.691955566 6.3060002327 6.5021891594
 4705.4140625 2.0000000000 8.8389997482 0.0069807693 0.1420064121 2.5561897755 27.978475571 75.816703796 6.0060000420 6.3056311607
 4705.5664063 2.0000000000 8.8389997482 0.0109743588 0.1479615420 2.5741877556 29.279655457 75.650230408 5.5970001221 5.7198815346
 4705.7187500 2.0000000000 8.8219995499 0.0080192313 0.1629038453 2.5644059181 27.031557083 76.230323792 5.4260001183 5.4388976097
 4705.8715820 2.0000000000 8.8159999847 0.0040128208 0.1749615371 2.5338959694 26.592365265 76.587974548 5.3039999008 5.4260001183
 4706.0239258 2.0000000000 8.8199996948 0.0010191693 0.1899041533 2.4939970970 25.088829041 76.856048584 5.2800002098 5.4260001183
 4706.1762695 2.0000000000 8.8120002747 0.0000064103 0.1840384603 2.4562902451 25.437860489 77.817680359 5.2140002251 5.3949999809
 4706.3286133 2.0000000000 8.8219995499 -0.002980769 0.1820128113 2.4454498291 25.186811447 77.540573120 5.0669999123 5.1677284241
 4706.4809570 2.0000000000 8.8439998627 0.0009743590 0.1651089787 2.4651021957 26.344274521 77.941001892 5.0199999809 5.0922403336
 4706.6333008 2.0000000000 8.8610000610 0.0069615385 0.1640064120 2.4984655380 28.318664551 77.774726868 4.9660000801 5.2684326172
 4706.7856445 2.0000000000 8.8669996262 0.0109743588 0.1610192358 2.5119259357 27.667230606 78.422248840 4.9520001411 5.3168458939
 4706.9379883 2.0000000000 8.8730001450 0.0100064101 0.1609999985 2.5004949570 26.211364746 77.544578552 4.9260001183 5.2801189423
 4707.0908203 2.0000000000 8.8730001450 0.0099999998 0.1510320455 2.4886503220 24.216382980 77.152114868 4.8099999428 5.2659997940
 4707.2431641 2.0000000000 8.8669996262 0.0099999998 0.1450192332 2.4861373901 23.471374512 76.045318604 4.6869997978 5.2220001221
 4707.3955078 2.0000000000 8.8430004120 0.0099999998 0.1469872147 2.4888153076 22.304744720 75.241195679 4.6110000610 5.0890002251
 4707.5478516 2.0000000000 8.8210000992 0.0060256412 0.1420320570 2.5073244572 21.471666336 74.807884216 4.5619997978 4.9270000458
 4707.7001953 2.0000000000 8.8190002441 0.0040128208 0.1360384673 2.5312509537 26.472909927 74.492225647 4.4219999313 4.7804698944
 4707.8525391 2.0000000000 8.8190002441 0.0040000002 0.1300384551 2.5520462990 28.269275665 74.647254944 4.2030000687 4.7700319290
 4708.0048828 2.0000000000 8.8140001297 0.0020128207 0.1369551271 2.5386126041 28.765422821 76.187019348 4.1409997940 4.7600321770
 4708.1572266 2.0000000000 8.8100004196 0.0000128205 0.1528974324 2.5065672398 29.239479065 77.067123413 4.1760001183 4.6772661209
 4708.3095703 2.0000000000 8.8179998398 0.0009935898 0.1649230868 2.4794337749 28.966880798 77.693351746 4.1909999847 4.6261634827
