# LAS format log file from PETREL
# Project units are specified as depth units
#==================================================================
~Version information
VERS.   2.0:
WRAP.   NO:
#==================================================================
~Well
STRT .m      1335.2409668 :
STOP .m      4939.9580078 :
STEP .m     0.00000000 :
NULL .        -999.250000 :
COMP.           : COMPANY
WELL.  35/4-1   : WELL
FLD.            : FIELD
LOC.            : LOCATION
SRVC.           : SERVICE COMPANY
DATE.  2018-09-11 14:48:59   : Log Export Date {yyyy-MM-dd HH:mm:ss}
PROV.           : PROVINCE
UWI.   35/4-1   : UNIQUE WELL ID
API.            : API NUMBER
#==================================================================
~Curve
DEPT .m                   : DEPTH
Lithology_geolink ._      : Lithology_geolink
CALI .in                  : CALI
DRHO .g/cm3               : DRHO
NPHI .m3/m3               : NPHI
RHOB .g/cm3               : RHOB
GR .gAPI                  : GR
DTC .us/ft                : DTC
RDEP .ohm.m               : RDEP
RMED .ohm.m               : RMED
~Parameter
#==================================================================
~Ascii
# ...
 3971.4558105 7.0000000000 9.1429996490 0.0019935898 0.4289743602 2.5356087685 67.332626343 99.137374878 2.5231378078 2.7730319500
 3971.6081543 7.0000000000 9.1409997940 0.0059807999 0.4100911915 2.5456779003 66.184532166 99.585662842 2.5060272217 2.6132562160
 3971.7604980 7.0000000000 9.1379995346 0.0079903854 0.4179615378 2.5536773205 67.988258362 99.539283752 2.4870607853 2.4305856228
 3971.9130859 7.0000000000 9.1280002594 0.0070032054 0.4120192230 2.5488901138 66.447982788 99.332084656 2.4370801449 2.4130272865
 3972.0654297 7.0000000000 9.0670003891 0.0040096156 0.4279487133 2.5414280891 64.007827759 98.808364868 2.3980624676 2.4130001068
 3972.2177734 7.0000000000 9.0719995499 0.0040000002 0.4220287800 2.5373611450 64.553329468 98.541114807 2.3820257187 2.4159951210
 3972.3701172 7.0000000000 9.0679998398 0.0030048077 0.4120480716 2.5404405594 63.861358643 98.265823364 2.3780128956 2.4409198761
 3972.5227051 7.0000000000 9.0329999924 0.0020032052 0.4080128074 2.5418627262 64.097229004 98.025482178 2.3160994053 2.4370064735
 3972.6750488 7.0000000000 8.9329996109 0.0000064103 0.4060063958 2.5425407887 65.769622803 98.570915222 2.2640833855 2.4300112724
 3972.8273926 7.0000000000 8.9049997330 0.0000000000 0.4089903831 2.5461220741 63.690700531 99.424453735 2.2630016804 2.4210143089
 3972.9797363 7.0000000000 8.9040002823 -0.000995200 0.4119856060 2.5480327606 63.583484650 99.712036133 2.2590065002 2.3680849075
 3973.1323242 7.0000000000 8.8789997101 -0.001996795 0.4229647517 2.5335180759 62.878265381 100.61284637 2.2619953156 2.2961151600
 3973.2846680 7.0000000000 8.8319997787 -0.003993590 0.4339647293 2.5128040314 64.552604675 100.67350769 2.2100834846 2.2870142460
 3973.4370117 7.0000000000 8.8260002136 -0.003003205 0.4280192256 2.4942305088 65.042442322 100.51995850 2.1790494919 2.2929904461
 3973.5893555 7.0000000000 8.8210000992 0.0029712000 0.4170528054 2.4990344048 63.692520142 100.59906769 2.1809968948 2.2989904881
 3973.7416992 7.0000000000 8.8179998398 0.0049903844 0.4050576985 2.5149934292 64.096015930 100.01902771 2.1839904785 2.2770702839
 3973.8942871 7.0000000000 8.8129997253 0.0049999999 0.3970256448 2.5376503468 63.984367371 99.903190613 2.4076409340 2.2799952030
 3974.0466309 7.0000000000 8.8170003891 0.0040032053 0.4029807746 2.5561747551 64.187347412 99.841560364 2.2073221207 2.2790017128
 3974.1989746 7.0000000000 8.8159999847 0.0020096002 0.4069808125 2.5525548458 65.504653931 99.903350830 2.2479341030 2.2979695797
 3974.3513184 7.0000000000 8.8140001297 -0.002975962 0.4050096273 2.5369477272 65.298027039 100.51064301 2.2699296474 2.3767473698
 3974.5039063 7.0000000000 8.8149995804 -0.003996795 0.4040032327 2.5213367939 66.977600098 101.02104950 2.2729952335 2.3570320606
 3974.6562500 7.0000000000 8.8159999847 -0.002006410 0.4010096192 2.5178668499 66.553382874 101.31327820 2.2739982605 2.3540048599
 3974.8085938 7.0000000000 8.8170003891 0.0009903846 0.4109679759 2.5169444084 62.189029694 101.73525238 2.2789919376 2.3540000916
 3974.9609375 7.0000000000 8.8249998093 0.0019952001 0.4159760177 2.5217802525 60.372692108 101.57907104 2.3557536602 2.3549969196
 3975.1135254 7.0000000000 8.8669996262 0.0039935899 0.4229775667 2.5335736275 61.577098846 101.42993927 2.2970945835 2.3599917889
 3975.2658691 7.0000000000 8.9049997330 0.0069903848 0.4220032096 2.5530476570 60.245296478 101.22931671 2.3009936810 2.3580031395
 3975.4182129 7.0000000000 8.9630002975 0.0070000002 0.4279807806 2.5633003712 62.267482758 100.45364380 2.2960081100 2.3989341259
 3975.5705566 7.0000000000 8.9659996033 0.0050096000 0.4309855998 2.5671789646 61.766448975 100.30427551 2.2920064926 2.4129776955
 3975.7229004 7.0000000000 8.9639997482 0.0030096155 0.4250288606 2.5661435127 67.611747742 100.80758667 2.2890095711 2.4179840088
 3975.8754883 7.0000000000 8.9639997482 0.0039967950 0.4110448956 2.5637989044 65.144027710 100.94602203 2.2780177593 2.4000289440
 3976.0278320 7.0000000000 8.9659996033 0.0020064104 0.4080096185 2.5538260937 66.214530945 101.08686829 2.3109471798 2.4778749943
 3976.1801758 7.0000000000 8.9820003510 0.0010048001 0.4159616232 2.5372908115 66.326477051 101.13410950 2.3369581699 2.4290783405
 3976.3325195 7.0000000000 9.0030002594 0.0019951924 0.4189855754 2.5275199413 64.325668335 101.00022888 2.3360030651 2.4349806309
 3976.4851074 7.0000000000 9.0319995880 0.0039935899 0.4100288451 2.5276670456 63.625221252 100.55001831 2.3359999657 2.4290094376
 3976.6374512 7.0000000000 9.0380001068 0.0010096155 0.4129903615 2.5343394279 65.231826782 100.38124084 2.3369982243 2.4289999008
 3976.7897949 7.0000000000 9.0530004501 0.0029904000 0.4090192020 2.5473434925 63.679512024 100.73037720 2.3499791622 2.4319951534
 3976.9421387 7.0000000000 9.0649995804 0.0030000000 0.4209423065 2.5527141094 64.430335999 99.790306091 2.3490030766 2.4319999218
 3977.0947266 7.0000000000 9.0900001526 0.0000096154 0.4100352526 2.5555298328 62.343723297 98.737571716 2.3569872379 2.4280064106
 3977.2470703 7.0000000000 9.1269998550 0.0009967949 0.4109967947 2.5627195835 63.401576996 98.501815796 2.5027661324 2.4709310532
 3977.3994141 7.0000000000 9.1280002594 0.0039903848 0.3960480690 2.5798041821 64.139633179 98.334701538 2.3791985512 2.4809839725
 3977.5517578 7.0000000000 9.1309995651 0.0049951999 0.3880383968 2.5944383144 63.882251740 98.233421326 2.4718508720 2.5109517574
 3977.7041016 7.0000000000 9.1409997940 0.0040048077 0.3939711452 2.5882990360 64.967750549 98.500450134 2.5268239975 2.6655039787
 3977.8566895 7.0000000000 9.1499996185 0.0030032052 0.3979871869 2.5678670406 63.685142517 99.176483154 2.5309934616 2.6630048752
 3978.0090332 7.0000000000 9.1610002518 -0.001983974 0.4079679549 2.5415105820 62.238639832 100.68806458 2.5309998989 2.6600048542
 3978.1613770 7.0000000000 9.1619997025 -0.002000000 0.3950624168 2.5287945271 64.057205200 101.24456787 2.5150258541 2.6510143280
 3978.3137207 7.0000000000 9.1809997559 -0.001004808 0.4069423079 2.5273261070 63.952548981 101.22135925 2.5080223083 2.6390383244
 3978.4663086 7.0000000000 9.2110004425 -0.001996795 0.4129807651 2.5241467953 65.684432983 100.70671844 2.5060031414 2.6100463867
 3978.6186523 7.0000000000 9.2449998856 -0.002996795 0.4159903824 2.5219523907 64.939407349 100.44142914 2.4580769539 2.4911906719
 3978.7709961 7.0000000000 9.2430000305 -0.001009600 0.3980863988 2.5249881744 63.704944611 100.30290985 2.4320416451 2.5369262695
 3978.9233398 7.0000000000 9.2440004349 0.0009903846 0.3840672970 2.5303204060 61.174194336 100.05413818 2.4319999218 2.5409870148
 3979.0759277 7.0000000000 9.2449998856 0.0019967949 0.3929711580 2.5414805412 63.554309845 100.17680359 2.4250111580 2.5370063782
 3979.2282715 7.0000000000 9.2460002899 0.0049903844 0.4129358828 2.5458559990 65.422019958 99.898292542 2.4000401497 2.5140368938
 3979.3806152 7.0000000000 9.2460002899 0.0059967949 0.4209743738 2.5463848114 65.099060059 99.801536560 2.3990015984 2.5010206699
 3979.5329590 7.0000000000 9.2670001984 0.0040096003 0.4259760082 2.5395178795 64.832283020 99.582656860 2.4089839458 2.4990031719
 3979.6853027 7.0000000000 9.2700004578 0.0020096155 0.4190336466 2.5392630100 64.838958740 98.649551392 2.3920543194 2.4810576439
 3979.8378906 7.0000000000 9.2819995880 0.0020000001 0.4229871929 2.5430605412 68.197204590 98.378898621 2.3910017014 2.4630289078
 3979.9902344 7.0000000000 9.2849998474 -0.001987180 0.4020673037 2.5528302193 66.712806702 98.260429382 2.3900017738 2.4620015621
 3980.1425781 7.0000000000 9.2880001068 -0.003990400 0.3960287869 2.5634899139 66.483085632 98.255661011 2.3760223389 2.4600031376
 3980.2949219 7.0000000000 9.2869997025 -0.002009616 0.3890336454 2.5731861591 68.057388306 98.416320801 2.3371245861 2.6224782467
 3980.4475098 7.0000000000 9.2860002518 -0.001003205 0.4109295011 2.5626425743 67.618431091 98.394020081 2.2900753021 2.4203252792
 3980.5998535 7.0000000000 9.2860002518 -0.000003205 0.4010320306 2.5465762615 64.475097656 98.389564514 2.2680351734 2.3481154442
 3980.7521973 7.0000000000 9.2840003967 0.0029855999 0.4039856195 2.5353317261 62.530330658 98.655624390 2.2580158710 2.2970817089
