# LAS format log file from PETREL
# Project units are specified as depth units
#==================================================================
~Version information
VERS.   2.0:
WRAP.   NO:
#==================================================================
~Well
STRT .m      1335.2409668 :
STOP .m      4939.9580078 :
STEP .m     0.00000000 :
NULL .        -999.250000 :
COMP.           : COMPANY
WELL.  35/4-1   : WELL
FLD.            : FIELD
LOC.            : LOCATION
SRVC.           : SERVICE COMPANY
DATE.  2018-09-11 14:48:59   : Log Export Date {yyyy-MM-dd HH:mm:ss}
PROV.           : PROVINCE
UWI.   35/4-1   : UNIQUE WELL ID
API.            : API NUMBER
#==================================================================
~Curve
DEPT .m                   : DEPTH
Lithology_geolink ._      : Lithology_geolink
CALI .in                  : CALI
DRHO .g/cm3               : DRHO
NPHI .m3/m3               : NPHI
RHOB .g/cm3               : RHOB
GR .gAPI                  : GR
DTC .us/ft                : DTC
RDEP .ohm.m               : RDEP
RMED .ohm.m               : RMED
~Parameter
#==================================================================
~Ascii
# ...
 4935.2333984  -999.250000 8.3210000992 -0.095980830 0.1979999989 2.6349999905  -999.250000 76.024803162 2.1719999313 3.1459999084
 4935.3857422  -999.250000 8.3210000992 -0.095006406 0.1979999989 2.6349999905  -999.250000 76.024803162 2.7260000706 3.1459999084
 4935.5385742  -999.250000 8.3199996948 -0.094003201 0.1979999989 2.6349999905  -999.250000 76.024803162 3.0191762447 3.1470000744
 4935.6909180  -999.250000 8.3190002441 -0.090012826 0.1979999989 2.6349999905  -999.250000 76.024803162 3.0740511417 3.1480000019
 4935.8432617  -999.250000 8.3149995804 -0.090996794 0.1979999989 2.6349999905  -999.250000 76.024803162 3.0901312828 3.1489999294
 4935.9956055  -999.250000 8.3159999847 -0.092993595 0.1979999989 2.6349999905  -999.250000 76.024803162 3.1312692165 3.1489999294
 4936.1479492  -999.250000 8.3159999847 -0.095990382 0.1979999989 2.6349999905  -999.250000 76.024803162 3.2153043747 3.1449999809
 4936.3002930  -999.250000 8.3170003891 -0.096000001 0.1979999989 2.6349999905  -999.250000 76.024803162 3.3101148605 3.1979999542
 4936.4526367  -999.250000 8.3050003052 -0.096996799 0.1979999989 2.6349999905  -999.250000 76.024803162 3.3459999561 3.4509999752
 4936.6049805  -999.250000 8.2959995270 -0.097000003 0.1979999989 2.6349999905  -999.250000 76.024803162 3.3729999065 3.6340000629
 4936.7573242  -999.250000 8.2950000763 -0.096006408 0.1979999989 2.6349999905  -999.250000 76.024803162 3.4330000877 3.6449999809
 4936.9101563  -999.250000 8.2959995270 -0.095003203 0.1979999989 2.6349999905  -999.250000 76.024803162 3.4883043766 3.6449999809
 4937.0625000  -999.250000 8.2930002213 -0.094999999 0.1979999989 2.6349999905  -999.250000 76.024803162 3.5829133987 3.6719999313
 4937.2148438  -999.250000 8.2950000763  -999.250000  -999.250000 2.6349999905  -999.250000 76.024803162 3.5561602116 3.8229999542
 4937.3671875  -999.250000 8.2950000763  -999.250000  -999.250000 2.6349999905  -999.250000 76.024803162 3.6064550877 3.9130001068
 4937.5195313  -999.250000 6.8610005379  -999.250000  -999.250000 2.6349999905  -999.250000 76.024803162 3.7479710579 3.8829998970
 4937.6718750  -999.250000 2.5639998913  -999.250000  -999.250000 2.6349999905  -999.250000 76.024803162 3.7390000820 3.8770000935
 4937.8242188  -999.250000 2.5539996624  -999.250000  -999.250000 2.6349999905  -999.250000 76.024803162 3.4240000248 3.7839999199
 4937.9765625  -999.250000 2.5539996624  -999.250000  -999.250000 2.6349999905  -999.250000 76.024803162 3.1530001163 3.6470000744
 4938.1289063  -999.250000 2.5539996624  -999.250000  -999.250000 2.6349999905  -999.250000 76.024803162 3.1280000210 3.4249999523
 4938.2817383  -999.250000 2.5539996624  -999.250000  -999.250000 2.6349999905  -999.250000 76.024803162 3.1207084656 3.3510000706
 4938.4340820  -999.250000 2.5539996624  -999.250000  -999.250000 2.6349999905  -999.250000 76.024803162 3.0287499428 3.0529999733
 4938.5864258  -999.250000 2.5539996624  -999.250000  -999.250000 2.6349999905  -999.250000 76.024803162 2.6385385990 2.5780000687
 4938.7387695  -999.250000 2.5539996624  -999.250000  -999.250000 2.6349999905  -999.250000 76.024803162 2.1837115288 2.2160000801
 4938.8911133  -999.250000 2.5539996624  -999.250000  -999.250000 2.6349999905  -999.250000 76.024803162 2.0940032005 2.0490000248
 4939.0434570  -999.250000 2.5539996624  -999.250000  -999.250000 2.6349999905  -999.250000 76.024803162 2.0950000286 2.0499999523
 4939.1958008  -999.250000 2.5539996624  -999.250000  -999.250000 2.6349999905  -999.250000 76.024803162 2.0950000286 2.0529999733
 4939.3481445  -999.250000 2.5539996624  -999.250000  -999.250000 2.6349999905  -999.250000 76.024803162 2.0940001011 2.0539999008
 4939.5009766  -999.250000 2.5539996624  -999.250000  -999.250000 2.6349999905  -999.250000 76.024803162 2.0920641422 2.0739998817
 4939.6533203  -999.250000 2.5539996624  -999.250000  -999.250000 2.6349999905  -999.250000 76.024803162 2.1123814583 2.1930000782
 4939.8056641  -999.250000 2.5539996624  -999.250000  -999.250000 2.6349999905  -999.250000 76.024803162 2.2321057320 2.4489998817
 4939.9580078  -999.250000 2.5539996624  -999.250000  -999.250000 2.6349999905  -999.250000 76.024803162  -999.250000 2.9539999962
