# LAS format log file from PETREL
# Project units are specified as depth units
#==================================================================
~Version information
VERS.   2.0:
WRAP.   NO:
#==================================================================
~Well
STRT .m      1652.5220947 :
STOP .m      3695.9011230 :
STEP .m     0.00000000 :
NULL .        -999.250000 :
COMP.           : COMPANY
WELL.  35/6-2 S   : WELL
FLD.            : FIELD
LOC.            : LOCATION
SRVC.           : SERVICE COMPANY
DATE.  2018-09-11 14:48:59   : Log Export Date {yyyy-MM-dd HH:mm:ss}
PROV.           : PROVINCE
UWI.   35/6-2 S   : UNIQUE WELL ID
API.            : API NUMBER
#==================================================================
~Curve
DEPT .m                   : DEPTH
Lithology_geolink ._      : Lithology_geolink
CALI .in                  : CALI
BS .in                    : BS
ROP .m/h                  : ROP
DRHO .g/cm3               : DRHO
NPHI .m3/m3               : NPHI
RHOB .g/cm3               : RHOB
PEF .b/e                  : PEF
GR .gAPI                  : GR
DTC .us/ft                : DTC
DTS .us/ft                : DTS
RDEP .ohm.m               : RDEP
RMED .ohm.m               : RMED
~Parameter
#==================================================================
~Ascii
# ...
 3691.0244141  -999.250000 8.3465003967 8.5000000000 31.548229218 0.0485999994 0.1152999997 2.4790999889 3.3194000721 43.136001587  -999.250000  -999.250000 7.3801355362 7.7231154442
 3691.1767578  -999.250000 8.2500000000 8.5000000000 32.970474243 0.0348999985 0.0947000012 2.4484999180 3.0069000721 42.687599182  -999.250000  -999.250000 8.3637247086 9.0573616028
 3691.3291016  -999.250000 8.2500000000 8.5000000000 33.552494049 0.0483000018 0.0794000030 2.4709999561 3.3168001175 41.431400299  -999.250000  -999.250000 9.6803894043 10.412628174
 3691.4814453  -999.250000 8.5401000977 8.5000000000 33.394687653 0.0632999986 0.0734999999 2.5058999062 3.6965999603 39.554000854  -999.250000  -999.250000 11.983713150 12.521337509
 3691.6340332  -999.250000 8.6028995514 8.5000000000 34.606952667 0.0635000020 0.0793000013 2.5164999962 3.7797000408 38.832599640  -999.250000  -999.250000 13.452155113 13.009427071
 3691.7863770  -999.250000 8.5510997772 8.5000000000 38.250984192 0.0500999987 0.0850000009 2.4892001152 3.4163999557 38.160598755  -999.250000  -999.250000 14.394290924 12.571904182
 3691.9387207  -999.250000 8.5242996216 8.5000000000 40.357940674 0.0465999991 0.0866999999 2.4760999680 3.3004000187 39.564800262  -999.250000  -999.250000 13.240553856 11.211382866
 3692.0910645  -999.250000 8.4391002655 8.5000000000 51.186351776 0.0581000000 0.0982000008 2.4802999496 3.5104999542 42.093700409  -999.250000  -999.250000 10.949448586 10.264432907
 3692.2436523  -999.250000 8.4631004333 8.5000000000 56.478019714 0.0635000020 0.1114000008 2.4774999619 3.6891999245 45.562500000  -999.250000  -999.250000 10.072296143 9.3594474792
 3692.3959961  -999.250000 8.5399999619 8.5000000000 56.612533569 0.0597000010 0.1089999974 2.4709999561 3.6742999554 40.640598297  -999.250000  -999.250000 9.2832641602 8.9747152328
 3692.5483398  -999.250000 8.5047998428 8.5000000000 55.085632324 0.0474000014 0.1020999998 2.4670000076 3.4962000847 42.250000000  -999.250000  -999.250000 9.1189613342 8.7600431442
 3692.7006836  -999.250000 8.4704999924 8.5000000000 51.135173798 0.0511000007 0.1020999998 2.4869000912 3.7657999992 44.877498627  -999.250000  -999.250000 9.3446741104 9.6448583603
 3692.8532715  -999.250000 8.5543003082 8.5000000000 51.871719360 0.0671999976 0.0996999964 2.4999001026 4.2192997932 44.724201202  -999.250000  -999.250000 8.6769733429 9.2028141022
 3693.0056152  -999.250000 8.4786996841 8.5000000000 53.582679749 0.0865999982 0.0973000005 2.5069999695 4.6710000038 44.484401703  -999.250000  -999.250000 8.7379007339 9.1604671478
 3693.1579590  -999.250000 8.5319995880 8.5000000000 53.037403107 0.0838000029 0.0939000025 2.4997000694 4.4991002083 40.506999969  -999.250000  -999.250000 8.8846645355 9.3658704758
 3693.3103027  -999.250000 8.4337997437 8.5000000000 51.150264740 0.0710000023 0.1098000035 2.4985001087 4.3239998817 41.090698242  -999.250000  -999.250000 8.8645324707 9.2060575485
 3693.4626465  -999.250000 8.4744997025 8.5000000000 51.225723267 0.0631000027 0.1225999966 2.4921998978 4.2825999260 42.039501190  -999.250000  -999.250000 7.5995607376 7.8437724113
 3693.6152344  -999.250000 8.4579000473 8.5000000000 51.264762878 0.0724000037 0.1146000028 2.4849998951 4.3206000328 46.667499542  -999.250000  -999.250000 6.6334438324 6.8257269859
 3693.7675781  -999.250000 8.4386997223 8.5000000000 50.412731171 0.0854000002 0.1228000000 2.4800999165 4.5645999908 47.249900818  -999.250000  -999.250000 6.6282057762 6.8194074631
 3693.9199219  -999.250000 8.5319004059 8.5000000000 51.882873535 0.0998999998 0.1254000068 2.4904000759 4.8473000526 47.478199005  -999.250000  -999.250000 6.6928958893 6.8662247658
 3694.0722656  -999.250000 8.5275001526 8.5000000000 53.396324158 0.1037999988 0.1151999980 2.4928998947 5.0550999641 47.514301300  -999.250000  -999.250000 6.7567954063 6.7476811409
 3694.2248535  -999.250000 8.6070995331 8.5000000000 54.544620514 0.1009000018 0.1149000004 2.4914000034 4.9917001724 47.278400421  -999.250000  -999.250000 6.6695404053 6.5924482346
 3694.3771973  -999.250000 8.5452995300 8.5000000000 52.507873535 0.0838999972 0.1209999993 2.4611001015 4.6236000061 45.837100983  -999.250000  -999.250000 6.3151683807 6.2984714508
 3694.5295410  -999.250000 8.5434999466 8.5000000000 47.911090851 0.0776999965  -999.250000 2.4451999664 4.4969000816 44.665500641  -999.250000  -999.250000 6.1382832527 6.2069463730
 3694.6818848  -999.250000 8.5812997818 8.5000000000 45.684383392 0.0820999965  -999.250000 2.4330999851 4.5757999420 44.743900299  -999.250000  -999.250000 8.5259342194 9.1988945007
 3694.8344727  -999.250000 8.5525999069 8.5000000000 49.183727264 0.1050999984  -999.250000 2.4570000172 4.8533000946 45.030498505  -999.250000  -999.250000 8.5335998535 9.2084999084
 3694.9868164  -999.250000 8.5541000366 8.5000000000 49.722442627 0.1054000035  -999.250000 2.4663999081 4.9107999802 44.856098175  -999.250000  -999.250000 8.5335998535 9.2084999084
 3695.1391602  -999.250000 8.5629997253 8.5000000000 49.585960388 0.1057000011  -999.250000 2.4839999676 4.9026999474 43.813098907  -999.250000  -999.250000 8.5335998535 9.2084999084
 3695.2915039  -999.250000 8.5823001862 8.5000000000 51.488189697 0.0983999968  -999.250000 2.4795000553 4.9649000168 43.035999298  -999.250000  -999.250000 8.5335998535 9.2084999084
 3695.4438477  -999.250000 8.6141004562 8.5000000000 52.022964478 0.1067999974  -999.250000 2.4777998924 5.2459001541 41.685501099  -999.250000  -999.250000  -999.250000  -999.250000
 3695.5964355  -999.250000 8.5696001053 8.5000000000 50.138122559 0.1224000007  -999.250000 2.4798998833 5.5707998276 41.024299622  -999.250000  -999.250000  -999.250000  -999.250000
 3695.7487793  -999.250000 8.6059999466 8.5000000000 49.550525665 0.1460999995  -999.250000 2.4930000305 5.9815998077 40.732799530  -999.250000  -999.250000  -999.250000  -999.250000
 3695.9011230  -999.250000 8.6415004730 8.5000000000 49.722770691 0.1577000022  -999.250000 2.5020000935 6.1465001106 41.267799377  -999.250000  -999.250000  -999.250000  -999.250000
