# LAS format log file from PETREL
# Project units are specified as depth units
#==================================================================
~Version information
VERS.   2.0:
WRAP.   NO:
#==================================================================
~Well
STRT .m      1652.5220947 :
STOP .m      3695.9011230 :
STEP .m     0.00000000 :
NULL .        -999.250000 :
COMP.           : COMPANY
WELL.  35/6-2 S   : WELL
FLD.            : FIELD
LOC.            : LOCATION
SRVC.           : SERVICE COMPANY
DATE.  2018-09-11 14:48:59   : Log Export Date {yyyy-MM-dd HH:mm:ss}
PROV.           : PROVINCE
UWI.   35/6-2 S   : UNIQUE WELL ID
API.            : API NUMBER
#==================================================================
~Curve
DEPT .m                   : DEPTH
Lithology_geolink ._      : Lithology_geolink
CALI .in                  : CALI
BS .in                    : BS
ROP .m/h                  : ROP
DRHO .g/cm3               : DRHO
NPHI .m3/m3               : NPHI
RHOB .g/cm3               : RHOB
PEF .b/e                  : PEF
GR .gAPI                  : GR
DTC .us/ft                : DTC
DTS .us/ft                : DTS
RDEP .ohm.m               : RDEP
RMED .ohm.m               : RMED
~Parameter
#==================================================================
~Ascii
# ...
 2470.6049805 12.000000000 12.506999969 12.250000954 30.822610855 -0.004900962 0.1205155402 2.5750987530 3.4018995762 41.904407501 71.404167175 146.36149597 7.4832448959 7.6840167046
 2470.7575684 12.000000000 12.545699120 12.250000954 29.801179886 -0.002400000 0.1149000004 2.5838000774 3.3626999855 40.013301849 73.671401978 146.50390625 6.6107997894 6.9067001343
 2470.9099121 12.000000000 12.553501129 12.250000954 28.939371109 -0.004896000 0.1458503902 2.5761125088 3.2952082157 40.435226440 76.046295166 149.21345520 7.2757344246 7.3054609299
 2471.0622559 12.000000000 12.499199867 12.250000954 31.032073975 -0.006896795 0.1848375052 2.5519387722 3.2206194401 42.670215607 80.437461853 158.11033630 6.3902230263 6.2851390839
 2471.2145996 12.000000000 12.421699524 12.250000954 30.050466537 -0.009595674 0.2162496746 2.5263409615 3.1828603745 46.709724426 84.646553040 162.43348694 5.2049002647 5.2154140472
 2471.3671875 12.000000000 12.460499763 12.250000954 29.771984100 -0.007200000 0.2170999944 2.5267000198 3.2081999779 46.391899109 86.501502991 165.70260620 2.7600998878 2.9217000008
 2471.5195313 12.000000000 12.499199867 12.250000954 31.547897339 -0.005600000 0.2162999958 2.5292000771 3.3556001186 43.867000580 86.315803528 168.37030029 2.3603999615 2.4386000633
 2471.6718750 12.000000000 12.468199730 12.250000954 31.547897339 -0.003703040 0.2002257705 2.5399827957 3.4966740608 40.391967773 85.335670471 168.56188965 2.2473812103 2.2832489014
 2471.8242188 12.000000000 12.444999695 12.250000954 34.936489105 -0.003400481 0.1776362211 2.5503833294 3.5224590302 38.898086548 85.462890625 165.40786743 2.2486975193 2.2719178200
 2471.9768066 12.000000000 12.475997925 12.250000954 38.379920959 -0.003200000 0.1606999934 2.5604999065 3.4349999428 36.240299225 83.134689331 163.70939636 2.3533000946 2.2567000389
 2472.1291504 12.000000000 12.468199730 12.250000954 38.814960480 -0.005400000 0.1532000005 2.5564000607 3.2941999435 36.431098938 80.983100891 162.63470459 2.5186998844 2.4937000275
 2472.2814941 12.000000000 12.452700615 12.250000954 40.816017151 -0.009193921 0.1519020796 2.5533049107 3.2251105309 36.052104950 81.254669189 160.55094910 3.0466537476 2.9281039238
 2472.4338379 12.000000000 12.441100121 12.250000954 40.897182465 -0.016188782 0.1503025591 2.5538990498 3.2391774654 39.646926880 81.973548889 161.05549622 2.4740204811 2.5885462761
 2472.5861816 12.000000000 12.460499763 12.250000954 41.955982208 -0.022090545 0.1580874920 2.5555973053 3.3355453014 40.655590057 82.860984802 162.14106750 2.4746973515 2.6224446297
 2472.7387695 12.000000000 12.553501129 12.250000954 45.805118561 -0.024599999 0.1693000048 2.5432000160 3.4112999439 42.081199646 83.453903198 161.80729675 3.0441000462 3.0597999096
 2472.8911133 12.000000000 12.446900368 12.250000954 45.111347198 -0.018609600 0.1887688041 2.5388071537 3.3679692745 42.433235168 83.394790649 162.10693359 2.4422643185 2.5278525352
 2473.0434570 12.000000000 12.444999695 12.250000954 45.110237122 -0.010812500 0.1884006411 2.5466873646 3.2973132133 44.060489655 83.455299377 162.20722961 2.3742077351 2.4028992653
 2473.1958008 12.000000000 12.429400444 12.250000954 44.229431152 -0.006007692 0.1728250086 2.5609772205 3.2828230858 41.726150513 83.408767700 161.76718140 2.3987603188 2.4242653847
 2473.3483887 12.000000000 12.491499901 12.250000954 43.773296356 -0.006000000 0.1606999934 2.5659999847 3.3254001141 40.240200043 83.366310120 160.92527771 2.3933000565 2.4521999359
 2473.5007324 12.000000000 12.491499901 12.250000954 45.455051422 -0.006600000 0.1741999984 2.5560998917 3.3403000832 38.978698730 82.700599670 160.89639282 2.4419999123 2.4512999058
 2473.6530762 12.000000000 12.429400444 12.250000954 43.903732300 -0.008496961 0.1937686354 2.5425217152 3.3115460873 42.879646301 82.893196106 161.22027588 3.4760429859 3.2561101913
 2473.8054199 12.000000000 12.444999695 12.250000954 39.829368591 -0.009698078 0.2023862153 2.5317173004 3.3040118217 42.896881104 84.525978088 162.00422668 2.5840346813 2.6062452793
 2473.9580078 12.000000000 12.444999695 12.250000954 41.162731171 -0.010100000 0.1958000064 2.5318000317 3.3266000748 44.135398865 85.442596436 162.28880310 2.3129999638 2.3550000191
 2474.1103516 12.000000000 12.441100121 12.250000954 44.667324066 -0.008800000 0.1888000071 2.5374000072 3.3636999130 44.271198273 85.568298340 162.45158386 2.2430999279 2.2925999165
 2474.2626953 12.000000000 12.437198639 12.250000954 47.112552643 -0.007002880 0.1787161529 2.5497801304 3.3900578022 44.168563843 85.377502441 161.39181519 2.2454962730 2.3020846844
 2474.4150391 12.000000000 12.429400444 12.250000954 53.563144684 -0.007199680 0.1752056032 2.5532941818 3.4706707001 42.006671906 84.336280823 161.10615540 2.3280675411 2.3290567398
 2474.5673828 12.000000000 12.444999695 12.250000954 52.839103699 -0.007399680 0.1713062376 2.5527009964 3.6008911133 40.797832489 83.865653992 160.14643860 2.3086314201 2.3009452820
 2474.7199707 12.000000000 12.452700615 12.250000954 55.384517670 -0.008300000 0.1755000055 2.5510001183 3.7032001019 39.415798187 82.899497986 159.06860352 2.4709999561 2.4695999622
 2474.8723145 12.000000000 12.444999695 12.250000954 55.046146393 -0.008000480 0.1697092801 2.5571899414 3.7142822742 38.678081512 83.128936768 159.40516663 2.5706403255 2.5371918678
 2475.0246582 12.000000000 12.437198639 12.250000954 55.409847260 -0.008698878 0.1801831722 2.5590968132 3.6580901146 37.932693481 84.320182800 160.13253784 2.5098977089 2.5064496994
 2475.1770020 12.000000000 12.452700615 12.250000954 60.143974304 -0.009398878 0.1775043160 2.5543076992 3.5894100666 39.125881195 83.785461426 161.70338440 2.4835422039 2.4970149994
 2475.3295898 12.000000000 12.429400444 12.250000954 72.282478333 -0.009800000 0.1823000014 2.5487999916 3.5343000889 40.389301300 84.293304443 163.40989685 2.5027999878 2.5262000561
 2475.4819336 12.000000000 12.444999695 12.250000954 76.275588989 -0.008700000 0.1766999960 2.5494999886 3.5041999817 42.604698181 84.071411133 163.85368347 2.4238998890 2.4453999996
 2475.6342773 12.000000000 12.444999695 12.250000954 72.465423584 -0.007202400 0.1842878461 2.5514969826 3.5062966347 43.705436707 85.756309509 164.69287109 2.3400344849 2.3450605869
 2475.7866211 12.000000000 12.429400444 12.250000954 70.045219421 -0.004903686 0.1943838149 2.5583889484 3.4851338863 45.794151306 85.119232178 166.22253418 2.3387019634 2.3405072689
 2475.9392090 12.000000000 12.421699524 12.250000954 70.593498230 -0.004800000 0.1993000060 2.5590999126 3.4602999687 45.154399872 84.401489258 164.16909790 2.3508999348 2.3501000404
 2476.0915527 12.000000000 12.429400444 12.250000954 72.278869629 -0.005700000 0.1966000050 2.5618000031 3.4307000637 44.586799622 83.887397766 160.78250122 2.3408999443 2.3394999504
 2476.2438965 12.000000000 12.429400444 12.250000954 72.357612610 -0.006898080 0.1906095892 2.5621993542 3.4507677555 42.719791412 83.888999939 161.15431213 2.3408999443 2.3394999504
 2476.3962402 12.000000000 12.429400444 12.250000954 74.308403015 -0.008197917 0.1905001700 2.5588054657 3.5017182827 44.106369019 83.158378601 161.38594055 2.4963502884 2.5108251572
 2476.5488281 12.000000000 12.446900368 12.250000954 74.599082947 -0.008300000 0.1900999993 2.5557000637 3.5339999199 46.054199219 82.864997864 160.82878113 2.7084000111 2.6879999638
 2476.7011719 12.000000000 12.398401260 12.250000954 73.289039612 -0.009200000 0.1879000068 2.5448000431 3.5624001026 46.792098999 83.330993652 160.36909485 2.6486001015 2.6410999298
 2476.8535156 12.000000000 12.406200409 12.250000954 68.368766785 -0.009100161 0.1837067157 2.5448997021 3.5480232239 45.573154449 80.876930237 149.66415405 2.6467030048 2.6288197041
 2477.0058594 12.000000000 12.390700340 12.250000954 64.741798401 -0.009699040 0.1682248414 2.5526876450 3.5517938137 41.996536255 79.320686340 147.69154358 2.6877341270 2.7073738575
 2477.1582031 12.000000000 12.398401260 12.250000954 65.905181885 -0.008302243 0.1458358914 2.5727677345 3.5382215977 38.756191254 78.198486328 145.47645569 2.6994812489 2.7746922970
