# LAS format log file from PETREL
# Project units are specified as depth units
#==================================================================
~Version information
VERS.   2.0:
WRAP.   NO:
#==================================================================
~Well
STRT .m      1652.5220947 :
STOP .m      3695.9011230 :
STEP .m     0.00000000 :
NULL .        -999.250000 :
COMP.           : COMPANY
WELL.  35/6-2 S   : WELL
FLD.            : FIELD
LOC.            : LOCATION
SRVC.           : SERVICE COMPANY
DATE.  2018-09-11 14:48:59   : Log Export Date {yyyy-MM-dd HH:mm:ss}
PROV.           : PROVINCE
UWI.   35/6-2 S   : UNIQUE WELL ID
API.            : API NUMBER
#==================================================================
~Curve
DEPT .m                   : DEPTH
Lithology_geolink ._      : Lithology_geolink
CALI .in                  : CALI
BS .in                    : BS
ROP .m/h                  : ROP
DRHO .g/cm3               : DRHO
NPHI .m3/m3               : NPHI
RHOB .g/cm3               : RHOB
PEF .b/e                  : PEF
GR .gAPI                  : GR
DTC .us/ft                : DTC
DTS .us/ft                : DTS
RDEP .ohm.m               : RDEP
RMED .ohm.m               : RMED
~Parameter
#==================================================================
~Ascii
# ...
 2061.5634766 15.000000000 12.499199867 12.250000954 24.848096848 -0.007600481 0.3219999969 2.4742782116 3.0465195179 61.322399139 100.21600342 201.84529114 1.8565037251 1.8639014959
 2061.7160645 15.000000000 12.506999969 12.250000954 26.454725266 -0.005400000 0.3240999877 2.4786999226 2.9888999462 60.662601471 100.36250305 201.77209473 1.8916000128 1.8897999525
 2061.8684082 15.000000000 12.505000114 12.250000954 27.066928864 -0.004300000 0.3273999989 2.4639999866 2.9154000282 58.641399384 100.71199799 200.89430237 1.8460999727 1.8531999588
 2062.0207520 15.000000000 12.499199867 12.250000954 28.288057327 -0.004399840 0.3217000067 2.4475264549 2.8588905334 57.620601654 100.50689697 200.06019592 1.8086599112 1.8142623901
 2062.1730957 15.000000000 12.475997925 12.250000954 32.967189789 -0.005498237 0.3264000118 2.4339218140 2.8542072773 57.436901093 100.22400665 199.10517883 1.8016111851 1.8006218672
 2062.3256836 13.000000000 12.444999695 12.250000954 41.569553375 -0.004000000 0.3061999977 2.4405000210 2.8438000679 56.610000610 98.903099060 190.01152039 1.8410999775 1.8287999630
 2062.4780273 13.000000000 12.406200409 12.250000954 50.556758881 -0.003700000 0.3093000054 2.4472000599 2.8268001080 57.161701202 96.270698547 188.37590027 1.8783999681 1.8788000345
 2062.6303711 13.000000000 12.390700340 12.250000954 88.244094849 -0.003799840 0.3036000133 2.4604787827 2.8474669456 56.061901093 95.106506348 186.46389771 1.9479885101 1.9595705271
 2062.7827148 13.000000000 12.375201225 12.250000954 85.735565186 -0.002701763 0.3021999896 2.4943454266 2.9155907631 55.510601044 94.363494873 185.21749878 2.0081036091 2.0053267479
 2062.9350586 13.000000000 12.382900238 12.250000954 81.640090942 0.0125754811 0.2894999981 2.5518078804 2.9921772480 50.441398621 95.305496216 185.81599426 2.1075406075 2.1006472111
 2063.0876465 13.000000000 12.382900238 12.250000954 77.919944763 0.0118000004 0.2994000018 2.5529000759 2.9519999027 52.016998291 95.783203125 187.10330200 2.4853000641 2.4604001045
 2063.2399902 13.000000000 12.382900238 12.250000954 73.049209595 0.0096035209 0.3188999891 2.5147609711 2.8256027699 53.554698944 97.203002930 190.23910522 2.3755760193 2.3801288605
 2063.3923340 13.000000000 12.382900238 12.250000954 66.818237305 0.0015129808 0.3201999962 2.4581906796 2.7115826607 60.095100403 98.124298096 192.46469116 2.0268595219 2.0546224117
 2063.5446777 13.000000000 12.382900238 12.250000954 66.421592712 0.0031972756 0.3190000057 2.4486153126 2.7074065208 59.603298187 99.174697876 195.70570374 1.9153780937 1.9422795773
 2063.6972656 13.000000000 12.382900238 12.250000954 71.145339966 0.0016000000 0.3221000135 2.4574999809 2.7693998814 60.655101776 98.106399536 196.95368958 1.8861999512 1.9110000134
 2063.8496094 13.000000000 12.375201225 12.250000954 70.865158081 -0.007600000 0.3353999853 2.4665999413 2.8633999825 59.643600464 96.976303101 195.87808228 1.9302999973 1.9431999922
 2064.0019531 13.000000000 12.398401260 12.250000954 73.205711365 -0.009996160 0.3339000046 2.4826743603 2.9560513496 59.659599304 97.225494385 194.38699341 1.9847128391 1.9521856308
 2064.1542969 13.000000000 12.406200409 12.250000954 75.626312256 -0.008702083 0.3327000141 2.4912862778 3.0457563400 60.469501495 96.830894470 193.49499512 2.0878345966 2.0446517467
 2064.3068848 13.000000000 12.382900238 12.250000954 75.473098755 -0.007700000 0.3278000057 2.4832999706 3.0736999512 59.877498627 97.074996948 192.81500244 2.0569999218 2.0420000553
 2064.4592285 13.000000000 12.367400169 12.250000954 75.092521667 -0.006000000 0.3179999888 2.4714999199 3.0429000854 60.997001648 96.427703857 192.61959839 2.0030999184 2.0125999451
 2064.6115723 13.000000000 12.375201225 12.250000954 75.658462524 -0.006000000 0.3149000108 2.4607172012 2.9916820526 59.527000427 96.187301636 191.61399841 2.0335512161 2.0534346104
 2064.7639160 13.000000000 12.382900238 12.250000954 88.668632507 -0.006599038 0.3143000007 2.4607996941 2.9494676590 58.724300385 95.846984863 188.96809387 2.0333003998 2.0562953949
 2064.9162598 13.000000000 12.382900238 12.250000954 85.447502136 -0.008197436 0.3066000044 2.4772737026 2.9852426052 58.632400513 95.252609253 186.36613464 2.0352969170 2.0535044670
 2065.0688477 13.000000000 12.367400169 12.250000954 84.291015625 -0.010400000 0.2915999889 2.4949998856 3.1280999184 57.851501465 95.152702332 186.16839600 2.1424999237 2.1331000328
 2065.2211914 13.000000000 12.382900238 12.250000954 86.545272827 -0.008103680 0.2775999904 2.5236539841 3.2350285053 58.142799377 95.115509033 186.03529358 2.4774630070 2.4197406769
 2065.3735352 13.000000000 12.367400169 12.250000954 83.561027527 -0.006602404 0.2890999913 2.5166113377 3.1954638958 54.987899780 95.270606995 186.01568604 2.3229489326 2.3211591244
 2065.5258789 13.000000000 12.359699249 12.250000954 82.952423096 -0.004703045 0.3050000072 2.4961328506 3.0202810764 54.405998230 95.904296875 188.85108948 2.1752367020 2.1836204529
 2065.6784668 13.000000000 12.375201225 12.250000954 82.197509766 -0.005500000 0.3125999868 2.4635999203 2.8796999454 56.061100006 96.221801758 191.19900513 2.0650999546 2.0764999390
 2065.8308105 13.000000000 12.367400169 12.250000954 84.814628601 -0.002800000 0.3149000108 2.4535999298 2.8004000187 56.534698486 96.555801392 192.85568237 2.0615999699 2.0773999691
 2065.9831543 13.000000000 12.371299744 12.250000954 84.633537292 -0.003199360 0.3260000050 2.4590911865 2.7495815754 55.692600250 96.474403381 194.49040222 2.0380377769 2.0582306385
 2066.1354980 13.000000000 12.367400169 12.250000954 83.653549194 -0.003299840 0.3336000144 2.4693834782 2.7037734985 57.531600952 96.553398132 195.52571106 2.1078877449 2.1000328064
 2066.2880859 13.000000000 12.367400169 12.250000954 82.760505676 -0.006100000 0.3373000026 2.4697999954 2.7167000771 57.890899658 98.012802124 196.60310364 2.1802999973 2.1461999416
 2066.4404297 13.000000000 12.382900238 12.250000954 83.319229126 -0.006200000 0.3422000110 2.4644000530 2.7613000870 59.728401184 99.020095825 195.89639282 2.0381999016 2.0311000347
 2066.5927734 13.000000000 12.382900238 12.250000954 84.116470337 -0.005700800 0.3370999992 2.4617042542 2.8426694870 58.147899628 99.001708984 195.20190430 1.9658160210 1.9720945358
 2066.7451172 13.000000000 12.398401260 12.250000954 79.704399109 -0.003403686 0.3418999910 2.4709849358 2.9113898277 59.550300598 98.828201294 192.88400269 1.9564149380 1.9617164135
 2066.8974609 13.000000000 12.367400169 12.250000954 80.733924866 -0.002800961 0.3303000033 2.4753928185 3.0017549992 58.999099731 97.227203369 186.70060730 1.9765676260 1.9989402294
 2067.0500488 13.000000000 12.367400169 12.250000954 85.710304260 -0.003000000 0.3104999959 2.4867000580 3.0666999817 58.447898865 95.956001282 185.14939880 2.0348999500 2.0432000160
 2067.2023926 13.000000000 12.382900238 12.250000954 84.502952576 -0.003798720 0.2809999883 2.5025744438 3.1032414436 55.294200897 94.062202454 182.50650024 2.1604988575 2.1672012806
 2067.3547363 13.000000000 12.359699249 12.250000954 86.630249023 -0.003800000 0.2619000077 2.5167770386 3.0924174786 55.953498840 91.958999634 183.02629089 2.5712409019 2.5544786453
 2067.5070801 13.000000000 12.351900101 12.250000954 80.693572998 -0.002102724 0.2754000127 2.5080139637 3.0247087479 53.671600342 91.994300842 184.84622192 2.4930264950 2.4983911514
 2067.6596680 13.000000000 12.359699249 12.250000954 78.136161804 0.0031000001 0.2878000140 2.4853000641 2.9588000774 53.866100311 95.066200256 191.16229248 2.2971999645 2.3222000599
 2067.8120117 13.000000000 12.390700340 12.250000954 78.841529846 0.0024000001 0.3003000021 2.4667999744 2.8912999630 52.747501373 97.669403076 196.05850220 2.2927000523 2.2962000370
 2067.9643555 13.000000000 12.398401260 12.250000954 80.184387207 -0.001294080 0.3265999854 2.4557175636 2.8675382137 55.213199615 99.698493958 198.63787842 1.9659236670 2.0119554996
 2068.1166992 13.000000000 12.375201225 12.250000954 80.037727356 -0.008887820 0.3461999893 2.4503085613 2.8624081612 57.528598785 100.19599915 201.36938477 1.8293184042 1.8605422974
