# LAS format log file from PETREL
# Project units are specified as depth units
#==================================================================
~Version information
VERS.   2.0:
WRAP.   NO:
#==================================================================
~Well
STRT .m      1652.5220947 :
STOP .m      3695.9011230 :
STEP .m     0.00000000 :
NULL .        -999.250000 :
COMP.           : COMPANY
WELL.  35/6-2 S   : WELL
FLD.            : FIELD
LOC.            : LOCATION
SRVC.           : SERVICE COMPANY
DATE.  2018-09-11 14:48:59   : Log Export Date {yyyy-MM-dd HH:mm:ss}
PROV.           : PROVINCE
UWI.   35/6-2 S   : UNIQUE WELL ID
API.            : API NUMBER
#==================================================================
~Curve
DEPT .m                   : DEPTH
Lithology_geolink ._      : Lithology_geolink
CALI .in                  : CALI
BS .in                    : BS
ROP .m/h                  : ROP
DRHO .g/cm3               : DRHO
NPHI .m3/m3               : NPHI
RHOB .g/cm3               : RHOB
PEF .b/e                  : PEF
GR .gAPI                  : GR
DTC .us/ft                : DTC
DTS .us/ft                : DTS
RDEP .ohm.m               : RDEP
RMED .ohm.m               : RMED
~Parameter
#==================================================================
~Ascii
# ...
 3147.8708496 2.0000000000 8.6064996719 8.5000000000 60.433071136 0.0018000000 0.1685999930 2.4149999619 2.4993999004 51.705699921 80.209091187 140.23770142 6.8723001480 6.8692002296
 3148.0231934 2.0000000000 8.6408004761 8.5000000000 65.213905334 0.0020000001 0.1668000072 2.4184999466 2.5248000622 51.996101379 79.998901367 140.26229858 6.7702999115 6.7539000511
 3148.1757813 2.0000000000 8.7209997177 8.5000000000 68.029197693 -0.0000000000 0.1761000007 2.4175999165 2.5502998829 56.626098633 78.890701294 141.92239380 6.7094001770 6.6732997894
 3148.3281250 2.0000000000 8.7323999405 8.5000000000 69.765419006 0.0007000000 0.1825000048 2.4286000729 2.5555000305 55.514099121 80.804298401 141.98150635 6.6524000168 6.6465001106
 3148.4804688 2.0000000000 8.7439002991 8.5000000000 63.917980194 0.0011000000 0.1864999980 2.4309000969 2.5453999043 54.333000183 81.240005493 142.45339966 6.6525001526 6.6143999100
 3148.6328125 2.0000000000 8.7552995682 8.5000000000 63.075462341 -0.000300000 0.1787000000 2.4212000370 2.5222001076 50.813899994 81.959205627 142.46910095 6.6178998947 6.6072998047
 3148.7851563 2.0000000000 8.6294002533 8.5000000000 62.394687653 -0.002100000 0.1738999933 2.4140999317 2.4602999687 54.478298187 82.067596436 142.69540405 6.5862002373 6.5629000664
 3148.9377441 2.0000000000 8.7209997177 8.5000000000 62.286090851 -0.003200000 0.1759999990 2.4172000885 2.4012000561 55.979900360 82.083793640 141.41439819 6.4888000488 6.5243000984
 3149.0900879 2.0000000000 8.7439002991 8.5000000000 54.326770782 -0.004000000 0.1852999926 2.4189999104 2.3650000095 56.226100922 81.755401611 142.24180603 6.4588999748 6.5145998001
 3149.2424316 2.0000000000 8.8010997772 8.5000000000 53.569881439 -0.004900000 0.1943999976 2.4073998928 2.4022998810 55.983898163 81.060089111 142.72970581 6.4923000336 6.4837999344
 3149.3947754 2.0000000000 8.7439002991 8.5000000000 54.448822021 -0.005600000 0.1863999963 2.3922998905 2.4447999001 55.638801575 80.555007935 141.62219238 6.7701001167 6.7575001717
 3149.5473633 2.0000000000 8.6522998810 8.5000000000 52.787399292 -0.005100000 0.1700000018 2.3940000534 2.4635000229 54.949001312 79.949401855 141.29559326 6.9121999741 6.8625001907
 3149.6997070 2.0000000000 8.7552995682 8.5000000000 51.428478241 -0.005700000 0.1539999992 2.4033999443 2.4611999989 51.501598358 79.935905457 138.73229980 7.6153998375 7.5268998146
 3149.8520508 2.0000000000 8.7666997910 8.5000000000 50.024608612 -0.006400000 0.1464000046 2.4193999767 2.4688999653 51.354198456 79.750900269 136.46760559 7.9830999374 7.9428000450
 3150.0043945 2.0000000000 8.7896003723 8.5000000000 53.729660034 -0.007100000 0.1416999996 2.4333999157 2.5099000931 50.978698730 77.726303101 133.97689819 8.5066995621 8.3817996979
 3150.1569824 2.0000000000 8.8125000000 8.5000000000 51.135173798 -0.007700000 0.1363999993 2.4600999355 2.5790998936 55.876201630 76.566490173 132.52490234 8.8554000854 8.8105001450
 3150.3093262 2.0000000000 8.7896003723 8.5000000000 55.901248932 -0.007900000 0.1254000068 2.4946999550 2.7163000107 56.407699585 75.290298462 129.98559570 10.377799988 10.290800095
 3150.4616699 16.000000000 8.7896003723 8.5000000000 56.722774506 -0.008900000 0.1114000008 2.5306000710 2.9138998985 54.397098541 74.586204529 126.71399689 11.348500252 11.361399651
 3150.6140137 16.000000000 8.7896003723 8.5000000000 48.387466431 -0.007400000 0.0930999964 2.5645999908 3.0850999355 46.867198944 69.419998169 124.13890076 12.272600174 12.355299950
 3150.7663574 16.000000000 8.7666997910 8.5000000000 43.690616608 -0.005200000 0.0807000026 2.5841999054 3.1545999050 46.064899445 67.181396484 122.21640015 13.161299706 13.601599693
 3150.9189453 16.000000000 8.6981000900 8.5000000000 38.298229218 -0.002500000 0.0732999966 2.5910000801 3.1085000038 48.279598236 66.423698425 120.92870331 13.368599892 13.841699600
 3151.0712891 6.0000000000 8.6522998810 8.5000000000 36.436023712 -0.003700000 0.0714000016 2.5789000988 3.0596001148 54.628299713 66.467903137 120.65429688 13.368599892 13.841699600
 3151.2236328 6.0000000000 8.6865997314 8.5000000000 31.786090851 -0.006300000 0.0848999992 2.5787999630 3.0671000481 59.057598114 68.692298889 120.86219788 11.288399696 11.935700417
 3151.3759766 6.0000000000 8.7095003128 8.5000000000 29.432083130 -0.008300000 0.1315000057 2.5913000107 3.1215999126 69.873802185 73.016899109 121.69689178 9.9295997620 10.541999817
 3151.5285645 6.0000000000 8.6178998947 8.5000000000 28.436679840 -0.005000000 0.1626999974 2.6140999794 3.1505000591 78.841201782 78.126602173 125.68969727 8.2632999420 8.5374002457
 3151.6809082 6.0000000000 8.5720996857 8.5000000000 27.447507858 0.0002000000 0.2037999928 2.6119999886 3.1115999222 83.661697388 81.098709106 130.15449524 7.9826998711 8.2714004517
 3151.8332520 6.0000000000 8.6064996719 8.5000000000 25.423557281 0.0019000000 0.2003999949 2.5618999004 2.9837000370 79.656196594 82.963600159 137.85029602 5.7100000381 5.7189002037
 3151.9855957 6.0000000000 8.5492000580 8.5000000000 25.423557281 -0.001800000 0.2070000023 2.4770998955 2.8169000149 75.257698059 83.316291809 140.27040100 5.4012999535 5.4717001915
 3152.1381836 5.0000000000 8.5607004166 8.5000000000 27.411415100 -0.005000000 0.2013999969 2.4193000793 2.6075000763 66.327598572 83.244201660 141.79969788 5.0588002205 5.0229001045
 3152.2905273 5.0000000000 8.6178998947 8.5000000000 29.474737167 -0.004900000 0.1978999972 2.4024999142 2.5013000965 63.769298553 83.037803650 142.17469788 5.1900000572 4.9800000191
 3152.4428711 5.0000000000 8.5607004166 8.5000000000 35.856300354 -0.002900000 0.1987999976 2.4168000221 2.4899001122 58.192298889 82.292198181 142.26539612 5.0451002121 4.8912000656
 3152.5952148 5.0000000000 8.6064996719 8.5000000000 38.964237213 -0.003400000 0.1835999936 2.4156999588 2.5859000683 60.944698334 81.557601929 142.56199646 4.9643001556 4.8264999390
 3152.7475586 5.0000000000 8.6752004623 8.5000000000 45.997047424 -0.004000000 0.1862999946 2.4193000793 2.6717998981 62.038299561 80.466598511 144.11410522 4.9916000366 4.8509001732
 3152.9001465 5.0000000000 8.7209997177 8.5000000000 48.567256927 -0.005500000 0.1884000003 2.4219999313 2.7441000938 65.261100769 80.979598999 144.99409485 5.0412998199 4.9759998322
 3153.0524902 5.0000000000 8.7095003128 8.5000000000 78.002296448 -0.004600000 0.1898999959 2.4426999092 2.7730000019 67.356399536 80.038002014 144.68519592 5.0539999008 5.0209999084
 3153.2048340 6.0000000000 8.7439002991 8.5000000000 100.18667603 -0.003100000 0.1921000034 2.4704999924 2.7695999146 73.674301147 80.071800232 141.05349731 4.9152998924 4.9772000313
 3153.3571777 6.0000000000 8.6981000900 8.5000000000 111.94979858 0.0005000000 0.2064000070 2.5109000206 2.7771999836 84.747596741 81.156898499 139.15220642 5.1192002296 5.2718000412
 3153.5097656 6.0000000000 8.5836000443 8.5000000000 111.94979858 0.0017000000 0.2354999930 2.5253000259 2.7769000530 95.968498230 81.754898071 139.14120483 5.3147997856 5.3657999039
 3153.6621094 6.0000000000 8.5950002670 8.5000000000 95.176834106 -0.000800000 0.2508000135 2.4916999340 2.7290000916 92.425102234 82.190200806 139.35350037 5.3207001686 5.4095001221
 3153.8144531 6.0000000000 8.6522998810 8.5000000000 79.818901062 -0.005300000 0.2442999929 2.4296000004 2.6017000675 82.385299683 82.503295898 139.49409485 4.7711000443 4.8972997665
 3153.9667969 5.0000000000 8.6294002533 8.5000000000 71.667320251 -0.006400000 0.2186000049 2.3954999447 2.4969999790 67.611396790 83.370101929 143.26119995 4.7711000443 4.8972997665
 3154.1193848 5.0000000000 8.5377998352 8.5000000000 71.361877441 -0.004100000 0.1926999986 2.4082999229 2.4816999435 61.115100861 84.821800232 144.24180603 4.2262001038 4.3464999199
 3154.2717285 5.0000000000 8.5263004303 8.5000000000 67.614830017 0.0022000000 0.1782000065 2.4493000507 2.5360000134 55.209300995 86.049499512 144.43260193 4.1904001236 4.2712001801
 3154.4240723 5.0000000000 8.5720996857 8.5000000000 66.916007996 0.0040000002 0.1826999933 2.4614999294 2.5608999729 56.695301056 83.848602295 144.99690247 4.6978998184 4.6851000786
