# LAS format log file from PETREL
# Project units are specified as depth units
#==================================================================
~Version information
VERS.   2.0:
WRAP.   NO:
#==================================================================
~Well
STRT .m      1652.5220947 :
STOP .m      3695.9011230 :
STEP .m     0.00000000 :
NULL .        -999.250000 :
COMP.           : COMPANY
WELL.  35/6-2 S   : WELL
FLD.            : FIELD
LOC.            : LOCATION
SRVC.           : SERVICE COMPANY
DATE.  2018-09-11 14:48:59   : Log Export Date {yyyy-MM-dd HH:mm:ss}
PROV.           : PROVINCE
UWI.   35/6-2 S   : UNIQUE WELL ID
API.            : API NUMBER
#==================================================================
~Curve
DEPT .m                   : DEPTH
Lithology_geolink ._      : Lithology_geolink
CALI .in                  : CALI
BS .in                    : BS
ROP .m/h                  : ROP
DRHO .g/cm3               : DRHO
NPHI .m3/m3               : NPHI
RHOB .g/cm3               : RHOB
PEF .b/e                  : PEF
GR .gAPI                  : GR
DTC .us/ft                : DTC
DTS .us/ft                : DTS
RDEP .ohm.m               : RDEP
RMED .ohm.m               : RMED
~Parameter
#==================================================================
~Ascii
# ...
 2738.8291016 13.000000000 12.646499634 12.250000954 71.152236938 0.0124413464 0.1640131474 2.5628275871 4.0115861893 49.138210297 79.942481995 148.34204102 3.5983047485 3.5528397560
 2738.9814453 13.000000000 12.623299599 12.250000954 67.914367676 0.0006189103 0.1757810861 2.5538144112 3.7714846134 50.515689850 80.151565552 145.99885559 3.3473031521 3.3760838509
 2739.1337891 13.000000000 12.623299599 12.250000954 67.924217224 0.0004003205 0.1921737194 2.5542993546 3.6438043118 52.727153778 81.127532959 148.24150085 3.2734179497 3.2934322357
 2739.2861328 13.000000000 12.669800758 12.250000954 67.927169800 0.0010977600 0.1982804835 2.5533030033 3.5801038742 53.856784821 81.916282654 149.52767944 3.2742969990 3.3013739586
 2739.4387207 13.000000000 12.630999565 12.250000954 65.222770691 0.0013995192 0.2039908618 2.5469102859 3.5735101700 54.954143524 81.932388306 148.92517090 3.2494397163 3.2288165092
 2739.5910645 13.000000000 12.627099991 12.250000954 64.692260742 0.0017993590 0.2031014413 2.5390126705 3.6124374866 54.578704834 82.351631165 149.66970825 3.1973834038 3.1662003994
 2739.7434082 13.000000000 12.630999565 12.250000954 64.753280640 0.0014006409 0.2088907063 2.5310127735 3.6490414143 56.405166626 81.209533691 149.23460388 3.2126750946 3.2189152241
 2739.8957520 13.000000000 12.630999565 12.250000954 64.853019714 0.0010012800 0.2088003159 2.5252184868 3.6923611164 57.698158264 81.161354065 150.13938904 3.1309626102 3.1617836952
 2740.0483398 13.000000000 12.623299599 12.250000954 66.916007996 0.0066908654 0.1927257925 2.5338859558 3.7721722126 58.630012512 80.512733459 153.80932617 3.2351324558 3.2528536320
 2740.2006836 13.000000000 12.638799667 12.250000954 65.454399109 0.0205777250 0.1842136234 2.5590596199 3.8991963863 54.785671234 80.354454041 149.84666443 3.2853195667 3.3229877949
 2740.3530273 13.000000000 12.607799530 12.250000954 63.872695923 0.0275887810 0.1894915104 2.5756733418 4.0111207962 56.241500854 80.277221680 149.65979004 3.2854998112 3.3340823650
 2740.5053711 13.000000000 12.584500313 12.250000954 64.290023804 0.0268025585 0.2167126387 2.5758993626 4.0619373322 55.566200256 80.202140808 148.75111389 3.2720432281 3.3247301579
 2740.6579590 13.000000000 12.592300415 12.250000954 64.981628418 0.0223072115 0.2259852588 2.5647177696 4.0559101105 59.610298157 80.813919067 149.56309509 3.4964396954 3.5108013153
 2740.8103027 13.000000000 12.615500450 12.250000954 67.866798401 0.0178072117 0.2328889370 2.5556144714 4.0073776245 58.402599335 81.572990417 149.78984070 3.4264130592 3.4421105385
 2740.9626465 13.000000000 12.630999565 12.250000954 70.580055237 0.0140060904 0.2330996692 2.5544018745 3.9071607590 59.629299164 83.143486023 148.67687988 3.2491841316 3.3053193092
 2741.1149902 13.000000000 12.630999565 12.250000954 70.580055237 0.0063123396 0.2396894246 2.5583934784 3.7897880077 59.896598816 83.178443909 149.93757629 3.1155140400 3.1815981865
 2741.2673340 13.000000000 12.623299599 12.250000954 68.969154358 0.0058015999 0.2431887984 2.5769402981 3.6766626835 60.469501495 83.928092957 156.98089600 2.9432523251 3.0372626781
 2741.4199219 13.000000000 12.615500450 12.250000954 75.002952576 0.0037033653 0.2564786971 2.5819919109 3.5623829365 63.686500549 84.050910950 157.40345764 2.8333754539 2.9188892841
 2741.5722656 13.000000000 12.638799667 12.250000954 75.945533752 -0.001491667 0.2569991946 2.5621318817 3.4919128418 63.235401154 84.610603333 156.18127441 2.8330001831 2.8707768917
 2741.7246094 13.000000000 12.623299599 12.250000954 75.945533752 -0.005094231 0.2425232381 2.5427310467 3.4643440247 62.951400757 84.168319702 154.48591614 2.9044852257 2.9028484821
 2741.8769531 13.000000000 12.630999565 12.250000954 82.979003906 -0.005997120 0.2165831923 2.5357224941 3.4917120934 55.230800629 82.925292969 154.00045776 2.8570525646 2.8876488209
 2742.0295410 13.000000000 12.646499634 12.250000954 89.053810120 -0.004502404 0.2023227513 2.5408916473 3.5043797493 54.004100800 82.700256348 149.71977234 2.8232541084 2.8732230663
 2742.1818848 13.000000000 12.646499634 12.250000954 90.212272644 -0.003601442 0.2111857384 2.5412993431 3.5161812305 50.699100494 83.028610229 148.98815918 2.9511945248 2.9834229946
 2742.3342285 13.000000000 12.646499634 12.250000954 89.814628601 -0.003100801 0.2239794880 2.5363080502 3.5227894783 52.077701569 82.184005737 149.29110718 3.0096065998 3.0449016094
 2742.4865723 13.000000000 12.654299736 12.250000954 85.566925049 -0.004096800 0.2439360023 2.5263319016 3.5360572338 50.249401093 82.876609802 148.58317566 3.0717008114 3.0932450294
 2742.6391602 13.000000000 12.654299736 12.250000954 86.350723267 -0.006595993 0.2435007989 2.5146188736 3.5421903133 52.459800720 82.039001465 148.89439392 3.1000547409 3.1210556030
 2742.7915039 13.000000000 12.654299736 12.250000954 80.718177795 -0.007698237 0.2375096083 2.5147998333 3.5382063389 51.356800079 81.368103027 146.52389526 3.0752398968 3.1140115261
 2742.9438477 13.000000000 12.661999702 12.250000954 80.368110657 -0.005403686 0.2124402225 2.5344684124 3.5120420456 50.735401154 79.999694824 142.77711487 3.0518374443 3.0964281559
 2743.0961914 13.000000000 12.661999702 12.250000954 78.937995911 -0.002904006 0.1904352605 2.5588610172 3.5171916485 47.971401215 80.141296387 139.86016846 3.0587887764 3.1018912792
 2743.2485352 13.000000000 12.638799667 12.250000954 76.675529480 -0.002002880 0.1789368093 2.5740513802 3.5793006420 47.664299011 80.049697876 139.18714905 3.2195837498 3.2387607098
 2743.4011230 13.000000000 12.654299736 12.250000954 68.699150085 -0.001900160 0.1866874993 2.5848824978 3.6116485596 48.675300598 79.941902161 139.31678772 3.3047640324 3.3227658272
 2743.5534668 13.000000000 12.638799667 12.250000954 61.973426819 -0.002499038 0.2019754946 2.5852992535 3.6020154953 50.979698181 80.166397095 139.20707703 3.6016235352 3.5776910782
 2743.7058105 13.000000000 12.638799667 12.250000954 59.362537384 -0.002699679 0.2067923099 2.5824046135 3.5208301544 52.022201538 80.030899048 139.20121765 3.6172757149 3.6152403355
 2743.8581543 13.000000000 12.638799667 12.250000954 57.281169891 -0.002899360 0.1986262351 2.5763194561 3.4401583672 49.718101501 80.380798340 139.23348999 3.4408664703 3.5013656616
 2744.0107422 13.000000000 12.656200409 12.250000954 50.906826019 -0.002400801 0.1891152263 2.5733046532 3.3692135811 48.523300171 80.196708679 139.18298340 3.4328119755 3.5030965805
 2744.1630859 13.000000000 12.646499634 12.250000954 51.321853638 -0.001601282 0.1920951903 2.5692067146 3.3292639256 47.787998199 80.319198608 139.16053772 3.4286067486 3.4921176434
 2744.3154297 13.000000000 12.654299736 12.250000954 51.877296448 -0.001899519 0.2027828544 2.5574188232 3.3575544357 50.551601410 79.859397888 139.27481079 3.5087711811 3.5352308750
 2744.4677734 13.000000000 12.646499634 12.250000954 49.455383301 -0.001999680 0.2181507200 2.5502231121 3.4066426754 49.809501648 80.002799988 141.88980103 3.4678318501 3.4940326214
 2744.6203613 13.000000000 12.669800758 12.250000954 48.727035522 -0.001500801 0.2193980813 2.5502996445 3.4620113373 50.360900879 80.247810364 140.33232117 3.3936190605 3.4455773830
 2744.7727051 13.000000000 12.677499771 12.250000954 49.786418915 -0.000601442 0.2173033655 2.5539939404 3.4958457947 51.372001648 80.733200073 139.87052917 3.3666431904 3.4311230183
 2744.9250488 13.000000000 12.646499634 12.250000954 52.326442719 -0.000000962 0.2170004696 2.5540997982 3.5133719444 52.169498444 81.125389099 141.12017822 3.2548792362 3.3245708942
 2745.0773926 13.000000000 12.630999565 12.250000954 53.983596802 0.0000998397 0.2291804552 2.5529019833 3.4921340942 54.007701874 80.782402039 141.34425354 3.2320365906 3.2797715664
 2745.2297363 13.000000000 12.654299736 12.250000954 57.192588806 -0.000099360 0.2239169627 2.5531990528 3.4625947475 52.713699341 81.981903076 141.21342468 3.2270159721 3.2423198223
 2745.3823242 13.000000000 12.646499634 12.250000954 58.177165985 -0.001497756 0.2166116983 2.5507040024 3.4612021446 54.588401794 81.163597107 141.24514771 3.1160781384 3.1434586048
