# LAS format log file from PETREL
# Project units are specified as depth units
#==================================================================
~Version information
VERS.   2.0:
WRAP.   NO:
#==================================================================
~Well
STRT .m      1652.5220947 :
STOP .m      3695.9011230 :
STEP .m     0.00000000 :
NULL .        -999.250000 :
COMP.           : COMPANY
WELL.  35/6-2 S   : WELL
FLD.            : FIELD
LOC.            : LOCATION
SRVC.           : SERVICE COMPANY
DATE.  2018-09-11 14:48:59   : Log Export Date {yyyy-MM-dd HH:mm:ss}
PROV.           : PROVINCE
UWI.   35/6-2 S   : UNIQUE WELL ID
API.            : API NUMBER
#==================================================================
~Curve
DEPT .m                   : DEPTH
Lithology_geolink ._      : Lithology_geolink
CALI .in                  : CALI
BS .in                    : BS
ROP .m/h                  : ROP
DRHO .g/cm3               : DRHO
NPHI .m3/m3               : NPHI
RHOB .g/cm3               : RHOB
PEF .b/e                  : PEF
GR .gAPI                  : GR
DTC .us/ft                : DTC
DTS .us/ft                : DTS
RDEP .ohm.m               : RDEP
RMED .ohm.m               : RMED
~Parameter
#==================================================================
~Ascii
# ...
 2329.7875977 13.000000000 12.483699799 12.250000954 63.680450439 -0.000700000 0.2458000034 2.5132000446 3.2277998924 59.773998260 90.803001404 185.57380676 2.0571999550 2.0552000999
 2329.9399414 13.000000000 12.483699799 12.250000954 68.962600708 -0.003000000 0.2637999952 2.5076999664 3.2293000221 57.844699860 90.998298645 189.00570679 2.1199998856 2.1096999645
 2330.0922852 13.000000000 12.506999969 12.250000954 68.962600708 -0.005995200 0.2679933012 2.5041058064 3.1900629997 57.402309418 90.855239868 187.71655273 2.1766092777 2.1741964817
 2330.2446289 13.000000000 12.506999969 12.250000954 63.680450439 -0.009294712 0.2740902305 2.4986088276 3.1891014576 60.189125061 90.517433167 190.86285400 2.0661773682 2.0780544281
 2330.3972168 13.000000000 12.499199867 12.250000954 63.602355957 -0.009900000 0.2691999972 2.5009000301 3.2291998863 63.041698456 90.685401917 185.50079346 2.0782999992 2.0618000031
 2330.5495605 13.000000000 12.491499901 12.250000954 64.284454346 -0.010000000 0.2743999958 2.5020999908 3.3011999130 64.512901306 92.008003235 188.77049255 2.0969998837 2.0592999458
 2330.7019043 13.000000000 12.491499901 12.250000954 63.155841827 -0.007204480 0.2830860913 2.5123834610 3.3347463608 63.621925354 92.776863098 187.80015564 2.1049871445 2.0522115231
 2330.8542480 13.000000000 12.506999969 12.250000954 62.634513855 -0.005702404 0.2807038426 2.5157945156 3.3585617542 60.792537689 93.087211609 186.64297485 2.0874280930 2.0744643211
 2331.0068359 13.000000000 12.530200005 12.250000954 61.515090942 -0.005600000 0.2779999971 2.5139999390 3.3661999702 59.943599701 93.601898193 187.87678528 2.0889000893 2.0720999241
 2331.1591797 13.000000000 12.545699120 12.250000954 62.071189880 -0.007300000 0.2700000107 2.5079998970 3.3494000435 62.122299194 92.886802673 187.69230652 2.0587999821 2.0578000546
 2331.3115234 13.000000000 12.545699120 12.250000954 57.690284729 -0.006800800 0.2658067048 2.5084993839 3.3429105282 63.866603851 93.815612793 187.82579041 2.0569031239 2.0645890236
 2331.4638672 13.000000000 12.553501129 12.250000954 59.039039612 -0.006001282 0.2657001615 2.5089993477 3.3401045799 63.685894012 94.079078674 190.43002319 2.0490126610 2.0608062744
 2331.6162109 13.000000000 12.545699120 12.250000954 60.403221130 -0.003603846 0.2643022239 2.5168874264 3.3180356026 62.309509277 93.663269043 191.15434265 2.0137565136 2.0268545151
 2331.7687988 13.000000000 12.538000107 12.250000954 56.088584900 -0.003200000 0.2746999860 2.5190999508 3.3073999882 63.944000244 93.956695557 191.41439819 2.0137000084 2.0267999172
 2331.9211426 13.000000000 12.538000107 12.250000954 56.427494049 -0.001702400 0.2731025517 2.5242917538 3.3056027889 66.237121582 94.265701294 191.77182007 1.9996225834 2.0147192478
 2332.0734863 13.000000000 12.522500992 12.250000954 52.787399292 -0.001700000 0.2790903747 2.5220036507 3.3384473324 64.882080078 94.130813599 191.41027832 1.9826272726 1.9876433611
 2332.2258301 13.000000000 12.491499901 12.250000954 52.609580994 -0.001100962 0.2580338120 2.5236973763 3.3349056244 62.311523438 94.506401062 190.68824768 1.9250922203 1.9364820719
 2332.3784180 13.000000000 12.499199867 12.250000954 53.256233215 -0.002200000 0.2723999918 2.5186998844 3.3431000710 60.275398254 93.944999695 188.05178833 1.9321999550 1.9388999939
 2332.5307617 13.000000000 12.514699936 12.250000954 54.379592896 -0.003900000 0.2666000128 2.5111000538 3.3629999161 60.350299835 94.339103699 185.30009460 1.9226000309 1.9301999807
 2332.6831055 13.000000000 12.506999969 12.250000954 52.322834015 -0.004399200 0.2588124871 2.5078053474 3.3804721832 59.524723053 94.059753418 183.77264404 1.9162102938 1.9319971800
 2332.8354492 13.000000000 12.506999969 12.250000954 54.025260925 -0.004100481 0.2428256422 2.5092976093 3.3668220043 57.164188385 93.724838257 183.38513184 1.9531407356 1.9518680573
 2332.9880371 13.000000000 12.545699120 12.250000954 56.541992188 -0.004100000 0.2451999933 2.5086998940 3.3190999031 59.089801788 93.934997559 183.25231934 1.9875999689 1.9836000204
 2333.1403809 13.000000000 12.545699120 12.250000954 60.000003815 -0.003600000 0.2682999969 2.5109999180 3.2077000141 61.386600494 93.972702026 183.50790405 2.0004999638 2.0006000996
 2333.2927246 13.000000000 12.499199867 12.250000954 60.533462524 -0.003699840 0.2662033737 2.5080046654 3.1006715298 64.604896545 93.140434265 184.00440979 2.0033955574 2.0058913231
 2333.4450684 13.000000000 12.468199730 12.250000954 59.209648132 -0.005497115 0.2638038397 2.4974169731 3.0289149284 64.205497742 93.109146118 184.86062622 1.9210321903 1.9455968142
 2333.5974121 13.000000000 12.468199730 12.250000954 61.645336151 -0.007596635 0.2425341457 2.4838216305 3.0208129883 64.039100647 92.835044861 185.84103394 1.8385322094 1.8755122423
 2333.7500000 13.000000000 12.491499901 12.250000954 59.105968475 -0.009100000 0.2422000021 2.4709999561 3.0490999222 73.116996765 94.128196716 191.23379517 1.9276000261 1.8956999779
 2333.9023438 13.000000000 12.483699799 12.250000954 57.638122559 -0.008301280 0.2520841360 2.4559240341 3.1101021767 91.799301147 97.654144287 198.67506409 1.8956511021 1.8276090622
 2334.0546875 13.000000000 12.506999969 12.250000954 56.779529572 -0.006403045 0.3509413302 2.4290430546 3.2036499977 124.44159698 98.280998230 201.27366638 1.5485570431 1.5313752890
 2334.2070313 13.000000000 12.538000107 12.250000954 57.208660126 -0.003205128 0.3786557615 2.4146230221 3.2259645462 136.33610535 97.859474182 195.50267029 1.3737796545 1.3805414438
 2334.3596191 13.000000000 12.584500313 12.250000954 58.067256927 -0.000800000 0.3679000139 2.4291999340 3.1589999199 119.35919952 96.089889526 187.75869751 1.0614999533 1.1013000011
 2334.5119629 13.000000000 12.592300415 12.250000954 62.286090851 -0.002300000 0.2578000128 2.4676001072 3.0890998840 83.024597168 96.830009460 174.39077759 0.8867999911 0.9478999972
 2334.6643066 13.000000000 12.576699257 12.250000954 59.209648132 -0.005494880 0.1952003092 2.5142254829 3.1615839005 54.776500702 81.707138062 166.37074280 2.7554054260 2.4745533466
 2334.8166504 11.000000000 12.553501129 12.250000954 53.252296448 -0.008694872 0.1543653905 2.5528383255 3.4073057175 45.581501007 79.996208191 159.23512268 3.3584368229 3.0242216587
 2334.9692383 11.000000000 12.561200142 12.250000954 48.387466431 -0.008500000 0.1460999995 2.5789000988 3.6473999023 44.400501251 77.524101257 149.51969910 4.6823000908 4.1891999245
 2335.1215820 11.000000000 12.545699120 12.250000954 38.710628510 -0.006200000 0.1512999982 2.5896000862 3.7518999577 44.451801300 74.503196716 147.30149841 5.7561001778 5.3621997833
 2335.2739258 11.000000000 12.506999969 12.250000954 35.155509949 -0.003803840 0.1443112046 2.5890009403 3.6808140278 42.969799042 74.128501892 148.10072327 4.5978565216 5.2327075005
 2335.4262695 11.000000000 12.545699120 12.250000954 35.155509949 -0.001503686 0.1496913433 2.5869033337 3.5342350006 38.454700470 77.198867798 150.49136353 4.3372154236 4.9746136665
 2335.5786133 11.000000000 12.553501129 12.250000954 32.609909058 -0.002797917 0.1661735475 2.5626387596 3.3906300068 43.839900970 77.109962463 153.70394897 5.1528902054 5.4579238892
 2335.7312012 11.000000000 12.522500992 12.250000954 26.470472336 -0.004800000 0.2048999965 2.5306999683 3.2279999256 51.850399017 80.039703369 159.53540039 5.2793998718 5.7136001587
 2335.8835449 11.000000000 12.506999969 12.250000954 25.810695648 -0.007895039 0.2309582531 2.5001487732 3.1062951088 61.020599365 85.808052063 163.29237366 4.7493491173 5.1814527512
 2336.0358887 11.000000000 12.483699799 12.250000954 24.623687744 -0.008898397 0.2433801144 2.4929113388 3.0154454708 60.697898865 88.497993469 168.98757935 3.0590116978 3.0894565582
 2336.1882324 11.000000000 12.468199730 12.250000954 25.026903152 -0.008400801 0.2511875033 2.4913027287 3.0304756165 59.577899933 89.439399719 171.21084595 2.6575400829 2.6376197338
 2336.3408203 11.000000000 12.475997925 12.250000954 26.216207504 -0.007500000 0.2556999922 2.4960000515 3.0641999245 60.623699188 89.936088562 172.39761353 2.5329999924 2.5216000080
