# LAS format log file from PETREL
# Project units are specified as depth units
#==================================================================
~Version information
VERS.   2.0:
WRAP.   NO:
#==================================================================
~Well
STRT .m      1652.5220947 :
STOP .m      3695.9011230 :
STEP .m     0.00000000 :
NULL .        -999.250000 :
COMP.           : COMPANY
WELL.  35/6-2 S   : WELL
FLD.            : FIELD
LOC.            : LOCATION
SRVC.           : SERVICE COMPANY
DATE.  2018-09-11 14:48:59   : Log Export Date {yyyy-MM-dd HH:mm:ss}
PROV.           : PROVINCE
UWI.   35/6-2 S   : UNIQUE WELL ID
API.            : API NUMBER
#==================================================================
~Curve
DEPT .m                   : DEPTH
Lithology_geolink ._      : Lithology_geolink
CALI .in                  : CALI
BS .in                    : BS
ROP .m/h                  : ROP
DRHO .g/cm3               : DRHO
NPHI .m3/m3               : NPHI
RHOB .g/cm3               : RHOB
PEF .b/e                  : PEF
GR .gAPI                  : GR
DTC .us/ft                : DTC
DTS .us/ft                : DTS
RDEP .ohm.m               : RDEP
RMED .ohm.m               : RMED
~Parameter
#==================================================================
~Ascii
# ...
 3556.9123535 6.0000000000 8.3545999527 8.5000000000 18.828413010 -0.002600000 0.2074999958 2.5511000156 3.0402998924 96.171897888 70.071601868 115.09349823 7.7727732658 7.8531785011
 3557.0646973 6.0000000000 8.3774995804 8.5000000000 20.114501953 -0.001800000 0.2231000066 2.5852999687 3.1691999435 93.572601318 70.361297607 114.94589996 9.8964786530 9.8111124039
 3557.2172852 6.0000000000 8.2859001160 8.5000000000 21.844160080 -0.003500000 0.2116000056 2.5915000439 3.1993000507 84.800201416 70.977096558 114.56040192 10.084010124 10.037546158
 3557.3696289 6.0000000000 8.3545999527 8.5000000000 23.316928864 -0.003100000 0.1746000051 2.5552000999 3.0917999744 75.713401794 72.224899292 114.63329315 9.8958024979 10.073542595
 3557.5219727 5.0000000000 8.2859001160 8.5000000000 25.104986191 0.0006000000 0.1464000046 2.5099000931 2.9400000572 63.042098999 72.667297363 115.75350189 10.716282845 10.604547501
 3557.6743164 5.0000000000 8.3774995804 8.5000000000 27.314630508 0.0006000000 0.1341000050 2.4904999733 2.9363999367 52.482700348 73.012199402 117.92620087 9.6910953522 9.9045495987
 3557.8269043 5.0000000000 8.3889999390 8.5000000000 27.738519669 0.0005000000 0.1270000041 2.5329999924 3.0834999084 48.898200989 73.760101318 118.24170685 9.4900178909 9.7396612167
 3557.9792480 5.0000000000 8.4118995667 8.5000000000 27.644031525 0.0040000002 0.1266999990 2.6222999096 3.3396000862 50.522701263 71.362701416 120.25389862 9.1748056412 9.5688734055
 3558.1315918 5.0000000000 8.5033998489 8.5000000000 27.607282639 0.0082000000 0.1284999996 2.6830999851 3.5204000473 54.259101868 70.086303711 120.78330994 9.1260776520 9.3665246964
 3558.2839355 5.0000000000 8.3087997437 8.5000000000 27.107938766 0.0166999996 0.1303000003 2.7067000866 3.6296999454 59.348201752 69.525100708 118.50090027 9.6309890747 9.7407989502
 3558.4362793 5.0000000000 8.2744998932 8.5000000000 30.874341965 0.0252000000 0.1270000041 2.7021999359 3.6440000534 65.745697021 69.327598572 118.74879456 11.913275719 11.757627487
 3558.5888672 5.0000000000 8.2400999069 8.5000000000 26.408466339 0.0353999995 0.1348000020 2.7133998871 3.6786999702 69.157203674 68.977096558 114.94329834 12.151429176 11.984745979
 3558.7412109 5.0000000000 8.2400999069 8.5000000000 24.356628418 0.0344999991 0.1562000066 2.7202000618 3.7216000557 81.450599670 67.630599976 114.77500153 11.309851646 11.372982025
 3558.8935547 6.0000000000 8.2400999069 8.5000000000 25.530839920 0.0154999997 0.1582999974 2.6981000900 3.7005000114 89.563400269 67.636398315 113.03440094 10.209863663 10.342352867
 3559.0458984 6.0000000000 8.2629995346 8.5000000000 24.794292450 0.0044000000 0.1421000063 2.6788001060 3.5906000137 91.675300598 68.084602356 112.43939972 10.257541656 10.213807106
 3559.1984863 6.0000000000 8.3087997437 8.5000000000 26.237861633 -0.003100000 0.1177999973 2.6535000801 3.3708999157 84.852302551 69.337997437 112.81970215 10.337072372 10.263520241
 3559.3508301 6.0000000000 8.3203001022 8.5000000000 24.064304352 0.0029000000 0.1143999994 2.6505000591 3.2026000023 78.951896667 68.983001709 113.13489532 11.052052498 10.712979317
 3559.5031738 6.0000000000 8.3774995804 8.5000000000 23.559711456 0.0020999999 0.1097000018 2.6403000355 3.1092000008 78.139602661 68.323303223 113.55309296 11.264161110 10.860164642
 3559.6555176 6.0000000000 8.3317003250 8.5000000000 23.135499954 0.0002000000 0.1084999964 2.6324999332 3.1275999546 75.474502563 70.258598328 114.13140869 11.595836639 11.217154503
 3559.8081055 5.0000000000 8.3545999527 8.5000000000 21.686023712 -0.004200000 0.1045000032 2.6224999428 3.1036000252 73.200202942 70.501800537 115.16571045 11.295783043 11.070537567
 3559.9604492 5.0000000000 8.3545999527 8.5000000000 23.225721359 -0.005800000 0.1146999970 2.6287999153 3.0494000912 78.677902222 70.783203125 117.11260223 11.176691055 10.933719635
 3560.1127930 5.0000000000 8.3545999527 8.5000000000 26.582675934 -0.006200000 0.1224000007 2.6475000381 2.9684998989 78.581298828 71.743797302 120.23120117 10.633770943 10.473638535
 3560.2651367 5.0000000000 8.3317003250 8.5000000000 27.481628418 -0.004800000 0.1348000020 2.6638000011 2.9528000355 85.566802979 72.297096252 121.45659637 10.453488350 10.350696564
 3560.4174805 6.0000000000 8.3545999527 8.5000000000 26.202426910 -0.003200000 0.1544999927 2.6705999374 2.9821999073 94.547302246 72.991302490 125.27339172 10.314345360 10.218822479
 3560.5700684 6.0000000000 8.3545999527 8.5000000000 25.676837921 -0.000100000 0.1784999967 2.6749000549 3.0160000324 109.16809845 74.055603027 133.69929504 9.8556356430 9.6776676178
 3560.7224121 7.0000000000 8.3545999527 8.5000000000 24.358266830 0.0005000000 0.2117999941 2.6726999283 3.0258998871 122.00180054 74.916900635 134.52420044 8.5085611343 8.2942190170
 3560.8747559 7.0000000000 8.3545999527 8.5000000000 24.193897247 -0.001100000 0.2360000014 2.6651999950 3.0360999107 129.14970398 74.502998352 131.57650757 8.1239137650 7.8599934578
 3561.0270996 7.0000000000 8.3545999527 8.5000000000 23.874015808 -0.004300000 0.2462999970 2.6503999233 3.0905001163 124.22239685 73.701400757 129.19999695 7.2079000473 6.9444999695
 3561.1796875 7.0000000000 8.3317003250 8.5000000000 22.005249023 -0.004100000 0.2307000011 2.6479001045 3.1558001041 123.24770355 73.252197266 125.19809723 7.3211002350 7.0190000534
 3561.3320313 7.0000000000 8.3087997437 8.5000000000 21.978019714 -0.003700000 0.2128999978 2.6435999870 3.2218000889 110.36340332 73.914703369 123.27410889 7.9689998627 7.5027999878
 3561.4843750 7.0000000000 8.3087997437 8.5000000000 21.003936768 -0.002800000 0.1947000027 2.6421999931 3.2353000641 114.47850037 74.471298218 123.26859283 8.3784999847 7.8933000565
 3561.6367188 7.0000000000 8.2859001160 8.5000000000 20.682086945 -0.002800000 0.1951999962 2.6440000534 3.1791999340 108.79260254 71.611801147 121.63020325 9.1946001053 8.7649002075
 3561.7893066 7.0000000000 8.2629995346 8.5000000000 20.201770782 -0.004800000 0.1915999949 2.6435999870 3.1347000599 112.16210175 71.148399353 120.71670532 9.2067003250 8.8044004440
 3561.9416504 7.0000000000 8.3087997437 8.5000000000 20.689304352 -0.007900000 0.1972000003 2.6398999691 3.1322000027 114.59889984 69.780799866 119.47109985 9.0120000839 8.8669004440
 3562.0939941 7.0000000000 8.2974004745 8.5000000000 20.705379486 -0.009200000 0.1992000043 2.6366999149 3.1824998856 113.46170044 68.108398438 117.52420044 8.9156999588 8.9263000488
 3562.2463379 7.0000000000 8.3203001022 8.5000000000 20.628280640 -0.006600000 0.1842000037 2.6459000111 3.1858000755 116.58059692 67.899597168 118.10140228 9.2614002228 9.3345003128
 3562.3986816 7.0000000000 8.3545999527 8.5000000000 20.044620514 -0.002300000 0.1659999937 2.6621000767 3.1561999321 109.58589935 67.728698730 117.54830170 10.966500282 11.043499947
 3562.5512695 6.0000000000 8.3087997437 8.5000000000 21.471456528 -0.001800000 0.1498000026 2.6605999470 3.1356000900 106.01190186 67.507400513 118.51830292 11.385399818 11.412799835
 3562.7036133 6.0000000000 8.3087997437 8.5000000000 21.376640320 -0.002800000 0.1497000009 2.6493999958 3.1273999214 96.649902344 67.618698120 115.34909058 11.353799820 11.284399986
 3562.8559570 6.0000000000 8.2859001160 8.5000000000 22.585302353 -0.004700000 0.1502999961 2.6354000568 3.1066999435 97.308998108 67.368400574 115.36650085 11.862299919 11.818599701
 3563.0083008 6.0000000000 8.2974004745 8.5000000000 24.225395203 -0.006000000 0.1454000026 2.6287000179 3.1087999344 101.65589905 67.228698730 114.95569611 12.661800385 12.960300446
 3563.1608887 6.0000000000 8.3087997437 8.5000000000 23.950132370 -0.007600000 0.1448999941 2.6224999428 3.1856999397 105.17829895 66.859802246 114.98348999 13.657799721 13.564499855
 3563.3132324 6.0000000000 8.3087997437 8.5000000000 25.316928864 -0.006500000 0.1484999955 2.6259999275 3.2964000702 101.60440063 66.571197510 114.27929688 14.966199875 14.811900139
 3563.4655762 6.0000000000 8.2859001160 8.5000000000 25.973424911 -0.004300000 0.1606000066 2.6331000328 3.3570001125 96.932601929 67.034103394 112.99330139 15.456199646 15.511500359
