# LAS format log file from PETREL
# Project units are specified as depth units
#==================================================================
~Version information
VERS.   2.0:
WRAP.   NO:
#==================================================================
~Well
STRT .m      1652.5220947 :
STOP .m      3695.9011230 :
STEP .m     0.00000000 :
NULL .        -999.250000 :
COMP.           : COMPANY
WELL.  35/6-2 S   : WELL
FLD.            : FIELD
LOC.            : LOCATION
SRVC.           : SERVICE COMPANY
DATE.  2018-09-11 14:48:59   : Log Export Date {yyyy-MM-dd HH:mm:ss}
PROV.           : PROVINCE
UWI.   35/6-2 S   : UNIQUE WELL ID
API.            : API NUMBER
#==================================================================
~Curve
DEPT .m                   : DEPTH
Lithology_geolink ._      : Lithology_geolink
CALI .in                  : CALI
BS .in                    : BS
ROP .m/h                  : ROP
DRHO .g/cm3               : DRHO
NPHI .m3/m3               : NPHI
RHOB .g/cm3               : RHOB
PEF .b/e                  : PEF
GR .gAPI                  : GR
DTC .us/ft                : DTC
DTS .us/ft                : DTS
RDEP .ohm.m               : RDEP
RMED .ohm.m               : RMED
~Parameter
#==================================================================
~Ascii
 1652.5220947 15.000000000 12.289898872 17.500000000 91.836616516  -999.250000 0.3603000045  -999.250000  -999.250000 56.326400757  -999.250000  -999.250000 1.3803999424 1.2625999451
 1652.6744385 15.000000000 12.359699249 17.500000000 94.257225037  -999.250000 0.3594000041  -999.250000  -999.250000 64.034896851  -999.250000  -999.250000 1.3490999937 1.2791999578
 1652.8269043 15.000000000 12.824898720 17.500000000 94.257225037  -999.250000 0.3698000014  -999.250000  -999.250000 68.278800964  -999.250000  -999.250000 1.3150000572 1.2656999826
 1652.9791260 15.000000000 13.995598793 17.500000000 97.321037292  -999.250000 0.3224379718  -999.250000  -999.250000 65.971054077  -999.250000  -999.250000 1.2989128828 1.2666991949
 1653.1314697 15.000000000 12.848098755 17.500000000 100.55121613  -999.250000 0.3209011853  -999.250000  -999.250000 64.642158508  -999.250000  -999.250000 1.2983005047 1.2644017935
 1653.2839355 15.000000000 12.863599777 17.500000000 104.52438354  -999.250000 0.3404842913  -999.250000  -999.250000 65.795074463  -999.250000  -999.250000 1.3124886751 1.2857828140
 1653.4362793 15.000000000 12.902399063 17.500000000 109.74287415  -999.250000 0.3433976769  -999.250000  -999.250000 63.113151550  -999.250000  -999.250000 1.3167965412 1.2797049284
 1653.5887451 15.000000000 14.631299973 17.500000000 106.34294891  -999.250000 0.3594870865  -999.250000  -999.250000 63.399467468  -999.250000  -999.250000 1.3407808542 1.2870939970
 1653.7410889 15.000000000 16.484300613 17.500000000 102.36178589 0.0713990405 0.3478093743  -999.250000  -999.250000 64.265106201  -999.250000  -999.250000 1.3657799959 1.2990903854
 1653.8935547 15.000000000 18.663000107 17.500000000 103.20994568 0.1029746979 0.3604898453  -999.250000  -999.250000 69.083335876  -999.250000  -999.250000 1.3096449375 1.2799153328
 1654.0458984 15.000000000 21.244800568 17.500000000 106.61865997 0.1448664218 0.3665951192  -999.250000  -999.250000 68.308326721  -999.250000  -999.250000 1.2796241045 1.2421302795
 1654.1982422 15.000000000 20.903600693 17.500000000 109.77446747 0.1823399514 0.3795791864  -999.250000  -999.250000 67.068290710 117.97277832 283.14956665 1.2713131905 1.2256264687
 1654.3507080 15.000000000 19.058399200 17.500000000 101.70037842 0.2026837319 0.4179692566  -999.250000  -999.250000 63.979576111 118.58370972 277.62683105 1.2595094442 1.2085137367
 1654.5030518 15.000000000 19.477100372 17.500000000 102.25860596 0.1987064034 0.3912429214  -999.250000  -999.250000 65.303070068 120.69322205 276.23022461 1.2393323183 1.2066030502
 1654.6555176 15.000000000 20.011999130 17.500000000 99.145874023 0.1705225855 0.3588259518  -999.250000  -999.250000 64.814796448 122.86425018 277.21350098 1.2552871704 1.2094976902
 1654.8078613 15.000000000 21.097503662 17.500000000 103.45633698 0.1441422701 0.3463200331  -999.250000  -999.250000 63.574886322 121.78393555 287.63668823 1.2605915070 1.2069041729
 1654.9603271 15.000000000 21.089700699 17.500000000 103.46325684 0.1251152307 0.3563919067  -999.250000  -999.250000 63.197902679 122.58236694 292.41879272 1.2747886181 1.2246856689
 1655.1126709 15.000000000 21.717699051 17.500000000 100.89379120 0.1138090491 0.3857764602  -999.250000  -999.250000 64.438011169 118.93942261 283.24765015 1.2826936245 1.2367902994
 1655.2651367 15.000000000 22.803098679 17.500000000 99.099533081 0.1212939918 0.3825026453  -999.250000  -999.250000 62.419715881 118.69869232 283.18612671 1.2723083496 1.2383986712
 1655.4174805 15.000000000 20.516002655 17.500000000 97.478660583 0.1517755687 0.3899939656  -999.250000  -999.250000 62.793098450 120.03552246 283.06970215 1.2690026760 1.2511897087
 1655.5699463 15.000000000 20.019800186 17.500000000 93.515975952 0.1711844802 0.3821063042  -999.250000  -999.250000 61.552993774 117.51351929 271.63235474 1.3144634962 1.2709841728
 1655.7222900 15.000000000 22.609298706 17.500000000 91.726173401 0.1819913387 0.3734069765  -999.250000  -999.250000 64.119438171 117.75331116 268.26498413 1.3511705399 1.2824908495
 1655.8747559 15.000000000 23.027997971 17.500000000 91.835868835 0.1814004779 0.3682041764  -999.250000  -999.250000 62.130992889 116.68625641 273.35272217  -999.250000  -999.250000
 1656.0270996 15.000000000 23.121002197 17.500000000 95.978965759 0.1790019274 0.3448187411  -999.250000  -999.250000 61.552459717 116.27931976 268.14389038  -999.250000  -999.250000
 1656.1795654 15.000000000 20.430698395 17.500000000 97.293899536 0.1712062508 0.3482972085  -999.250000  -999.250000 61.551998138 118.06257629 268.80398560  -999.250000  -999.250000
 1656.3319092 15.000000000 22.237199783 17.500000000 97.351989746 0.1598091274 0.3635877371  -999.250000  -999.250000 62.100059509 116.23305511 269.46719360  -999.250000  -999.250000
 1656.4842529 15.000000000 23.423402786 17.500000000 92.793724060 0.1843606085 0.3634003401  -999.250000  -999.250000 61.725803375 117.43337250 261.98397827  -999.250000  -999.250000
 1656.6367188 15.000000000 22.671300888 17.500000000 100.97637177 0.2023855746 0.3877804577  -999.250000  -999.250000 62.706012726 117.66941071 267.44631958  -999.250000  -999.250000
 1656.7890625 15.000000000 22.407699585 17.500000000 101.13132477 0.1923161745 0.3892975748  -999.250000  -999.250000 60.026199341 115.62139130 274.04382324  -999.250000  -999.250000
 1656.9415283 15.000000000 22.810899734 17.500000000 102.86933899 0.1682193130 0.3888003826  -999.250000  -999.250000 61.262306213 115.98869324 269.15652466  -999.250000  -999.250000
 1657.0938721 15.000000000 23.283802032 17.500000000 107.22300720 0.1726927906 0.3876019120  -999.250000  -999.250000 61.061523438 116.33834076 275.73443604  -999.250000  -999.250000
 1657.2463379 15.000000000 21.578100204 17.500000000 112.12500763 0.1825920790 0.4093825221  -999.250000  -999.250000 64.234451294 118.70989990 276.88146973  -999.250000  -999.250000
 1657.3986816 15.000000000 21.779699326 17.500000000 111.36511230 0.1652139425 0.4279851019  -999.250000  -999.250000 61.265686035 119.24086761 282.77966309  -999.250000  -999.250000
 1657.5511475 15.000000000 23.811100006 17.500000000 108.73373413 0.1140409932 0.3896307647  -999.250000  -999.250000 61.551765442 117.80775452 281.52182007  -999.250000  -999.250000
 1657.7034912 15.000000000 23.803300858 17.500000000 105.00528717 0.0945156217 0.3662187457  -999.250000  -999.250000 61.840465546 116.56649017 286.69775391  -999.250000  -999.250000
 1657.8559570 15.000000000 23.446599960 17.500000000 109.09416199 0.1239763796 0.3587059975  -999.250000  -999.250000 67.696708679 116.42741394 281.83621216  -999.250000  -999.250000
 1658.0083008 15.000000000 25.144599915 17.500000000 101.80603790 0.1535762846 0.3922730982  -999.250000  -999.250000 68.393745422 120.94617462 288.44308472  -999.250000  -999.250000
 1658.1607666 15.000000000 25.051502228 17.500000000 100.08372498 0.1536999196 0.4202775955  -999.250000  -999.250000 68.769302368 118.96638489 281.89663696  -999.250000  -999.250000
 1658.3131104 15.000000000 25.183300018 17.500000000 101.62966156 0.1244234741 0.4284934402  -999.250000  -999.250000 71.942848206 117.09849548 275.40042114  -999.250000  -999.250000
 1658.4654541 15.000000000 25.144599915 17.500000000 102.25686646 0.1106221005 0.4252052605  -999.250000  -999.250000 75.404251099 116.63285065 275.61853027  -999.250000  -999.250000
 1658.6179199 15.000000000 24.671602249 17.500000000 96.606239319 0.1115991920 0.4527778924  -999.250000  -999.250000 77.919586182 115.81455231 273.91476440  -999.250000  -999.250000
 1658.7702637 15.000000000 24.284000397 17.500000000 95.522727966 0.0983212963 0.4264422655  -999.250000  -999.250000 74.376182556 116.41973114 274.86477661  -999.250000  -999.250000
 1658.9227295 15.000000000 25.129100800 17.500000000 99.441085815 0.0627285317 0.4046174586  -999.250000  -999.250000 73.101211548 114.14972687 271.78237915  -999.250000  -999.250000
 1659.0750732 15.000000000 25.183300018 12.258407593 99.970939636 0.0210667737 0.3587734997  -999.250000  -999.250000 70.996070862 116.82740784 278.33526611  -999.250000  -999.250000
