# LAS format log file from PETREL
# Project units are specified as depth units
#==================================================================
~Version information
VERS.   2.0:
WRAP.   NO:
#==================================================================
~Well
STRT .m      1652.5220947 :
STOP .m      3695.9011230 :
STEP .m     0.00000000 :
NULL .        -999.250000 :
COMP.           : COMPANY
WELL.  35/6-2 S   : WELL
FLD.            : FIELD
LOC.            : LOCATION
SRVC.           : SERVICE COMPANY
DATE.  2018-09-11 14:48:59   : Log Export Date {yyyy-MM-dd HH:mm:ss}
PROV.           : PROVINCE
UWI.   35/6-2 S   : UNIQUE WELL ID
API.            : API NUMBER
#==================================================================
~Curve
DEPT .m                   : DEPTH
Lithology_geolink ._      : Lithology_geolink
CALI .in                  : CALI
BS .in                    : BS
ROP .m/h                  : ROP
DRHO .g/cm3               : DRHO
NPHI .m3/m3               : NPHI
RHOB .g/cm3               : RHOB
PEF .b/e                  : PEF
GR .gAPI                  : GR
DTC .us/ft                : DTC
DTS .us/ft                : DTS
RDEP .ohm.m               : RDEP
RMED .ohm.m               : RMED
~Parameter
#==================================================================
~Ascii
# ...
 1927.4516602 15.000000000 12.258898735 12.250000954 110.62369537 -0.005800000 0.3472999930 2.4242999554 2.7381999493 65.524696350 104.06330109 216.75990295 1.7083052397 1.7253947258
 1927.6040039 15.000000000 12.297599792 12.250000954 103.44882202 0.0007000000 0.3508999944 2.4342000484 2.9077000618 65.175102234 102.53889465 214.55889893 1.7342791557 1.7435854673
 1927.7563477 15.000000000 12.313098907 12.250000954 101.86253357 0.0035000001 0.3747999966 2.5067000389 3.2892000675 63.549098969 98.119598389 208.08309937 1.7682000399 1.7730000019
 1927.9088135 15.000000000 12.297599792 12.250000954 100.83169556 0.0262000002 0.3558000028 2.6394999027 3.8092000484 57.608299255 97.202400208 205.88090515 2.1875000000 2.1747000217
 1928.0611572 15.000000000 12.328700066 12.250000954 99.239830017 0.0685999990 0.3495999873 2.7859001160 4.0634999275 52.044101715 96.892509460 206.53660583 2.3764998913 2.3605999947
 1928.2136230 15.000000000 12.282100677 12.250000954 91.693572998 0.0954999998 0.3373000026 2.7980000973 3.8368000984 51.446601868 96.514709473 208.27239990 2.1447999477 2.1691000462
 1928.3659668 15.000000000 12.251099586 12.250000954 75.958335876 0.0719999969 0.3564999998 2.6793999672 3.3310000896 56.672298431 97.055198669 214.00100708 1.7548999786 1.7982000113
 1928.5184326 15.000000000 12.243399620 12.250000954 77.303474426 0.0226000007 0.3436000049 2.5229001045 3.0057001114 64.747596741 98.121696472 216.09230042 1.6782000065 1.7309999466
 1928.6707764 15.000000000 12.251099586 12.250000954 76.599411011 -0.007600000 0.3450999856 2.4391999245 2.8875999451 67.228202820 100.29959106 218.80450439 1.6835999489 1.7216999531
 1928.8232422 15.000000000 12.258898735 12.250000954 77.833335876 -0.008300000 0.3497999907 2.4288001060 2.8613998890 67.925201416 103.68260193 222.32730103 1.6969000101 1.7116999626
 1928.9755859 15.000000000 12.243399620 12.250000954 78.489830017 -0.007400000 0.3736000061 2.4291999340 2.8194999695 65.891403198 104.68530273 223.97399902 1.6909999847 1.6906000376
 1929.1280518 15.000000000 12.258898735 12.250000954 80.148620605 -0.007200000 0.3682999909 2.4312996864 2.7811000347 68.372001648 104.81310272 224.18978882 1.6878000498 1.6589000225
 1929.2803955 15.000000000 12.251099586 12.250000954 80.598098755 -0.006600000 0.3756000102 2.4374001026 2.7341001034 64.880798340 105.03299713 222.33500671 1.6753000021 1.6677000523
 1929.4328613 15.000000000 12.251099586 12.250000954 81.542976379 -0.006800000 0.3564000130 2.4388999939 2.7349998951 62.949901581 104.70170593 219.76109314 1.6771999598 1.6922999620
 1929.5852051 15.000000000 12.258898735 12.250000954 83.769355774 -0.007400000 0.3379000127 2.4358999729 2.8615000248 57.621200562 103.09070587 217.69741821 1.7042000294 1.7150000334
 1929.7375488 15.000000000 12.266599655 12.250000954 110.26509094 -0.009700001 0.3226999938 2.4388000965 3.1182999611 59.274898529 102.08149719 216.92739868 1.7237000465 1.7359999418
 1929.8900146 15.000000000 12.243399620 12.250000954 114.66240692 -0.010200000 0.3233999908 2.4869000912 3.4570000172 60.194400787 100.39500427 212.63119507 1.7703000307 1.7726000547
 1930.0423584 15.000000000 12.258898735 12.250000954 107.13156891 -0.010800000 0.3391999900 2.5474998951 3.8120000362 56.532798767 97.548889160 212.13270569 2.0418999195 2.0464999676
 1930.1948242 15.000000000 12.297599792 12.250000954 92.774604797 -0.005400000 0.3456000090 2.5973000526 4.0102000237 53.762298584 97.744102478 212.03979492 2.1199998856 2.1189000607
 1930.3471680 15.000000000 12.266599655 12.250000954 91.945869446 -0.004800000 0.3461999893 2.5620999336 3.8777000904 54.865699768 101.44609833 214.27549744 1.8753999472 1.8927999735
 1930.4996338 15.000000000 12.266599655 12.250000954 91.801834106 -0.004200000 0.3596999943 2.5014998913 3.5130000114 57.256401062 102.87149811 217.23608398 1.7321000099 1.7526999712
 1930.6519775 15.000000000 12.258898735 12.250000954 88.715553284 -0.008700000 0.3908999860 2.4347999096 3.1812999249 62.121700287 104.96469879 219.10131836 1.6184999943 1.6578999758
 1930.8044434 15.000000000 12.243399620 12.250000954 88.253936768 -0.009000000 0.3978999853 2.4119999409 3.0306000710 63.960700989 106.21369934 222.40620422 1.6047999859 1.6416000128
 1930.9567871 15.000000000 12.243399620 12.250000954 87.802825928 -0.008900000 0.3826000094 2.4075000286 2.9486999512 66.719200134 106.40550232 222.86199951 1.6125999689 1.6352000237
 1931.1092529 15.000000000 12.251099586 12.250000954 87.802825928 -0.008900000 0.3587999940 2.4121999741 2.8175001144 66.737503052 106.24340057 222.17268372 1.6555000544 1.6392999887
 1931.2615967 15.000000000 12.258898735 12.250000954 85.558074951 -0.009200000 0.3327000141 2.4177000523 2.7169001102 63.134799957 106.01950073 220.53637695 1.6542999744 1.6474000216
 1931.4140625 15.000000000 12.274399757 12.250000954 82.893371582 -0.007600000 0.3143999875 2.4270000458 2.7063999176 63.226799011 105.53299713 220.35301208 1.6476999521 1.6452000141
 1931.5664063 15.000000000 12.282100677 12.250000954 82.184715271 -0.005000000 0.3186999857 2.4374001026 2.7783999443 64.421203613 104.62538910 219.51840210 1.6342999935 1.6378999949
 1931.7187500 15.000000000 12.274399757 12.250000954 90.559051514 -0.003700000 0.3316000104 2.4409000874 2.8624000549 66.993598938 104.87180328 220.52780151 1.5987999439 1.6067999601
 1931.8712158 15.000000000 12.274399757 12.250000954 94.407150269 -0.004500000 0.3650000095 2.4360001087 2.8966000080 65.706298828 104.87689972 220.73080444 1.5764000416 1.5822000504
 1932.0235596 15.000000000 12.282100677 12.250000954 96.768699646 -0.005700000 0.3680000007 2.4309999943 2.8991000652 61.112598419 104.99000549 222.13002014 1.5999000072 1.5956000090
 1932.1760254 15.000000000 12.266599655 12.250000954 100.55642700 -0.004700000 0.3682000041 2.4346001148 2.8905000687 60.837001801 105.25119781 222.80361938 1.6138999462 1.6130000353
 1932.3283691 15.000000000 12.258898735 12.250000954 97.466537476 -0.003300000 0.3619999886 2.4372000694 2.8740000725 63.066501617 106.27639771 224.14050293 1.5766999722 1.5795999765
 1932.4808350 15.000000000 12.320899963 12.250000954 69.228019714 -0.002400000 0.3479000032 2.4312000275 2.8664999008 65.012901306 105.95310211 225.54710388 1.5642000437 1.5657999516
 1932.6331787 15.000000000 12.351900101 12.250000954 63.828086853 -0.003000000 0.3506000042 2.4226999283 2.8980000019 63.818599701 104.89550781 225.21510315 1.5503000021 1.5642000437
 1932.7856445 15.000000000 12.258898735 12.250000954 61.852363586 -0.005800000 0.3504000008 2.4249000549 3.0618999004 59.091899872 104.67201233 222.38240051 1.5693999529 1.5712000132
 1932.9379883 15.000000000 12.243399620 12.250000954 61.000984192 -0.007200000 0.3535000086 2.4495999813 3.3159999847 57.620700836 105.31390381 223.36729431 1.6599999666 1.6542999744
 1933.0904541 15.000000000 12.251099586 12.250000954 60.811679840 -0.004800000 0.3522999883 2.4879999161 3.4591000080 56.442901611 105.44519806 226.68928528 1.7041000128 1.6956000328
 1933.2427979 15.000000000 12.266599655 12.250000954 60.620735168 -0.004200000 0.3450999856 2.4869000912 3.3375999928 58.264400482 104.98400879 226.35049438 1.5185999870 1.5333000422
 1933.3952637 15.000000000 12.266599655 12.250000954 60.906826019 -0.004600000 0.3438000083 2.4593999386 3.0139999390 59.954498291 106.59980011 227.32119751 1.4314999580 1.4512000084
 1933.5476074 15.000000000 12.258898735 12.250000954 61.119422913 -0.008700000 0.3409999907 2.4165999889 2.7613000870 60.542701721 107.69570923 228.07151794 1.4242999554 1.4359999895
 1933.7000732 15.000000000 12.251099586 12.250000954 60.939304352 -0.008500000 0.3458000124 2.4080998898 2.6644001007 63.663799286 108.28399658 228.92790222 1.4644000530 1.4701000452
 1933.8524170 15.000000000 12.258898735 12.250000954 62.280838013 -0.008000000 0.3431999981 2.4093999863 2.6877999306 63.996498108 108.42259979 228.42262268 1.4831999540 1.4831000566
 1934.0047607 15.000000000 12.251099586 12.250000954 73.706367493 -0.007000000 0.3440000117 2.4124999046 2.7065999508 64.419799805 108.26079559 228.05140686 1.4987000227 1.4838999510
