# LAS format log file from PETREL
# Project units are specified as depth units
#==================================================================
~Version information
VERS.   2.0:
WRAP.   NO:
#==================================================================
~Well
STRT .m      1652.5220947 :
STOP .m      3695.9011230 :
STEP .m     0.00000000 :
NULL .        -999.250000 :
COMP.           : COMPANY
WELL.  35/6-2 S   : WELL
FLD.            : FIELD
LOC.            : LOCATION
SRVC.           : SERVICE COMPANY
DATE.  2018-09-11 14:48:59   : Log Export Date {yyyy-MM-dd HH:mm:ss}
PROV.           : PROVINCE
UWI.   35/6-2 S   : UNIQUE WELL ID
API.            : API NUMBER
#==================================================================
~Curve
DEPT .m                   : DEPTH
Lithology_geolink ._      : Lithology_geolink
CALI .in                  : CALI
BS .in                    : BS
ROP .m/h                  : ROP
DRHO .g/cm3               : DRHO
NPHI .m3/m3               : NPHI
RHOB .g/cm3               : RHOB
PEF .b/e                  : PEF
GR .gAPI                  : GR
DTC .us/ft                : DTC
DTS .us/ft                : DTS
RDEP .ohm.m               : RDEP
RMED .ohm.m               : RMED
~Parameter
#==================================================================
~Ascii
# ...
 2195.6755371 2.0000000000 12.429400444 12.250000954 74.397964478 -0.003599840 0.1888000071 2.4569613934 3.0899803638 36.709300995 88.526000977 150.12396240 2.4325520992 2.3917937279
 2195.8278809 2.0000000000 12.429400444 12.250000954 72.000000000 -0.005896315 0.2408999950 2.4316408634 3.1392214298 35.156898499 89.983100891 151.72903442 3.3662021160 3.2213690281
 2195.9802246 2.0000000000 12.413900375 12.250000954 78.979003906 -0.009693911 0.3043999970 2.3499312401 3.0581302643 36.269901276 94.799598694 162.79672241 3.2803401947 3.1394338608
 2196.1328125 2.0000000000 12.421699524 12.250000954 84.511810303 -0.014800000 0.3567000031 2.2397000790 2.8773999214 37.872001648 101.45809174 178.66369629 2.5555000305 2.4865999222
 2196.2851563 2.0000000000 12.437198639 12.250000954 84.853675842 -0.018194560 0.3625999987 2.1557345390 2.6884028912 37.495098114 104.33740234 181.57136536 2.1791031361 2.1280746460
 2196.4375000 2.0000000000 12.491499901 12.250000954 85.400917053 -0.018000320 0.3562000096 2.1201570034 2.5996420383 36.851398468 106.96769714 184.00909424 1.2242317200 1.2690778971
 2196.5898438 2.0000000000 12.499199867 12.250000954 101.31791687 -0.015903367 0.3589999974 2.1181030273 2.6135773659 34.814098358 107.28099823 190.02185059 1.1694854498 1.1803401709
 2196.7424316 2.0000000000 12.483699799 12.250000954 109.27624512 -0.011500000 0.3779000044 2.1205999851 2.6521999836 36.110599518 107.72579956 191.89199829 1.1693999767 1.1801999807
 2196.8947754 2.0000000000 12.483699799 12.250000954 127.95012665 -0.008800000 0.3682999909 2.1329998970 2.6029999256 36.468200684 107.95670319 199.90447998 1.1911000013 1.1600999832
 2197.0471191 2.0000000000 12.506999969 12.250000954 127.22670746 -0.005704960 0.3652000129 2.1426844597 2.5167381763 36.116699219 103.98010254 198.26164246 1.1735280752 1.1456232071
 2197.1994629 2.0000000000 12.514699936 12.250000954 125.82283783 -0.006299038 0.3346000016 2.1461942196 2.4351305962 36.300598145 103.49979401 195.08541870 1.1750973463 1.1401088238
 2197.3520508 2.0000000000 12.522500992 12.250000954 154.17027283 -0.006600000 0.3273000121 2.1424002647 2.3966000080 35.390098572 103.74089813 191.66229248 1.1591000557 1.1572999954
 2197.5043945 2.0000000000 12.568999290 12.250000954 193.00296021 -0.008600000 0.3212000132 2.1403000355 2.3770000935 36.870800018 103.62599945 189.20689392 1.1664999723 1.1720000505
 2197.6567383 2.0000000000 12.576699257 12.250000954 193.00296021 -0.007501760 0.3341999948 2.1403000355 2.3814928532 37.319801331 103.06909180 186.51591492 1.1808769703 1.1815845966
 2197.8090820 2.0000000000 12.584500313 12.250000954 209.54035950 -0.002907372 0.3431000113 2.1409988403 2.4076581001 36.980400085 101.63600922 181.33232117 1.2986110449 1.2767473459
 2197.9614258 2.0000000000 12.592300415 12.250000954 203.67716980 -0.000703526 0.3368999958 2.1517825127 2.4436423779 35.765499115 102.67859650 171.89463806 1.3774737120 1.3704497814
 2198.1140137 2.0000000000 12.592300415 12.250000954 186.00558472 -0.002400000 0.2725000083 2.2060999870 2.5164999962 34.305099487 105.52039337 169.11039734 1.5572999716 1.4864000082
 2198.2663574 2.0000000000 12.592300415 12.250000954 198.47735596 0.0047884802 0.2069000006 2.3301014900 2.6537799835 34.737701416 106.74150085 164.53724670 1.9458771944 1.8074854612
 2198.4187012 2.0000000000 12.576699257 12.250000954 194.80282593 0.0100915059 0.1723999977 2.4350318909 2.8025615215 33.185600281 106.89490509 161.40840149 2.9057602882 2.5248494148
 2198.5710449 12.000000000 12.563199043 12.250000954 184.98391724 0.0060065705 0.2162999958 2.4224205017 2.8320529461 32.578800201 106.82510376 164.10087585 2.1826632023 1.8278206587
 2198.7236328 12.000000000 12.483699799 12.250000954 172.01181030 -0.008800000 0.3014000058 2.3001999855 2.7302999496 31.274499893 106.73960876 171.47656250 4.2130999565 3.3838999271
 2198.8759766 2.0000000000 12.460499763 12.250000954 164.13058472 -0.012000000 0.3619999886 2.1814999580 2.6010999680 34.317401886 106.82520294 179.54621887 2.1760001183 2.3589999676
 2199.0283203 2.0000000000 12.460499763 12.250000954 160.50262451 -0.006708480 0.3851000071 2.1353738308 2.5430929661 35.843700409 106.67569733 183.59271240 2.0312318802 2.1146914959
 2199.1806641 2.0000000000 12.452700615 12.250000954 159.70997620 -0.005402084 0.3772000074 2.1263144016 2.5434992313 38.608398438 106.65899658 187.81153870 1.2734160423 1.3975504637
 2199.3332520 2.0000000000 12.444999695 12.250000954 154.68766785 -0.007400000 0.3585999906 2.1212000847 2.5527000427 40.173801422 108.33240509 188.57919312 1.3215999603 1.3422000408
 2199.4855957 2.0000000000 12.437198639 12.250000954 164.95307922 -0.011400000 0.3513000011 2.1168999672 2.5151998997 37.858200073 108.34230804 184.76440430 1.3220000267 1.3271000385
 2199.6379395 2.0000000000 12.460499763 12.250000954 176.88713074 -0.012797760 0.3386999965 2.1131062508 2.4848487377 36.673698425 108.02640533 156.86961365 1.3274911642 1.3586494923
 2199.7902832 2.0000000000 12.483699799 12.250000954 192.67520142 -0.015595512 0.3210999966 2.1102044582 2.4537498951 33.545101166 107.00430298 149.16679382 1.4689729214 1.7744326591
 2199.9428711 2.0000000000 12.483699799 12.250000954 207.68307495 -0.013000000 0.3249999881 2.1129000187 2.5123000145 37.504100800 107.15209961 150.21418762 1.9496999979 2.3801000118
 2200.0952148 2.0000000000 12.468199730 12.250000954 207.00425720 -0.007900000 0.3350000083 2.1203000546 2.5576000214 37.492298126 106.34429932 149.57850647 3.6942999363 3.5452001095
 2200.2475586 2.0000000000 12.483699799 12.250000954 206.86877441 -0.007400800 0.3603000045 2.1259908676 2.6007308960 38.299098969 105.26619720 149.50750732 5.0344524384 4.5165429115
 2200.3999023 2.0000000000 12.499199867 12.250000954 206.86877441 -0.007599680 0.3648000062 2.1258001328 2.5989031792 37.483299255 105.63379669 152.94279480 6.5863122940 6.2112822533
 2200.5522461 2.0000000000 12.499199867 12.250000954 206.86877441 -0.011393910 0.3677000105 2.1222057343 2.5718433857 37.648101807 105.09139252 184.60188293 6.6135601997 5.8214297295
 2200.7048340 2.0000000000 12.499199867 12.250000954 219.37435913 -0.012300000 0.3788999915 2.1238000393 2.5495998859 37.576900482 103.27639771 182.38189697 3.3836998940 2.9553999901
 2200.8571777 2.0000000000 12.506999969 12.250000954 216.00000000 -0.012300000 0.3695999980 2.1275937557 2.5847437382 37.393001556 105.57579803 184.80920410 3.0153903961 2.7271656990
 2201.0095215 2.0000000000 12.522500992 12.250000954 192.92289734 -0.008006891 0.3503000140 2.1301958561 2.6466007233 36.761398315 103.66989899 187.68147278 2.5719108582 2.2224097252
 2201.1618652 2.0000000000 12.514699936 12.250000954 186.92027283 -0.004705288 0.3287999928 2.1255075932 2.6818435192 35.658000946 103.71140289 189.67808533 1.8639352322 1.5892150402
 2201.3144531 2.0000000000 12.499199867 12.250000954 185.97572327 -0.003500000 0.3345000148 2.1243999004 2.6396000385 34.186798096 103.30439758 190.84030151 1.7386000156 1.4624999762
 2201.4667969 2.0000000000 12.499199867 12.250000954 185.97572327 -0.007100000 0.3422000110 2.1291000843 2.5675001144 37.429199219 103.63900757 194.52128601 1.5844999552 1.4085999727
 2201.6191406 2.0000000000 12.538000107 12.250000954 206.41206360 -0.009396320 0.3614000082 2.1393835545 2.5378475189 38.808399200 102.55640411 195.36387634 1.3411899805 1.2604374886
 2201.7714844 2.0000000000 12.576699257 12.250000954 185.13583374 -0.012395193 0.3506000042 2.1440923214 2.5426921844 38.238399506 103.48789978 194.52622986 1.3368064165 1.2365380526
 2201.9240723 2.0000000000 12.545699120 12.250000954 132.76345825 -0.012400000 0.3591000140 2.1472001076 2.5978000164 36.256599426 103.55348969 193.46409607 1.2958999872 1.2676000595
 2202.0764160 2.0000000000 12.491499901 12.250000954 129.48359680 -0.011700000 0.3698999882 2.1486001015 2.6602001190 36.510898590 102.20050049 192.24729919 1.2845000029 1.2890000343
 2202.2287598 2.0000000000 12.483699799 12.250000954 127.04756165 -0.010801440 0.3840000033 2.1522939205 2.6902518272 38.460201263 103.54798889 190.84054565 1.2936853170 1.2957891226
