# LAS format log file from PETREL
# Project units are specified as depth units
#==================================================================
~Version information
VERS.   2.0:
WRAP.   NO:
#==================================================================
~Well
STRT .m      1652.5220947 :
STOP .m      3695.9011230 :
STEP .m     0.00000000 :
NULL .        -999.250000 :
COMP.           : COMPANY
WELL.  35/6-2 S   : WELL
FLD.            : FIELD
LOC.            : LOCATION
SRVC.           : SERVICE COMPANY
DATE.  2018-09-11 14:48:59   : Log Export Date {yyyy-MM-dd HH:mm:ss}
PROV.           : PROVINCE
UWI.   35/6-2 S   : UNIQUE WELL ID
API.            : API NUMBER
#==================================================================
~Curve
DEPT .m                   : DEPTH
Lithology_geolink ._      : Lithology_geolink
CALI .in                  : CALI
BS .in                    : BS
ROP .m/h                  : ROP
DRHO .g/cm3               : DRHO
NPHI .m3/m3               : NPHI
RHOB .g/cm3               : RHOB
PEF .b/e                  : PEF
GR .gAPI                  : GR
DTC .us/ft                : DTC
DTS .us/ft                : DTS
RDEP .ohm.m               : RDEP
RMED .ohm.m               : RMED
~Parameter
#==================================================================
~Ascii
# ...
 3416.0947266 6.0000000000 8.3889999390 8.5000000000 16.483266830 0.0017000000 0.2483000010 2.6638998985 3.5269999504 91.440498352 69.825500488 123.56580353 16.131299973 16.738300323
 3416.2473145 6.0000000000 8.3545999527 8.5000000000 14.139435768 0.0054000001 0.2739000022 2.6624999046 3.6219000816 91.044799805 69.945602417 124.01920319 13.425100327 14.062600136
 3416.3996582 6.0000000000 8.3431997299 8.5000000000 13.856955528 0.0052000000 0.2883999944 2.6556999683 3.6877000332 102.06089783 70.051696777 124.01190186 12.653400421 13.316599846
 3416.5520020 7.0000000000 8.3545999527 8.5000000000 13.846129417 0.0005000000 0.2763000131 2.6421999931 3.6977000237 111.47389984 70.096397400 123.95500183 13.347599983 14.059599876
 3416.7043457 7.0000000000 8.3545999527 8.5000000000 13.523949623 0.0083999997 0.2610999942 2.6754999161 3.6814000607 111.96679688 70.469398499 124.94619751 14.325200081 14.698399544
 3416.8566895 7.0000000000 8.3431997299 8.5000000000 11.285104752 0.0111999996 0.2608999908 2.7070000172 3.6874001026 111.02819824 70.577499390 124.23159790 14.245300293 14.287500381
 3417.0092773 7.0000000000 8.6064996719 8.5000000000 11.992126465 0.0108000003 0.2495000064 2.7209000587 3.6138999462 111.02819824 69.314002991 125.78189087 15.463199615 15.606499672
 3417.1616211 7.0000000000 8.4004001617 8.5000000000 11.703412056 -0.000600000 0.2293000072 2.6851000786 3.4477999210 109.40409851 68.042503357 126.14739990 15.395099640 15.711400032
 3417.3139648 6.0000000000 8.5033998489 8.5000000000 11.553149223 -0.006900000 0.2204000056 2.6512999535 3.2634999752 106.00830078 67.781700134 121.95339203 14.785400391 15.150699615
 3417.4663086 6.0000000000 8.4690999985 8.5000000000 11.501641273 -0.005300000 0.2500000000 2.6547999382 3.1277000904 105.31819916 66.791099548 121.64640045 15.203200340 15.552800179
 3417.6188965 6.0000000000 8.4462003708 8.5000000000 11.264107704 -0.003200000 0.2540999949 2.6749000549 3.1043000221 105.58429718 67.920402527 118.78099060 15.421600342 15.857299805
 3417.7712402 6.0000000000 8.4919996262 8.5000000000 12.756889343 -0.000300000 0.2043000013 2.6995999813 3.1449999809 106.32250214 68.404701233 115.24961090 18.336099625 18.988599777
 3417.9235840 6.0000000000 8.5073003769 8.5000000000 12.286417007 -0.001800000 0.1792999953 2.6986999512 3.2523000240 107.70179749 69.026901245 117.13289642 18.513200760 19.563800812
 3418.0759277 6.0000000000 8.4919996262 8.5000000000 11.936351776 -0.003900000 0.1808000058 2.6921000481 3.3199000359 112.14170074 68.587997437 120.13990021 17.503999710 18.396400452
 3418.2285156 6.0000000000 8.4919996262 8.5000000000 12.422244072 -0.006100000 0.2098000050 2.6853001118 3.3306999207 112.58470154 69.996299744 123.67470551 15.943200111 16.753499985
 3418.3808594 6.0000000000 8.4919996262 8.5000000000 14.962927818 -0.004900000 0.2096000016 2.6923999786 3.2964000702 111.44750214 70.059501648 125.22440338 15.967599869 16.708999634
 3418.5332031 7.0000000000 8.4919996262 8.5000000000 14.826771736 -0.004400000 0.2222000062 2.6968998909 3.2474999428 104.29959869 69.862602234 126.70929718 15.614500046 16.226600647
 3418.6855469 7.0000000000 8.5149002075 8.5000000000 14.863844872 -0.002800000 0.2343000025 2.7042000294 3.2049999237 107.69539642 69.829902649 126.15390015 14.460399628 15.017499924
 3418.8378906 7.0000000000 8.4919996262 8.5000000000 15.228673935 -0.004000000 0.2388000041 2.6977999210 3.2032999992 111.26940155 69.117599487 127.29900360 14.474599838 14.942999840
 3418.9904785 7.0000000000 8.5149002075 8.5000000000 14.950131416 -0.004200000 0.2421000004 2.6884999275 3.2246000767 116.79270172 68.526000977 125.66339874 13.736000061 13.887599945
 3419.1428223 7.0000000000 8.5033998489 8.5000000000 15.817257881 -0.007600000 0.2446999997 2.6596999168 3.2562999725 115.17880249 68.902297974 122.51899719 13.983699799 14.156900406
 3419.2951660 7.0000000000 8.4576997757 8.5000000000 15.584318161 -0.008600000 0.2404000014 2.6403000355 3.2091000080 116.80329895 68.947502136 123.08360291 16.975500107 17.026699066
 3419.4475098 7.0000000000 8.4690999985 8.5000000000 15.831364632 -0.011200000 0.2515000105 2.6203999519 3.1252000332 117.65440369 68.925300598 125.13870239 16.930999756 17.095100403
 3419.6000977 7.0000000000 8.4118995667 8.5000000000 16.028543472 -0.010400000 0.2732000053 2.6233000755 3.0469999313 118.95410156 69.594596863 126.07340240 14.139800072 14.643799782
 3419.7524414 7.0000000000 8.4118995667 8.5000000000 16.319225311 -0.006600000 0.3050000072 2.6305000782 3.0520000458 117.00460052 68.930999756 126.90119934 13.191100121 13.751199722
 3419.9047852 7.0000000000 8.4004001617 8.5000000000 16.333990097 -0.004500000 0.3125000000 2.6426000595 3.1261999607 117.77809906 69.145797729 127.00859833 12.866800308 13.584600449
 3420.0571289 7.0000000000 8.4118995667 8.5000000000 16.057086945 -0.004000000 0.3088999987 2.6412000656 3.2035999298 116.47840118 69.359298706 127.32119751 13.483499527 14.371199608
 3420.2097168 6.0000000000 8.4118995667 8.5000000000 16.057086945 -0.005800000 0.3073000014 2.6452000141 3.2321999073 109.98629761 68.917602539 127.24240112 13.758199692 14.321999550
 3420.3620605 6.0000000000 8.4118995667 8.5000000000 16.837924957 -0.005100000 0.3104999959 2.6454000473 3.2393999100 106.71350098 69.585800171 127.22669983 12.485099792 12.901499748
 3420.5144043 6.0000000000 8.4118995667 8.5000000000 17.142717361 -0.004800000 0.3219999969 2.6508998871 3.2616999149 108.32740021 69.582000732 127.25260162 13.157699585 13.536000252
 3420.6667480 6.0000000000 8.4462003708 8.5000000000 17.391075134 -0.004400000 0.3269000053 2.6533999443 3.2820999622 107.94869995 70.224998474 127.23549652 11.801300049 12.234499931
 3420.8190918 6.0000000000 8.4462003708 8.5000000000 17.874671936 -0.004600000 0.3264999986 2.6487998962 3.2869000435 99.849899292 71.885002136 127.24649048 11.762800217 12.045299530
 3420.9716797 6.0000000000 8.4118995667 8.5000000000 19.209972382 -0.005100000 0.3208999932 2.6417000294 3.2899000645 100.49430084 72.501701355 130.63189697 11.792799950 12.023900032
 3421.1240234 6.0000000000 8.4232997894 8.5000000000 20.761484146 -0.005300000 0.3167999983 2.6412000656 3.3131999969 106.43190002 71.998497009 131.09089661 10.479200363 10.765999794
 3421.2763672 6.0000000000 8.4232997894 8.5000000000 20.111221313 -0.003000000 0.3005000055 2.6579000950 3.3352999687 110.33080292 70.416496277 124.69950104 10.818300247 10.989000320
 3421.4287109 6.0000000000 8.4232997894 8.5000000000 19.250984192 -0.001400000 0.2953000069 2.6637001038 3.3331999779 104.26920319 70.868797302 127.40419769 11.805800438 11.989800453
 3421.5812988 6.0000000000 8.3545999527 8.5000000000 18.947505951 -0.002400000 0.2912999988 2.6463000774 3.3220000267 100.43560028 70.345596313 134.65299988 13.104599953 13.237700462
 3421.7336426 6.0000000000 8.4004001617 8.5000000000 18.000000000 -0.003200000 0.2520000041 2.6280000210 3.3434998989 98.161300659 70.511199951 125.30829620 12.962499619 13.137000084
 3421.8859863 6.0000000000 8.4462003708 8.5000000000 18.175853729 -0.003900000 0.2384999990 2.6375999451 3.4163000584 98.752700806 70.561500549 125.70089722 11.748399734 12.025799751
 3422.0383301 6.0000000000 8.4919996262 8.5000000000 18.480644226 0.0118000004 0.2164999992 2.6837999821 3.4795000553 100.27040100 69.333099365 125.64129639 10.828599930 11.443300247
 3422.1909180 7.0000000000 8.4232997894 8.5000000000 18.237205505 0.0658999979 0.2592000067 2.7792000771 3.4256999493 106.88500214 70.449096680 125.62030792 12.240900040 12.997699738
 3422.3432617 7.0000000000 8.4232997894 8.5000000000 16.869750977 0.1287000030 0.2637000084 2.8705000877 3.3034999371 108.30989838 72.795501709 125.70100403 11.494400024 12.144200325
 3422.4956055 7.0000000000 8.4004001617 8.5000000000 15.138778687 0.1679999977 0.2389000058 2.9282000065 3.2174999714 111.46820068 72.698898315 125.65280151 10.041099548 10.255499840
 3422.6479492 7.0000000000 8.3889999390 8.5000000000 14.411418915 0.1314000040 0.1942999959 2.8613998890 3.1963999271 109.56469727 72.787597656 125.84010315 9.9259004593 10.041199684
