# LAS format log file from PETREL
# Project units are specified as depth units
#==================================================================
~Version information
VERS.   2.0:
WRAP.   NO:
#==================================================================
~Well
STRT .m      1652.5220947 :
STOP .m      3695.9011230 :
STEP .m     0.00000000 :
NULL .        -999.250000 :
COMP.           : COMPANY
WELL.  35/6-2 S   : WELL
FLD.            : FIELD
LOC.            : LOCATION
SRVC.           : SERVICE COMPANY
DATE.  2018-09-11 14:48:59   : Log Export Date {yyyy-MM-dd HH:mm:ss}
PROV.           : PROVINCE
UWI.   35/6-2 S   : UNIQUE WELL ID
API.            : API NUMBER
#==================================================================
~Curve
DEPT .m                   : DEPTH
Lithology_geolink ._      : Lithology_geolink
CALI .in                  : CALI
BS .in                    : BS
ROP .m/h                  : ROP
DRHO .g/cm3               : DRHO
NPHI .m3/m3               : NPHI
RHOB .g/cm3               : RHOB
PEF .b/e                  : PEF
GR .gAPI                  : GR
DTC .us/ft                : DTC
DTS .us/ft                : DTS
RDEP .ohm.m               : RDEP
RMED .ohm.m               : RMED
~Parameter
#==================================================================
~Ascii
# ...
 1786.6340332 15.000000000 12.483699799 12.250000954 53.099082947 -0.001400000 0.3910999894 2.5501000881 3.4391999245 54.495998383 112.46669769 238.17939758 1.6157000065 1.6905000210
 1786.7863770 15.000000000 12.452700615 12.250000954 51.207675934 -0.009000000 0.3716000021 2.4349999428 3.0025999546 60.835300446 111.40750122 240.76847839 1.3529000282 1.4104000330
 1786.9388428 15.000000000 12.460499763 12.250000954 49.323490143 -0.010000000 0.3533000052 2.3803999424 2.7109999657 64.329399109 108.57099152 241.59771729 1.3568999767 1.4184000492
 1787.0911865 15.000000000 12.499199867 12.250000954 50.160106659 -0.009800000 0.3486000001 2.3785998821 2.6166999340 61.940700531 109.48259735 240.71740723 1.4003000259 1.4624999762
 1787.2436523 15.000000000 12.545699120 12.250000954 50.642715454 -0.009900000 0.3544999957 2.3778998852 2.6275000572 61.430301666 110.74099731 240.76690674 1.5191999674 1.5457999706
 1787.3959961 15.000000000 12.568999290 12.250000954 50.419292450 -0.009400000 0.3253000081 2.3731999397 2.6157000065 61.963699341 111.42610168 240.92790222 1.5577000380 1.5829999447
 1787.5484619 15.000000000 12.561200142 12.250000954 50.419292450 -0.008700000 0.3416000009 2.3703000546 2.5675001144 65.290100098 111.96179962 241.44189453 1.4774999619 1.4776999950
 1787.7008057 15.000000000 12.538000107 12.250000954 50.209972382 -0.009300000 0.3580999970 2.3647999763 2.5367999077 63.963001251 113.20069885 243.92340088 1.4800000191 1.4822000265
 1787.8532715 15.000000000 12.499199867 12.250000954 50.733268738 -0.008900000 0.3671999872 2.3668000698 2.5162000656 63.963001251 113.62699890 246.41171265 1.4686000347 1.4832999706
 1788.0056152 15.000000000 12.499199867 12.250000954 54.877624512 -0.009300000 0.3806000054 2.3666000366 2.5055999756 61.388401031 113.80259705 247.40020752 1.4952000380 1.5022000074
 1788.1580811 15.000000000 12.499199867 12.250000954 81.819885254 -0.008900000 0.3598999977 2.3685998917 2.4902999401 65.358299255 114.04700470 248.20570374 1.4977999926 1.5084999800
 1788.3104248 15.000000000 12.491499901 12.250000954 89.062004089 -0.009100000 0.3682999909 2.3657000065 2.4892001152 64.146697998 114.37359619 248.28570557 1.4953000546 1.4944000244
 1788.4627686 15.000000000 12.491499901 12.250000954 92.591209412 -0.008500000 0.3601000011 2.3650999069 2.4976000786 64.606399536 114.48049927 247.08140564 1.4706000090 1.4726999998
 1788.6152344 15.000000000 12.545699120 12.250000954 91.919952393 -0.008500000 0.3587000072 2.3650000095 2.4958000183 63.778900146 114.48580170 245.82531738 1.4589999914 1.4648000002
 1788.7675781 15.000000000 12.545699120 12.250000954 92.851379395 -0.007800000 0.3551000059 2.3684999943 2.4925999641 64.923400879 114.48930359 246.68719482 1.4725999832 1.4731999636
 1788.9200439 15.000000000 12.561200142 12.250000954 101.12204742 -0.006100000 0.3312000036 2.3717999458 2.5134999752 65.089996338 114.12510681 247.02450562 1.4680999517 1.4701000452
 1789.0723877 15.000000000 12.574800491 12.250000954 102.85728455 -0.004100000 0.3407000005 2.3733999729 2.5495998859 68.287002563 114.37280273 248.31190491 1.4546999931 1.4570000172
 1789.2248535 15.000000000 12.568999290 12.250000954 101.86417389 -0.002800000 0.3346000016 2.3768999577 2.5480000973 69.199798584 113.62009430 246.65480042 1.4524999857 1.4572000504
 1789.3771973 15.000000000 12.499199867 12.250000954 97.058403015 -0.002200000 0.3619999886 2.3835000992 2.5139999390 66.902999878 113.05509949 242.66979980 1.4620000124 1.4649000168
 1789.5296631 15.000000000 12.499199867 12.250000954 96.768699646 -0.001800000 0.3754000068 2.3893001080 2.4976999760 64.606101990 112.60780334 243.71159363 1.4709999561 1.4738999605
 1789.6820068 15.000000000 12.514699936 12.250000954 94.448165894 -0.002400000 0.3810999990 2.3854000568 2.5483999252 66.628997803 111.05098724 243.25270081 1.4768999815 1.4785000086
 1789.8344727 15.000000000 12.506999969 12.250000954 93.441932678 -0.003700000 0.3657000065 2.3773999214 2.6361999512 67.915298462 112.91169739 243.57060242 1.4749000072 1.4811999798
 1789.9868164 15.000000000 12.545699120 12.250000954 93.266075134 -0.003500000 0.3605999947 2.3777999878 2.7083001137 65.618400574 112.94221497 244.48699951 1.5034999847 1.5085999966
 1790.1392822 15.000000000 12.561200142 12.250000954 93.267387390 -0.003500000 0.3612999916 2.3759999275 2.7434000969 61.020900726 112.99669647 243.69369507 1.5006999969 1.5074000359
 1790.2916260 15.000000000 12.576699257 12.250000954 90.000000000 -0.003800000 0.3616999984 2.3678998947 2.7248001099 62.031501770 112.22570038 245.87280273 1.4917999506 1.5017999411
 1790.4439697 15.000000000 12.584500313 12.250000954 89.235565186 -0.005700000 0.3481000066 2.3559000492 2.6735999584 61.204700470 113.06391144 249.60607910 1.4650000334 1.4644999504
 1790.5964355 15.000000000 12.576699257 12.250000954 89.840553284 -0.006200000 0.3508999944 2.3547000885 2.6080000401 63.227600098 113.51399994 248.12159729 1.4546999931 1.4644999504
 1790.7487793 15.000000000 12.545699120 12.250000954 90.703742981 -0.005000000 0.3483000100 2.3647000790 2.5648999214 65.524398804 113.70749664 247.30819702 1.4797999859 1.4835000038
 1790.9012451 15.000000000 12.545699120 12.250000954 91.843505859 -0.004000000 0.3395999968 2.3735001087 2.5471000671 66.827201843 113.84951019 249.61819458 1.4622000456 1.4686000347
 1791.0535889 15.000000000 12.553501129 12.250000954 95.265090942 -0.004500000 0.3393999934 2.3749001026 2.5622999668 64.954299927 113.86119843 246.75370789 1.4406000376 1.4407999516
 1791.2060547 15.000000000 12.538000107 12.250000954 100.00820160 -0.005600000 0.3452999890 2.3689000607 2.6040999889 64.054100037 113.41110992 242.70849609 1.4370000362 1.4412000179
 1791.3583984 15.000000000 12.499199867 12.250000954 101.26575470 -0.005700000 0.3714999855 2.3654999733 2.6352000237 64.882896423 112.81060028 240.28140259 1.4391000271 1.4386999607
 1791.5108643 15.000000000 12.538000107 12.250000954 106.47145844 -0.004400000 0.3626999855 2.3693997860 2.6217000484 69.472702026 111.88970184 239.31199646 1.4471999407 1.4536999464
 1791.6632080 15.000000000 12.545699120 12.250000954 112.98884583 -0.002800000 0.3542000055 2.3782999516 2.5827999115 70.116401672 110.97750854 238.61880493 1.4766000509 1.4787000418
 1791.8156738 15.000000000 12.553501129 12.250000954 122.26116180 -0.002400000 0.3285000026 2.3796999454 2.5850999355 68.277397156 110.02359772 238.02859497 1.5714999437 1.5607000589
 1791.9680176 15.000000000 12.584500313 12.250000954 125.88025665 -0.001600000 0.3352000117 2.3815000057 2.6124999523 63.980098724 109.82459259 238.39788818 1.6260999441 1.6157000065
 1792.1204834 15.000000000 12.576699257 12.250000954 128.20997620 -0.001500000 0.3415000141 2.3770999908 2.6635999680 61.904998779 109.68939209 239.07670593 1.6306999922 1.6354000568
 1792.2728271 15.000000000 12.576699257 12.250000954 132.94586182 -0.001600000 0.3526000082 2.3738000393 2.6798999310 59.958698273 109.98249817 239.69589233 1.6246000528 1.6280000210
 1792.4251709 15.000000000 12.576699257 12.250000954 139.80873108 -0.000900000 0.3386999965 2.3749001026 2.6682999134 62.918300629 110.37920380 241.38650513 1.6138000488 1.6258000135
 1792.5776367 15.000000000 12.592300415 12.250000954 142.73522949 0.0012000001 0.3467999995 2.3833999634 2.6422998905 68.557403564 110.94760132 243.92340088 1.5526000261 1.5609999895
 1792.7299805 15.000000000 12.592300415 12.250000954 151.23687744 0.0033000000 0.3370000124 2.3933000565 2.6184999943 73.059196472 111.39250183 244.29040527 1.5507999659 1.5547000170
 1792.8824463 15.000000000 12.584500313 12.250000954 153.85630798 0.0027999999 0.3538999856 2.3921000957 2.6161999702 71.955802917 111.51029968 244.60711670 1.5260000229 1.5296000242
 1793.0347900 15.000000000 12.538000107 12.250000954 154.72145081 0.0013000000 0.3393999934 2.3849000931 2.6421000957 70.669601440 111.57039642 244.75990295 1.4953000546 1.4993000031
 1793.1872559 15.000000000 12.522500992 12.250000954 154.72145081 0.0011000000 0.3547999859 2.3824000359 2.6851000786 69.567100525 111.36000061 244.95471191 1.4934999943 1.4862999916
