# LAS format log file from PETREL
# Project units are specified as depth units
#==================================================================
~Version information
VERS.   2.0:
WRAP.   NO:
#==================================================================
~Well
STRT .m      1652.5220947 :
STOP .m      3695.9011230 :
STEP .m     0.00000000 :
NULL .        -999.250000 :
COMP.           : COMPANY
WELL.  35/6-2 S   : WELL
FLD.            : FIELD
LOC.            : LOCATION
SRVC.           : SERVICE COMPANY
DATE.  2018-09-11 14:48:59   : Log Export Date {yyyy-MM-dd HH:mm:ss}
PROV.           : PROVINCE
UWI.   35/6-2 S   : UNIQUE WELL ID
API.            : API NUMBER
#==================================================================
~Curve
DEPT .m                   : DEPTH
Lithology_geolink ._      : Lithology_geolink
CALI .in                  : CALI
BS .in                    : BS
ROP .m/h                  : ROP
DRHO .g/cm3               : DRHO
NPHI .m3/m3               : NPHI
RHOB .g/cm3               : RHOB
PEF .b/e                  : PEF
GR .gAPI                  : GR
DTC .us/ft                : DTC
DTS .us/ft                : DTS
RDEP .ohm.m               : RDEP
RMED .ohm.m               : RMED
~Parameter
#==================================================================
~Ascii
# ...
 2604.7170410 12.000000000 12.654299736 12.250000954 30.000001907 -0.006402243 0.1626999974 2.5347795486 3.2500512600 43.179100037 80.569999695 138.88183594 3.1774113178 3.2158038616
 2604.8693848 12.000000000 12.654299736 12.250000954 30.562007904 -0.005901600 0.1597000062 2.5348000526 3.2713317871 39.030300140 80.434700012 138.85687256 3.3783552647 3.3689088821
 2605.0219727 12.000000000 12.638799667 12.250000954 27.522638321 -0.006598878 0.1729000062 2.5224196911 3.2865757942 41.313701630 81.134407043 139.13246155 3.4311163425 3.4295034409
 2605.1743164 12.000000000 12.615500450 12.250000954 25.567913055 -0.006799680 0.1758999974 2.5164096355 3.2569477558 44.960201263 82.045806885 148.75933838 3.4412837029 3.4533617496
 2605.3266602 12.000000000 12.638799667 12.250000954 26.626312256 -0.007299199 0.1736000031 2.5158009529 3.2072796822 44.743099213 82.405410767 142.06976318 3.3738081455 3.4136638641
 2605.4790039 12.000000000 12.615500450 12.250000954 25.973424911 -0.007799198 0.1647000015 2.5187952518 3.1472961903 42.546798706 81.702301025 143.10331726 3.3078057766 3.3632807732
 2605.6313477 12.000000000 12.615500450 12.250000954 19.543962479 -0.002417280 0.1643999964 2.5205943584 3.0999517441 43.126499176 81.785697937 144.03601074 3.2831785679 3.3356881142
 2605.7839355 12.000000000 12.633000374 12.250000954 19.374671936 -0.000203526 0.1682000011 2.5215983391 3.0737416744 43.005599976 81.499794006 152.47764587 3.2732160091 3.3049490452
 2605.9362793 12.000000000 12.669800758 12.250000954 18.536745071 -0.000599359 0.1762000024 2.5189042091 3.0577256680 41.002399445 82.377700806 150.54721069 3.2267746925 3.2462942600
 2606.0886230 12.000000000 12.669800758 12.250000954 18.536745071 -0.006290866 0.1764999926 2.5144071579 3.0325403214 38.521900177 84.164596558 150.01344299 3.1438329220 3.1682252884
 2606.2409668 12.000000000 12.677499771 12.250000954 18.536745071 -0.004306400 0.1674000025 2.5102133751 2.9614281654 37.613700867 84.342910767 148.32173157 2.8708758354 2.8891952038
 2606.3935547 12.000000000 12.685298920 12.250000954 40.004264832 0.0010913461 0.1743000001 2.5034110546 2.8615598679 40.824798584 85.578109741 149.15415955 2.7334194183 2.7541153431
 2606.5458984 12.000000000 12.685298920 12.250000954 39.133861542 0.0000017628 0.1835999936 2.4925174713 2.7706456184 42.031501770 87.444198608 153.09419250 2.5417072773 2.5726909637
 2606.6982422 12.000000000 12.669800758 12.250000954 33.489830017 -0.003893750 0.2045000046 2.4858107567 2.7212789059 45.328399658 88.548599243 157.67366028 2.2414813042 2.3035316467
 2606.8505859 12.000000000 12.685298920 12.250000954 31.362859726 -0.006691040 0.2069000006 2.4916810989 2.7011644840 43.284999847 88.475997925 159.78912354 2.2545564175 2.2853569984
 2607.0031738 12.000000000 12.700798988 12.250000954 32.531826019 -0.005002724 0.2127999961 2.4990880489 2.6932127476 45.895198822 88.487602234 158.63696289 2.2626872063 2.2609391212
 2607.1555176 12.000000000 12.661999702 12.250000954 30.509189606 -0.004900160 0.2189999968 2.5018954277 2.6775252819 44.792701721 88.032508850 158.98744202 2.2491216660 2.2554087639
 2607.3078613 12.000000000 12.661999702 12.250000954 27.908794403 -0.005099680 0.2099999934 2.5000030994 2.6776998043 46.366199493 88.074699402 158.83772278 2.1944878101 2.2186589241
 2607.4602051 12.000000000 12.646499634 12.250000954 26.214895248 -0.005798878 0.2012999952 2.4953076839 2.6887822151 44.662300110 88.177001953 158.33700562 2.1782259941 2.2174019814
 2607.6127930 12.000000000 12.638799667 12.250000954 22.756889343 -0.005700160 0.1944999993 2.4928040504 2.6983847618 42.581798553 87.903602600 155.83660889 2.2562749386 2.2933781147
 2607.7651367 12.000000000 12.654299736 12.250000954 21.924541473 -0.007996314 0.2002000064 2.4851124287 2.7007961273 44.499500275 88.315093994 155.20330811 2.3188996315 2.3503088951
 2607.9174805 12.000000000 12.650400162 12.250000954 18.888124466 -0.008499200 0.2066999972 2.4844012260 2.6931123734 42.753898621 88.070198059 154.91406250 2.2995312214 2.3217461109
 2608.0698242 12.000000000 12.669800758 12.250000954 17.963911057 -0.009198878 0.2070000023 2.4838008881 2.6881082058 45.306499481 87.537399292 162.46337891 2.2965047359 2.3272910118
 2608.2221680 12.000000000 12.685298920 12.250000954 17.711286545 -0.008003840 0.2111999989 2.4835009575 2.7203962803 42.901599884 87.662590027 153.61584473 2.3070662022 2.3390622139
 2608.3747559 12.000000000 12.685298920 12.250000954 17.458662033 -0.007400962 0.2072000057 2.4856963158 2.7651283741 44.476398468 87.847290039 153.31773376 2.3177828789 2.3509809971
 2608.5270996 12.000000000 12.685298920 12.250000954 16.468175888 -0.005003846 0.2085999995 2.4912910461 2.8135225773 45.394798279 87.497299194 153.58796692 2.3421609402 2.3627810478
 2608.6794434 12.000000000 12.731800079 12.250000954 15.267060280 -0.003302724 0.2002999932 2.4973902702 2.8494424820 44.962501526 87.197998047 153.04096985 2.2684185505 2.3076884747
 2608.8317871 12.000000000 12.755100250 12.250000954 14.975066185 -0.002004160 0.2058999985 2.4977989197 2.8996391296 43.847000122 86.332496643 152.55496216 2.2874383926 2.2969343662
 2608.9843750 12.000000000 12.747300148 12.250000954 14.633858681 -0.001201282 0.2010000050 2.5017936230 2.9616007805 43.742801666 85.665496826 154.77841187 2.3014776707 2.3318438530
 2609.1367188 12.000000000 12.724100113 12.250000954 14.753938675 -0.000700801 0.1881999969 2.5122830868 3.0065279007 43.558898926 85.202590942 154.15650940 2.5389189720 2.5640273094
 2609.2890625 12.000000000 12.708600044 12.250000954 14.657808304 -0.001199199 0.1803999990 2.5229828358 3.0031056404 42.444999695 84.569602966 153.04779053 2.5903182030 2.6223070621
 2609.4414063 12.000000000 12.607799530 12.250000954 14.308398247 -0.003592320 0.1790000051 2.5239968300 2.9654209614 40.343601227 84.310897827 151.56803894 3.0212168694 3.0289945602
 2609.5939941 12.000000000 12.654299736 12.250000954 14.480969429 -0.005896315 0.1835000068 2.5182092190 2.9236667156 42.265098572 83.641502380 149.92672729 3.0414698124 3.0409827232
 2609.7463379 12.000000000 12.654299736 12.250000954 12.729659081 -0.005500641 0.1817000061 2.5173013210 2.9218027592 41.644100189 84.336502075 150.15283203 3.0236287117 3.0516829491
 2609.8986816 12.000000000 12.646499634 12.250000954 11.787730217 -0.005699680 0.1794999987 2.5134062767 3.0163481236 43.010501862 84.977600098 151.10427856 3.0036318302 3.0427143574
 2610.0510254 12.000000000 12.627099991 12.250000954 11.083661079 -0.007097756 0.1921000034 2.5095062256 3.1720504761 42.088798523 84.819297791 150.02624512 2.9167394638 2.9669215679
 2610.2033691 12.000000000 12.592300415 12.250000954 10.440944672 -0.008894240 0.1893000007 2.5055129528 3.2848389149 44.810798645 84.899093628 153.86506653 2.9190919399 2.9470634460
 2610.3559570 12.000000000 12.615500450 12.250000954 10.221456528 -0.009199520 0.1850000024 2.5051007271 3.2511546612 44.075801849 86.099395752 156.83496094 2.8967359066 2.9168484211
 2610.5083008 12.000000000 12.607799530 12.250000954 10.112532616 -0.008401282 0.1781000048 2.5036022663 3.0891599655 46.018299103 87.018699646 157.87753296 2.8314049244 2.8535015583
 2610.6606445 12.000000000 12.607799530 12.250000954 9.7191600800 -0.007002244 0.1939000040 2.5051972866 2.8980064392 45.048801422 87.869796753 159.76945496 2.7951579094 2.8106687069
 2610.8129883 12.000000000 12.623299599 12.250000954 10.146653175 -0.005504800 0.2133000046 2.5056984425 2.7608394623 48.187301636 88.526000977 163.01899719 2.7384817600 2.7596635818
 2610.9655762 13.000000000 12.607799530 12.250000954 10.362532616 -0.004102244 0.2248000056 2.5065984726 2.6808278561 46.520401001 89.312400818 170.98085022 2.5510005951 2.5538301468
 2611.1179199 13.000000000 12.615500450 12.250000954 10.759186745 -0.003900321 0.2245000005 2.5006096363 2.6424612999 47.513599396 89.379806519 173.96832275 2.3296546936 2.3627064228
 2611.2702637 13.000000000 12.654299736 12.250000954 12.379921913 -0.005597275 0.2196000069 2.4898173809 2.6374080181 47.094299316 89.715301514 173.89103699 2.2506263256 2.2861225605
