# LAS format log file from PETREL
# Project units are specified as depth units
#==================================================================
~Version information
VERS.   2.0:
WRAP.   NO:
#==================================================================
~Well
STRT .m      1652.5220947 :
STOP .m      3695.9011230 :
STEP .m     0.00000000 :
NULL .        -999.250000 :
COMP.           : COMPANY
WELL.  35/6-2 S   : WELL
FLD.            : FIELD
LOC.            : LOCATION
SRVC.           : SERVICE COMPANY
DATE.  2018-09-11 14:48:59   : Log Export Date {yyyy-MM-dd HH:mm:ss}
PROV.           : PROVINCE
UWI.   35/6-2 S   : UNIQUE WELL ID
API.            : API NUMBER
#==================================================================
~Curve
DEPT .m                   : DEPTH
Lithology_geolink ._      : Lithology_geolink
CALI .in                  : CALI
BS .in                    : BS
ROP .m/h                  : ROP
DRHO .g/cm3               : DRHO
NPHI .m3/m3               : NPHI
RHOB .g/cm3               : RHOB
PEF .b/e                  : PEF
GR .gAPI                  : GR
DTC .us/ft                : DTC
DTS .us/ft                : DTS
RDEP .ohm.m               : RDEP
RMED .ohm.m               : RMED
~Parameter
#==================================================================
~Ascii
# ...
 3281.9829102 2.0000000000 8.6865997314 8.5000000000 45.945537567 -0.004500000 0.1508000046 2.4354999065 2.4358000755 47.978298187 76.596496582 128.86059570 6.5538001060 6.6940999031
 3282.1352539 2.0000000000 8.7095003128 8.5000000000 46.270999908 -0.005500000 0.1471000016 2.4295001030 2.4193000793 48.251998901 76.457702637 128.00570679 6.5064001083 6.6807999611
 3282.2875977 2.0000000000 8.7209997177 8.5000000000 45.562992096 -0.006000000 0.1367000043 2.4265999794 2.4065001011 45.327800751 76.243591309 128.30299377 6.5040998459 6.6545000076
 3282.4399414 2.0000000000 8.6981000900 8.5000000000 45.503280640 -0.006100000 0.1347000003 2.4265999794 2.3947000504 44.854598999 75.636703491 129.09689331 6.6325998306 6.7267999649
 3282.5925293 2.0000000000 8.6294002533 8.5000000000 45.211288452 -0.005000000 0.1379999965 2.4268999100 2.4217998981 41.602001190 75.829803467 129.29629517 6.6139001846 6.7637000084
 3282.7448730 2.0000000000 8.6522998810 8.5000000000 48.257549286 -0.003100000 0.1448999941 2.4300000668 2.4774000645 40.573501587 75.624198914 128.98399353 6.6360998154 6.7175002098
 3282.8972168 2.0000000000 8.6408004761 8.5000000000 48.387466431 -0.002100000 0.1445000023 2.4360001087 2.5350000858 44.133300781 75.434898376 126.10849762 6.6338000298 6.7597999573
 3283.0495605 2.0000000000 8.4576997757 8.5000000000 52.628936768 -0.002400000 0.1459999979 2.4430000782 2.5378999710 45.920200348 75.135299683 125.68609619 6.5412001610 6.7024998665
 3283.2021484 2.0000000000 8.5263004303 8.5000000000 51.696193695 -0.004700000 0.1425999999 2.4419000149 2.5137000084 46.404399872 74.541198730 125.35820770 6.4973001480 6.6283998489
 3283.3544922 2.0000000000 8.5377998352 8.5000000000 56.270336151 -0.006600000 0.1396999955 2.4437003136 2.4609999657 46.566799164 74.451896667 125.52540588 6.5206999779 6.6656999588
 3283.5068359 2.0000000000 8.5377998352 8.5000000000 57.535434723 -0.007800000 0.1289999932 2.4433999062 2.4298000336 46.545200348 74.211196899 125.52059937 6.6311998367 6.7381000519
 3283.6591797 2.0000000000 8.5607004166 8.5000000000 57.551509857 -0.002500000 0.1360000074 2.4453999996 2.4163000584 46.671901703 74.827400208 125.78971100 6.6686000824 6.7764000893
 3283.8115234 2.0000000000 8.5149002075 8.5000000000 59.020011902 0.0044999998 0.1344999969 2.4465999603 2.4421999454 46.996799469 74.907203674 125.74320221 6.7399001122 6.8108000755
 3283.9641113 2.0000000000 8.5377998352 8.5000000000 57.891403198 0.0054000001 0.1411000043 2.4488999844 2.4760000706 49.686901093 74.434303284 125.92010498 6.7451000214 6.8196001053
 3284.1164551 2.0000000000 8.5720996857 8.5000000000 61.213581085 0.0007000000 0.1348000020 2.4526000023 2.5060999393 49.454799652 74.985099792 125.62310791 6.7859997749 6.9019999504
 3284.2687988 2.0000000000 8.5836000443 8.5000000000 58.439964294 -0.004200000 0.1385000050 2.4509999752 2.5181000233 46.571098328 75.568801880 125.77359772 6.8355998993 6.9379000664
 3284.4211426 2.0000000000 8.5950002670 8.5000000000 54.877624512 -0.003400000 0.1375000030 2.4486000538 2.5473001003 43.415298462 75.200897217 125.39219666 6.8828001022 6.9711999893
 3284.5737305 2.0000000000 8.6294002533 8.5000000000 52.479331970 -0.002500000 0.1405999959 2.4472000599 2.5596001148 43.740200043 75.495697021 125.26889801 6.9661002159 7.0531997681
 3284.7260742 2.0000000000 8.6178998947 8.5000000000 49.722114563 -0.002700000 0.1377000064 2.4505999088 2.5513000488 42.263801575 75.313400269 125.25939941 7.1363000870 7.1996998787
 3284.8784180 2.0000000000 8.5836000443 8.5000000000 45.919288635 -0.003900000 0.1429000050 2.4456999302 2.5192000866 43.725799561 74.989700317 124.81909943 7.1936001778 7.1884999275
 3285.0307617 2.0000000000 8.5377998352 8.5000000000 44.930118561 -0.003200000 0.1456000060 2.4393000603 2.4974999428 43.215900421 74.921791077 124.58969879 7.2526998520 7.3003001213
 3285.1833496 2.0000000000 8.5607004166 8.5000000000 44.103347778 -0.004400000 0.1490000039 2.4358000755 2.4981000423 43.824600220 75.126510620 124.31829834 7.3642997742 7.4028000832
 3285.3356934 2.0000000000 8.5607004166 8.5000000000 43.856300354 -0.003300000 0.1439999938 2.4398999214 2.5332000256 43.499698639 75.234901428 124.44319153 7.7399997711 7.6517000198
 3285.4880371 2.0000000000 8.5492000580 8.5000000000 44.225395203 -0.003700000 0.1424999982 2.4440999031 2.6119999886 44.780399323 75.161903381 123.57610321 7.7399997711 7.6517000198
 3285.6403809 2.0000000000 8.5377998352 8.5000000000 45.570209503 -0.002100000 0.1495999992 2.4470000267 2.6642999649 42.521099091 75.283599854 123.62079620 8.0673999786 7.9439997673
 3285.7927246 2.0000000000 8.5836000443 8.5000000000 46.596130371 -0.002600000 0.1515000015 2.4493999481 2.6326000690 40.734100342 75.375999451 123.69290924 8.1337995529 8.0472002029
 3285.9453125 2.0000000000 8.5950002670 8.5000000000 48.518043518 -0.005500000 0.1450999975 2.4495000839 2.5422000885 42.552799225 75.239295959 123.60800171 8.3704004288 8.3746004105
 3286.0976563 2.0000000000 8.6522998810 8.5000000000 49.047245026 -0.008200000 0.1270000041 2.4588000774 2.5188999176 46.126800537 74.866798401 124.26429749 8.3465995789 8.3479995728
 3286.2500000 2.0000000000 8.6752004623 8.5000000000 53.479335785 -0.008600000 0.1076000035 2.4877998829 2.6333999634 48.287300110 74.434997559 124.83220673 8.2713003159 8.2649002075
 3286.4023438 16.000000000 8.6522998810 8.5000000000 53.414371490 -0.008900000 0.0886000022 2.5269999504 2.8310999870 46.022701263 73.713996887 123.36799622 8.3027000427 8.2819004059
 3286.5549316 16.000000000 8.6981000900 8.5000000000 51.724411011 -0.008000000 0.0733999982 2.5638999939 2.9865999222 48.621898651 73.450202942 121.73299408 8.5886001587 8.5978002548
 3286.7072754 16.000000000 8.6981000900 8.5000000000 50.150592804 -0.006200000 0.0716999993 2.5789999962 2.9677999020 46.889900208 73.477401733 121.46730042 8.8212995529 8.8014001846
 3286.8596191 2.0000000000 8.7095003128 8.5000000000 51.719161987 -0.004300000 0.0907000005 2.5599999428 2.8157999516 45.406299591 74.105499268 122.14960480 8.8458995819 8.8297996521
 3287.0119629 2.0000000000 8.6522998810 8.5000000000 52.479331970 -0.003900000 0.1159999967 2.5181999207 2.6050000191 42.360099792 75.472000122 123.34329987 7.4839000702 7.4535999298
 3287.1645508 2.0000000000 8.6408004761 8.5000000000 51.281826019 -0.004600000 0.1416999996 2.4763998985 2.4537999630 44.530799866 75.874198914 124.52960205 7.3152999878 7.3027000427
 3287.3168945 2.0000000000 8.7209997177 8.5000000000 50.635826111 -0.005800000 0.1544999927 2.4540998936 2.3633000851 46.826801300 75.689201355 126.29598236 6.9911999702 7.0450000763
 3287.4692383 2.0000000000 8.7209997177 8.5000000000 54.710632324 -0.005200000 0.1509000063 2.4479000568 2.3322999477 47.712699890 75.419601440 126.94149780 6.9997000694 7.0040998459
 3287.6215820 2.0000000000 8.6294002533 8.5000000000 54.877624512 -0.005500000 0.1451999992 2.4437999725 2.3427999020 48.849800110 75.202102661 126.69909668 7.0222001076 7.0033001900
 3287.7739258 2.0000000000 8.6637001038 8.5000000000 55.728023529 -0.003800000 0.1342999935 2.4546999931 2.3159000874 49.686798096 74.626602173 126.55500031 7.0588998795 6.9828000069
 3287.9265137 2.0000000000 8.6752004623 8.5000000000 56.779529572 -0.003600000 0.1286000013 2.4612998962 2.2795999050 49.686798096 75.028999329 126.07420349 7.0630998611 6.9920997620
 3288.0788574 2.0000000000 8.6637001038 8.5000000000 55.728023529 -0.002700000 0.1357000023 2.4646999836 2.2630000114 47.575000763 74.547500610 126.17829895 7.0131001472 7.0216999054
 3288.2312012 2.0000000000 8.6637001038 8.5000000000 57.875980377 -0.001700000 0.1404999942 2.4611999989 2.3282001019 46.541500092 75.043701172 126.26339722 6.9498000145 6.9976000786
 3288.3835449 2.0000000000 8.6522998810 8.5000000000 57.875980377 -0.001300000 0.1473000050 2.4614000320 2.3956000805 46.752300262 74.838600159 126.11499786 6.8392000198 6.9706997871
 3288.5361328 2.0000000000 8.6752004623 8.5000000000 57.875980377 -0.002200000 0.1447000057 2.4583001137 2.4314000607 47.564601898 74.415992737 126.62630463 6.8467998505 6.9604001045
