# LAS format log file from PETREL
# Project units are specified as depth units
#==================================================================
~Version information
VERS.   2.0:
WRAP.   NO:
#==================================================================
~Well
STRT .m      1652.5220947 :
STOP .m      3695.9011230 :
STEP .m     0.00000000 :
NULL .        -999.250000 :
COMP.           : COMPANY
WELL.  35/6-2 S   : WELL
FLD.            : FIELD
LOC.            : LOCATION
SRVC.           : SERVICE COMPANY
DATE.  2018-09-11 14:48:59   : Log Export Date {yyyy-MM-dd HH:mm:ss}
PROV.           : PROVINCE
UWI.   35/6-2 S   : UNIQUE WELL ID
API.            : API NUMBER
#==================================================================
~Curve
DEPT .m                   : DEPTH
Lithology_geolink ._      : Lithology_geolink
CALI .in                  : CALI
BS .in                    : BS
ROP .m/h                  : ROP
DRHO .g/cm3               : DRHO
NPHI .m3/m3               : NPHI
RHOB .g/cm3               : RHOB
PEF .b/e                  : PEF
GR .gAPI                  : GR
DTC .us/ft                : DTC
DTS .us/ft                : DTS
RDEP .ohm.m               : RDEP
RMED .ohm.m               : RMED
~Parameter
#==================================================================
~Ascii
# ...
 2872.9409180 13.000000000 12.669800758 12.250000954 48.419372559 -0.006987840 0.2008086443 2.5708215237 4.1754369736 55.486656189 80.297859192 149.03672791 3.4727220535 3.4874184132
 2873.0935059 13.000000000 12.693099022 12.250000954 45.690395355 -0.005602243 0.2002009749 2.5773894787 4.0960268974 53.107917786 79.760353088 148.76464844 3.4657118320 3.4701280594
 2873.2458496 13.000000000 12.600000381 12.250000954 36.452484131 -0.005300480 0.1990019232 2.5834901333 4.0801253319 49.892253876 79.263092041 149.20738220 3.6631829739 3.6104745865
 2873.3981934 13.000000000 12.633000374 12.250000954 33.039577484 -0.005100321 0.1931094676 2.5811038017 4.1313180923 46.054054260 79.047241211 149.00064087 3.6616032124 3.6383557320
 2873.5505371 13.000000000 12.638799667 12.250000954 35.817180634 -0.005797760 0.1872188747 2.5736241341 4.1510372162 44.484218597 78.879348755 148.94924927 3.6466479301 3.6339142323
 2873.7031250 13.000000000 12.615500450 12.250000954 35.645305634 -0.005300801 0.1833062470 2.5668110847 4.1245422363 46.039196014 79.000312805 149.72984314 3.7374541759 3.7047863007
 2873.8554688 13.000000000 12.615500450 12.250000954 35.645015717 -0.005100321 0.1919860542 2.5651025772 4.0617008209 47.877056122 79.605926514 149.20434570 3.7647564411 3.6934182644
 2874.0078125 13.000000000 12.646499634 12.250000954 33.553554535 -0.004201442 0.2002866864 2.5638022423 4.0739798546 51.006084442 79.774536133 149.48803711 3.3934960365 3.4309213161
 2874.1601563 13.000000000 12.654299736 12.250000954 33.027084351 -0.002402885 0.1998008043 2.5716874599 4.1315073967 51.737831116 80.105369568 149.57856750 3.4608907700 3.4563584328
 2874.3125000 13.000000000 12.654299736 12.250000954 37.801597595 0.0003910400 0.1926230341 2.5831632614 4.1925044060 51.189266205 80.222923279 149.63990784 3.5190138817 3.4739437103
 2874.4650879 13.000000000 12.646499634 12.250000954 37.816928864 0.0010988782 0.1832150668 2.5801050663 4.2676796913 52.563991547 80.200027466 149.79125977 3.4598951340 3.4216840267
 2874.6174316 13.000000000 12.677499771 12.250000954 36.737293243 0.0019985577 0.1824012846 2.5724124908 4.3160228729 53.942092896 80.283363342 148.89501953 3.3930072784 3.3482177258
 2874.7697754 13.000000000 12.720198631 12.250000954 43.889762878 0.0039967950 0.1951794773 2.5663096905 4.3681163788 57.339550018 80.405403137 145.69464111 3.2596137524 3.2525532246
 2874.9221191 13.000000000 12.716300011 12.250000954 44.189037323 0.0053955200 0.2016791999 2.5699880123 4.3326144218 57.121917725 80.601768494 146.07844543 3.1699869633 3.2088398933
 2875.0747070 13.000000000 12.739600182 12.250000954 43.575134277 0.0069974363 0.2098868638 2.5837779045 4.2702002525 55.194992065 80.439048767 148.64547729 3.1368527412 3.1550860405
 2875.2270508 13.000000000 12.786099434 12.250000954 44.888309479 0.0044041667 0.2051076889 2.5969786644 4.1306242943 53.907165527 80.133789063 146.00025940 3.2566075325 3.2454547882
 2875.3793945 13.000000000 12.809301376 12.250000954 44.890419006 0.0021036859 0.2059985548 2.6135733128 4.0588150024 53.577926636 79.947494507 145.71525574 3.3146071434 3.2853360176
 2875.5317383 13.000000000 12.832599640 12.250000954 50.542877197 -0.001787520 0.1985240132 2.6195807457 4.0307898521 52.478427887 80.246337891 145.84757996 3.2783167362 3.3102204800
 2875.6843262 13.000000000 12.917900085 12.250000954 50.561023712 -0.002099519 0.1933083236 2.6231942177 4.0037431717 51.832630157 79.667533875 142.22950745 3.5971879959 3.5035898685
 2875.8366699 13.000000000 12.917900085 12.250000954 46.634254456 -0.002100000 0.1992903948 2.6150131226 3.8988683224 49.170372009 79.560867310 145.47528076 3.4191865921 3.4406015873
 2875.9890137 13.000000000 12.910099983 12.250000954 47.467487335 -0.001600801 0.2052903920 2.6076116562 3.7925703526 49.723403931 79.554718018 141.32496643 3.4189000130 3.4405000210
 2876.1413574 13.000000000 12.894599915 12.250000954 53.102504730 -0.000701442 0.2013064027 2.5924243927 3.8462135792 48.708328247 78.892562866 143.48661804 3.2609534264 3.3039193153
 2876.2937012 13.000000000 12.941100121 12.250000954 56.598056793 0.0153484801 0.1999044865 2.5635924339 4.2679462433 49.622959137 78.815650940 143.03048706 3.7643830776 3.6676318645
 2876.4462891 13.000000000 12.948900223 12.250000954 61.432220459 0.0550363809 0.2024958283 2.5323500633 5.0196952820 49.734725952 78.633888245 143.39291382 3.7429368496 3.6525261402
 2876.5986328 13.000000000 12.633000374 12.250000954 57.696292877 0.1127075329 0.2098881453 2.5176236629 5.8422813416 52.677875519 78.469657898 143.83668518 3.4054417610 3.3857281208
 2876.7509766 13.000000000 12.600000381 12.250000954 54.715408325 0.1623205245 0.2073041797 2.5496485233 6.3549795151 53.141464233 79.412590027 143.92506409 3.4212737083 3.4411103725
 2876.9033203 13.000000000 12.623299599 12.250000954 54.710632324 0.1730657518 0.1923480034 2.5965495110 6.4240808487 56.514972687 78.599525452 142.52479553 3.4788155556 3.5175549984
 2877.0559082 13.000000000 12.762801170 12.250000954 54.061733246 0.1433477551 0.1875076890 2.6275503635 6.1616215706 53.582820892 78.510139465 142.10287476 3.4859888554 3.5285825729
 2877.2082520 13.000000000 12.879100800 12.250000954 51.543739319 0.0870902240 0.1818091273 2.6179153919 5.7038345337 52.935729980 78.657066345 139.67698669 3.6321654320 3.5832123756
 2877.3605957 13.000000000 12.925600052 12.250000954 52.177455902 0.0372798070 0.1924828440 2.5822572708 5.2724914551 48.254711151 78.579322815 138.63117981 3.5895686150 3.5849974155
 2877.5129395 13.000000000 12.933401108 12.250000954 51.578697205 0.0088908803 0.1921012849 2.5508008003 5.0169181824 48.705131531 78.750152588 138.14445496 3.5893006325 3.6167979240
 2877.6655273 13.000000000 12.948900223 12.250000954 52.631179810 0.0021107371 0.1895041764 2.5331280231 4.9728693962 45.861865997 77.406257629 139.00730896 3.8035562038 3.7857289314
 2877.8178711 13.000000000 12.948900223 12.250000954 48.861370087 0.0232660249 0.1790168285 2.5531678200 5.0623564720 47.233791351 75.955619812 138.59796143 3.8684961796 3.8403127193
 2877.9702148 13.000000000 12.840399742 12.250000954 48.779979706 0.0440666676 0.1578339785 2.5762629509 5.1196084023 45.774444580 75.646293640 138.15989685 3.8623099327 3.8873245716
 2878.1225586 13.000000000 12.894599915 12.250000954 49.720603943 0.0453979187 0.1394294947 2.5852856636 5.0794644356 47.509113312 75.272499084 136.72399902 4.2086439133 4.1814279556
 2878.2749023 13.000000000 12.941100121 12.250000954 49.997802734 0.0249656010 0.1215572804 2.5702483654 4.9869966507 44.396900177 74.700431824 135.68850708 4.1855759621 4.2695188522
 2878.4274902 13.000000000 12.894599915 12.250000954 49.998687744 0.0052315705 0.1162084937 2.5507311821 5.0169515610 44.111640930 74.437316895 135.72802734 5.0428237915 4.8738307953
 2878.5798340 13.000000000 12.917900085 12.250000954 50.985950470 0.0045011216 0.1304770857 2.5320301056 5.2697939873 42.122192383 73.803710938 136.60539246 5.0860328674 4.9144368172
 2878.7321777 13.000000000 13.018698692 12.250000954 47.425994873 0.0213729180 0.1383873373 2.5470759869 5.5415644646 44.229614258 75.514251709 137.42268372 4.4293541908 4.4721097946
 2878.8845215 13.000000000 12.685298920 12.250000954 49.172523499 0.0368504003 0.1550465673 2.5800940990 5.6093835831 43.866474152 75.889892578 139.00433350 4.3182535172 4.3632469177
 2879.0371094 13.000000000 12.972200394 12.250000954 48.259025574 0.0427905470 0.1576958299 2.6217331886 5.3426284790 42.276947021 76.044357300 138.41773987 4.3406634331 4.3081879616
 2879.1894531 13.000000000 13.018698692 12.250000954 48.780326843 0.0253280438 0.1707790047 2.6140124798 4.9165835381 42.274398804 76.621574402 138.57315063 4.4008035660 4.3497333527
 2879.3417969 13.000000000 12.956601143 12.250000954 48.391376495 0.0077282051 0.1798854172 2.5875425339 4.5774431229 43.467384338 76.884582520 139.39408875 4.0562529564 3.9468467236
 2879.4941406 13.000000000 12.917900085 12.250000954 47.870765686 -0.001171520 0.1884724796 2.5721492767 4.4063472748 48.971439362 77.523345947 140.72862244 3.7460939884 3.7433512211
