# LAS format log file from PETREL
# Project units are specified as depth units
#==================================================================
~Version information
VERS.   2.0:
WRAP.   NO:
#==================================================================
~Well
STRT .m      1652.5220947 :
STOP .m      3695.9011230 :
STEP .m     0.00000000 :
NULL .        -999.250000 :
COMP.           : COMPANY
WELL.  35/6-2 S   : WELL
FLD.            : FIELD
LOC.            : LOCATION
SRVC.           : SERVICE COMPANY
DATE.  2018-09-11 14:48:59   : Log Export Date {yyyy-MM-dd HH:mm:ss}
PROV.           : PROVINCE
UWI.   35/6-2 S   : UNIQUE WELL ID
API.            : API NUMBER
#==================================================================
~Curve
DEPT .m                   : DEPTH
Lithology_geolink ._      : Lithology_geolink
CALI .in                  : CALI
BS .in                    : BS
ROP .m/h                  : ROP
DRHO .g/cm3               : DRHO
NPHI .m3/m3               : NPHI
RHOB .g/cm3               : RHOB
PEF .b/e                  : PEF
GR .gAPI                  : GR
DTC .us/ft                : DTC
DTS .us/ft                : DTS
RDEP .ohm.m               : RDEP
RMED .ohm.m               : RMED
~Parameter
#==================================================================
~Ascii
# ...
 3013.7585449 13.000000000 8.7896003723 8.5000000000 9.2083969116 -0.000702083 0.1944910288 2.6396021843 3.3796231747 77.327651978 77.876701355 132.76879883 4.5447688103 4.5768260956
 3013.9108887 13.000000000 8.7666997910 8.5000000000 9.4395418167 0.0000974400 0.2001817673 2.6383039951 3.4281437397 77.544509888 79.403808594 135.47781372 4.0711154938 4.1541514397
 3014.0634766 13.000000000 8.7439002991 8.5000000000 10.524506569 -0.000998237 0.1839261204 2.6323094368 3.5151605606 77.067169189 78.992958069 138.54170227 3.8156077862 4.0651407242
 3014.2158203 13.000000000 8.7323999405 8.5000000000 13.039273262 -0.001099840 0.1795070469 2.6297039986 3.5553355217 79.609016418 80.265151978 137.95205688 4.2980251312 4.2227468491
 3014.3681641 13.000000000 8.7439002991 8.5000000000 13.043307304 -0.001299680 0.1899831742 2.6220123768 3.5624885559 77.958656311 80.624328613 138.88681030 5.4427638054 5.0477762222
 3014.5205078 2.0000000000 8.7782001495 8.5000000000 12.728373528 0.0007932800 0.2116305679 2.6224982738 3.5056824684 73.900024414 79.700065613 139.06991577 4.6728777885 4.8138551712
 3014.6730957 2.0000000000 8.7209997177 8.5000000000 12.576685905 0.0002009615 0.2032136172 2.6128153801 3.3949773312 60.915119171 78.570610046 136.89070129 4.7353954315 5.3622188568
 3014.8254395 2.0000000000 8.7209997177 8.5000000000 12.576443672 -0.000798397 0.1436955184 2.6029160023 3.2150883675 52.255466461 73.058341980 132.60726929 5.9349746704 6.4587411880
 3014.9777832 2.0000000000 8.7439002991 8.5000000000 12.576443672 -0.005192949 0.0798024014 2.5749447346 3.0530595779 44.364246368 72.502777100 123.86731720 10.393446922 10.098959923
 3015.1301270 2.0000000000 8.7552995682 8.5000000000 16.447854996 -0.006298237 0.0537416674 2.5614216328 2.9356877804 39.357616425 71.266784668 121.17131042 10.765015602 10.407314301
 3015.2827148 2.0000000000 8.7552995682 8.5000000000 12.302912712 -0.006599520 0.0740673617 2.5584046841 2.9019536972 40.175777435 69.571014404 118.91960144 10.875923157 10.913189888
 3015.4350586 5.0000000000 8.7896003723 8.5000000000 12.296259880 -0.006899519 0.1033530459 2.5702810287 2.9369437695 42.396835327 66.419548035 117.58873749 9.9913196564 10.353798866
 3015.5874023 5.0000000000 8.8240003586 8.5000000000 12.296259880 -0.007898397 0.1592104137 2.5781874657 3.0966436863 49.374603271 69.544975281 120.50052643 9.1187982559 9.6050004959
 3015.7397461 5.0000000000 8.8240003586 8.5000000000 15.511569977 -0.008499039 0.2062246799 2.5821936131 3.2778096199 61.804965973 73.230697632 123.94817352 8.9581556320 9.2864093781
 3015.8920898 2.0000000000 8.8125000000 8.5000000000 17.192127228 -0.003715360 0.2173644751 2.5953578949 3.3762848377 74.287094116 74.557060242 124.71007538 6.7765026093 6.8795251846
 3016.0446777 2.0000000000 8.8125000000 8.5000000000 20.219558716 0.0004932692 0.1759665012 2.5954000950 3.2939329147 78.716461182 72.212371826 126.58997345 6.6742529869 6.4947052002
 3016.1970215 2.0000000000 8.9041004181 8.5000000000 20.224409103 0.0020974358 0.1265791655 2.5721373558 3.1308615208 65.548248291 74.191818237 124.89792633 9.2084312439 8.6663131714
 3016.3493652 2.0000000000 8.9270000458 8.5000000000 17.973756790 -0.000695513 0.1076302901 2.5254747868 3.0244705677 48.630023956 73.032569885 124.12842560 10.485956192 9.8268432617
 3016.5017090 1.0000000000 9.0071001053 8.5000000000 16.781375885 -0.004687200 0.1021175981 2.4868237972 3.0643713474 35.901275635 72.039779663 124.55103302 10.769296646 10.319324493
 3016.6542969 1.0000000000 9.0186004639 8.5000000000 16.144388199 -0.007096154 0.0978068933 2.4741203785 3.2814517021 32.651149750 72.162796021 124.48999786 11.215785027 11.114227295
 3016.8066406 1.0000000000 8.9842996597 8.5000000000 16.143371582 -0.007299680 0.0894134641 2.4922709465 3.5772256851 29.976884842 73.063255310 125.15274048 11.612164497 12.367889404
 3016.9589844 1.0000000000 8.9385004044 8.5000000000 16.604574203 -0.005303205 0.0823113769 2.5321362019 3.7344484329 29.691551208 72.875205994 124.10617828 13.030424118 13.910925865
 3017.1113281 1.0000000000 8.9270000458 8.5000000000 16.453897476 -0.004303200 0.0753223971 2.5572197437 3.5859775543 29.970802307 72.288284302 124.07579041 13.037384987 13.936326981
 3017.2639160 1.0000000000 8.9270000458 8.5000000000 12.637686729 -0.005398237 0.0758990422 2.5433223248 3.3106410503 31.151008606 72.326042175 124.08748627 12.999561310 14.012177467
 3017.4162598 1.0000000000 8.8583002090 8.5000000000 12.574566841 -0.007197115 0.0889790058 2.5196378231 3.1233999729 31.889917374 71.897384644 122.76322937 13.126096725 13.962779045
 3017.5686035 1.0000000000 8.8240003586 8.5000000000 12.803765297 -0.005802243 0.1023785248 2.5089170933 3.0879564285 31.154083252 74.816513062 119.74084473 13.119111061 13.966294289
 3017.7209473 1.0000000000 8.8125000000 8.5000000000 13.033752441 -0.003603526 0.1153791696 2.5073025227 3.0081279278 30.388925552 75.673637390 120.39114380 13.111911774 13.969894409
 3017.8732910 1.0000000000 8.8010997772 8.5000000000 13.034120560 -0.002005120 0.1269628853 2.4831774235 2.8623676300 31.123538971 76.500755310 123.24343872 12.949620247 13.931324005
 3018.0258789 2.0000000000 8.8583002090 8.5000000000 12.114665985 -0.002299519 0.1426748484 2.4530482292 2.7199280262 31.273363113 74.836982727 127.53292847 11.149888039 11.891075134
 3018.1782227 2.0000000000 8.9155998230 8.5000000000 12.108930588 -0.004296795 0.1605713218 2.4335312843 2.7442605495 38.228633881 76.957489014 133.83740234 10.333405495 10.985248566
 3018.3305664 2.0000000000 8.9498996735 8.5000000000 12.104993820 -0.003501282 0.1701846272 2.4523696899 3.0406243801 50.032371521 78.625122070 137.89540100 9.9047861099 10.193367958
 3018.4829102 2.0000000000 8.8583002090 8.5000000000 13.003023148 0.0022814400 0.1703993529 2.5069251060 3.5106925964 63.623729706 76.856002808 138.68827820 9.6189155579 9.9185781479
 3018.6354980 6.0000000000 8.8125000000 8.5000000000 13.442214012 0.0076913461 0.1641101092 2.5725948811 3.8367791176 68.650100708 77.433860779 137.17712402 6.5646009445 6.8506226540
 3018.7878418 6.0000000000 8.7095003128 8.5000000000 13.196916580 0.0086983973 0.1659969538 2.6104395390 3.8951072693 74.741638184 77.277740479 135.26246643 7.7016668320 7.4811801910
 3018.9401855 5.0000000000 8.7209997177 8.5000000000 13.543406487 0.0034084937 0.1790790111 2.6089026928 3.7894697189 74.244316101 74.103492737 132.65338135 7.1998085976 7.0086603165
 3019.0925293 5.0000000000 8.7209997177 8.5000000000 12.841821671 0.0008083200 0.1798974425 2.6044142246 3.7120480537 67.080398560 71.577095032 129.96371460 6.4888796806 6.4746117592
 3019.2451172 5.0000000000 8.6408004761 8.5000000000 11.913232803 -0.000597756 0.1493490338 2.6031022072 3.7059094906 53.140537262 70.370620728 126.43653870 5.2806358337 5.7613420486
 3019.3974609 5.0000000000 8.6522998810 8.5000000000 11.591066360 -0.000999359 0.1143560857 2.6087908745 3.6919224262 48.458881378 72.097023010 125.09952545 8.7389459610 8.2793560028
 3019.5498047 5.0000000000 8.6637001038 8.5000000000 11.833927155 -0.003196474 0.1155979112 2.6041076183 3.7335331440 54.006782532 72.809860229 123.82154846 9.6325740814 8.9317598343
 3019.7021484 5.0000000000 8.6674995422 8.5000000000 11.174287796 -0.004298237 0.1472492069 2.6044993401 3.8096778393 60.109317780 70.770576477 122.59776306 10.045639038 9.2039651871
 3019.8544922 5.0000000000 8.6981000900 8.5000000000 9.9488124847 -0.004000960 0.1601587236 2.6112782955 3.8748910427 60.093482971 71.953895569 122.29217529 6.4909133911 6.7001395226
 3020.0070801 5.0000000000 8.6752004623 8.5000000000 9.4944887161 -0.002801923 0.1453238726 2.6191873550 3.8669130802 62.920959473 75.002410889 123.46781158 5.9083170891 6.3777046204
 3020.1594238 5.0000000000 8.6981000900 8.5000000000 9.4407014847 0.0009939104 0.1149487197 2.6317796707 3.8435373306 63.486000061 75.203887939 125.80335999 6.5651440620 6.8363628387
 3020.3117676 5.0000000000 8.6408004761 8.5000000000 9.4736995697 0.0036956731 0.1169966310 2.6360931396 3.9728922844 67.319450378 74.200309753 127.16222382 6.0609111786 5.9890613556
