# LAS format log file from PETREL
# Project units are specified as depth units
#==================================================================
~Version information
VERS.   2.0:
WRAP.   NO:
#==================================================================
~Well
STRT .m      500.02444458 :
STOP .m      1854.8603516 :
STEP .m     0.00000000 :
NULL .        -999.250000 :
COMP.           : COMPANY
WELL.  35/7-1 S   : WELL
FLD.            : FIELD
LOC.            : LOCATION
SRVC.           : SERVICE COMPANY
DATE.  2018-09-11 14:48:59   : Log Export Date {yyyy-MM-dd HH:mm:ss}
PROV.           : PROVINCE
UWI.   35/7-1 S   : UNIQUE WELL ID
API.            : API NUMBER
#==================================================================
~Curve
DEPT .m                   : DEPTH
Lithology_geolink ._      : Lithology_geolink
BS .in                    : BS
ROP .m/h                  : ROP
GR .gAPI                  : GR
DTC .us/ft                : DTC
RDEP .ohm.m               : RDEP
RMED .ohm.m               : RMED
~Parameter
#==================================================================
~Ascii
# ...
 1661.7695313  -999.250000 17.500000000 135.88549805 51.461200714 117.03459930 0.9210000038 0.9404000044
 1661.9218750  -999.250000 17.500000000 130.32087708 49.380199432 117.47720337 0.9207000136 0.9402999878
 1662.0743408  -999.250000 17.500000000 121.81464386 45.766601563 117.21130371 0.9182999730 0.9365000129
 1662.2266846  -999.250000 17.500000000 110.47376251 43.185501099 118.21630096 0.9150000215 0.9340000153
 1662.3791504  -999.250000 17.500000000 104.54560089 43.862998962 118.29080200 0.9028999805 0.9312000275
 1662.5314941  -999.250000 17.500000000 97.173553467 46.911998749 117.64929962 0.9393000007 0.9441000223
 1662.6839600  -999.250000 17.500000000 91.707015991 48.428398132 117.91809845 0.9311000109 0.9545000196
 1662.8363037  -999.250000 17.500000000 89.086288452 48.073501587 116.29660034 0.9502000213 0.9605000019
 1662.9886475  -999.250000 17.500000000 88.441604614 47.976699829 114.56080627 0.9434999824 0.9674000144
 1663.1411133  -999.250000 17.500000000 87.819221497 47.944499969 113.10109711 0.9405000210 0.9685000181
 1663.2934570  -999.250000 17.500000000 87.858268738 47.750900269 113.06289673 0.9276999831 0.9678000212
 1663.4459229  -999.250000 17.500000000 89.138122559 47.879901886 114.07039642 0.9532999992 0.9814000130
 1663.5982666  -999.250000 17.500000000 93.333007813 48.622001648 113.76770020 0.9771999717 0.9921000004
 1663.7507324  -999.250000 17.500000000 92.656166077 49.815799713 113.66268921 0.9821000099 0.9981999993
 1663.9030762  -999.250000 17.500000000 65.396324158 49.428600311 113.79409790 0.9693999887 0.9846000075
 1664.0555420  -999.250000 17.500000000 60.521324158 48.622001648 113.68579865 0.9656999707 0.9785000086
 1664.2078857  -999.250000 17.500000000 61.697177887 49.041400909 113.91039276 0.9779000282 0.9872999787
 1664.3603516  -999.250000 17.500000000 58.322181702 48.170299530 113.99099731 0.9599000216 0.9851999879
 1664.5126953  -999.250000 17.500000000 58.542980194 46.051601410 114.12078857 0.9681000113 0.9850000143
 1664.6651611  -999.250000 17.500000000 56.625328064 45.234298706 114.31008911 0.9747999907 0.9836999774
 1664.8175049  -999.250000 17.500000000 55.532806396 45.919898987 114.36859894 0.9702000022 0.9807000160
 1664.9698486  -999.250000 17.500000000 53.031826019 47.143199921 114.45760345 0.9591000080 0.9740999937
 1665.1223145  -999.250000 17.500000000 50.717849731 48.861301422 114.86519623 0.9672999978 0.9805999994
 1665.2746582  -999.250000 17.500000000 50.476703644 50.987998962 114.30480194 0.9722999930 0.9890999794
 1665.4271240  -999.250000 17.500000000 61.906169891 52.477600098 113.63160706 0.9896000028 0.9927999973
 1665.5794678  -999.250000 17.500000000 64.239830017 51.751598358 113.19899750 0.9832000136 0.9911000133
 1665.7319336  -999.250000 17.500000000 63.731624603 49.041400909 112.85948944 0.9642999768 0.9830999970
 1665.8842773  -999.250000 17.500000000 68.848098755 45.718200684 113.75420380 0.9624000192 0.9825999737
 1666.0367432  -999.250000 17.500000000 69.053802490 43.040298462 114.30039978 0.9678999782 0.9886999726
 1666.1890869  -999.250000 17.500000000 73.663391113 41.862701416 114.16368866 0.9591000080 0.9735000134
 1666.3415527  -999.250000 17.500000000 77.590545654 42.265998840 113.67600250 0.9438999891 0.9569000006
 1666.4938965  -999.250000 17.500000000 83.468505859 44.282501221 114.35820007 0.9207999706 0.9419000149
 1666.6463623  -999.250000 17.500000000 89.864501953 46.040901184 114.74549866 0.9351999760 0.9467999935
 1666.7987061  -999.250000 17.500000000 98.682411194 47.041099548 114.55379486 0.9282000065 0.9564999938
 1666.9511719  -999.250000 17.500000000 110.45571136 48.492900848 114.54519653 0.9537000060 0.9692999721
 1667.1035156  -999.250000 17.500000000 123.28871918 48.234798431 115.11940002 0.9613000154 0.9774000049
 1667.2558594  -999.250000 17.500000000 123.16829681 44.847099304 115.95240021 0.9470000267 0.9592000246
 1667.4083252  -999.250000 17.500000000 118.84252930 43.169399261 116.19510651 0.9257000089 0.9474999905
 1667.5606689  -999.250000 17.500000000 114.03674316 45.879600525 116.70939636 0.9269999862 0.9430000186
 1667.7131348  -999.250000 17.500000000 107.51444244 49.218898773 117.18991089 0.9240999818 0.9477000237
 1667.8654785  -999.250000 17.500000000 102.96719360 50.493301392 117.28671265 0.9350000024 0.9538000226
 1668.0179443  -999.250000 17.500000000 100.98162842 50.251300812 116.26709747 0.9323999882 0.9441000223
 1668.1702881  -999.250000 17.500000000 100.24048615 51.993598938 117.14099884 0.8773000240 0.8941000104
 1668.3227539  -999.250000 17.500000000 97.798233032 56.639598846 121.11849213 0.8251000047 0.8391000032
 1668.4750977  -999.250000 17.500000000 95.775917053 62.092300415 128.44859314 0.7972999811 0.8076000214
 1668.6275635  -999.250000 17.500000000 97.974082947 65.329399109 135.01159668 0.7896000147 0.7982000113
 1668.7799072  -999.250000 17.500000000 101.93996429 63.678600311 138.98489380 0.8023999929 0.8137999773
 1668.9323730  -999.250000 17.500000000 106.50755310 60.247798920 141.45050049 0.8320000172 0.8355000019
 1669.0847168  -999.250000 17.500000000 109.47145844 60.753299713 139.02529907 0.8389999866 0.8323000073
 1669.2370605  -999.250000 17.500000000 114.08267975 65.463897705 138.23869324 0.8130000234 0.8075000048
 1669.3895264  -999.250000 17.500000000 119.37206268 67.190002441 139.34950256 0.8341000080 0.8371999860
 1669.5418701  -999.250000 17.500000000 121.81560516 63.850700378 139.86869812 0.7964000106 0.8070999980
 1669.6943359  -999.250000 17.500000000 120.20701599 64.625000000 140.77059937 0.7459999919 0.7502999902
 1669.8466797  -999.250000 17.500000000 120.93176270 68.561203003 142.77850342 0.8004000187 0.7929000258
 1669.9991455  -999.250000 17.500000000 121.44159698 64.899200439 142.93009949 0.8021000028 0.7982000113
 1670.1514893  -999.250000 17.500000000 114.63549805 57.349399567 143.42280579 0.7067000270 0.7179999948
 1670.3039551  -999.250000 17.500000000 110.98032379 55.300701141 143.79110718 0.7318000197 0.7432000041
 1670.4562988  -999.250000 17.500000000 112.03314209 57.962501526 142.98519897 0.8015000224 0.8141000271
 1670.6087646  -999.250000 17.500000000 117.41535950 59.333698273 140.40750122 0.7925999761 0.8041999936
 1670.7611084  -999.250000 17.500000000 121.99803925 57.849498749 136.26060486 0.9754999876 0.9603999853
 1670.9135742  -999.250000 17.500000000 124.62534332 56.451400757 131.25819397 1.0864000320 1.0800000429
 1671.0659180  -999.250000 17.500000000 127.37138367 55.139400482 134.34649658 0.7566999793 0.7811999917
 1671.2182617  -999.250000 17.500000000 129.60531616 54.526298523 145.12820435 0.7339000106 0.7484999895
 1671.3707275  -999.250000 17.500000000 129.27723694 55.209300995 143.44900513 0.7332000136 0.7475000024
 1671.5230713  -999.250000 17.500000000 126.51082611 56.075000763 142.83090210 0.6527000070 0.6699000001
 1671.6755371  -999.250000 17.500000000 97.292655945 56.897701263 146.70779419 0.6147000194 0.6294999719
 1671.8278809  -999.250000 17.500000000 97.775917053 54.848999023 148.49740601 0.6169000268 0.6215999722
 1671.9803467  -999.250000 17.500000000 81.730316162 51.719398499 149.46389771 0.6722999811 0.6704999804
 1672.1326904  -999.250000 17.500000000 72.886154175 52.977699280 149.60420227 0.6969000101 0.7009000182
 1672.2851563  -999.250000 17.500000000 63.496395111 57.414001465 147.95060730 0.7021999955 0.7088000178
 1672.4375000  -999.250000 17.500000000 61.382213593 60.204799652 146.63969421 0.6789000034 0.6970999837
 1672.5899658  -999.250000 17.500000000 60.470474243 61.366298676 146.50529480 0.6527000070 0.6736000180
 1672.7423096  -999.250000 17.500000000 60.486549377 63.915199280 147.31939697 0.6406999826 0.6625000238
 1672.8947754  -999.250000 17.500000000 61.252620697 65.286399841 148.73779297 0.6209999919 0.6355000138
 1673.0471191  -999.250000 17.500000000 63.224407196 63.366699219 148.57330322 0.6008999944 0.6198999882
 1673.1994629  -999.250000 17.500000000 77.600067139 60.495201111 147.43469238 0.6603000164 0.6707000136
 1673.3519287  -999.250000 17.500000000 77.469818115 59.156200409 146.14520264 0.7257999778 0.7366999984
