# LAS format log file from PETREL
# Project units are specified as depth units
#==================================================================
~Version information
VERS.   2.0:
WRAP.   NO:
#==================================================================
~Well
STRT .m      500.02444458 :
STOP .m      1854.8603516 :
STEP .m     0.00000000 :
NULL .        -999.250000 :
COMP.           : COMPANY
WELL.  35/7-1 S   : WELL
FLD.            : FIELD
LOC.            : LOCATION
SRVC.           : SERVICE COMPANY
DATE.  2018-09-11 14:48:59   : Log Export Date {yyyy-MM-dd HH:mm:ss}
PROV.           : PROVINCE
UWI.   35/7-1 S   : UNIQUE WELL ID
API.            : API NUMBER
#==================================================================
~Curve
DEPT .m                   : DEPTH
Lithology_geolink ._      : Lithology_geolink
BS .in                    : BS
ROP .m/h                  : ROP
GR .gAPI                  : GR
DTC .us/ft                : DTC
RDEP .ohm.m               : RDEP
RMED .ohm.m               : RMED
~Parameter
#==================================================================
~Ascii
# ...
 1133.7036133  -999.250000 9.8750000000 137.06791687 77.472602844 153.74279785 1.0881999731 1.0809999704
 1133.8559570  -999.250000 9.8750000000 152.65486145 81.113700867 152.98352051 1.1006000042 1.0934000015
 1134.0083008  -999.250000 9.8750000000 154.19160461 81.095802307 152.68539429 1.1272000074 1.1160000563
 1134.1607666  -999.250000 9.8750000000 161.49114990 77.239402771 152.25349426 1.1597000360 1.1520999670
 1134.3131104  -999.250000 9.8750000000 151.25262451 70.943702698 151.99670410 1.2095999718 1.2023999691
 1134.4655762  -999.250000 9.8750000000 162.91764832 67.517799377 150.69889832 1.2391999960 1.2344000340
 1134.6179199  -999.250000 9.8750000000 164.39108276 67.392303467 149.93600464 1.2782000303 1.2694000006
 1134.7703857  -999.250000 9.8750000000 165.27166748 67.804801941 149.30960083 1.3023999929 1.2946000099
 1134.9227295  -999.250000 9.8750000000 165.39041138 69.795799255 149.39720154 1.3161000013 1.3071999550
 1135.0751953  -999.250000 9.8750000000 174.49212646 72.611801147 149.97810364 1.3051999807 1.3020000458
 1135.2275391  -999.250000 9.8750000000 165.70407104 73.741798401 151.01690674 1.3051999807 1.3020000458
 1135.3800049  -999.250000 9.8750000000 160.07054138 73.024398804 151.22380066 1.2835999727 1.2770999670
 1135.5323486  -999.250000 9.8750000000 154.72341919 71.589401245 151.22189331 1.2733999491 1.2673000097
 1135.6848145  -999.250000 9.8750000000 153.75427246 69.317497253 151.12579346 1.2691999674 1.2654000521
 1135.8371582  -999.250000 9.8750000000 164.43963623 66.866096497 150.57730103 1.2805000544 1.2699999809
 1135.9896240  -999.250000 9.8750000000 143.78346252 66.142700195 150.42788696 1.2786999941 1.2788000107
 1136.1419678  -999.250000 9.8750000000 141.68963623 66.369903564 150.93240356 1.2843999863 1.2740999460
 1136.2943115  -999.250000 9.8750000000 138.45538330 66.609001160 150.80470276 1.2805000544 1.2790000439
 1136.4467773  -999.250000 9.8750000000 132.94651794 66.668899536 151.00502014 1.2831000090 1.2748999596
 1136.5991211  -999.250000 9.8750000000 129.63746643 67.972198486 151.79199219 1.2598999739 1.2547999620
 1136.7515869  -999.250000 9.8750000000 134.99737549 69.072303772 151.51600647 1.2481000423 1.2467999458
 1136.9039307  -999.250000 9.8750000000 131.19816589 67.487899780 151.80329895 1.2322000265 1.2278000116
 1137.0563965  -999.250000 9.8750000000 135.84448242 66.507400513 151.75399780 1.2160999775 1.2122000456
 1137.2087402  -999.250000 9.8750000000 127.37957764 66.450599670 151.12910461 1.2037999630 1.2005000114
 1137.3612061  -999.250000 9.8750000000 125.97768402 64.630096436 150.82009888 1.1996999979 1.1942000389
 1137.5135498  -999.250000 9.8750000000 133.05117798 64.997802734 149.63587952 1.2231999636 1.2196999788
 1137.6660156  -999.250000 9.8750000000 125.91699982 70.441497803 148.66169739 1.2749999762 1.2611999512
 1137.8183594  -999.250000 9.8750000000 123.65879059 74.118499756 147.65530396 1.2983000278 1.2870999575
 1137.9708252  -999.250000 9.8750000000 132.02033997 73.723899841 147.04859924 1.3302999735 1.3174999952
 1138.1231689  -999.250000 9.8750000000 132.30938721 74.262001038 147.12930298 1.3463000059 1.3358999491
 1138.2755127  -999.250000 9.8750000000 123.03577423 75.768600464 147.99459839 1.3155000210 1.3108999729
 1138.4279785  -999.250000 9.8750000000 122.24607849 78.190101624 148.76370239 1.2599999905 1.2608000040
 1138.5803223  -999.250000 9.8750000000 123.77098846 82.871498108 148.56410217 1.2599999905 1.2608000040
 1138.7327881  -999.250000 9.8750000000 133.10859680 85.167396545 148.05529785 1.2861000299 1.2806999683
 1138.8851318  -999.250000 9.8750000000 134.91140747 83.463401794 147.14489746 1.3111000061 1.3019000292
 1139.0375977  -999.250000 9.8750000000 125.73721313 81.436599731 146.99639893 1.3402999640 1.3263000250
 1139.1899414  -999.250000 9.8750000000 136.58529663 80.432098389 146.40759277 1.3415000439 1.3293999434
 1139.3424072  -999.250000 9.8750000000 145.53215027 78.602600098 145.91380310 1.3142999411 1.3107999563
 1139.4947510  -999.250000 9.8750000000 143.77033997 74.010902405 148.31089783 1.2922999859 1.2924000025
 1139.6472168  -999.250000 9.8750000000 133.00721741 67.463996887 147.16659546 1.2783000469 1.2762999535
 1139.7995605  -999.250000 9.8750000000 153.88319397 62.172798157 148.62570190 1.2752000093 1.2678999901
 1139.9520264  -999.250000 9.8750000000 156.96391296 60.253601074 150.21949768 1.3009999990 1.2888000011
 1140.1043701  -999.250000 9.8750000000 167.28642273 60.737800598 150.99079895 1.3006000519 1.2936999798
 1140.2567139  -999.250000 9.8750000000 168.97145081 63.527000427 152.52458191 1.2131999731 1.2137000561
 1140.4091797  -999.250000 9.8750000000 186.86943054 66.262298584 154.10330200 1.1576000452 1.1588000059
 1140.5615234  -999.250000 9.8750000000 183.48359680 66.612098694 154.58030701 1.1139999628 1.1109000444
 1140.7139893  -999.250000 9.8750000000 177.98818970 68.020103455 153.70869446 1.0793000460 1.0721999407
 1140.8663330  -999.250000 9.8750000000 176.31364441 70.459396362 153.95019531 1.0700000525 1.0602999926
 1141.0187988  -999.250000 9.8750000000 176.12467957 70.297996521 154.46760559 1.0559999943 1.0426000357
 1141.1711426  -999.250000 9.8750000000 165.13780212 69.114196777 154.36811829 1.0430999994 1.0312999487
 1141.3236084  -999.250000 9.8750000000 151.87762451 68.181503296 153.54249573 1.0369000435 1.0286999941
 1141.4759521  -999.250000 9.8750000000 150.42880249 66.674797058 154.47459412 1.0506999493 1.0386999846
 1141.6284180  -999.250000 9.8750000000 120.96195221 65.186096191 154.48229980 1.0588999987 1.0456999540
 1141.7807617  -999.250000 9.8750000000 120.76836395 65.509002686 154.72349548 1.0655000210 1.0599000454
 1141.9332275  -999.250000 9.8750000000 120.58036804 67.266700745 155.62500000 1.0142999887 1.0101000071
 1142.0855713  -999.250000 9.8750000000 121.65847015 66.154701233 155.49922180 1.0051000118 1.0004999638
 1142.2380371  -999.250000 9.8750000000 115.52494049 63.625598907 155.63130188 1.0033999681 0.9980000257
 1142.3903809  -999.250000 9.8750000000 113.50623322 65.015701294 155.53640747 1.0040999651 0.9943000078
 1142.5427246  -999.250000 9.8750000000 115.38615417 69.436996460 155.86340332 1.0110000372 1.0032000542
 1142.6951904  -999.250000 9.8750000000 128.76869202 72.531097412 154.86039734 1.0322999954 1.0276000500
 1142.8475342  -999.250000 9.8750000000 127.18766785 71.087196350 154.41169739 1.0621999502 1.0491000414
 1143.0000000  -999.250000 9.8750000000 125.52723694 67.392303467 153.83169556 1.0756000280 1.0707999468
 1143.1523438  -999.250000 9.8750000000 146.80708313 67.589599609 153.46299744 1.0976999998 1.0915000439
 1143.3048096  -999.250000 9.8750000000 144.83760071 70.423599243 152.06108093 1.1311999559 1.1191999912
 1143.4571533  -999.250000 9.8750000000 134.96653748 70.549102783 151.48150635 1.1779999733 1.1591000557
 1143.6096191  -999.250000 9.8750000000 134.18765259 69.006599426 150.82609558 1.2407000065 1.2244999409
 1143.7619629  -999.250000 9.8750000000 143.61056519 66.925903320 150.86320496 1.2777999640 1.2595000267
 1143.9144287  -999.250000 9.8750000000 148.86909485 65.634498596 149.40551758 1.2678999901 1.2575999498
 1144.0667725  -999.250000 9.8750000000 150.35891724 66.836303711 149.67160034 1.2142000198 1.2124999762
 1144.2192383  -999.250000 9.8750000000 151.18011475 66.629997253 150.47560120 1.2052999735 1.2002999783
 1144.3715820  -999.250000 9.8750000000 152.17881775 66.020103455 152.05670166 1.2019000053 1.1973999739
 1144.5239258  -999.250000 9.8750000000 145.30445862 67.114303589 152.45390320 1.2022999525 1.1923999786
 1144.6763916  -999.250000 9.8750000000 152.73622131 66.916999817 152.54627991 1.2029000521 1.1912000179
 1144.8287354  -999.250000 9.8750000000 154.03117371 67.634399414 152.19590759 1.2105000019 1.2072000504
 1144.9812012  -999.250000 9.8750000000 146.00296021 73.293403625 152.06809998 1.2318999767 1.2244000435
 1145.1335449  -999.250000 9.8750000000 162.85662842 78.665397644 152.14619446 1.2422000170 1.2300000191
 1145.2860107  -999.250000 9.8750000000 163.18963623 78.616096497 151.80651855 1.2457000017 1.2421000004
