# LAS format log file from PETREL
# Project units are specified as depth units
#==================================================================
~Version information
VERS.   2.0:
WRAP.   NO:
#==================================================================
~Well
STRT .m      500.02444458 :
STOP .m      1854.8603516 :
STEP .m     0.00000000 :
NULL .        -999.250000 :
COMP.           : COMPANY
WELL.  35/7-1 S   : WELL
FLD.            : FIELD
LOC.            : LOCATION
SRVC.           : SERVICE COMPANY
DATE.  2018-09-11 14:48:59   : Log Export Date {yyyy-MM-dd HH:mm:ss}
PROV.           : PROVINCE
UWI.   35/7-1 S   : UNIQUE WELL ID
API.            : API NUMBER
#==================================================================
~Curve
DEPT .m                   : DEPTH
Lithology_geolink ._      : Lithology_geolink
BS .in                    : BS
ROP .m/h                  : ROP
GR .gAPI                  : GR
DTC .us/ft                : DTC
RDEP .ohm.m               : RDEP
RMED .ohm.m               : RMED
~Parameter
#==================================================================
~Ascii
# ...
 1309.7255859  -999.250000 9.8750000000 97.021324158 88.987800598 142.18809509 1.1073000431 1.1062999964
 1309.8779297  -999.250000 9.8750000000 96.017387390 86.180801392 143.54469299 1.0695999861 1.0663000345
 1310.0303955  -999.250000 9.8750000000 97.195541382 82.073303223 145.01300049 1.0697000027 1.0602999926
 1310.1827393  -999.250000 9.8750000000 98.144355774 80.091300964 146.24400330 1.0662000179 1.0607000589
 1310.3350830  -999.250000 9.8750000000 98.336616516 80.485900879 147.13470459 1.0579999685 1.0504000187
 1310.4875488  -999.250000 9.8750000000 98.564964294 80.521797180 148.06140137 1.0249999762 1.0176000595
 1310.6398926  -999.250000 9.8750000000 97.932090759 79.176597595 147.91209412 1.0290999413 1.0231000185
 1310.7923584  -999.250000 9.8750000000 93.133201599 79.185501099 147.52070618 1.0349999666 1.0284999609
 1310.9447021  -999.250000 9.8750000000 97.738845825 81.015098572 147.44149780 1.0528000593 1.0436999798
 1311.0971680  -999.250000 9.8750000000 106.79100800 81.633903503 147.10659790 1.0508999825 1.0455000401
 1311.2495117  -999.250000 9.8750000000 109.07939148 80.405197144 146.90170288 1.0584000349 1.0509999990
 1311.4019775  -999.250000 9.8750000000 110.93963623 79.176597595 146.97790527 1.1066999435 1.0936000347
 1311.5543213  -999.250000 9.8750000000 117.14436340 77.006202698 146.38850403 1.1424000263 1.1239000559
 1311.7067871  -999.250000 9.8750000000 113.75524902 74.001899719 145.75660706 1.1582000256 1.1477999687
 1311.8591309  -999.250000 9.8750000000 118.52428436 75.320198059 144.46499634 1.1861000061 1.1750999689
 1312.0115967  -999.250000 9.8750000000 111.20931244 79.897003174 144.12919617 1.1524000168 1.1485999823
 1312.1639404  -999.250000 9.8750000000 111.32709503 82.769798279 144.33070374 1.1605000496 1.1571999788
 1312.3164063  -999.250000 9.8750000000 111.06135559 84.820602417 144.38519287 1.1775000095 1.1715999842
 1312.4687500  -999.250000 9.8750000000 111.99245453 86.360099792 144.63409424 1.1924999952 1.1851999760
 1312.6210938  -999.250000 9.8750000000 101.52427673 83.427497864 144.80949402 1.2115000486 1.1999000311
 1312.7735596  -999.250000 9.8750000000 103.53116608 78.306602478 144.48240662 1.2282999754 1.2121000290
 1312.9259033  -999.250000 9.8750000000 103.37860870 77.562301636 143.55509949 1.2043999434 1.1992000341
 1313.0783691  -999.250000 9.8750000000 103.01574707 79.535301208 143.54200745 1.1917999983 1.1850999594
 1313.2307129  -999.250000 9.8750000000 101.99540710 79.947799683 143.93879700 1.2137999535 1.2008999586
 1313.3831787  -999.250000 9.8750000000 101.62533569 80.674301147 143.48420715 1.2156000137 1.2110999823
 1313.5355225  -999.250000 9.8750000000 107.31824493 83.490303040 143.64480591 1.1965999603 1.1935000420
 1313.6879883  -999.250000 9.8750000000 102.21194458 85.992401123 144.25259399 1.1845999956 1.1762000322
 1313.8403320  -999.250000 9.8750000000 98.795280457 88.082000732 145.71139526 1.1757999659 1.1662000418
 1313.9927979  -999.250000 9.8750000000 94.091537476 90.718696594 147.33970642 1.1792999506 1.1758999825
 1314.1451416  -999.250000 9.8750000000 101.41699219 90.898101807 147.86019897 1.1588000059 1.1575000286
 1314.2976074  -999.250000 9.8750000000 103.20243073 88.144798279 147.41450500 1.1456999779 1.1439000368
 1314.4499512  -999.250000 9.8750000000 97.648620605 87.364601135 146.92039490 1.1696000099 1.1589000225
 1314.6022949  -999.250000 9.8750000000 93.437660217 87.274902344 145.84109497 1.2109999657 1.1971999407
 1314.7547607  -999.250000 9.8750000000 97.636482239 85.400497437 144.85400391 1.2249000072 1.2124999762
 1314.9071045  -999.250000 9.8750000000 97.429794312 86.091102600 144.16839600 1.1414999962 1.1381000280
 1315.0595703  -999.250000 9.8750000000 92.673881531 89.041603088 145.03419495 1.0621000528 1.0677000284
 1315.2119141  -999.250000 9.8750000000 92.583000183 90.364501953 146.85169983 1.0541000366 1.0549000502
 1315.3643799  -999.250000 9.8750000000 100.09284973 88.769599915 148.90939331 1.1001000404 1.0980999470
 1315.5167236  -999.250000 9.8750000000 105.11319733 88.093399048 149.32279968 1.1338000298 1.1233999729
 1315.6691895  -999.250000 9.8750000000 101.82283783 91.375099182 147.74789429 1.1266000271 1.1153000593
 1315.8215332  -999.250000 9.8750000000 102.95177460 94.226196289 147.09330750 1.0866999626 1.0806000233
 1315.9739990  -999.250000 9.8750000000 102.77854919 93.600502014 146.87739563 1.0485999584 1.0448000431
 1316.1263428  -999.250000 9.8750000000 100.98392487 91.295700073 147.17790222 1.0139000416 1.0149999857
 1316.2788086  -999.250000 9.8750000000 99.968833923 89.373497009 147.75019836 0.9897000194 0.9901999831
 1316.4311523  -999.250000 9.8750000000 94.912071228 89.794998169 147.75390625 0.9740999937 0.9757000208
 1316.5834961  -999.250000 9.8750000000 99.791664124 94.332901001 147.24769592 0.9685000181 0.9672999978
 1316.7359619  -999.250000 9.8750000000 99.837272644 97.606300354 148.11010742 0.9682000279 0.9628999829
 1316.8883057  -999.250000 9.8750000000 95.508209229 93.956298828 149.02720642 0.9692000151 0.9653999805
 1317.0407715  -999.250000 9.8750000000 89.777885437 89.786003113 149.14300537 0.9621000290 0.9614999890
 1317.1931152  -999.250000 9.8750000000 94.505249023 91.014701843 149.45501709 0.9532999992 0.9563999772
 1317.3455811  -999.250000 9.8750000000 94.817909241 95.256698608 148.71789551 0.9246000051 0.9293000102
 1317.4979248  -999.250000 9.8750000000 94.402885437 95.794700623 148.52369690 0.9248999953 0.9229000211
 1317.6503906  -999.250000 9.8750000000 101.07415009 89.714302063 148.66520691 0.9452000260 0.9459999800
 1317.8027344  -999.250000 9.8750000000 102.44718170 84.575401306 148.80830383 0.9966999888 0.9933000207
 1317.9552002  -999.250000 9.8750000000 102.63222504 84.050796509 148.89241028 1.0341000557 1.0283000469
 1318.1075439  -999.250000 9.8750000000 97.786415100 85.286903381 147.69500732 1.0587999821 1.0523999929
 1318.2600098  -999.250000 9.8750000000 100.85990906 85.509597778 146.38270569 1.0699000359 1.0659999847
 1318.4123535  -999.250000 9.8750000000 98.146652222 84.488800049 144.73179626 1.0619000196 1.0622999668
 1318.5646973  -999.250000 9.8750000000 99.614173889 85.315299988 143.76109314 1.0449999571 1.0411000252
 1318.7171631  -999.250000 9.8750000000 98.396980286 87.875801086 143.60189819 1.0099999905 1.0121999979
 1318.8695068  -999.250000 9.8750000000 95.128936768 90.023696899 143.30790710 0.9667999744 0.9700999856
 1319.0219727  -999.250000 9.8750000000 95.350067139 91.702201843 143.82910156 0.9480000138 0.9466000199
 1319.1743164  -999.250000 9.8750000000 83.745407104 91.125297546 144.24920654 0.9279999733 0.9222000241
 1319.3267822  -999.250000 9.8750000000 80.802825928 88.617103577 145.12199402 0.9010000229 0.8988999724
 1319.4791260  -999.250000 9.8750000000 76.470146179 88.781600952 145.47369385 0.8799999952 0.8751000166
 1319.6315918  -999.250000 9.8750000000 79.026573181 88.360000610 145.28669739 0.8586000204 0.8551999927
 1319.7839355  -999.250000 9.8750000000 72.923225403 84.674102783 144.15989685 0.8694000244 0.8693000078
 1319.9364014  -999.250000 9.8750000000 70.751968384 83.373703003 143.04440308 0.8801000118 0.8798000216
 1320.0887451  -999.250000 9.8750000000 68.148300171 84.297401428 143.15020752 0.8802999854 0.8801000118
 1320.2412109  -999.250000 9.8750000000 65.299537659 84.916297913 144.52310181 0.8985999823 0.9011999965
 1320.3935547  -999.250000 9.8750000000 46.345798492 88.691902161 145.99389648 0.9726999998 0.9667999744
 1320.5460205  -999.250000 9.8750000000 42.961284637 91.875602722 146.14160156 1.0328999758 1.0230000019
 1320.6983643  -999.250000 9.8750000000 43.593505859 92.126701355 145.34060669 1.0638999939 1.0602999926
 1320.8507080  -999.250000 9.8750000000 42.292976379 94.637802124 143.80189514 1.0611000061 1.0584000349
 1321.0031738  -999.250000 9.8750000000 43.390090942 95.743896484 143.91319275 1.0556000471 1.0533000231
 1321.1555176  -999.250000 9.8750000000 42.805118561 96.186302185 144.29379272 1.0520999432 1.0520000458
 1321.3079834  -999.250000 9.8750000000 44.232608795 98.003898621 145.15769958 1.0512000322 1.0467000008
