# LAS format log file from PETREL
# Project units are specified as depth units
#==================================================================
~Version information
VERS.   2.0:
WRAP.   NO:
#==================================================================
~Well
STRT .m      500.02444458 :
STOP .m      1854.8603516 :
STEP .m     0.00000000 :
NULL .        -999.250000 :
COMP.           : COMPANY
WELL.  35/7-1 S   : WELL
FLD.            : FIELD
LOC.            : LOCATION
SRVC.           : SERVICE COMPANY
DATE.  2018-09-11 14:48:59   : Log Export Date {yyyy-MM-dd HH:mm:ss}
PROV.           : PROVINCE
UWI.   35/7-1 S   : UNIQUE WELL ID
API.            : API NUMBER
#==================================================================
~Curve
DEPT .m                   : DEPTH
Lithology_geolink ._      : Lithology_geolink
BS .in                    : BS
ROP .m/h                  : ROP
GR .gAPI                  : GR
DTC .us/ft                : DTC
RDEP .ohm.m               : RDEP
RMED .ohm.m               : RMED
~Parameter
#==================================================================
~Ascii
# ...
 1215.8471680  -999.250000 9.8750000000 135.54920959 83.762298584 151.14959717 1.1948000193 1.1798000336
 1215.9996338  -999.250000 9.8750000000 144.00328064 81.239303589 150.92401123 1.1971999407 1.1840000153
 1216.1519775  -999.250000 9.8750000000 134.33432007 73.921203613 149.83900452 1.2042000294 1.1823999882
 1216.3043213  -999.250000 9.8750000000 133.40058899 70.567001343 148.79649353 1.2137000561 1.1943999529
 1216.4567871  -999.250000 9.8750000000 141.78182983 72.055801392 144.78970337 1.2517999411 1.2323000431
 1216.6091309  -999.250000 9.8750000000 138.40583801 75.033203125 143.19549561 1.2544000149 1.2463999987
 1216.7615967  -999.250000 9.8750000000 119.87402344 76.109397888 143.01699829 1.2781000137 1.2574000359
 1216.9139404  -999.250000 9.8750000000 105.13090515 74.351600647 143.63499451 1.2762000561 1.2596000433
 1217.0664063  -999.250000 9.8750000000 92.665351868 75.526496887 145.69869995 1.2588000298 1.2493000031
 1217.2187500  -999.250000 9.8750000000 83.492126465 81.472396851 146.53120422 1.2635999918 1.2578999996
 1217.3712158  -999.250000 9.8750000000 78.865158081 84.602401733 146.74409485 1.2727999687 1.2667000294
 1217.5235596  -999.250000 9.8750000000 74.142715454 86.611297607 146.03990173 1.3004000187 1.2910000086
 1217.6760254  -999.250000 9.8750000000 74.063652039 92.987701416 143.70579529 1.3826999664 1.3661999702
 1217.8283691  -999.250000 9.8750000000 73.258857727 96.296997070 141.88099670 1.4076999426 1.3963999748
 1217.9808350  -999.250000 9.8750000000 70.687332153 93.803802490 140.56251526 1.3677999973 1.3600000143
 1218.1331787  -999.250000 9.8750000000 70.970146179 94.225303650 140.96313477 1.2783999443 1.2783999443
 1218.2855225  -999.250000 9.8750000000 78.711616516 99.740798950 142.74980164 1.1967999935 1.2034000158
 1218.4379883  -999.250000 9.8750000000 86.484909058 106.74500275 144.88238525 1.1565999985 1.1604000330
 1218.5903320  -999.250000 9.8750000000 92.692260742 113.07659912 147.73770142 1.1467000246 1.1432000399
 1218.7427979  -999.250000 9.8750000000 103.72834778 113.84780121 148.19627380 1.1395000219 1.1318999529
 1218.8951416  -999.250000 9.8750000000 105.61941528 103.51640320 148.29229736 1.1291999817 1.1230000257
 1219.0476074  -999.250000 9.8750000000 109.74213409 88.933998108 148.69529724 1.1198999882 1.1125999689
 1219.1999512  -999.250000 9.8750000000 116.61779785 82.916297913 148.44909668 1.1052999496 1.1023999453
 1219.3524170  -999.250000 9.8750000000 111.83201599 84.234703064 148.74455261 1.0853999853 1.0879000425
 1219.5047607  -999.250000 9.8750000000 118.32775879 85.499198914 149.18719482 1.0801999569 1.0836000443
 1219.6572266  -999.250000 9.8750000000 102.54811096 85.373596191 150.30914307 1.0935000181 1.0902999640
 1219.8095703  -999.250000 9.8750000000 101.57775116 81.382797241 151.22959900 1.0944999456 1.0930999517
 1219.9620361  -999.250000 9.8750000000 92.160186768 79.293197632 151.58282471 1.1002000570 1.0916999578
 1220.1143799  -999.250000 9.8750000000 89.807594299 90.368896484 150.74118042 1.1055999994 1.1035000086
 1220.2668457  -999.250000 9.8750000000 87.977722168 102.60160065 150.47911072 1.1096999645 1.1064000130
 1220.4191895  -999.250000 9.8750000000 81.063392639 102.97830200 150.12222290 1.1232999563 1.1195000410
 1220.5715332  -999.250000 9.8750000000 83.201446533 101.68689728 149.52999878 1.1389000416 1.1404000521
 1220.7239990  -999.250000 9.8750000000 78.811157227 103.19360352 148.68841553 1.1280000210 1.1269999743
 1220.8763428  -999.250000 9.8750000000 79.395996094 100.56590271 148.07369995 1.1134999990 1.1157000065
 1221.0288086  -999.250000 9.8750000000 79.030456543 96.198303223 148.05351257 1.1045000553 1.1043000221
 1221.1811523  -999.250000 9.8750000000 88.366798401 95.059303284 148.06770325 1.1014000177 1.0970000029
 1221.3336182  -999.250000 9.8750000000 88.526924133 95.265602112 147.39085388 1.1022000313 1.0966999531
 1221.4859619  -999.250000 9.8750000000 97.150268555 95.265602112 147.57710266 1.1062999964 1.0992000103
 1221.6384277  -999.250000 9.8750000000 103.43871307 96.045898438 148.72953796 1.1102000475 1.1031999588
 1221.7907715  -999.250000 9.8750000000 104.75032806 95.570503235 149.28300476 1.1030999422 1.0973000526
 1221.9432373  -999.250000 9.8750000000 114.47010803 94.001098633 149.61987305 1.1086000204 1.1007000208
 1222.0955811  -999.250000 9.8750000000 110.74367523 96.556999207 149.82415771 1.1045000553 1.0980000496
 1222.2480469  -999.250000 9.8750000000 118.00381470 100.27439880 150.00894165 1.0951999426 1.0886000395
 1222.4003906  -999.250000 9.8750000000 118.26101685 100.22509766 150.31222534 1.0930000544 1.0859999657
 1222.5527344  -999.250000 9.8750000000 119.71195221 96.696098328 150.84849548 1.0872000456 1.0805000067
 1222.7052002  -999.250000 9.8750000000 119.74422455 91.642402649 151.71786499 1.0686000586 1.0656000376
 1222.8575439  -999.250000 9.8750000000 120.32086182 87.364601135 152.18249512 1.0519000292 1.0462000370
 1223.0100098  -999.250000 9.8750000000 114.67623138 83.266098022 152.62043762 1.0353000164 1.0286999941
 1223.1623535  -999.250000 9.8750000000 117.19817352 79.024101257 152.66239929 1.0347000360 1.0282000303
 1223.3148193  -999.250000 9.8750000000 118.90743256 75.894203186 152.72962952 1.0349999666 1.0309000015
 1223.4671631  -999.250000 9.8750000000 128.65913391 74.252998352 152.40589905 1.0324000120 1.0268000364
 1223.6196289  -999.250000 9.8750000000 125.91217804 74.190200806 151.90032959 1.0370999575 1.0349999666
 1223.7719727  -999.250000 9.8750000000 127.25360870 77.060096741 151.30090332 1.0597000122 1.0534000397
 1223.9244385  -999.250000 9.8750000000 134.32650757 81.059898376 150.52989197 1.0587999821 1.0577000380
 1224.0767822  -999.250000 9.8750000000 132.76031494 82.853599548 149.92510986 1.0587999821 1.0577000380
 1224.2292480  -999.250000 9.8750000000 124.73695374 83.104698181 150.19340515 1.0492999554 1.0469000340
 1224.3815918  -999.250000 9.8750000000 126.06995392 83.678596497 150.82890320 1.0463000536 1.0399999619
 1224.5339355  -999.250000 9.8750000000 127.79527283 82.315498352 150.96151733 1.0540000200 1.0475000143
 1224.6864014  -999.250000 9.8750000000 125.21493530 78.387397766 150.87701416 1.0563000441 1.0548000336
 1224.8387451  -999.250000 9.8750000000 119.92715454 77.149696350 151.39649963 1.0831999779 1.0765999556
 1224.9912109  -999.250000 9.8750000000 119.66128540 80.916397095 149.64979553 1.1273000240 1.1125999689
 1225.1435547  -999.250000 9.8750000000 127.26279449 86.279403687 149.89199829 1.1469000578 1.1292999983
 1225.2960205  -999.250000 9.8750000000 128.13871765 89.561798096 150.60627747 1.2225999832 1.2006000280
 1225.4483643  -999.250000 9.8750000000 121.11482239 91.956298828 150.95629883 1.1552000046 1.1455999613
 1225.6008301  -999.250000 9.8750000000 120.29486084 94.117698669 151.44290161 1.0907000303 1.0894000530
 1225.7531738  -999.250000 9.8750000000 127.96293640 96.207298279 151.43780518 1.0822000504 1.0800000429
 1225.9056396  -999.250000 9.8750000000 121.10204315 98.817001343 151.75727844 1.1129000187 1.1055999994
 1226.0579834  -999.250000 9.8750000000 126.00422668 95.869499207 150.62028503 1.1210999489 1.1115000248
 1226.2104492  -999.250000 9.8750000000 120.65452576 85.944602966 150.45910645 1.1072000265 1.0929000378
 1226.3627930  -999.250000 9.8750000000 125.54496765 78.488998413 150.60043335 1.0657999516 1.0568000078
 1226.5151367  -999.250000 9.8750000000 107.96194458 78.512901306 151.39410400 1.0250999928 1.0213999748
 1226.6676025  -999.250000 9.8750000000 103.92974854 83.331901550 152.41879272 0.9973999858 0.9969000220
 1226.8199463  -999.250000 9.8750000000 99.380577087 88.132896423 152.53359985 1.0370999575 1.0300999880
 1226.9724121  -999.250000 9.8750000000 98.660820007 89.424301147 152.46841431 1.0961999893 1.0864000320
 1227.1247559  -999.250000 9.8750000000 89.726707458 91.074401855 151.37081909 1.0815999508 1.0721000433
 1227.2772217  -999.250000 9.8750000000 87.770904541 94.087799072 151.11346436 1.0564999580 1.0534000397
 1227.4295654  -999.250000 9.8750000000 86.423881531 93.495903015 151.43290710 1.0537999868 1.0548000336
