# LAS format log file from PETREL
# Project units are specified as depth units
#==================================================================
~Version information
VERS.   2.0:
WRAP.   NO:
#==================================================================
~Well
STRT .m      500.02444458 :
STOP .m      1854.8603516 :
STEP .m     0.00000000 :
NULL .        -999.250000 :
COMP.           : COMPANY
WELL.  35/7-1 S   : WELL
FLD.            : FIELD
LOC.            : LOCATION
SRVC.           : SERVICE COMPANY
DATE.  2018-09-11 14:48:59   : Log Export Date {yyyy-MM-dd HH:mm:ss}
PROV.           : PROVINCE
UWI.   35/7-1 S   : UNIQUE WELL ID
API.            : API NUMBER
#==================================================================
~Curve
DEPT .m                   : DEPTH
Lithology_geolink ._      : Lithology_geolink
BS .in                    : BS
ROP .m/h                  : ROP
GR .gAPI                  : GR
DTC .us/ft                : DTC
RDEP .ohm.m               : RDEP
RMED .ohm.m               : RMED
~Parameter
#==================================================================
~Ascii
# ...
 1743.9130859 6.0000000000 17.500000000 121.20930481 67.772399902 145.16650391 0.6470999718 0.6511999965
 1744.0655518 6.0000000000 17.500000000 120.43339539 73.363700867 140.43310547 0.7477999926 0.7394999862
 1744.2178955 6.0000000000 17.500000000 119.10694885 75.878700256 133.66510010 0.7832000256 0.7806000113
 1744.3703613 6.0000000000 17.500000000 123.37205505 72.203796387 128.97430420 1.0440000296 1.0463000536
 1744.5227051 5.0000000000 17.500000000 120.39141083 66.457603455 127.23660278 1.1746000051 1.2016999722
 1744.6751709 5.0000000000 17.500000000 116.05184937 61.217899323 125.51419830 1.1419999599 1.1651999950
 1744.8275146 5.0000000000 17.500000000 117.22571564 55.098999023 124.71530151 0.9411000013 0.9768999815
 1744.9798584 5.0000000000 17.500000000 119.53707123 51.316101074 122.40249634 0.9503999949 0.9847000241
 1745.1323242 5.0000000000 17.500000000 121.00328827 50.751399994 122.15379333 0.9879999757 0.9995999932
 1745.2846680 5.0000000000 17.500000000 122.04658508 55.542598724 125.90149689 1.0236999989 1.0325000286
 1745.4371338 5.0000000000 17.500000000 120.69652557 69.343597412 128.76469421 1.0534000397 1.0544999838
 1745.5894775 6.0000000000 17.500000000 121.29166412 81.795997620 132.47579956 1.1331000328 1.1323000193
 1745.7419434 6.0000000000 17.500000000 123.88714600 82.496101379 136.60809326 1.2029000521 1.2028000355
 1745.8942871 6.0000000000 17.500000000 107.97474670 76.666000366 138.89660645 1.2072000504 1.1993000507
 1746.0467529 6.0000000000 17.500000000 97.566604614 73.562202454 138.74139404 1.1742999554 1.1848000288
 1746.1990967 6.0000000000 17.500000000 92.939308167 73.933197021 138.58709717 1.0874999762 1.1018999815
 1746.3515625 6.0000000000 17.500000000 94.283790588 74.901100159 137.46830750 1.0607000589 1.0778000355
 1746.5039063 6.0000000000 17.500000000 94.749015808 76.062599182 136.51620483 1.2447999716 1.2322000265
 1746.6563721 6.0000000000 17.500000000 95.062660217 77.345100403 135.56900024 1.3421000242 1.3134000301
 1746.8087158 6.0000000000 17.500000000 96.549209595 78.966400146 133.61889648 1.2510000467 1.2482000589
 1746.9611816 5.0000000000 17.500000000 100.33432007 78.506599426 127.92099762 1.2036000490 1.2299000025
 1747.1135254 5.0000000000 17.500000000 102.35794067 74.239700317 124.52780151 1.2541999817 1.2943999767
 1747.2658691 5.0000000000 17.500000000 104.68864441 70.367996216 121.32970428 1.3408999443 1.3658000231
 1747.4183350 5.0000000000 17.500000000 126.02624512 66.867401123 116.89820099 1.3357000351 1.3615000248
 1747.5706787 5.0000000000 17.500000000 150.55151367 62.334300995 115.70169830 1.2421000004 1.2462999821
 1747.7231445 5.0000000000 17.500000000 177.11384583 60.382301331 117.25430298 1.0439000130 1.0611000061
 1747.8754883 5.0000000000 17.500000000 187.73622131 60.688800812 118.56440735 0.8896999955 0.9193999767
 1748.0279541 5.0000000000 17.500000000 191.84481812 58.414199829 118.40090179 0.8126000166 0.8410000205
 1748.1802979 2.0000000000 17.500000000 183.55018616 53.364799500 118.51080322 0.7531999946 0.7792000175
 1748.3327637 2.0000000000 17.500000000 177.16273499 50.477199554 119.95729828 0.7538999915 0.7656999826
 1748.4851074 2.0000000000 17.500000000 174.30413818 50.417999268 120.52290344 0.7354999781 0.7500000000
 1748.6375732 2.0000000000 17.500000000 170.85302734 49.552299500 120.98269653 0.7402999997 0.7552000284
 1748.7899170 2.0000000000 17.500000000 164.12500000 49.181301117 120.87390900 0.7422999740 0.7602000237
 1748.9423828 2.0000000000 17.500000000 155.59251404 48.810199738 120.03929901 0.7476999760 0.7634000182
 1749.0947266 2.0000000000 17.500000000 154.68537903 47.917598724 117.29350281 0.7508000135 0.7639999986
 1749.2470703 2.0000000000 17.500000000 155.98524475 51.687099457 115.64330292 0.7527999878 0.7748000026
 1749.3995361 2.0000000000 17.500000000 153.77035522 56.026599884 113.84970093 0.7588999867 0.7792999744
 1749.5518799 2.0000000000 17.500000000 126.46654510 56.075000763 114.50800323 0.7469000220 0.7739999890
 1749.7043457 2.0000000000 17.500000000 123.64765167 55.607200623 115.42430115 0.7419000268 0.7670000196
 1749.8566895 2.0000000000 17.500000000 118.90715027 56.010501862 115.86669159 0.7319999933 0.7642999887
 1750.0091553 4.0000000000 17.500000000 110.28543854 56.607398987 115.05410004 0.7256000042 0.7595999837
 1750.1614990 4.0000000000 17.500000000 106.16601563 56.913898468 116.01729584 0.7308999896 0.7646999955
 1750.3139648 4.0000000000 17.500000000 102.42946625 57.172000885 117.25589752 0.7493000031 0.7674000263
 1750.4663086 4.0000000000 17.500000000 96.879264832 58.349601746 117.09860229 0.7347000241 0.7621999979
 1750.6187744 2.0000000000 17.500000000 90.130912781 59.527301788 116.12960815 0.7081000209 0.7601000071
 1750.7711182 2.0000000000 17.500000000 83.549865723 59.156200409 116.29599762 0.7506999969 0.7789999843
 1750.9235840 2.0000000000 17.500000000 78.975723267 58.333499908 116.40679932 0.7653999925 0.7833999991
 1751.0759277 2.0000000000 17.500000000 84.795936584 59.220798492 116.54859924 0.7699999809 0.7917000055
 1751.2282715 2.0000000000 17.500000000 85.738517761 58.010898590 117.11750031 0.7706999779 0.7951999903
 1751.3807373 2.0000000000 17.500000000 87.734909058 53.058300018 117.16909790 0.7702999711 0.7975000143
 1751.5330811 2.0000000000 17.500000000 89.632873535 49.557701111 117.25109100 0.7609000206 0.7971000075
 1751.6855469 2.0000000000 17.500000000 87.282806396 48.557498932 116.60490417 0.7660999894 0.7958999872
 1751.8378906 2.0000000000 17.500000000 88.277557373 50.041599274 115.97199249 0.7896000147 0.8088999987
 1751.9903564 2.0000000000 17.500000000 93.698165894 53.042198181 115.93530273 0.7850999832 0.8141000271
 1752.1427002 4.0000000000 17.500000000 98.883201599 53.058300018 115.53549957 0.7900000215 0.8170999885
 1752.2951660 4.0000000000 17.500000000 104.51476288 49.202800751 115.45819855 0.7932999730 0.8278999925
 1752.4475098 4.0000000000 17.500000000 111.34186554 46.137699127 115.44039917 0.8064000010 0.8282999992
 1752.5999756 4.0000000000 17.500000000 115.52297211 46.524799347 114.77279663 0.8015000224 0.8274000287
 1752.7523193 4.0000000000 17.500000000 108.47637177 47.605701447 114.38529968 0.8011999726 0.8334000111
 1752.9047852 4.0000000000 17.500000000 103.03083801 48.331600189 114.01049805 0.8040999770 0.8356000185
 1753.0571289 4.0000000000 17.500000000 105.74704742 49.815799713 114.34429169 0.8091999888 0.8349000216
 1753.2095947 4.0000000000 17.500000000 110.41699982 52.671199799 114.68409729 0.8137000203 0.8284000158
 1753.3619385 4.0000000000 17.500000000 107.04462433 55.816898346 114.81999969 0.8004000187 0.8307999969
 1753.5142822 2.0000000000 17.500000000 94.541999817 55.300701141 114.75909424 0.8058999777 0.8313999772
 1753.6667480 2.0000000000 17.500000000 89.371719360 53.929500580 113.95800018 0.8098999858 0.8303999901
 1753.8190918 2.0000000000 17.500000000 88.689636230 55.639499664 113.43229675 0.8119000196 0.8392000198
 1753.9715576 2.0000000000 17.500000000 86.106300354 55.703998566 113.36450195 0.8080999851 0.8389999866
 1754.1239014 2.0000000000 17.500000000 84.825790405 53.897201538 113.78820038 0.8098000288 0.8382999897
 1754.2763672 5.0000000000 17.500000000 88.177169800 51.912899017 114.22609711 0.8058000207 0.8291000128
 1754.4287109 5.0000000000 17.500000000 80.703414917 51.369800568 114.73130035 0.7940999866 0.8209999800
 1754.5811768 5.0000000000 17.500000000 68.502624512 53.520801544 115.12110138 0.7986999750 0.8253999949
 1754.7335205 2.0000000000 17.500000000 68.763450623 53.241100311 114.96040344 0.7900999784 0.8260999918
 1754.8859863 2.0000000000 17.500000000 64.751968384 51.945201874 114.43769073 0.8134999871 0.8353000283
 1755.0383301 2.0000000000 17.500000000 69.940948486 53.316398621 114.06559753 0.8080999851 0.8287000060
 1755.1907959 2.0000000000 17.500000000 71.867782593 53.542301178 114.31150055 0.7989000082 0.8285999894
 1755.3431396 2.0000000000 17.500000000 69.078407288 51.041801453 114.65199280 0.8187999725 0.8381999731
 1755.4954834 2.0000000000 17.500000000 65.318244934 48.863998413 115.00469971 0.8046000004 0.8424999714
