# LAS format log file from PETREL
# Project units are specified as depth units
#==================================================================
~Version information
VERS.   2.0:
WRAP.   NO:
#==================================================================
~Well
STRT .m      500.02444458 :
STOP .m      1854.8603516 :
STEP .m     0.00000000 :
NULL .        -999.250000 :
COMP.           : COMPANY
WELL.  35/7-1 S   : WELL
FLD.            : FIELD
LOC.            : LOCATION
SRVC.           : SERVICE COMPANY
DATE.  2018-09-11 14:48:59   : Log Export Date {yyyy-MM-dd HH:mm:ss}
PROV.           : PROVINCE
UWI.   35/7-1 S   : UNIQUE WELL ID
API.            : API NUMBER
#==================================================================
~Curve
DEPT .m                   : DEPTH
Lithology_geolink ._      : Lithology_geolink
BS .in                    : BS
ROP .m/h                  : ROP
GR .gAPI                  : GR
DTC .us/ft                : DTC
RDEP .ohm.m               : RDEP
RMED .ohm.m               : RMED
~Parameter
#==================================================================
~Ascii
# ...
 957.68157959  -999.250000 9.8750000000 96.568901062 79.239303589 134.20010376 1.4256000519 1.4060000181
 957.83398438  -999.250000 9.8750000000 96.739501953 76.064598083 134.50120544 1.4194999933 1.4154000282
 957.98638916  -999.250000 9.8750000000 101.71686554 73.445800781 134.40640259 1.4184000492 1.4052000046
 958.13879395  -999.250000 9.8750000000 108.46390533 75.060096741 134.19219971 1.4225000143 1.4072999954
 958.29119873  -999.250000 9.8750000000 109.10597229 79.947799683 134.15980530 1.4129999876 1.4038000107
 958.44360352  -999.250000 9.8750000000 116.99246216 84.288497925 133.83959961 1.4062000513 1.3911000490
 958.59600830  -999.250000 9.8750000000 119.05577850 83.508201599 133.77729797 1.3978999853 1.3840999603
 958.74841309  -999.250000 9.8750000000 126.41929626 79.553199768 133.80650330 1.3765000105 1.3769999743
 958.90075684  -999.250000 9.8750000000 127.35957336 79.669799805 134.41040039 1.3734999895 1.3580000401
 959.05316162  -999.250000 9.8750000000 134.50361633 83.822097778 134.51710510 1.3769999743 1.3590999842
 959.20556641  -999.250000 9.8750000000 135.23063660 88.198600769 135.24249268 1.3567999601 1.3583999872
 959.35797119  -999.250000 9.8750000000 142.05052185 91.292701721 135.79400635 1.3638999462 1.3545999527
 959.51037598  -999.250000 9.8750000000 136.05085754 89.525901794 135.69470215 1.3580000401 1.3368999958
 959.66278076  -999.250000 9.8750000000 132.51475525 83.633796692 135.99589539 1.3234000206 1.3106000423
 959.81518555  -999.250000 9.8750000000 131.82151794 80.378303528 136.36480713 1.3157999516 1.3068000078
 959.96759033  -999.250000 9.8750000000 133.27330017 80.494903564 136.17500305 1.3157999516 1.3068000078
 960.11999512  -999.250000 9.8750000000 135.14108276 80.315498352 136.33599854 1.2934000492 1.2812000513
 960.27239990  -999.250000 9.8750000000 131.96554565 80.674301147 136.80769348 1.3042000532 1.2937999964
 960.42480469  -999.250000 9.8750000000 133.12467957 82.342399597 136.30589294 1.3414000273 1.3243000507
 960.57720947  -999.250000 9.8750000000 132.80413818 82.817703247 136.22770691 1.3502000570 1.3451000452
 960.72961426  -999.250000 9.8750000000 136.14599609 83.050796509 135.53070068 1.3415000439 1.3382999897
 960.88195801  -999.250000 9.8750000000 139.10203552 83.822097778 135.02999878 1.3236999512 1.3121999502
 961.03436279  -999.250000 9.8750000000 148.51509094 83.642799377 134.67320251 1.3310999870 1.3164000511
 961.18676758  -999.250000 9.8750000000 155.69323730 83.349800110 134.16000366 1.3404999971 1.3209999800
 961.33917236  -999.250000 9.8750000000 160.42684937 84.438003540 134.09179688 1.3265000582 1.3202999830
 961.49157715  -999.250000 9.8750000000 162.84153748 86.076103210 134.17770386 1.3257000446 1.3157999516
 961.64398193  -999.250000 9.8750000000 167.12992859 85.023902893 134.03959656 1.3241000175 1.3114999533
 961.79638672  -999.250000 9.8750000000 181.25590515 82.557601929 134.22349548 1.3344000578 1.3242000341
 961.94879150  -999.250000 9.8750000000 189.07579041 83.248199463 134.13099670 1.3530000448 1.3374999762
 962.10119629  -999.250000 9.8750000000 155.37532043 84.674102783 133.93530273 1.3550000191 1.3394999504
 962.25360107  -999.250000 9.8750000000 136.49966431 83.588996887 134.09899902 1.3550000191 1.3394999504
 962.40600586  -999.250000 9.8750000000 128.15945435 83.947700500 133.99389648 1.3236999512 1.3134000301
 962.55841064  -999.250000 9.8750000000 119.11318970 86.978996277 134.26469421 1.3236999512 1.3134000301
 962.71081543  -999.250000 9.8750000000 115.24573517 86.781600952 135.72419739 1.3068000078 1.2943999767
 962.86322021  -999.250000 9.8750000000 114.50787354 82.817703247 135.65980530 1.3041000366 1.2934999466
 963.01556396  -999.250000 9.8750000000 112.23064423 79.804298401 136.25770569 1.2750999928 1.2702000141
 963.16796875  -999.250000 9.8750000000 103.69521332 79.077903748 136.32369995 1.2750999928 1.2702000141
 963.32037354  -999.250000 9.8750000000 95.761154175 80.034500122 136.05520630 1.3106000423 1.3014999628
 963.47277832  -999.250000 9.8750000000 92.863845825 82.124702454 136.03390503 1.3365000486 1.3123999834
 963.62518311  -999.250000 9.8750000000 100.67322540 82.812896729 136.15969849 1.3055000305 1.2914999723
 963.77758789  -999.250000 9.8750000000 108.83497620 79.216003418 135.96049500 1.3099999428 1.2968000174
 963.92999268  -999.250000 9.8750000000 116.25262451 76.734199524 135.18989563 1.3528000116 1.3345999718
 964.08239746  -999.250000 9.8750000000 121.30479431 77.012199402 134.94090271 1.3636000156 1.3425999880
 964.23480225  -999.250000 9.8750000000 122.84711456 76.327697754 134.34930420 1.3402999640 1.3364000320
 964.38720703  -999.250000 9.8750000000 124.22112274 77.287200928 134.67359924 1.3322999477 1.3161000013
 964.53961182  -999.250000 9.8750000000 128.30511475 80.055496216 135.57699585 1.3126000166 1.3100999594
 964.69201660  -999.250000 9.8750000000 137.93273926 81.621902466 135.78489685 1.3221000433 1.3072999716
 964.84442139  -999.250000 9.8750000000 102.32381439 80.997100830 136.04750061 1.3583999872 1.3451000452
 964.99676514  -999.250000 9.8750000000 101.66403961 80.907402039 136.08450317 1.3547999859 1.3440999985
 965.14916992  -999.250000 9.8750000000 105.01738739 82.375198364 136.07769775 1.3120000362 1.3035999537
 965.30157471  -999.250000 9.8750000000 104.45866394 84.082199097 136.04209900 1.2802000046 1.2669999599
 965.45397949  -999.250000 9.8750000000 105.14075470 86.709899902 136.18319702 1.2983000278 1.2876000404
 965.60638428  -999.250000 9.8750000000 109.70209503 88.162803650 136.38340759 1.2849999666 1.2795000076
 965.75878906  -999.250000 9.8750000000 113.33694458 86.485702515 136.66789246 1.2138999701 1.2015999556
 965.91119385  -999.250000 9.8750000000 113.23850250 83.158500671 136.88360596 1.1792000532 1.1671999693
 966.06359863  -999.250000 9.8750000000 109.62204742 81.113700867 137.24000549 1.1409000158 1.1349999905
 966.21600342  -999.250000 9.8750000000 97.666671753 81.729499817 137.27119446 1.1347999573 1.1237000227
 966.36840820  -999.250000 9.8750000000 126.40747833 81.305000305 137.61799622 1.1111999750 1.1039999723
 966.52081299  -999.250000 9.8750000000 123.11941528 79.433700562 137.70970154 1.1053999662 1.0889999866
 966.67321777  -999.250000 9.8750000000 120.20669556 79.867103577 137.98236084 1.1455999613 1.1299999952
 966.82562256  -999.250000 9.8750000000 125.14436340 81.275100708 138.05810547 1.1934000254 1.1813000441
 966.97802734  -999.250000 9.8750000000 128.57022095 81.212303162 137.81413269 1.2489999533 1.2361999750
 967.13037109  -999.250000 9.8750000000 132.41601563 82.441001892 136.35639954 1.3112000227 1.2999000549
 967.28277588  -999.250000 9.8750000000 136.74475098 88.207603455 136.34986877 1.3097000122 1.2894999981
 967.43518066  -999.250000 9.8750000000 132.36384583 95.696098328 137.05003357 1.3816000223 1.3184000254
 967.58758545  -999.250000 9.8750000000 128.34678650 97.947097778 137.11038208 1.4904999733 1.4809999466
 967.73999023  -999.250000 9.8750000000 163.79724121 93.364303589 136.80992126 1.4716999531 1.4563000202
 967.89239502  -999.250000 9.8750000000 188.34416199 87.714302063 136.63240051 1.4246000051 1.4155000448
 968.04479980  -999.250000 9.8750000000 197.95242310 84.019401550 138.39482117 1.4265999794 1.4292000532
 968.19720459  -999.250000 9.8750000000 171.35990906 80.781898499 136.73129272 1.3107999563 1.3093999624
 968.34960938  -999.250000 9.8750000000 98.342193604 78.028602600 135.70603943 1.3385000229 1.3242000341
 968.50201416  -999.250000 9.8750000000 88.896003723 79.418701172 135.53770447 1.3388999701 1.3265999556
 968.65441895  -999.250000 9.8750000000 81.019355774 84.414001465 135.32429504 1.2935999632 1.2824000120
 968.80682373  -999.250000 9.8750000000 75.127624512 85.624702454 135.32583618 1.2683000565 1.2537000179
 968.95922852  -999.250000 9.8750000000 70.744094849 82.871498108 135.87637329 1.2524000406 1.2465000153
 969.11163330  -999.250000 9.8750000000 68.585632324 81.221298218 136.09339905 1.2474000454 1.2328000069
 969.26397705  -999.250000 9.8750000000 63.688323975 79.876098633 135.95182800 1.3434000015 1.3276000023
