# LAS format log file from PETREL
# Project units are specified as depth units
#==================================================================
~Version information
VERS.   2.0:
WRAP.   NO:
#==================================================================
~Well
STRT .m      500.02444458 :
STOP .m      1854.8603516 :
STEP .m     0.00000000 :
NULL .        -999.250000 :
COMP.           : COMPANY
WELL.  35/7-1 S   : WELL
FLD.            : FIELD
LOC.            : LOCATION
SRVC.           : SERVICE COMPANY
DATE.  2018-09-11 14:48:59   : Log Export Date {yyyy-MM-dd HH:mm:ss}
PROV.           : PROVINCE
UWI.   35/7-1 S   : UNIQUE WELL ID
API.            : API NUMBER
#==================================================================
~Curve
DEPT .m                   : DEPTH
Lithology_geolink ._      : Lithology_geolink
BS .in                    : BS
ROP .m/h                  : ROP
GR .gAPI                  : GR
DTC .us/ft                : DTC
RDEP .ohm.m               : RDEP
RMED .ohm.m               : RMED
~Parameter
#==================================================================
~Ascii
# ...
 863.80322266  -999.250000 9.8750000000 119.71063232 111.10350037 131.18356323 2.7911000252 2.7572999001
 863.95562744  -999.250000 9.8750000000 116.58760834 110.46679688 130.83863831 2.7799999714 2.7685999870
 864.10803223  -999.250000 9.8750000000 112.50492096 109.83010101 130.70256042 2.7813999653 2.7674999237
 864.26043701  -999.250000 9.8750000000 114.53134918 106.35929871 130.84054565 2.8050999641 2.7711000443
 864.41284180  -999.250000 9.8750000000 107.79297638 101.65100098 131.27197266 2.8141000271 2.7785000801
 864.56524658  -999.250000 9.8750000000 105.73488617 101.00530243 131.47657776 2.8117001057 2.7836000919
 864.71759033  -999.250000 9.8750000000 104.06182098 103.00520325 131.95736694 2.7658998966 2.7407000065
 864.86999512  -999.250000 9.8750000000 104.40798187 104.18900299 132.12702942 2.7323000431 2.7016999722
 865.02239990  -999.250000 9.8750000000 103.21050262 105.91089630 131.70736694 2.7360999584 2.7063999176
 865.17480469  -999.250000 9.8750000000 104.52996063 107.93779755 131.34715271 2.7692999840 2.7379000187
 865.32720947  -999.250000 9.8750000000 102.33668518 108.52970123 130.74555969 2.8127999306 2.7830998898
 865.47961426  -999.250000 9.8750000000 99.226837158 109.16639709 130.14761353 2.9114999771 2.8696999550
 865.63201904  -999.250000 9.8750000000 99.556671143 108.34130096 129.42181396 2.9584999084 2.9295001030
 865.78442383  -999.250000 9.8750000000 98.533081055 105.88400269 129.44512939 2.9532001019 2.9410998821
 865.93682861  -999.250000 9.8750000000 102.49919891 104.89749908 129.74319458 2.9005999565 2.8905999660
 866.08923340  -999.250000 9.8750000000 103.78173065 103.26529694 130.45043945 2.8447000980 2.8285999298
 866.24163818  -999.250000 9.8750000000 103.55536652 101.17569733 130.57408142 2.8578999043 2.8461999893
 866.39404297  -999.250000 9.8750000000 102.62709045 104.39530182 130.05136108 2.8828999996 2.8784000874
 866.54644775  -999.250000 9.8750000000 101.14700317 109.47129822 129.38064575 2.8993000984 2.8877000809
 866.69879150  -999.250000 9.8750000000 103.21758270 108.40409851 129.57812500 2.8868999481 2.8694999218
 866.85119629  -999.250000 9.8750000000 100.90387726 106.74500275 129.40373230 2.8784000874 2.8684999943
 867.00360107  -999.250000 9.8750000000 100.10429382 111.98239899 130.23469543 2.8243999481 2.8076000214
 867.15600586  -999.250000 9.8750000000 98.351737976 115.83879852 129.98362732 2.7841000557 2.8013000488
 867.30841064  -999.250000 9.8750000000 55.027965546 109.93769836 129.78114319 2.7829999924 2.7878999710
 867.46081543  -999.250000 9.8750000000 52.765445709 101.83039856 129.62489319 2.7695999146 2.7709999084
 867.61322021  -999.250000 9.8750000000 52.834804535 100.47619629 130.11486816 2.7311000824 2.7323999405
 867.76562500  -999.250000 9.8750000000 53.225444794 104.31459808 130.80613708 2.6940000057 2.6854999065
 867.91802979  -999.250000 9.8750000000 53.350528717 107.44450378 131.92115784 2.6298000813 2.6340000629
 868.07043457  -999.250000 9.8750000000 53.682910919 107.81220245 132.78302002 2.6152999401 2.5994999409
 868.22283936  -999.250000 9.8750000000 54.113269806 106.80770111 133.07402039 2.5852000713 2.5720999241
 868.37524414  -999.250000 9.8750000000 55.950981140 107.58799744 133.11653137 2.5720000267 2.5553998947
 868.52764893  -999.250000 9.8750000000 57.423904419 112.22460175 132.66918945 2.5773000717 2.5522999763
 868.68005371  -999.250000 9.8750000000 58.713729858 114.52040100 132.64530945 2.5920000076 2.5636999607
 868.83239746  -999.250000 9.8750000000 112.92728424 109.44439697 132.78158569 2.5973999500 2.5685999393
 868.98480225  -999.250000 9.8750000000 125.49160004 105.75849915 132.51524353 2.5936999321 2.5664999485
 869.13720703  -999.250000 9.8750000000 127.48218536 108.06330109 133.12411499 2.6003999710 2.5680000782
 869.28961182  -999.250000 9.8750000000 132.17652893 108.31439972 132.88272095 2.6017000675 2.5801999569
 869.44201660  -999.250000 9.8750000000 133.03399658 106.30549622 133.19955444 2.6013998985 2.5678999424
 869.59442139  -999.250000 9.8750000000 128.60668945 104.81680298 133.34768677 2.5875000954 2.5606999397
 869.74682617  -999.250000 9.8750000000 121.39179993 103.95580292 133.31089783 2.5734999180 2.5460000038
 869.89923096  -999.250000 9.8750000000 119.93545532 105.57009888 132.79722595 2.5734999180 2.5495998859
 870.05163574  -999.250000 9.8750000000 117.72167206 109.09470367 132.86911011 2.5927999020 2.5678999424
 870.20404053  -999.250000 9.8750000000 119.04542542 112.02729797 132.42390442 2.5878000259 2.5671999454
 870.35644531  -999.250000 9.8750000000 115.32687378 108.95120239 131.92810059 2.6198999882 2.5868999958
 870.50885010  -999.250000 9.8750000000 111.48081207 104.49389648 131.43106079 2.6723999977 2.6443998814
 870.66125488  -999.250000 9.8750000000 111.68300629 105.95580292 130.88769531 2.6970999241 2.6714000702
 870.81365967  -999.250000 9.8750000000 112.00409698 109.19629669 130.64610291 2.6935999393 2.6758000851
 870.96600342  -999.250000 9.8750000000 110.98258209 110.84940338 130.89192200 2.6884999275 2.6754000187
 871.11840820  -999.250000 9.8750000000 115.81280518 107.85109711 130.71249390 2.6596999168 2.6512999535
 871.27081299  -999.250000 9.8750000000 120.24163055 102.35050201 130.94241333 2.6470000744 2.6379001141
 871.42321777  -999.250000 9.8750000000 119.85164642 101.15779877 130.70867920 2.6610000134 2.6394999027
 871.57562256  -999.250000 9.8750000000 121.29844666 104.44010162 130.68624878 2.6582982540 2.6355013847
 871.72802734  -999.250000 9.8750000000 121.85468292 108.97810364 131.29838562 2.6541945934 2.6392922401
 871.88043213  -999.250000 9.8750000000 122.71458435 111.17530060 131.26588440 2.6403017044 2.6194009781
 872.03283691  -999.250000 9.8750000000 124.40850830 109.22019958 131.71189880 2.6444034576 2.6216053963
 872.18524170  -999.250000 9.8750000000 122.88694763 106.60150146 131.71124268 2.6534912586 2.6352906227
 872.33764648  -999.250000 9.8750000000 117.49710083 106.01850128 131.55657959 2.6316945553 2.6119940281
 872.49005127  -999.250000 9.8750000000 117.62801361 105.32800293 132.00526428 2.6180977821 2.5974018574
 872.64245605  -999.250000 9.8750000000 119.74102020 105.65090179 131.71852112 2.6152942181 2.5996878147
 872.79486084  -999.250000 9.8750000000 114.67602539 108.10810089 131.98971558 2.6081182957 2.5845115185
 872.94714355  -999.250000 9.8750000000 115.29561615 109.31841278 131.87840271 2.6308999062 2.5989000797
 873.09954834  -999.250000 9.8750000000 110.83989716 110.00912476 131.28379822 2.6507999897 2.6219000816
 873.25195313  -999.250000 9.8750000000 107.61253357 112.83326721 130.91780090 2.6884999275 2.6628999710
 873.40435791  -999.250000 9.8750000000 109.47047424 112.80751038 130.82319641 2.6975998878 2.6712999344
 873.55676270  -999.250000 9.8750000000 107.65518951 107.41075897 131.30670166 2.6839001179 2.6665000916
 873.70916748  -999.250000 9.8750000000 106.25721741 103.51795959 131.49200439 2.6468000412 2.6349999905
 873.86157227  -999.250000 9.8750000000 106.33497620 103.14884186 131.88250732 2.6489000320 2.6359999180
 874.01397705  -999.250000 9.8750000000 108.19487762 104.45757294 132.42129517 2.6368000507 2.6328001022
 874.16638184  -999.250000 9.8750000000 102.03903961 106.49308014 132.53630066 2.6335999966 2.6345999241
 874.31878662  -999.250000 9.8750000000 106.69718170 107.46201324 132.44850159 2.6668999195 2.6549999714
 874.47119141  -999.250000 9.8750000000 100.39665985 108.00927734 132.43080139 2.6389000416 2.6089999676
 874.62353516  -999.250000 9.8750000000 100.15715790 107.40018463 131.62910461 2.6407001019 2.6194999218
 874.77593994  -999.250000 9.8750000000 99.778213501 106.48563385 131.81900024 2.6436998844 2.6214001179
 874.92834473  -999.250000 9.8750000000 97.617126465 106.97180939 131.80599976 2.6349999905 2.6250000000
 875.08074951  -999.250000 9.8750000000 96.133201599 105.42431641 131.58169556 2.6154000759 2.6149001122
 875.23315430  -999.250000 9.8750000000 95.628608704 102.16519928 131.41459656 2.6284999847 2.6047999859
 875.38555908  -999.250000 9.8750000000 90.867126465 103.19360352 131.80110168 2.6315999031 2.6122000217
