# LAS format log file from PETREL
# Project units are specified as depth units
#==================================================================
~Version information
VERS.   2.0:
WRAP.   NO:
#==================================================================
~Well
STRT .m      500.02444458 :
STOP .m      1854.8603516 :
STEP .m     0.00000000 :
NULL .        -999.250000 :
COMP.           : COMPANY
WELL.  35/7-1 S   : WELL
FLD.            : FIELD
LOC.            : LOCATION
SRVC.           : SERVICE COMPANY
DATE.  2018-09-11 14:48:59   : Log Export Date {yyyy-MM-dd HH:mm:ss}
PROV.           : PROVINCE
UWI.   35/7-1 S   : UNIQUE WELL ID
API.            : API NUMBER
#==================================================================
~Curve
DEPT .m                   : DEPTH
Lithology_geolink ._      : Lithology_geolink
BS .in                    : BS
ROP .m/h                  : ROP
GR .gAPI                  : GR
DTC .us/ft                : DTC
RDEP .ohm.m               : RDEP
RMED .ohm.m               : RMED
~Parameter
#==================================================================
~Ascii
# ...
 1837.7915039 19.000000000 17.500000000 170.11909485 50.622398376  -999.250000 1.1352000237 1.1510000229
 1837.9439697 19.000000000 17.500000000 170.60171509 51.590301514  -999.250000 1.0980000496 1.1151000261
 1838.0963135 19.000000000 17.500000000 165.71391296 52.751800537  -999.250000 1.1599999666 1.1575000286
 1838.2487793 19.000000000 17.500000000 144.95309448 53.493900299  -999.250000 1.4112000465 1.3933999538
 1838.4011230 19.000000000 17.500000000 116.41370392 54.461799622  -999.250000 1.3740999699 1.3926000595
 1838.5535889 19.000000000 17.500000000 105.00328827 57.462398529  -999.250000 1.3133000135 1.3284000158
 1838.7059326 19.000000000 17.500000000 99.151573181 61.979301453  -999.250000 1.4359999895 1.4465999603
 1838.8583984 19.000000000 17.500000000 96.184059143 65.657402039  -999.250000 1.4471000433 1.4730000496
 1839.0107422 19.000000000 17.500000000 97.270996094 67.496498108  -999.250000 1.3547999859 1.3751000166
 1839.1632080 19.000000000 17.500000000 98.645668030 68.464401245  -999.250000 1.2710000277 1.2792999744
 1839.3155518 19.000000000 17.500000000 98.354988098 69.012901306  -999.250000 1.2401000261 1.2408000231
 1839.4680176 19.000000000 17.500000000 97.845474243 70.948799133  -999.250000 1.2330000401 1.2446000576
 1839.6203613 19.000000000 17.500000000 99.410438538 74.885002136  -999.250000 1.2431999445 1.2450000048
 1839.7727051 19.000000000 17.500000000 108.26771545 79.498703003  -999.250000 1.2201999426 1.2187000513
 1839.9251709 19.000000000 17.500000000 128.65255737 80.402198792  -999.250000 1.2201999426 1.2187000513
 1840.0775146 19.000000000 17.500000000 134.65386963 77.498397827  -999.250000 1.2459000349 1.2343000174
 1840.2299805 6.0000000000 17.500000000 137.85662842 78.982498169  -999.250000 1.3068000078 1.3075000048
 1840.3823242 6.0000000000 17.500000000 141.29626465 83.499496460  -999.250000 1.2863999605 1.3020000458
 1840.5347900 6.0000000000 17.500000000 137.24737549 83.822097778  -999.250000 1.2867000103 1.2990000248
 1840.6871338 6.0000000000 17.500000000 129.60269165 81.789497375  -999.250000 1.3403999805 1.3451999426
 1840.8395996 6.0000000000 17.500000000 128.29920959 79.434196472  -999.250000 1.3265000582 1.3248000145
 1840.9919434 6.0000000000 17.500000000 129.45767212 77.046699524  -999.250000 1.2488000393 1.2545000315
 1841.1444092 6.0000000000 17.500000000 128.97949219 77.240303040  -999.250000 1.1913000345 1.1996999979
 1841.2967529 6.0000000000 17.500000000 127.24220276 79.401901245  -999.250000 1.0895999670 1.1057000160
 1841.4492188 6.0000000000 17.500000000 126.47882843 82.031501770  -999.250000 0.9405000210 0.9663000107
 1841.6015625 6.0000000000 17.500000000 108.16530609 84.209297180  -999.250000 1.0963000059 1.0915999413
 1841.7539063 6.0000000000 17.500000000 108.50789642 85.338500977  -999.250000 1.1346000433 1.1381000280
 1841.9063721 6.0000000000 17.500000000 106.07533264 84.338401794  -999.250000 1.1291999817 1.1144000292
 1842.0587158 6.0000000000 17.500000000 101.81046295 82.192802429  -999.250000 1.2064000368 1.1863000393
 1842.2111816 6.0000000000 17.500000000 102.33203888 82.402496338  -999.250000 1.1591999531 1.1763000488
 1842.3635254 6.0000000000 17.500000000 103.58116150 83.273696899  -999.250000 1.0204999447 1.0447000265
 1842.5159912 6.0000000000 17.500000000 102.91940308 80.273101807  -999.250000 1.0118000507 1.0286999941
 1842.6683350 6.0000000000 17.500000000 98.970893860 75.110801697  -999.250000 1.0966999531 1.0966000557
 1842.8208008 6.0000000000 17.500000000 97.042938232 71.690803528  -999.250000 1.0388000011 1.0527000427
 1842.9731445 6.0000000000 17.500000000 96.610862732 68.399902344  -999.250000 1.0111000538 1.0242999792
 1843.1256104 5.0000000000 17.500000000 98.177680969  -999.250000  -999.250000  -999.250000  -999.250000
 1843.2779541 5.0000000000 17.500000000 80.290779114  -999.250000  -999.250000  -999.250000  -999.250000
 1843.4304199 5.0000000000 17.500000000 78.346664429  -999.250000  -999.250000  -999.250000  -999.250000
 1843.5827637 5.0000000000 17.500000000 71.313072205  -999.250000  -999.250000  -999.250000  -999.250000
 1843.7351074 5.0000000000 17.500000000 68.542488098  -999.250000  -999.250000  -999.250000  -999.250000
 1843.8875732 6.0000000000 17.500000000 65.068420410  -999.250000  -999.250000  -999.250000  -999.250000
 1844.0399170 6.0000000000 17.500000000 63.654083252  -999.250000  -999.250000  -999.250000  -999.250000
 1844.1923828 6.0000000000 17.500000000 63.918186188  -999.250000  -999.250000  -999.250000  -999.250000
 1844.3447266 7.0000000000 17.500000000 63.766716003  -999.250000  -999.250000  -999.250000  -999.250000
 1844.4971924 7.0000000000 17.500000000 64.158584595  -999.250000  -999.250000  -999.250000  -999.250000
 1844.6495361 7.0000000000 17.500000000 72.099021912  -999.250000  -999.250000  -999.250000  -999.250000
 1844.8020020 7.0000000000 17.500000000 89.221878052  -999.250000  -999.250000  -999.250000  -999.250000
 1844.9543457 7.0000000000 17.500000000 94.254165649  -999.250000  -999.250000  -999.250000  -999.250000
 1845.1068115 7.0000000000 17.500000000 110.92053986  -999.250000  -999.250000  -999.250000  -999.250000
 1845.2591553 7.0000000000 17.500000000 120.09335327  -999.250000  -999.250000  -999.250000  -999.250000
 1845.4116211 6.0000000000 17.500000000 129.30807495  -999.250000  -999.250000  -999.250000  -999.250000
 1845.5639648 6.0000000000 17.500000000 127.87996674  -999.250000  -999.250000  -999.250000  -999.250000
 1845.7164307 6.0000000000 17.500000000 124.66726685  -999.250000  -999.250000  -999.250000  -999.250000
 1845.8687744 6.0000000000 17.500000000 123.80457306  -999.250000  -999.250000  -999.250000  -999.250000
 1846.0211182 6.0000000000 17.500000000 119.85192871  -999.250000  -999.250000  -999.250000  -999.250000
 1846.1735840 6.0000000000 17.500000000 114.80023956  -999.250000  -999.250000  -999.250000  -999.250000
 1846.3259277 6.0000000000 17.500000000 112.38954926  -999.250000  -999.250000  -999.250000  -999.250000
 1846.4783936 6.0000000000 17.500000000 113.35392761  -999.250000  -999.250000  -999.250000  -999.250000
 1846.6307373 6.0000000000 17.500000000 117.34437561  -999.250000  -999.250000  -999.250000  -999.250000
 1846.7832031 6.0000000000 17.500000000 119.67143250  -999.250000  -999.250000  -999.250000  -999.250000
 1846.9355469 6.0000000000 17.500000000 121.13195801  -999.250000  -999.250000  -999.250000  -999.250000
 1847.0880127 6.0000000000 17.500000000 126.55171204  -999.250000  -999.250000  -999.250000  -999.250000
 1847.2403564 6.0000000000 17.500000000 133.43750000  -999.250000  -999.250000  -999.250000  -999.250000
 1847.3928223 6.0000000000 17.500000000 139.78739929  -999.250000  -999.250000  -999.250000  -999.250000
 1847.5451660 6.0000000000 17.500000000 149.60426331  -999.250000  -999.250000  -999.250000  -999.250000
 1847.6976318 6.0000000000 17.500000000 159.75512695  -999.250000  -999.250000  -999.250000  -999.250000
 1847.8499756 6.0000000000 17.500000000 165.82058716  -999.250000  -999.250000  -999.250000  -999.250000
 1848.0023193 6.0000000000 17.500000000 169.14965820  -999.250000  -999.250000  -999.250000  -999.250000
 1848.1547852 6.0000000000 17.500000000 170.84066772  -999.250000  -999.250000  -999.250000  -999.250000
 1848.3071289 6.0000000000 17.500000000 174.27085876  -999.250000  -999.250000  -999.250000  -999.250000
 1848.4595947 6.0000000000 17.500000000 180.66326904  -999.250000  -999.250000  -999.250000  -999.250000
 1848.6119385 5.0000000000 17.500000000 190.33367920  -999.250000  -999.250000  -999.250000  -999.250000
 1848.7644043 5.0000000000 17.500000000 200.61201477  -999.250000  -999.250000  -999.250000  -999.250000
 1848.9167480 5.0000000000 17.500000000 207.32127380  -999.250000  -999.250000  -999.250000  -999.250000
 1849.0692139 5.0000000000 17.500000000 204.54249573  -999.250000  -999.250000  -999.250000  -999.250000
 1849.2215576 5.0000000000 17.500000000 196.66358948  -999.250000  -999.250000  -999.250000  -999.250000
 1849.3740234 5.0000000000 17.500000000 187.08454895  -999.250000  -999.250000  -999.250000  -999.250000
