# LAS format log file from PETREL
# Project units are specified as depth units
#==================================================================
~Version information
VERS.   2.0:
WRAP.   NO:
#==================================================================
~Well
STRT .m      500.02444458 :
STOP .m      1854.8603516 :
STEP .m     0.00000000 :
NULL .        -999.250000 :
COMP.           : COMPANY
WELL.  35/7-1 S   : WELL
FLD.            : FIELD
LOC.            : LOCATION
SRVC.           : SERVICE COMPANY
DATE.  2018-09-11 14:48:59   : Log Export Date {yyyy-MM-dd HH:mm:ss}
PROV.           : PROVINCE
UWI.   35/7-1 S   : UNIQUE WELL ID
API.            : API NUMBER
#==================================================================
~Curve
DEPT .m                   : DEPTH
Lithology_geolink ._      : Lithology_geolink
BS .in                    : BS
ROP .m/h                  : ROP
GR .gAPI                  : GR
DTC .us/ft                : DTC
RDEP .ohm.m               : RDEP
RMED .ohm.m               : RMED
~Parameter
#==================================================================
~Ascii
# ...
 511.75921631  -999.250000 26.000001907 571.81890869 133.78590393  -999.250000  -999.250000  -999.250000
 511.91162109  -999.250000 26.000001907 575.33892822 144.57730103  -999.250000  -999.250000  -999.250000
 512.06402588  -999.250000 9.8750000000 575.61322021 85.579902649  -999.250000  -999.250000  -999.250000
 512.21643066  -999.250000 9.8750000000 579.21490479 84.916297913  -999.250000  -999.250000  -999.250000
 512.36883545  -999.250000 9.8750000000 583.17095947 86.100097656  -999.250000  -999.250000  -999.250000
 512.52124023  -999.250000 9.8750000000 578.82281494 85.615798950  -999.250000  -999.250000  -999.250000
 512.67364502  -999.250000 9.8750000000 579.33923340 81.822196960  -999.250000  -999.250000  -999.250000
 512.82604980  -999.250000 9.8750000000 574.32647705 77.562301636  -999.250000  -999.250000  -999.250000
 512.97839355  -999.250000 9.8750000000 573.45965576 73.432403564 178.86239624  -999.250000  -999.250000
 513.13079834  -999.250000 9.8750000000 568.39764404 72.638702393 172.51818848  -999.250000  -999.250000
 513.28320313  -999.250000 9.8750000000 566.17321777 74.006401062 165.33648682  -999.250000  -999.250000
 513.43560791  -999.250000 9.8750000000 396.16601563 73.992897034 163.42260742  -999.250000  -999.250000
 513.58801270  -999.250000 9.8750000000 23.563648224 75.933097839 163.15478516 2.9842998981 3.2060000896
 513.74041748  -999.250000 9.8750000000 22.969160080 78.680297852 162.52642822 3.1788001060 3.0524001122
 513.89282227  -999.250000 9.8750000000 21.784450531 75.950996399 163.14944458 3.0343000889 2.7892999649
 514.04522705  -999.250000 9.8750000000 20.426837921 69.580497742 163.29655457 2.9800000191 2.8454999924
 514.19763184  -999.250000 9.8750000000 17.605972290 67.777900696 163.19985962 2.8826000690 2.9563999176
 514.35003662  -999.250000 9.8750000000 16.800525665 69.885498047 162.35490417 2.9237000942 2.9460999966
 514.50244141  -999.250000 9.8750000000 16.214895248 70.620903015 163.12535095 2.9274001122 2.9286000729
 514.65484619  -999.250000 9.8750000000 15.914699554 70.007400513 163.01219177 2.9403998852 2.9242999554
 514.80725098  -999.250000 9.8750000000 15.707349777 70.165298462 162.51731873 2.9516000748 2.9142000675
 514.95965576  -999.250000 9.8750000000 15.643372536 70.756301880 163.03225708 2.9477000237 2.9244000912
 515.11199951  -999.250000 9.8750000000 38.894355774 69.840599060 162.19041443 2.9393000603 2.9182999134
 515.26440430  -999.250000 9.8750000000 39.030509949 69.450500488 162.91661072 2.9439001083 2.9221000671
 515.41680908  -999.250000 9.8750000000 41.226375580 69.374298096 162.49000549 2.9486999512 2.9314000607
 515.56921387  -999.250000 9.8750000000 45.290351868 67.894500732 162.48570251 2.9535999298 2.9409000874
 515.72161865  -999.250000 9.8750000000 68.112533569 71.176902771 163.33520508 2.9760000706 2.9716000557
 515.87402344  -999.250000 9.8750000000 77.837928772 77.459800720 165.53372192 2.9224998951 2.9063000679
 516.02642822  -999.250000 9.8750000000 89.183731079 76.792297363 163.64797974 2.9553999901 2.9384000301
 516.17883301  -999.250000 9.8750000000 95.771980286 73.320899963 166.58607483 2.8856999874 2.8652999401
 516.33123779  -999.250000 9.8750000000 94.255249023 73.029701233 163.31317139 2.9110999107 2.9096999168
 516.48364258  -999.250000 9.8750000000 93.165023804 73.066497803 163.23519897 2.9077999592 2.8998999596
 516.63604736  -999.250000 9.8750000000 103.12828064 73.203697205 162.28675842 2.8801000118 2.8594999313
 516.78845215  -999.250000 9.8750000000 108.41338348 72.699699402 162.17214966 2.8845000267 2.8647000790
 516.94085693  -999.250000 9.8750000000 108.33070374 70.660301208 162.53526306 2.8954999447 2.8750000000
 517.09320068  -999.250000 9.8750000000 111.31790924 70.459396362 162.68380737 2.8984999657 2.8796999454
 517.24560547  -999.250000 9.8750000000 111.03084564 71.266601563 162.64250183 2.8842999935 2.8624000549
 517.39801025  -999.250000 9.8750000000 116.27952576 70.567001343 162.30110168 2.8589000702 2.8232998848
 517.55041504  -999.250000 9.8750000000 104.90026093 69.455001831 161.66720581 2.9314000607 2.9217998981
 517.70281982  -999.250000 9.8750000000 103.92552948 69.341400146 161.35690308 2.9314000607 2.9217998981
 517.85522461  -999.250000 9.8750000000 97.848617554 71.559501648 161.95045471 2.9778211117 2.9547190666
 518.00762939  -999.250000 9.8750000000 102.41248322 74.399497986 162.34486389 3.0305731297 3.0022776127
 518.16003418  -999.250000 9.8750000000 101.78755951 75.696899414 163.27119446 2.9630730152 2.9464726448
 518.31237793  -999.250000 9.8750000000 101.35269165 76.431999207 164.73939514 2.8956999779 2.8777999878
 518.46478271  -999.250000 9.8750000000 95.875000000 78.234176636 164.94639587 2.8368000984 2.8380999565
 518.61718750  -999.250000 9.8750000000 93.240814209 81.022888184 167.05479431 2.7435998917 2.7397999763
 518.76959229  -999.250000 9.8750000000 92.460304260 82.915542603 168.66189575 2.6591000557 2.6426999569
 518.92199707  -999.250000 9.8750000000 86.047897339 82.871513367 168.79310608 2.6530001163 2.6236000061
 519.07440186  -999.250000 9.8750000000 93.450462341 81.526840210 171.23750305 2.6231999397 2.5852000713
 519.22680664  -999.250000 9.8750000000 77.243438721 84.189796448 172.12130737 2.5678999424 2.5316998959
 519.37921143  -999.250000 9.8750000000 82.597770691 92.449600220 172.45591736 2.5585000515 2.5329999924
 519.53161621  -999.250000 9.8750000000 72.108596802 97.068199158 171.54870605 2.5792999268 2.5374000072
 519.68402100  -999.250000 9.8750000000 59.328090668 91.893501282 168.20791626 2.6782999039 2.6245999336
 519.83642578  -999.250000 9.8750000000 53.862861633 82.566596985 164.92198181 2.8822000027 2.8046000004
 519.98876953  -999.250000 9.8750000000 53.155185699 77.546310425 162.64880371 2.9565000534 2.8796999454
 520.14117432  -999.250000 9.8750000000 53.035106659 77.849174500 162.72257996 3.0987999439 3.0639998913
 520.29357910  -999.250000 9.8750000000 52.115486145 80.968948364 162.04580688 3.0987999439 3.0639998913
 520.44598389  -999.250000 9.8750000000 51.635173798 84.502288818 161.13830566 3.1278998852 3.1003999710
 520.59838867  -999.250000 9.8750000000 50.382545471 86.475906372 159.93449402 3.3849999905 3.3471000195
 520.75079346  -999.250000 9.8750000000 43.973098755 87.902130127 158.98970032 3.5106999874 3.4518001080
 520.90319824  -999.250000 9.8750000000 40.661090851 88.252265930 159.51919556 3.6252000332 3.6015999317
 521.05560303  -999.250000 9.8750000000 39.218833923 84.639648438 159.99159241 3.6005001068 3.6006000042
 521.20800781  -999.250000 9.8750000000 37.548229218 77.849296570 162.53561401 3.5325000286 3.4709999561
 521.36041260  -999.250000 9.8750000000 36.558399200 72.253097534 169.83990479 3.5736999512 3.4604001045
 521.51281738  -999.250000 9.8750000000 36.206691742 70.674697876  -999.250000 3.4156000614 3.4203000069
 521.66522217  -999.250000 9.8750000000 35.529857635 73.921203613  -999.250000 2.7118000984 2.7560999393
 521.81762695  -999.250000 9.8750000000 35.268043518 78.763999939  -999.250000 1.7604000568 1.7188999653
 521.97003174  -999.250000 9.8750000000 35.449146271 78.871696472  -999.250000 1.5016000271 1.4183000326
 522.12237549  -999.250000 9.8750000000 36.737205505 73.869407654  -999.250000 1.5016000271 1.4183000326
 522.27478027  -999.250000 9.8750000000 46.170932770 68.560325623  -999.250000 1.5027999878 1.4198999405
 522.42718506  -999.250000 9.8750000000 52.467849731 66.209442139  -999.250000 1.6857999563 1.6651999950
 522.57958984  -999.250000 9.8750000000 58.558395386 65.264183044  -999.250000 1.5801000595 1.5614000559
 522.73199463  -999.250000 9.8750000000 76.796257019 62.903144836  -999.250000 1.5054999590 1.4435000420
 522.88439941  -999.250000 9.8750000000 93.553482056 60.187801361  -999.250000 1.5041999817 1.3856999874
 523.03680420  -999.250000 9.8750000000 108.63188934 59.374698639  -999.250000 1.3876999617 1.3079999685
 523.18920898  -999.250000 9.8750000000 123.97144318 60.271499634  -999.250000 1.5980999470 1.5016000271
 523.34161377  -999.250000 9.8750000000 125.46882629 62.441799164  -999.250000 1.5980999470 1.5016000271
