# LAS format log file from PETREL
# Project units are specified as depth units
#==================================================================
~Version information
VERS.   2.0:
WRAP.   NO:
#==================================================================
~Well
STRT .m      500.02444458 :
STOP .m      1854.8603516 :
STEP .m     0.00000000 :
NULL .        -999.250000 :
COMP.           : COMPANY
WELL.  35/7-1 S   : WELL
FLD.            : FIELD
LOC.            : LOCATION
SRVC.           : SERVICE COMPANY
DATE.  2018-09-11 14:48:59   : Log Export Date {yyyy-MM-dd HH:mm:ss}
PROV.           : PROVINCE
UWI.   35/7-1 S   : UNIQUE WELL ID
API.            : API NUMBER
#==================================================================
~Curve
DEPT .m                   : DEPTH
Lithology_geolink ._      : Lithology_geolink
BS .in                    : BS
ROP .m/h                  : ROP
GR .gAPI                  : GR
DTC .us/ft                : DTC
RDEP .ohm.m               : RDEP
RMED .ohm.m               : RMED
~Parameter
#==================================================================
~Ascii
# ...
 687.78125000  -999.250000 9.8750000000 101.79209137 102.79000092 142.62754822 2.7811000347 2.7557001114
 687.93365479  -999.250000 9.8750000000 102.04460144 98.655601501 143.22238159 2.7655999660 2.7709999084
 688.08605957  -999.250000 9.8750000000 103.25353241 98.682502747 145.45365906 2.7881000042 2.7607998848
 688.23846436  -999.250000 9.8750000000 97.837539673 101.77660370 146.52473450 2.7639999390 2.7234001160
 688.39080811  -999.250000 9.8750000000 92.849571228 105.25620270 146.31492615 2.7493999004 2.7297000885
 688.54321289  -999.250000 9.8750000000 84.237861633 106.05439758 146.38337708 2.7451000214 2.7304000854
 688.69561768  -999.250000 9.8750000000 84.225891113 104.46700287 144.33116150 2.7467000484 2.7156000137
 688.84802246  -999.250000 9.8750000000 75.629371643 105.87509918 142.49505615 2.7585000992 2.7388999462
 689.00042725  -999.250000 9.8750000000 74.264373779 109.81210327 144.39949036 2.7458000183 2.7207999229
 689.15283203  -999.250000 9.8750000000 74.110725403 109.17539978 144.87443542 2.7318999767 2.7019000053
 689.30523682  -999.250000 9.8750000000 73.686637878 104.33249664 146.46380615 2.7286000252 2.7002999783
 689.45764160  -999.250000 9.8750000000 73.601730347 99.077102661 144.20854187 2.7288000584 2.7149999142
 689.61004639  -999.250000 9.8750000000 76.121704102 96.960601807 143.56292725 2.7460999489 2.7183001041
 689.76245117  -999.250000 9.8750000000 78.537193298 100.67649841 145.37583923 2.7388999462 2.7174000740
 689.91485596  -999.250000 9.8750000000 82.119743347 103.39679718 144.47393799 2.7274999619 2.7000000477
 690.06726074  -999.250000 9.8750000000 90.277313232 100.63159943 143.83311462 2.7190001011 2.7021000385
 690.21966553  -999.250000 9.8750000000 90.385253906 99.758697510 142.23811340 2.7352905273 2.7088978291
 690.37207031  -999.250000 9.8750000000 101.13224792 104.42819977 142.01034546 2.7235040665 2.7063016891
 690.52441406  -999.250000 9.8750000000 106.07798004 108.95709991 142.31422424 2.7285025120 2.7085044384
 690.67681885  -999.250000 9.8750000000 105.82030487 110.01689911 142.62203979 2.7353062630 2.7199044228
 690.82922363  -999.250000 9.8750000000 105.22821045 106.95120239 143.72947693 2.7506096363 2.7314069271
 690.98156738  -999.250000 9.8750000000 117.14927673 102.17461395 144.19799805 2.7746000290 2.7485001087
 691.13397217  -999.250000 9.8750000000 109.96883392 100.27066040 143.06469727 2.7627999783 2.7421998978
 691.28637695  -999.250000 9.8750000000 110.30085754 100.86756134 145.18859863 2.7646000385 2.7434999943
 691.43878174  -999.250000 9.8750000000 115.99081421 101.58490753 146.59010315 2.7483999729 2.7302000523
 691.59118652  -999.250000 9.8750000000 115.83268738 98.782318115 146.77580261 2.7211000919 2.7112998962
 691.74359131  -999.250000 9.8750000000 118.25327301 95.320785522 146.97979736 2.7074999809 2.7047998905
 691.89599609  -999.250000 9.8750000000 124.89205933 96.717941284 147.23049927 2.7155001163 2.6963000298
 692.04833984  -999.250000 9.8750000000 124.89961243 99.747276306 147.44439697 2.7253999710 2.7111999989
 692.20074463  -999.250000 9.8750000000 134.22210693 101.57783508 142.97920227 2.7818000317 2.7757999897
 692.35314941  -999.250000 9.8750000000 137.67716980 100.77275085 144.97959900 2.8571000099 2.8522999287
 692.50555420  -999.250000 9.8750000000 134.63780212 97.813781738 143.09309387 2.7609999180 2.7550001144
 692.65795898  -999.250000 9.8750000000 147.42060852 98.440147400 143.15710449 2.8111999035 2.8069000244
 692.81036377  -999.250000 9.8750000000 161.39665222 102.16970825 143.09390259 2.8405001163 2.8234000206
 692.96276855  -999.250000 9.8750000000 154.24311829 103.75786591 141.33889771 2.8299000263 2.8376998901
 693.11517334  -999.250000 9.8750000000 159.68832397 106.05347443 141.50360107 2.7739999294 2.7936000824
 693.26757813  -999.250000 9.8750000000 156.25000000 109.23152924 144.35200500 2.7462999821 2.7718999386
 693.41998291  -999.250000 9.8750000000 149.41896057 106.04497528 145.08279419 2.7732000351 2.7874000072
 693.57238770  -999.250000 9.8750000000 140.18504333 101.12747192 145.25599670 2.7595999241 2.7411000729
 693.72479248  -999.250000 9.8750000000 130.02330017 100.09091187 145.72459412 2.7497999668 2.7242999077
 693.87719727  -999.250000 9.8750000000 132.64535522 101.16926575 144.24809265 2.7286000252 2.7153999805
 694.02960205  -999.250000 9.8750000000 122.69718170 103.43179321 146.29209900 2.6219000816 2.6182999611
 694.18194580  -999.250000 9.8750000000 114.83135986 103.23255920 149.35890198 2.5271000862 2.5244998932
 694.33435059  -999.250000 9.8750000000 107.72441101 105.05743408 151.53669739 2.4934999943 2.4906001091
 694.48675537  -999.250000 9.8750000000 103.92552948 110.01840210 151.15370178 2.4500000477 2.4484000206
 694.63916016  -999.250000 9.8750000000 98.317916870 109.81210327 152.00811768 2.4498000145 2.4233000278
 694.79156494  -999.250000 9.8750000000 96.377952576 107.45349884 151.34979248 2.4604001045 2.4207999706
 694.94396973  -999.250000 9.8750000000 92.121391296 111.73130035 150.49058533 2.3578999043 2.3361999989
 695.09637451  -999.250000 9.8750000000 92.230972290 120.27809906 151.30870056 2.3552000523 2.3443000317
 695.24877930  -999.250000 9.8750000000 89.798889160 124.92060089 151.44140625 2.3389999866 2.3306999207
 695.40118408  -999.250000 9.8750000000 78.948165894 124.04769897 151.88389587 2.3629000187 2.3417999744
 695.55358887  -999.250000 9.8750000000 75.730972290 120.67410278 151.52250671 2.3754000664 2.3484001160
 695.70599365  -999.250000 9.8750000000 69.488845825 119.21980286 150.08200073 2.3824999332 2.3563001156
 695.85839844  -999.250000 9.8750000000 68.083335876 120.63829803 148.89140320 2.4358000755 2.4098000526
 696.01080322  -999.250000 9.8750000000 65.713912964 123.88629913 147.96229553 2.5109000206 2.4813001156
 696.16320801  -999.250000 9.8750000000 65.731628418 125.55740356 148.40280151 2.5680999756 2.5274000168
 696.31555176  -999.250000 9.8750000000 63.020339966 121.79370117 148.60369873 2.5660998821 2.5260000229
 696.46795654  -999.250000 9.8750000000 65.576118469 118.80729675 149.59359741 2.5144999027 2.4669001102
 696.62036133  -999.250000 9.8750000000 65.070861816 120.89689636 150.85450745 2.4707000256 2.4295001030
 696.77276611  -999.250000 9.8750000000 66.989501953 121.58439636 151.22070313 2.4379999638 2.4054000378
 696.92517090  -999.250000 9.8750000000 75.035430908 117.03459930 151.56359863 2.4170000553 2.3875000477
 697.07757568  -999.250000 9.8750000000 79.051834106 113.25299835 151.16760254 2.4335000515 2.3940999508
 697.22998047  -999.250000 9.8750000000 88.278549194 115.18409729 150.86219788 2.4305999279 2.3798999786
 697.38238525  -999.250000 9.8750000000 91.184715271 118.09880066 151.01600647 2.4367001057 2.3982000351
 697.53479004  -999.250000 9.8750000000 102.44258881 117.39630127 150.02049255 2.4328999519 2.4014000893
 697.68719482  -999.250000 9.8750000000 108.47013855 114.12879944 149.80180359 2.4263999462 2.4014000893
 697.83959961  -999.250000 9.8750000000 111.66207123 112.41290283 149.04269409 2.4363999367 2.4217998981
 697.99200439  -999.250000 9.8750000000 107.65518951 112.12290192 148.32879639 2.4293999672 2.4161000252
 698.14440918  -999.250000 9.8750000000 68.527557373 108.90930176 148.70500183 2.4240999222 2.4033000469
 698.29675293  -999.250000 9.8750000000 62.931766510 108.59239960 149.40139771 2.4193999767 2.4145998955
 698.44915771  -999.250000 9.8750000000 55.962928772 115.48899841 149.94839478 2.4514999390 2.4216001034
 698.60156250  -999.250000 9.8750000000 52.526573181 122.47530365 149.80810547 2.4516999722 2.4258000851
 698.75396729  -999.250000 9.8750000000 51.830711365 125.91909790 150.26480103 2.4446001053 2.4205000401
 698.90637207  -999.250000 9.8750000000 51.272640228 123.64119720 149.94590759 2.4460000992 2.4196000099
 699.05877686  -999.250000 9.8750000000 49.799869537 116.20649719 149.86369324 2.4556000233 2.4223999977
 699.21118164  -999.250000 9.8750000000 49.002952576 111.91670227 149.83758545 2.4497001171 2.4207999706
 699.36358643  -999.250000 9.8750000000 50.183727264 112.41590118 149.36529541 2.4653999805 2.4414999485
