# LAS format log file from PETREL
# Project units are specified as depth units
#==================================================================
~Version information
VERS.   2.0:
WRAP.   NO:
#==================================================================
~Well
STRT .m      500.02444458 :
STOP .m      1854.8603516 :
STEP .m     0.00000000 :
NULL .        -999.250000 :
COMP.           : COMPANY
WELL.  35/7-1 S   : WELL
FLD.            : FIELD
LOC.            : LOCATION
SRVC.           : SERVICE COMPANY
DATE.  2018-09-11 14:48:59   : Log Export Date {yyyy-MM-dd HH:mm:ss}
PROV.           : PROVINCE
UWI.   35/7-1 S   : UNIQUE WELL ID
API.            : API NUMBER
#==================================================================
~Curve
DEPT .m                   : DEPTH
Lithology_geolink ._      : Lithology_geolink
BS .in                    : BS
ROP .m/h                  : ROP
GR .gAPI                  : GR
DTC .us/ft                : DTC
RDEP .ohm.m               : RDEP
RMED .ohm.m               : RMED
~Parameter
#==================================================================
~Ascii
# ...
 1391.8691406  -999.250000 9.8750000000 38.572834015 109.88749695 136.68260193 0.9872999787 0.9851999879
 1392.0216064  -999.250000 9.8750000000 37.252624512 111.43440247 136.63609314 0.9136999846 0.9136000276
 1392.1739502  -999.250000 9.8750000000 37.760826111 113.39569855 137.74670410 0.9257000089 0.9114000201
 1392.3264160  -999.250000 9.8750000000 36.257217407 113.64540100 139.12899780 0.9965999722 0.9740999937
 1392.4787598  -999.250000 9.8750000000 36.556758881 113.34860229 140.95899963 1.0456000566 1.0224000216
 1392.6311035  -999.250000 9.8750000000 38.119750977 116.93289948 141.28140259 1.0799000263 1.0618000031
 1392.7835693  -999.250000 9.8750000000 37.153213501 117.95379639 142.06100464 1.0442999601 1.0341000557
 1392.9359131  -999.250000 9.8750000000 37.195537567 114.49060059 142.26089478 1.0577000380 1.0424000025
 1393.0883789  -999.250000 9.8750000000 40.205707550 110.52809906 142.23660278 1.0781999826 1.0628000498
 1393.2407227  -999.250000 9.8750000000 39.338584900 108.91230011 141.40499878 1.0621999502 1.0585000515
 1393.3931885  -999.250000 9.8750000000 38.595142365 113.37550354 141.07560730 1.0599000454 1.0518000126
 1393.5455322  -999.250000 9.8750000000 39.292652130 117.50839996 141.23629761 1.0354000330 1.0194000006
 1393.6979980  -999.250000 9.8750000000 38.040355682 118.09580231 141.73919678 0.9916999936 0.9760000110
 1393.8503418  -999.250000 9.8750000000 37.619094849 119.92079926 142.62640381 0.9613999724 0.9505000114
 1394.0028076  -999.250000 9.8750000000 36.573490143 121.09269714 144.05999756 0.9627000093 0.9463999867
 1394.1551514  -999.250000 9.8750000000 35.156497955 117.99410248 144.92219543 1.0061000586 0.9833999872
 1394.3076172  -999.250000 9.8750000000 36.938648224 113.90010071 144.15220642 1.0252000093 1.0011999607
 1394.4599609  -999.250000 9.8750000000 37.177822113 111.85389709 143.15710449 1.0046999454 0.9900000095
 1394.6123047  -999.250000 9.8750000000 35.763450623 109.31590271 142.47270203 0.9951000214 0.9950000048
 1394.7647705  -999.250000 9.8750000000 39.028869629 108.46990204 141.44209290 1.0298999548 1.0207999945
 1394.9171143  -999.250000 9.8750000000 39.465877533 111.06770325 140.60639954 1.2326999903 1.2035000324
 1395.0695801  -999.250000 9.8750000000 39.071525574 113.04519653 140.36509705 1.3445999622 1.3315000534
 1395.2219238  -999.250000 9.8750000000 34.603019714 115.43820190 140.15759277 1.1497999430 1.1555999517
 1395.3743896  -999.250000 9.8750000000 32.047901154 119.94180298 140.85989380 1.0044000149 1.0217000246
 1395.5267334  -999.250000 9.8750000000 31.880250931 122.65460205 141.43280029 0.9398999810 0.9562000036
 1395.6791992  -999.250000 9.8750000000 32.500984192 121.46779633 141.07859802 0.9218999743 0.9395999908
 1395.8315430  -999.250000 9.8750000000 32.064304352 117.83270264 144.47290039 0.9697999954 0.9728000164
 1395.9840088  -999.250000 9.8750000000 32.371391296 115.87709808 145.47059631 1.0313999653 1.0126999617
 1396.1363525  -999.250000 9.8750000000 31.586282730 117.33409882 145.48820496 1.0408999920 1.0142999887
 1396.2888184  -999.250000 9.8750000000 31.499343872 114.48169708 144.15260315 1.0096000433 0.9979000092
 1396.4411621  -999.250000 9.8750000000 33.047245026 109.29859924 142.97830200 0.9498999715 0.9587000012
 1396.5935059  -999.250000 9.8750000000 34.307086945 108.76640320  -999.250000 0.9336000085 0.9469000101
 1396.7459717  -999.250000 9.8750000000 39.736549377 103.04740143  -999.250000 1.0752999783 1.0604000092
 1396.8983154  -999.250000 9.8750000000 42.100395203 92.391296387  -999.250000 1.5672999620 1.5168999434
 1397.0507813  -999.250000 9.8750000000 33.065616608 93.081802368  -999.250000 1.4520000219 1.4401999712
 1397.2031250  -999.250000 9.8750000000 27.763780594 103.75710297  -999.250000 1.0090999603 1.0192999840
 1397.3555908  -999.250000 9.8750000000 25.826444626 113.79100037  -999.250000 0.9322999716 0.9513000250
 1397.5079346  -999.250000 9.8750000000 26.224409103 122.52310181  -999.250000 0.9412999749 0.9623000026
 1397.6604004  -999.250000 9.8750000000 26.741798401 127.35399628  -999.250000 0.9707999825 0.9883000255
 1397.8127441  -999.250000 9.8750000000 27.265092850 126.52890015  -999.250000 0.9894000292 0.9894999862
 1397.9652100  -999.250000 9.8750000000 27.433727264 122.58290100  -999.250000 1.0062999725 0.9829999804
 1398.1175537  -999.250000 9.8750000000 27.854001999 119.46189880  -999.250000 1.0059000254 0.9886000156
 1398.2700195  -999.250000 9.8750000000 28.599412918 118.32479858  -999.250000 0.9925000072 0.9902999997
 1398.4223633  -999.250000 9.8750000000 30.210632324 117.91400146  -999.250000 0.9952999949 0.9902999997
 1398.5748291  -999.250000 9.8750000000 38.022968292 118.10359955  -999.250000 0.9790999889 0.9751999974
 1398.7271729  -999.250000 9.8750000000 47.805774689 117.01959991  -999.250000 0.9528999925 0.9516000152
 1398.8795166  -999.250000 9.8750000000 54.414039612 117.95829773  -999.250000 0.9491000175 0.9473000169
 1399.0319824  -999.250000 9.8750000000 53.774936676 119.85060120  -999.250000 0.9567000270 0.9556000233
 1399.1843262  -999.250000 9.8750000000 54.927822113 119.26170349  -999.250000 0.9908000231 0.9836999774
 1399.3367920  -999.250000 9.8750000000 55.125328064 117.95529938  -999.250000 1.0068000555 0.9994000196
 1399.4891357  -999.250000 9.8750000000 54.157482147 116.42919922  -999.250000 1.0074000359 0.9980000257
 1399.6416016  -999.250000 9.8750000000 52.464241028 116.23040009  -999.250000 0.9930999875 0.9876000285
 1399.7939453  -999.250000 9.8750000000 54.581035614 116.65940094  -999.250000 0.9861000180 0.9837999940
 1399.9464111  -999.250000 9.8750000000 53.332019806 115.85669708  -999.250000 0.9821000099 0.9836000204
 1400.0987549  -999.250000 9.8750000000 57.807746887 113.50879669  -999.250000 0.9330000281 0.9277999997
 1400.2512207  -999.250000 9.8750000000 59.064300537 114.08010101  -999.250000 0.9976999760 0.9747999907
 1400.4035645  -999.250000 9.8750000000 61.808723450 115.98660278  -999.250000 1.0053000450 0.9883999825
 1400.5560303  -999.250000 9.8750000000 62.207355499 116.43129730 150.43580627 1.0060000420 0.9965000153
 1400.7083740  -999.250000 9.8750000000 61.568893433 120.94609833 148.79789734 0.9805999994 0.9747999907
 1400.8607178  -999.250000 9.8750000000 63.158794403 122.02149963 146.13139343 0.9480000138 0.9451000094
 1401.0131836  -999.250000 9.8750000000 63.905185699 117.66110229 145.80999756 0.9652000070 0.9574000239
 1401.1655273  -999.250000 9.8750000000 35.963256836 116.34999847 146.22369385 0.9839000106 0.9685999751
 1401.3179932  -999.250000 9.8750000000 33.836288452 115.22290039 145.46099854 0.9837999940 0.9769999981
 1401.4703369  -999.250000 9.8750000000 34.743110657 115.13629913 144.23519897 0.9670000076 0.9649999738
 1401.6228027  -999.250000 9.8750000000 33.747703552 115.78500366 145.87959290 0.9205999970 0.9179999828
 1401.7751465  -999.250000 9.8750000000 33.363189697 113.80599976 149.75270081 0.8916000128 0.8906999826
 1401.9276123  -999.250000 9.8750000000 33.115486145 112.93910217 151.81799316 0.8966000080 0.8974999785
 1402.0799561  -999.250000 9.8750000000 32.545932770 112.84790039 153.08920288 0.9269000292 0.9237999916
 1402.2324219  -999.250000 9.8750000000 33.340549469 111.67749786 154.49348450 0.9613000154 0.9589999914
 1402.3847656  -999.250000 9.8750000000 32.859580994 109.92870331 154.00711060 0.9656999707 0.9607999921
 1402.5372314  -999.250000 9.8750000000 33.050853729 109.87190247 151.16940308 0.9381999969 0.9401000142
 1402.6895752  -999.250000 9.8750000000 56.353675842 111.91220093 150.54629517 0.9284999967 0.9269999862
 1402.8419189  -999.250000 9.8750000000 60.752632141 112.95580292 151.16658020 0.9460999966 0.9485999942
 1402.9943848  -999.250000 9.8750000000 56.171916962 115.25530243 149.77549744 0.9843999743 0.9844999909
 1403.1467285  -999.250000 9.8750000000 47.550525665 117.39569855 151.18550110 0.9951000214 0.9925000072
 1403.2991943  -999.250000 9.8750000000 47.148292542 118.07369995 156.06358337 1.0038000345 0.9973000288
 1403.4515381  -999.250000 9.8750000000 43.035102844 119.55159760 158.17048645 0.9968000054 0.9908999801
