# LAS format log file from PETREL
# Project units are specified as depth units
#==================================================================
~Version information
VERS.   2.0:
WRAP.   NO:
#==================================================================
~Well
STRT .m      500.02444458 :
STOP .m      1854.8603516 :
STEP .m     0.00000000 :
NULL .        -999.250000 :
COMP.           : COMPANY
WELL.  35/7-1 S   : WELL
FLD.            : FIELD
LOC.            : LOCATION
SRVC.           : SERVICE COMPANY
DATE.  2018-09-11 14:48:59   : Log Export Date {yyyy-MM-dd HH:mm:ss}
PROV.           : PROVINCE
UWI.   35/7-1 S   : UNIQUE WELL ID
API.            : API NUMBER
#==================================================================
~Curve
DEPT .m                   : DEPTH
Lithology_geolink ._      : Lithology_geolink
BS .in                    : BS
ROP .m/h                  : ROP
GR .gAPI                  : GR
DTC .us/ft                : DTC
RDEP .ohm.m               : RDEP
RMED .ohm.m               : RMED
~Parameter
#==================================================================
~Ascii
# ...
 1485.7475586  -999.250000 17.500000000 66.208007813 62.301998138 150.38479614 0.8277000189 0.8417999744
 1485.9000244  -999.250000 17.500000000 66.721740723 64.237800598 151.60699463 0.8274000287 0.8379999995
 1486.0523682  -999.250000 17.500000000 67.484733582 65.125099182 152.39540100 0.8324000239 0.8356999755
 1486.2048340  -999.250000 17.500000000 68.909828186 63.834499359 152.26840210 0.8338999748 0.8382999897
 1486.3571777  -999.250000 17.500000000 71.811607361 62.581600189 151.14289856 0.8334000111 0.8367999792
 1486.5096436  -999.250000 17.500000000 78.283935547 61.828800201 149.62559509 0.8077999949 0.8231999874
 1486.6619873  -999.250000 17.500000000 92.737228394 60.960300446 148.64280701 0.8366000056 0.8493999839
 1486.8144531  -999.250000 17.500000000 153.35461426 59.575698853 146.53810120 0.9879000187 0.9811000228
 1486.9667969  -999.250000 17.500000000 173.80453491 57.228500366 146.98570251 1.0398999453 1.0326000452
 1487.1191406  -999.250000 17.500000000 187.39039612 56.139499664 149.71429443 1.0300999880 1.0246000290
 1487.2716064  -999.250000 17.500000000 198.01206970 59.839199066 150.81950378 0.9093000293 0.9139000177
 1487.4239502  -999.250000 17.500000000 200.37046814 66.668403625 149.61663818 0.8949000239 0.9057000279
 1487.5764160  -999.250000 17.500000000 199.63691711 69.744201660 147.15425110 0.9251000285 0.9401999712
 1487.7287598  -999.250000 17.500000000 203.05070496 68.464401245 145.09744263 0.9322000146 0.9430999756
 1487.8812256  -999.250000 17.500000000 208.60041809 68.238601685 144.03198242 0.9549999833 0.9437999725
 1488.0335693  -999.250000 17.500000000 207.38673401 68.528999329 144.50173950 0.9549999833 0.9437999725
 1488.1860352  -999.250000 17.500000000 191.28953552 65.270301819 144.43208313 1.0319999456 0.9962999821
 1488.3383789  -999.250000 17.500000000 170.50817871 60.753299713 145.18016052 0.9911999702 0.9771999717
 1488.4908447  -999.250000 17.500000000 158.16734314 60.043498993 147.38121033 0.8823999763 0.8895999789
 1488.6431885  -999.250000 17.500000000 136.68975830 62.753700256 150.44412231 0.9211000204 0.9326999784
 1488.7956543  -999.250000 17.500000000 116.77105713 64.463699341 154.10133362 0.9764999747 0.9789999723
 1488.9479980  -999.250000 17.500000000 94.096557617 63.624801636 153.62620544 0.9664000273 0.9706000090
 1489.1003418  -999.250000 17.500000000 82.341781616 63.205398560 153.37867737 0.9283000231 0.9412999749
 1489.2528076  -999.250000 17.500000000 67.495658875 64.388397217 151.71231079 0.9023000002 0.9138000011
 1489.4051514  -999.250000 17.500000000 63.310726166 65.903297424 151.48100281 0.8626999855 0.8579999804
 1489.5576172  -999.250000 17.500000000 59.259178162 67.898101807 151.48503113 0.8585000038 0.8403999805
 1489.7099609  -999.250000 17.500000000 58.838535309 69.453002930 151.90589905 0.8718000054 0.8393999934
 1489.8624268  -999.250000 17.500000000 58.369907379 68.638999939 151.90830994 0.8547000289 0.8144999743
 1490.0147705  -999.250000 17.500000000 58.568958282 65.363899231 151.30189514 0.7724000216 0.7480999827
 1490.1672363  -999.250000 17.500000000 60.697875977 63.324199677 152.81495667 0.7566999793 0.7250999808
 1490.3195801  -999.250000 17.500000000 63.208217621 63.934600830 155.62933350 0.7764999866 0.7394999862
 1490.4720459  -999.250000 17.500000000 70.849815369 64.410499573 156.54255676 0.7861999869 0.7548000216
 1490.6243896  -999.250000 17.500000000 78.481834412 63.957099915 155.26055908 0.8223999739 0.7778000236
 1490.7768555  -999.250000 17.500000000 95.515769958 63.963600159 154.46713257 0.7908999920 0.7646999955
 1490.9291992  -999.250000 17.500000000 100.03668213 67.351303101 154.99078369 0.7312999964 0.7559000254
 1491.0816650  -999.250000 17.500000000 111.00225830 72.126403809 154.97816467 0.7714999914 0.7602999806
 1491.2340088  -999.250000 17.500000000 112.82456970 73.529899597 154.27482605 0.7372999787 0.7404999733
 1491.3863525  -999.250000 17.500000000 116.61077118 72.787803650 154.07740784 0.7379999757 0.7354000211
 1491.5388184  -999.250000 17.500000000 116.86460876 72.658798218 154.20896912 0.7414000034 0.7466999888
 1491.6911621  -999.250000 17.500000000 116.17698669 73.078201294 154.54745483 0.7315999866 0.7310000062
 1491.8436279  -999.250000 17.500000000 104.88722229 72.787803650 154.48355103 0.7099000216 0.7118999958
 1491.9959717  -999.250000 17.500000000 95.171951294 70.658401489 155.53417969 0.6966000199 0.7014999986
 1492.1484375  -999.250000 17.500000000 91.949302673 66.238197327 156.89436340 0.6797000170 0.6868000031
 1492.3007813  -999.250000 17.500000000 92.561645508 61.592201233 157.68190002 0.6668999791 0.6744999886
 1492.4532471  -999.250000 17.500000000 93.748832703 61.785800934 158.31709290 0.6621999741 0.6911000013
 1492.6055908  -999.250000 17.500000000 93.024627686 66.593101501 157.62367249 0.6534000039 0.6833000183
 1492.7580566  -999.250000 17.500000000 94.693214417 70.013099670 156.71830750 0.6826000214 0.6919000149
 1492.9104004  -999.250000 17.500000000 96.512512207 68.625701904 155.84640503 0.6567999721 0.6998999715
 1493.0628662  -999.250000 17.500000000 93.694259644 66.270500183 153.23289490 0.7087000012 0.7031000257
 1493.2152100  -999.250000 17.500000000 88.198791504 66.496299744 151.79861450 0.7299000025 0.7552999854
 1493.3675537  -999.250000 17.500000000 94.302017212 68.238601685 150.56582642 0.7669000030 0.7569000125
 1493.5200195  -999.250000 17.500000000 101.90680695 70.174400330 149.45797729 0.7878999710 0.7817000151
 1493.6723633  -999.250000 17.500000000 105.16291046 70.593902588 150.30400085 0.7796999812 0.7906000018
 1493.8248291  -999.250000 17.500000000 109.48130798 69.206497192 150.68196106 0.8298000097 0.8141000271
 1493.9771729  -999.250000 17.500000000 114.41296387 66.947998047 149.39610291 0.8495000005 0.8396999836
 1494.1296387  -999.250000 17.500000000 117.97691345 67.464202881 148.16470337 0.8169999719 0.8137000203
 1494.2819824  -999.250000 17.500000000 120.69223022 69.077499390 146.78962708 0.7850999832 0.7868999839
 1494.4344482  -999.250000 17.500000000 123.12924957 65.850997925 145.81718445 0.8240000010 0.8296999931
 1494.5867920  -999.250000 17.500000000 129.46942139 63.108600616 145.18309021 0.8600000143 0.8593999743
 1494.7392578  -999.250000 17.500000000 142.06851196 66.528602600 143.92347717 0.8665000200 0.8633000255
 1494.8916016  -999.250000 17.500000000 147.75325012 71.357398987 143.65692139 0.8758000135 0.8768000007
 1495.0440674  -999.250000 17.500000000 137.88525391 71.701599121 144.79495239 0.9081000090 0.9100000262
 1495.1964111  -999.250000 17.500000000 127.48327637 69.058601379 146.76829529 0.9351000190 0.9358999729
 1495.3487549  -999.250000 17.500000000 101.69412994 66.520500183 146.25950623 1.0175000429 1.0188000202
 1495.5012207  -999.250000 17.500000000 83.952873230 62.127201080 146.25251770 1.1328999996 1.1212999821
 1495.6535645  -999.250000 17.500000000 71.819946289 56.427200317 148.26557922 1.0950000286 1.1145000458
 1495.8060303  -999.250000 17.500000000 67.797721863 52.948101044 149.24493408 1.0483000278 1.0702999830
 1495.9583740  -999.250000 17.500000000 66.755752563 52.305500031 150.14833069 1.0554000139 1.0750000477
 1496.1108398  -999.250000 17.500000000 67.387680054 52.238300323 148.56280518 1.0580999851 1.0908999443
 1496.2631836  -999.250000 17.500000000 68.472229004 52.321601868 144.44941711 1.1124999523 1.1338000298
 1496.4156494  -999.250000 17.500000000 69.022560120 51.687099457 140.59169006 1.1220999956 1.1540000439
 1496.5679932  -999.250000 17.500000000 72.203811646 51.557998657 138.08651733 1.1183999777 1.1391999722
 1496.7204590  -999.250000 17.500000000 74.349693298 55.429698944 136.74099731 1.0666999817 1.0916999578
 1496.8728027  -999.250000 17.500000000 84.357055664 60.349998474 137.23408508 1.0870000124 1.1203000546
 1497.0252686  -999.250000 17.500000000 98.013488770 60.817798615 139.60330200 1.0590000153 1.1010999680
 1497.1776123  -999.250000 17.500000000 116.65487671 57.300998688 141.41050720 0.9904000163 1.0453000069
 1497.3300781  -999.250000 17.500000000 121.58448029 55.736198425 142.43075562 0.8966000080 0.9674000144
