# LAS format log file from PETREL
# Project units are specified as depth units
#==================================================================
~Version information
VERS.   2.0:
WRAP.   NO:
#==================================================================
~Well
STRT .m      500.02444458 :
STOP .m      1854.8603516 :
STEP .m     0.00000000 :
NULL .        -999.250000 :
COMP.           : COMPANY
WELL.  35/7-1 S   : WELL
FLD.            : FIELD
LOC.            : LOCATION
SRVC.           : SERVICE COMPANY
DATE.  2018-09-11 14:48:59   : Log Export Date {yyyy-MM-dd HH:mm:ss}
PROV.           : PROVINCE
UWI.   35/7-1 S   : UNIQUE WELL ID
API.            : API NUMBER
#==================================================================
~Curve
DEPT .m                   : DEPTH
Lithology_geolink ._      : Lithology_geolink
BS .in                    : BS
ROP .m/h                  : ROP
GR .gAPI                  : GR
DTC .us/ft                : DTC
RDEP .ohm.m               : RDEP
RMED .ohm.m               : RMED
~Parameter
#==================================================================
~Ascii
# ...
 1567.8912354  -999.250000 17.500000000 185.89204407 44.965400696 123.73820496 1.0769000053 1.1039999723
 1568.0435791  -999.250000 17.500000000 187.50559998 44.287899017 126.12049866 0.9700999856 1.0135999918
 1568.1960449  -999.250000 17.500000000 185.88726807 43.954498291 126.99974060 0.9729999900 1.0197999477
 1568.3483887  -999.250000 17.500000000 181.94369507 46.051601410 126.04754639 1.0435999632 1.0564999580
 1568.5008545  -999.250000 17.500000000 177.99565125 49.095199585 125.36003113 1.0850000381 1.0743999481
 1568.6531982  -999.250000 17.500000000 170.56234741 50.837501526 126.31434631 1.1315000057 1.0900000334
 1568.8056641  -999.250000 17.500000000 147.22041321 50.278198242 125.37383270 1.1670999527 1.1153999567
 1568.9580078  -999.250000 17.500000000 129.16122437 46.936599731 123.77015686 1.1703000069 1.1165000200
 1569.1104736  -999.250000 17.500000000 107.22180939 44.771499634 122.58134460 1.1438000202 1.0930999517
 1569.2628174  -999.250000 17.500000000 96.791648865 46.687099457 119.73464966 1.1334999800 1.0882999897
 1569.4151611  -999.250000 17.500000000 77.927230835 48.292900085 117.80637360 1.1292999983 1.0959999561
 1569.5676270  -999.250000 17.500000000 61.607498169 45.686000824 117.77641296 1.1581000090 1.1233999729
 1569.7199707  -999.250000 17.500000000 42.638912201 45.040699005 118.53360748 1.2351000309 1.1727000475
 1569.8724365  -999.250000 17.500000000 36.664108276 49.009201050 120.41806793 1.2351000309 1.1727000475
 1570.0247803  -999.250000 17.500000000 35.925983429 51.977500916 121.25814819 1.2260999680 1.1986000538
 1570.1772461  -999.250000 17.500000000 36.087619781 51.074100494 123.18778992 1.1527999640 1.1957999468
 1570.3295898  -999.250000 17.500000000 37.343975067 47.428199768 124.80755615 1.1715999842 1.2204999924
 1570.4820557  -999.250000 17.500000000 38.752174377 44.782600403 125.62201691 1.4830000401 1.4778000116
 1570.6343994  -999.250000 17.500000000 40.921382904 43.169399261 125.63433075 2.5724000931 2.4077000618
 1570.7868652  -999.250000 17.500000000 35.749629974 40.878601074 124.06178284 3.3573000431 3.3350999355
 1570.9392090  -999.250000 17.500000000 31.014341354 39.071800232 125.54967499 3.0125000477 3.1475999355
 1571.0916748  -999.250000 17.500000000 26.400560379 38.910499573 131.27389526 1.9696999788 2.1056001186
 1571.2440186  -999.250000 17.500000000 27.611370087 42.411201477 141.36911011 1.2921999693 1.3993999958
 1571.3963623  -999.250000 17.500000000 31.071264267 47.863800049 143.87969971 1.1262999773 1.2002999783
 1571.5488281  -999.250000 17.500000000 31.979589462 49.390998840 139.76286316 1.1471999884 1.1684999466
 1571.7011719  -999.250000 17.500000000 32.302223206 46.852901459 134.10525513 1.1663999557 1.1421999931
 1571.8536377  -999.250000 17.500000000 32.374946594 42.905899048 128.66838074 1.1608999968 1.1164000034
 1572.0059814  -999.250000 17.500000000 32.308845520 40.620498657 126.52514648 1.1514999866 1.1007000208
 1572.1584473  -999.250000 17.500000000 32.461452484 42.911300659 127.45600128 1.1117999554 1.0971000195
 1572.3107910  -999.250000 17.500000000 37.994285583 43.362899780 128.57693481 1.1131999493 1.1136000156
 1572.4632568  -999.250000 17.500000000 50.980163574 39.959098816 129.37788391 1.1395000219 1.1476999521
 1572.6156006  -999.250000 17.500000000 93.306518555 39.136299133 129.30207825 1.1315000057 1.1423000097
 1572.7680664  -999.250000 17.500000000 190.77384949 40.710098267 128.40774536 1.0916999578 1.1165000200
 1572.9204102  -999.250000 17.500000000 186.40484619 43.154998779 126.06939697 1.1277999878 1.1376999617
 1573.0728760  -999.250000 17.500000000 183.52478027 46.598300934 123.56445313 1.1374000311 1.1394000053
 1573.2252197  -999.250000 17.500000000 179.32983398 49.847999573 123.59112549 1.1497999430 1.1577999592
 1573.3775635  -999.250000 17.500000000 170.05844116 50.670799255 123.49113464 1.1532000303 1.1509000063
 1573.5300293  -999.250000 17.500000000 161.49964905 47.589599609 123.16173553 1.1491999626 1.1446000338
 1573.6823730  -999.250000 17.500000000 154.10133362 43.653301239 123.08703613 1.1402000189 1.1409000158
 1573.8348389  -999.250000 17.500000000 144.19606018 42.061599731 125.11840820 1.1614999771 1.1456999779
 1573.9871826  -999.250000 17.500000000 124.37941742 43.422100067 126.88212585 1.1791000366 1.1401000023
 1574.1396484  -999.250000 17.500000000 109.40836334 48.720901489 126.16500092 1.1490000486 1.1052999496
 1574.2919922  -999.250000 17.500000000 103.12573242 55.245800018 127.53595734 0.9131000042 0.8840000033
 1574.4444580  -999.250000 17.500000000 90.934928894 57.668899536 131.11392212 0.8661999702 0.8474000096
 1574.5968018  -999.250000 17.500000000 84.515800476 57.075199127 139.42218018 1.1761000156 1.1476000547
 1574.7492676  -999.250000 17.500000000 76.392829895 57.430099487 142.77000427 0.9078999758 0.8720999956
 1574.9016113  -999.250000 17.500000000 69.708160400 58.591598511 143.77374268 0.6966999769 0.6904000044
 1575.0540771  -999.250000 17.500000000 62.528858185 59.301399231 145.70353699 0.6787999868 0.6668999791
 1575.2064209  -999.250000 17.500000000 58.636127472 60.462898254 147.27867126 0.6437000036 0.6391999722
 1575.3587646  -999.250000 17.500000000 56.561042786 63.269901276 144.88824463 0.6491000056 0.6341999769
 1575.5112305  -999.250000 17.500000000 58.627830505 63.334400177 144.19340515 0.7415999770 0.7027999759
 1575.6635742  -999.250000 17.500000000 60.506221771 57.591400146 140.46994019 0.7519000173 0.7518000007
 1575.8160400  -999.250000 17.500000000 48.202560425 52.703399658 140.27079773 0.7305999994 0.7443000078
 1575.9683838  -999.250000 17.500000000 40.178600311 52.945400238 137.51890564 0.9569000006 0.9424999952
 1576.1208496  -999.250000 17.500000000 37.873790741 54.542499542 133.29348755 1.2855000496 1.2194000483
 1576.2731934  -999.250000 17.500000000 39.639713287 54.752201080 129.03854370 1.5755000114 1.4776999950
 1576.4256592  -999.250000 17.500000000 42.038368225 53.364799500 131.34347534 1.3658000231 1.3947999477
 1576.5780029  -999.250000 17.500000000 45.288982391 52.558200836 140.92675781 0.7616999745 0.7954000235
 1576.7304688  -999.250000 17.500000000 46.849277496 54.719898224 145.99212646 0.6945000291 0.7286000252
 1576.8828125  -999.250000 17.500000000 47.992282867 56.413799286 146.00758362 0.7055000067 0.7184000015
 1577.0352783  -999.250000 17.500000000 46.551120758 55.408199310 146.86315918 0.6917999983 0.6963999867
 1577.1876221  -999.250000 17.500000000 46.113281250 54.518798828 146.58804321 0.7419999838 0.7124000192
 1577.3400879  -999.250000 17.500000000 56.896976471 55.608299255 143.38410950 0.8208000064 0.7748000026
 1577.4924316  -999.250000 17.500000000 76.944099426 56.562198639 137.65121460 0.8637999892 0.8263999820
 1577.6447754  -999.250000 17.500000000 82.501480103 54.711799622 135.79934692 0.8682000041 0.8496999741
 1577.7972412  -999.250000 17.500000000 75.745674133 54.752201080 137.85530090 0.7860000134 0.7843999863
 1577.9495850  -999.250000 17.500000000 73.622825623 57.236499786 140.34594727 0.6942999959 0.7005000114
 1578.1020508  -999.250000 17.500000000 73.371917725 55.574901581 142.64271545 0.6546000242 0.6624000072
 1578.2543945  -999.250000 17.500000000 75.252395630 52.582401276 144.91806030 0.7160999775 0.6966999769
 1578.4068604  -999.250000 17.500000000 77.017799377 52.945400238 148.47500610 0.7222999930 0.7046999931
 1578.5592041  -999.250000 17.500000000 83.674011230 54.897399902 149.73020935 0.6816999912 0.6711999774
 1578.7116699  -999.250000 17.500000000 89.572120667 56.091098785 151.38629150 0.6607999802 0.6427000165
 1578.8640137  -999.250000 17.500000000 95.060417175 56.946098328 153.56007385 0.6561999917 0.6658999920
 1579.0164795  -999.250000 17.500000000 101.69413757 58.720699310 153.66090393 0.6482166052 0.6647094488
 1579.1688232  -999.250000 17.500000000 115.35337830 59.043300629 154.16590881 0.6586199403 0.6706078649
 1579.3212891  -999.250000 17.500000000 127.66129303 56.349300385 151.92822266 0.6835498214 0.6804471016
 1579.4736328  -999.250000 17.500000000 125.32308960 55.316799164 150.56436157 0.7145934701 0.7097977400
