# LAS format log file from PETREL
# Project units are specified as depth units
#==================================================================
~Version information
VERS.   2.0:
WRAP.   NO:
#==================================================================
~Well
STRT .m      500.02444458 :
STOP .m      1854.8603516 :
STEP .m     0.00000000 :
NULL .        -999.250000 :
COMP.           : COMPANY
WELL.  35/7-1 S   : WELL
FLD.            : FIELD
LOC.            : LOCATION
SRVC.           : SERVICE COMPANY
DATE.  2018-09-11 14:48:59   : Log Export Date {yyyy-MM-dd HH:mm:ss}
PROV.           : PROVINCE
UWI.   35/7-1 S   : UNIQUE WELL ID
API.            : API NUMBER
#==================================================================
~Curve
DEPT .m                   : DEPTH
Lithology_geolink ._      : Lithology_geolink
BS .in                    : BS
ROP .m/h                  : ROP
GR .gAPI                  : GR
DTC .us/ft                : DTC
RDEP .ohm.m               : RDEP
RMED .ohm.m               : RMED
~Parameter
#==================================================================
~Ascii
# ...
 781.65960693  -999.250000 9.8750000000 136.17913818 125.52149963 154.48899841 2.2272999287 2.2049999237
 781.81201172  -999.250000 9.8750000000 140.84416199 126.96240234 153.73489380 2.2351999283 2.2088000774
 781.96441650  -999.250000 9.8750000000 143.51574707 128.38240051 154.50430298 2.2205998898 2.2007000446
 782.11682129  -999.250000 9.8750000000 151.75558472 129.58410645 154.85850525 2.2144999504 2.1991999149
 782.26922607  -999.250000 9.8750000000 143.47999573 127.31220245 154.89799500 2.2258999348 2.2177000046
 782.42163086  -999.250000 9.8750000000 134.42027283 121.68309784 154.93280029 2.1826999187 2.1640000343
 782.57397461  -999.250000 9.8750000000 121.78674316 119.39920044 154.72181702 2.1881000996 2.1681001186
 782.72637939  -999.250000 9.8750000000 112.09876251 122.95059967 155.53680420 2.2107000351 2.1872000694
 782.87878418  -999.250000 9.8750000000 41.451446533 125.67690277 156.23011780 2.2490000725 2.2337000370
 783.03118896  -999.250000 9.8750000000 36.023620605 123.30039978 156.51231384 2.2337999344 2.2197000980
 783.18359375  -999.250000 9.8750000000 33.811351776 117.91940308 156.28410339 2.2142999172 2.1991999149
 783.33599854  -999.250000 9.8750000000 32.908790588 112.94499969 155.59680176 2.1942000389 2.1781001091
 783.48840332  -999.250000 9.8750000000 32.236877441 110.32929993 154.88839722 2.1914999485 2.1703000069
 783.64080811  -999.250000 9.8750000000 31.823820114 111.73429871 154.47749329 2.1942999363 2.1777000427
 783.79321289  -999.250000 9.8750000000 31.680774689 117.51580048 154.86299133 2.1867001057 2.1682000160
 783.94561768  -999.250000 9.8750000000 31.821523666 119.80719757 154.86610413 2.1898000240 2.1681001186
 784.09802246  -999.250000 9.8750000000 31.525590897 121.29149628 154.40679932 2.1868999004 2.1693000793
 784.25042725  -999.250000 9.8750000000 31.052494049 127.57669830 154.01010132 2.1798999310 2.1688001156
 784.40283203  -999.250000 9.8750000000 54.900588989 130.01159668 153.90440369 2.1644999981 2.1573998928
 784.55523682  -999.250000 9.8750000000 62.727039337 129.63789368 153.80349731 2.1544001102 2.1387000084
 784.70758057  -999.250000 9.8750000000 67.033470154 128.20300293 154.27699280 2.1484000683 2.1361000538
 784.85998535  -999.250000 9.8750000000 67.571525574 124.49320221 154.97129822 2.1603999138 2.1505999565
 785.01239014  -999.250000 9.8750000000 66.078742981 126.31970215 154.98159790 2.1733000278 2.1658999920
 785.16479492  -999.250000 9.8750000000 64.998031616 132.71099854 154.85420227 2.1886000633 2.1712000370
 785.31719971  -999.250000 9.8750000000 63.036746979 132.52569580 155.03120422 2.1826999187 2.1724998951
 785.46960449  -999.250000 9.8750000000 62.260494232 127.38089752 154.67938232 2.1684999466 2.1552000046
 785.62200928  -999.250000 9.8750000000 63.205711365 126.60070038 154.48069763 2.1547999382 2.1482000351
 785.77441406  -999.250000 9.8750000000 67.367454529 127.88610077 153.85379028 2.1363000870 2.1324000359
 785.92681885  -999.250000 9.8750000000 70.892723083 126.59770203 154.10099792 2.1443998814 2.1415998936
 786.07922363  -999.250000 9.8750000000 75.508201599 125.82340240 153.71261597 2.1524999142 2.1421000957
 786.23162842  -999.250000 9.8750000000 77.860565186 126.00879669 153.39450073 2.1493000984 2.1394000053
 786.38403320  -999.250000 9.8750000000 81.669624329 124.09850311 153.31250000 2.1473999023 2.1277000904
 786.53643799  -999.250000 9.8750000000 82.422241211 121.35420227 153.65490723 2.1356999874 2.1282999516
 786.68878174  -999.250000 9.8750000000 83.567260742 121.56950378 153.59538269 2.1421000957 2.1270999908
 786.84118652  -999.250000 9.8750000000 83.979988098 122.13449860 153.34390259 2.1447999477 2.1335999966
 786.99359131  -999.250000 9.8750000000 85.226379395 120.25710297 153.63705444 2.1533000469 2.1393001080
 787.14599609  -999.250000 9.8750000000 82.948822021 119.97609711 153.54112244 2.1723001003 2.1542000771
 787.29840088  -999.250000 9.8750000000 79.780838013 118.31999969 153.86141968 2.2039000988 2.1861999035
 787.45080566  -999.250000 9.8750000000 79.614173889 114.26039886 153.38906860 2.2467999458 2.2246000767
 787.60321045  -999.250000 9.8750000000 76.843833923 117.48889923 153.03511047 2.2374999523 2.2307000160
 787.75561523  -999.250000 9.8750000000 75.162399292 122.27799988 151.05091858 2.2551000118 2.2362000942
 787.90802002  -999.250000 9.8750000000 73.654205322 118.72209930 150.87873840 2.2365999222 2.2230000496
 788.06042480  -999.250000 9.8750000000 73.351051331 118.24230194 149.97422791 2.2135999203 2.2063999176
 788.21282959  -999.250000 9.8750000000 72.910438538 124.13289642 150.23812866 2.2200000286 2.2095000744
 788.36523438  -999.250000 9.8750000000 73.137466431 126.68740082 151.58215332 2.2356998920 2.2183001041
 788.51763916  -999.250000 9.8750000000 73.898292542 126.05059814 151.89077759 2.2300999165 2.2079000473
 788.67004395  -999.250000 9.8750000000 73.754920959 127.42579651 153.08599854 2.2228000164 2.2095000744
 788.82238770  -999.250000 9.8750000000 69.663391113 129.99960327 153.19869995 2.2195000648 2.2081999779
 788.97479248  -999.250000 9.8750000000 68.453086853 130.50489807 153.94912720 2.2232999802 2.2060000896
 789.12719727  -999.250000 9.8750000000 67.243766785 131.02200317 154.51611328 2.2156000137 2.1986999512
 789.27960205  -999.250000 9.8750000000 67.570869446 131.49139404 154.79266357 2.2125000954 2.1967999935
 789.43200684  -999.250000 9.8750000000 66.815620422 130.52580261 155.21162415 2.2209999561 2.1981000900
 789.58441162  -999.250000 9.8750000000 68.416999817 128.66639709 155.27668762 2.2065000534 2.1874001026
 789.73681641  -999.250000 9.8750000000 68.816604614 124.08959961 155.01817322 2.1988999844 2.1791999340
 789.88922119  -999.250000 9.8750000000 68.954071045 119.42610168 154.45573425 2.1886000633 2.1809000969
 790.04162598  -999.250000 9.8750000000 69.395339966 120.69059753 154.30186462 2.1770999432 2.1686000824
 790.19403076  -999.250000 9.8750000000 70.940948486 123.81150055 153.45011902 2.1893000603 2.1775000095
 790.34643555  -999.250000 9.8750000000 75.851051331 121.85649872 152.74864197 2.2090001106 2.1939001083
 790.49884033  -999.250000 9.8750000000 76.960304260 120.72949982 153.30560303 2.2901999950 2.2734999657
 790.65124512  -999.250000 9.8750000000 81.189964294 124.87580109 153.04595947 2.3229999542 2.3024001122
 790.80358887  -999.250000 9.8750000000 82.043640137 128.65739441 153.50007629 2.3215000629 2.3069999218
 790.95599365  -999.250000 9.8750000000 83.179458618 130.15209961 153.94949341 2.3378999233 2.3185999393
 791.10839844  -999.250000 9.8750000000 84.200462341 129.29710388 153.16944885 2.3329999447 2.3238999844
 791.26080322  -999.250000 9.8750000000 83.587928772 128.36149597 150.57908630 2.3313999176 2.3261001110
 791.41320801  -999.250000 9.8750000000 87.344818115 128.56179810 151.27720642 2.3357000351 2.3326001167
 791.56561279  -999.250000 9.8750000000 83.583007813 128.60060120 150.00779724 2.3524999619 2.3361001015
 791.71801758  -999.250000 9.8750000000 83.128608704 129.54229736 150.51126099 2.3575000763 2.3345999718
 791.87042236  -999.250000 9.8750000000 80.552497864 127.80239868 153.63235474 2.3499999046 2.3243000507
 792.02282715  -999.250000 9.8750000000 84.254264832 126.12539673 154.96888733 2.3159000874 2.2955000401
 792.17523193  -999.250000 9.8750000000 89.580383301 125.31520081 154.72097778 2.2311000824 2.2221000195
 792.32763672  -999.250000 9.8750000000 93.991470337 121.13300323 154.15658569 2.1038000584 2.1084001064
 792.48004150  -999.250000 9.8750000000 77.458007813 118.35579681 152.12281799 2.1226999760 2.1122000217
 792.63244629  -999.250000 9.8750000000 70.676185608 115.01370239 150.53297424 2.5069999695 2.4595999718
 792.78485107  -999.250000 9.8750000000 68.237861633 109.91970062 151.99841309 2.8956000805 2.8317000866
 792.93719482  -999.250000 9.8750000000 66.782150269 106.58350372 154.61776733 3.0752999783 3.0111000538
 793.08959961  -999.250000 9.8750000000 66.187995911 101.39219666 156.29119873 3.1577000618 3.1078000069
 793.24200439  -999.250000 9.8750000000 66.693336487 97.647697449 153.30212402 3.1847000122 3.1940000057
