# LAS format log file from PETREL
# Project units are specified as depth units
#==================================================================
~Version information
VERS.   2.0:
WRAP.   NO:
#==================================================================
~Well
STRT .m      500.02444458 :
STOP .m      1854.8603516 :
STEP .m     0.00000000 :
NULL .        -999.250000 :
COMP.           : COMPANY
WELL.  35/7-1 S   : WELL
FLD.            : FIELD
LOC.            : LOCATION
SRVC.           : SERVICE COMPANY
DATE.  2018-09-11 14:48:59   : Log Export Date {yyyy-MM-dd HH:mm:ss}
PROV.           : PROVINCE
UWI.   35/7-1 S   : UNIQUE WELL ID
API.            : API NUMBER
#==================================================================
~Curve
DEPT .m                   : DEPTH
Lithology_geolink ._      : Lithology_geolink
BS .in                    : BS
ROP .m/h                  : ROP
GR .gAPI                  : GR
DTC .us/ft                : DTC
RDEP .ohm.m               : RDEP
RMED .ohm.m               : RMED
~Parameter
#==================================================================
~Ascii
# ...
 1039.8251953  -999.250000 9.8750000000 95.161750793 83.583000183 136.14060974 1.5626000166 1.5519000292
 1039.9775391  -999.250000 9.8750000000 96.082351685 86.330299377 136.40020752 1.5353000164 1.5290999413
 1040.1300049  -999.250000 9.8750000000 115.11483002 89.107398987 136.59065247 1.5124000311 1.5140999556
 1040.2823486  -999.250000 9.8750000000 117.31989288 89.415298462 136.77949524 1.4972000122 1.4905999899
 1040.4348145  -999.250000 9.8750000000 127.35498810 85.753303528 136.98655701 1.4756000042 1.4709999561
 1040.5871582  -999.250000 9.8750000000 118.74213409 83.935699463 137.17100525 1.4701000452 1.4622000456
 1040.7396240  -999.250000 9.8750000000 103.34055328 82.889396667 137.63754272 1.5051000118 1.4911999702
 1040.8919678  -999.250000 9.8750000000 100.33956909 79.947799683 137.69749451 1.5302000046 1.5174000263
 1041.0444336  -999.250000 9.8750000000 103.21128845 76.270896912 137.71264648 1.5283999443 1.5148999691
 1041.1967773  -999.250000 9.8750000000 97.203086853 74.805999756 137.51570129 1.5168000460 1.5123000145
 1041.3492432  -999.250000 9.8750000000 94.776908875 77.233398438 136.98449707 1.5211000443 1.5137000084
 1041.5015869  -999.250000 9.8750000000 94.271003723 78.429199219 137.09291077 1.5354000330 1.5296000242
 1041.6540527  -999.250000 9.8750000000 90.097442627 78.566703796 136.97113037 1.5353000164 1.5255999565
 1041.8063965  -999.250000 9.8750000000 89.693367004 81.795303345 136.76260376 1.5262999535 1.5192999840
 1041.9587402  -999.250000 9.8750000000 89.034446716 85.400497437 136.76179504 1.5204000473 1.5125000477
 1042.1112061  -999.250000 9.8750000000 90.481590271 88.333198547 136.83209229 1.5087000132 1.5031000376
 1042.2635498  -999.250000 9.8750000000 102.32151794 91.068496704 136.95219421 1.5077999830 1.5000000000
 1042.4160156  -999.250000 9.8750000000 106.75775146 91.472000122 136.98124695 1.5188000202 1.5096000433
 1042.5683594  -999.250000 9.8750000000 96.788711548 91.032600403 136.91949463 1.5319000483 1.5203000307
 1042.7208252  -999.250000 9.8750000000 96.391510010 91.803901672 136.73539734 1.5479999781 1.5348000526
 1042.8731689  -999.250000 9.8750000000 98.977363586 92.987701416 136.48739624 1.5645999908 1.5506000519
 1043.0256348  -999.250000 9.8750000000 101.42000580 91.812797546 136.29020691 1.5490000248 1.5484000444
 1043.1779785  -999.250000 9.8750000000 97.400917053 86.763702393 136.18400574 1.5341000557 1.5347000360
 1043.3304443  -999.250000 9.8750000000 93.038032532 81.714599609 136.20143127 1.5305999517 1.5298999548
 1043.4827881  -999.250000 9.8750000000 88.494750977 80.127197266 136.23649597 1.5305999517 1.5298999548
 1043.6352539  -999.250000 9.8750000000 89.244720459 81.795303345 136.43666077 1.5364999771 1.5288000107
 1043.7875977  -999.250000 9.8750000000 85.517204285 83.463401794 136.51072693 1.5526000261 1.5398999453
 1043.9400635  -999.250000 9.8750000000 81.198577881 81.717597961 136.67170715 1.5586999655 1.5489000082
 1044.0924072  -999.250000 9.8750000000 84.983024597 79.308097839 136.55505371 1.5571000576 1.5486999750
 1044.2447510  -999.250000 9.8750000000 83.860565186 79.738601685 136.50309753 1.5559999943 1.5504000187
 1044.3972168  -999.250000 9.8750000000 81.623611450 78.707199097 136.26406860 1.5504000187 1.5414999723
 1044.5495605  -999.250000 9.8750000000 80.297241211 75.744697571 136.60159302 1.5326999426 1.5269000530
 1044.7020264  -999.250000 9.8750000000 77.482872009 76.817901611 136.69897461 1.5333000422 1.5255000591
 1044.8543701  -999.250000 9.8750000000 79.851707458 79.445602417 137.03309631 1.5440000296 1.5276999474
 1045.0068359  -999.250000 9.8750000000 80.579147339 80.799797058 137.14308167 1.5319999456 1.5262000561
 1045.1591797  -999.250000 9.8750000000 79.860893250 83.086700439 137.13000488 1.5384999514 1.5281000137
 1045.3116455  -999.250000 9.8750000000 79.707168579 83.292999268 137.14129639 1.5306999683 1.5248999596
 1045.4639893  -999.250000 9.8750000000 88.071846008 80.450103760 137.14370728 1.5299999714 1.5188000202
 1045.6164551  -999.250000 9.8750000000 92.775268555 78.763999939 137.02815247 1.5277999640 1.5196000338
 1045.7687988  -999.250000 9.8750000000 100.14925385 78.136299133 137.08882141 1.5353000164 1.5276999474
 1045.9212646  -999.250000 9.8750000000 99.302268982 77.131797791 137.10905457 1.5410000086 1.5320999622
 1046.0736084  -999.250000 9.8750000000 96.973686218 76.737197876 137.19226074 1.5346000195 1.5305999517
 1046.2259521  -999.250000 9.8750000000 97.294616699 76.055603027 137.27740479 1.5310000181 1.5226000547
 1046.3784180  -999.250000 9.8750000000 89.823402405 75.684898376 137.37786865 1.5224000216 1.5204000473
 1046.5307617  -999.250000 9.8750000000 90.531173706 78.345497131 137.44920349 1.5463999510 1.5346000195
 1046.6832275  -999.250000 9.8750000000 94.541198730 81.819198608 137.20434570 1.5642000437 1.5555000305
 1046.8355713  -999.250000 9.8750000000 99.272964478 81.104698181 137.38679504 1.5561000109 1.5525000095
 1046.9880371  -999.250000 9.8750000000 94.734237671 77.589202881 137.42703247 1.5614000559 1.5505000353
 1047.1403809  -999.250000 9.8750000000 93.076118469 76.566802979 137.71290588 1.5527000427 1.5470000505
 1047.2928467  -999.250000 9.8750000000 93.298477173 80.458999634 137.93110657 1.5341000557 1.5329999924
 1047.4451904  -999.250000 9.8750000000 100.56101990 86.772697449 138.20579529 1.5247999430 1.5176000595
 1047.5976563  -999.250000 9.8750000000 108.30189514 86.674003601 138.04034424 1.5334000587 1.5233000517
 1047.7500000  -999.250000 9.8750000000 119.84291840 80.476997375 138.21601868 1.5498000383 1.5329999924
 1047.9024658  -999.250000 9.8750000000 135.49363708 78.530899048 138.85736084 1.5228999853 1.5197000504
 1048.0548096  -999.250000 9.8750000000 145.98159790 82.207801819 138.93765259 1.5015000105 1.4931000471
 1048.2071533  -999.250000 9.8750000000 144.71981812 85.866897583 139.11880493 1.4874000549 1.4843000174
 1048.3596191  -999.250000 9.8750000000 142.38243103 86.243598938 139.32836914 1.4917000532 1.4874000549
 1048.5119629  -999.250000 9.8750000000 145.51477051 85.041801453 138.90170288 1.4990999699 1.4909000397
 1048.6644287  -999.250000 9.8750000000 148.09068298 85.113601685 138.96374512 1.5096000433 1.5061999559
 1048.8167725  -999.250000 9.8750000000 136.36975098 84.718902588 138.88220215 1.5119999647 1.5055999756
 1048.9692383  -999.250000 9.8750000000 120.92488861 82.548599243 138.86344910 1.5212999582 1.5034999847
 1049.1215820  -999.250000 9.8750000000 111.11679840 82.441001892 139.16430664 1.4946000576 1.4977999926
 1049.2740479  -999.250000 9.8750000000 103.11315918 83.427497864 139.25852966 1.4874000549 1.4802999496
 1049.4263916  -999.250000 9.8750000000 101.02330017 80.569602966 139.29159546 1.4858000278 1.4752000570
 1049.5788574  -999.250000 9.8750000000 99.373161316 79.098800659 139.20864868 1.4909000397 1.4826999903
 1049.7312012  -999.250000 9.8750000000 99.531166077 82.626403809 139.14810181 1.4842000008 1.4780999422
 1049.8836670  -999.250000 9.8750000000 95.394699097 83.971603394 139.20907593 1.4887000322 1.4812999964
 1050.0360107  -999.250000 9.8750000000 97.460479736 82.423103333 139.67735291 1.4807000160 1.4764000177
 1050.1884766  -999.250000 9.8750000000 103.01020813 83.902801514 139.86534119 1.4881000519 1.4789999723
 1050.3408203  -999.250000 9.8750000000 104.28995514 87.158302307 139.91418457 1.4811999798 1.4752999544
 1050.4931641  -999.250000 9.8750000000 111.56168365 87.678497314 139.89900208 1.4730000496 1.4634000063
 1050.6456299  -999.250000 9.8750000000 119.38233948 86.692001343 140.05271912 1.4485000372 1.4436000586
 1050.7979736  -999.250000 9.8750000000 128.52952576 86.575401306 139.96209717 1.4658000469 1.4631999731
 1050.9504395  -999.250000 9.8750000000 131.73368835 89.167198181 140.03800964 1.4884999990 1.4751000404
 1051.1027832  -999.250000 9.8750000000 124.89566803 94.942802429 140.42210388 1.4915000200 1.4773000479
 1051.2552490  -999.250000 9.8750000000 117.69456482 97.705001831 140.26477051 1.5034999847 1.4855999947
 1051.4075928  -999.250000 9.8750000000 128.34843445 94.700599670 140.36900330 1.4710999727 1.4628000259
