# LAS format log file from PETREL
# Project units are specified as depth units
#==================================================================
~Version information
VERS.   2.0:
WRAP.   NO:
#==================================================================
~Well
STRT .m      500.02444458 :
STOP .m      1854.8603516 :
STEP .m     0.00000000 :
NULL .        -999.250000 :
COMP.           : COMPANY
WELL.  35/7-1 S   : WELL
FLD.            : FIELD
LOC.            : LOCATION
SRVC.           : SERVICE COMPANY
DATE.  2018-09-11 14:48:59   : Log Export Date {yyyy-MM-dd HH:mm:ss}
PROV.           : PROVINCE
UWI.   35/7-1 S   : UNIQUE WELL ID
API.            : API NUMBER
#==================================================================
~Curve
DEPT .m                   : DEPTH
Lithology_geolink ._      : Lithology_geolink
BS .in                    : BS
ROP .m/h                  : ROP
GR .gAPI                  : GR
DTC .us/ft                : DTC
RDEP .ohm.m               : RDEP
RMED .ohm.m               : RMED
~Parameter
#==================================================================
~Ascii
# ...
 605.63763428  -999.250000 9.8750000000 63.703411102 102.47609711 151.96267700 3.0448000431 3.0085999966
 605.79003906  -999.250000 9.8750000000 63.205375671 102.93350220 151.14642334 3.0531001091 3.0304000378
 605.94244385  -999.250000 9.8750000000 62.471458435 101.63310242 149.97428894 3.0350999832 3.0230000019
 606.09484863  -999.250000 9.8750000000 69.853019714 100.55690002 149.95234680 3.0127000809 3.0100998878
 606.24719238  -999.250000 9.8750000000 73.498687744 104.82579803 149.83290100 3.0072999001 3.0028998852
 606.39959717  -999.250000 9.8750000000 79.138122559 109.37270355 150.34069824 3.0028998852 2.9958999157
 606.55200195  -999.250000 9.8750000000 76.794952393 107.72250366 150.76089478 3.0218000412 3.0051000118
 606.70440674  -999.250000 9.8750000000 75.727035522 103.85720062 150.55111694 3.0367000103 3.0111000538
 606.85681152  -999.250000 9.8750000000 78.514762878 101.92009735 150.17649841 3.0290000439 3.0092999935
 607.00921631  -999.250000 9.8750000000 77.910102844 103.96479797 149.92730713 3.0436999798 3.0046999454
 607.16162109  -999.250000 9.8750000000 76.846580505 106.09030151 149.98901367 3.0323998928 3.0032000542
 607.31402588  -999.250000 9.8750000000 73.049423218 102.54779816 149.76737976 3.0139999390 2.9960999489
 607.46643066  -999.250000 9.8750000000 67.027893066 99.238601685 149.94325256 3.0090999603 2.9862999916
 607.61883545  -999.250000 9.8750000000 65.406204224 99.175796509 149.05474854 3.0123999119 2.9927000999
 607.77124023  -999.250000 9.8750000000 64.673591614 98.359703064 149.17509460 3.0174000263 2.9988999367
 607.92364502  -999.250000 9.8750000000 64.763816833 101.50749969 149.38825989 3.0315999985 2.9960000515
 608.07604980  -999.250000 9.8750000000 67.313980103 108.52069855 149.52813721 3.0325999260 3.0069000721
 608.22845459  -999.250000 9.8750000000 66.498291016 112.87930298 149.60676575 3.0350000858 3.0071001053
 608.38079834  -999.250000 9.8750000000 68.785430908 114.04509735 149.76638794 3.0374999046 3.0297999382
 608.53320313  -999.250000 9.8750000000 66.338577271 111.80310059 150.06889343 3.0199000835 2.9863998890
 608.68560791  -999.250000 9.8750000000 67.111221313 108.25160217 150.11769104 3.0244998932 2.9920001030
 608.83801270  -999.250000 9.8750000000 69.664367676 105.57009888 151.42391968 2.9751999378 2.9509000778
 608.99041748  -999.250000 9.8750000000 71.992126465 103.69580078 150.97610474 3.0137000084 2.9832000732
 609.14276123  -999.250000 9.8750000000 71.864830017 103.69580078 150.22689819 3.0136001110 2.9939999580
 609.29516602  -999.250000 9.8750000000 69.696197510 104.87912750 150.62820435 3.0011999607 2.9749000072
 609.44757080  -999.250000 9.8750000000 67.084976196 106.05392456 150.03390503 2.9718000889 2.9416000843
 609.59997559  -999.250000 9.8750000000 66.571846008 106.33228302 149.95129395 2.9309000969 2.9154999256
 609.75238037  -999.250000 9.8750000000 68.130905151 105.05941010 150.79040527 2.9068999290 2.8991000652
 609.90478516  -999.250000 9.8750000000 65.426185608 105.85678101 152.74559021 2.8259999752 2.7980000973
 610.05718994  -999.250000 9.8750000000 67.744750977 109.77462769 153.77239990 2.6879000664 2.6756000519
 610.20959473  -999.250000 9.8750000000 67.942588806 114.23171234 154.42649841 2.5469000340 2.5348000526
 610.36199951  -999.250000 9.8750000000 68.362861633 118.45580292 156.25689697 2.2160000801 2.2158999443
 610.51440430  -999.250000 9.8750000000 69.562004089 119.76689911 158.53860474 2.0004000664 2.0197999477
 610.66680908  -999.250000 9.8750000000 71.640747070 119.74890137 161.41870117 2.0004000664 2.0197999477
 610.81921387  -999.250000 9.8750000000 75.167320251 121.54260254 166.26040649 2.0736000538 2.0499000549
 610.97161865  -999.250000 9.8750000000 75.588256836 121.12999725 163.52119446 2.6398999691 2.5469999313
 611.12402344  -999.250000 9.8750000000 77.099739075 117.00469971 160.49058533 2.6398999691 2.5469999313
 611.27636719  -999.250000 9.8750000000 79.035758972 113.59806824 156.97610474 2.7681000233 2.7211999893
 611.42877197  -999.250000 9.8750000000 86.660438538 111.15827942 154.32359314 2.7430000305 2.7571001053
 611.58117676  -999.250000 9.8750000000 90.368438721 107.28464508 153.59249878 2.7430000305 2.7571001053
 611.73358154  -999.250000 9.8750000000 94.347114563 103.93024445 153.50750732 2.7671999931 2.7862999439
 611.88598633  -999.250000 9.8750000000 77.203086853 102.85312653 153.37939453 2.7662000656 2.7999000549
 612.03839111  -999.250000 9.8750000000 81.390419006 102.22525024 152.52580261 2.8127999306 2.8173999786
 612.19079590  -999.250000 9.8750000000 81.138122559 99.974800110 151.65750122 2.8547999859 2.8183000088
 612.34320068  -999.250000 9.8750000000 75.951118469 97.365242004 151.35607910 2.8698999882 2.8334000111
 612.49560547  -999.250000 9.8750000000 75.486877441 98.383598328 151.56050110 2.8745999336 2.8336999416
 612.64801025  -999.250000 9.8750000000 73.674873352 101.26840210 151.67070007 2.8973000050 2.8415000439
 612.80041504  -999.250000 9.8750000000 72.686355591 99.441802979 152.32510376 2.9158000946 2.8575000763
 612.95281982  -999.250000 9.8750000000 73.995079041 94.440498352 152.71139526 2.9609000683 2.8982999325
 613.10522461  -999.250000 9.8750000000 73.861549377 92.476501465 153.50149536 2.9981999397 2.9416999817
 613.25756836  -999.250000 9.8750000000 76.187667847 94.754402161 153.30760193 3.0664000511 2.9971001148
 613.40997314  -999.250000 9.8750000000 96.911087036 98.296897888 153.11991882 3.1038000584 3.0615999699
 613.56237793  -999.250000 9.8750000000 97.755249023 99.041198730 151.83520508 3.1366000175 3.1129999161
 613.71478271  -999.250000 9.8750000000 98.935371399 98.117500305 148.06170654 3.1868000031 3.1738998890
 613.86718750  -999.250000 9.8750000000 112.78837585 99.122001648 145.27310181 3.2163999081 3.2109000683
 614.01959229  -999.250000 9.8750000000 126.64238739 100.37750244 143.54029846 3.2553000450 3.2602000237
 614.17199707  -999.250000 9.8750000000 140.33267212 98.888801575 142.59069824 3.2509999275 3.2560999393
 614.32440186  -999.250000 9.8750000000 138.37565613 95.014503479 144.11619568 3.2297999859 3.2562000751
 614.47680664  -999.250000 9.8750000000 141.30151367 92.108802795 144.48010254 3.1884999275 3.2102000713
 614.62921143  -999.250000 9.8750000000 141.51869202 92.359901428 147.63670349 3.1029000282 3.1240000725
 614.78161621  -999.250000 9.8750000000 137.41404724 94.745498657 144.66920471 3.0517001152 3.0673999786
 614.93402100  -999.250000 9.8750000000 137.63484192 96.826103210 146.78810120 3.0517001152 3.0673999786
 615.08642578  -999.250000 9.8750000000 138.58268738 97.417999268 151.54699707 2.9774999619 2.9323999882
 615.23883057  -999.250000 9.8750000000 154.52658081 97.417999268 152.75480652 2.9637000561 2.9430000782
 615.39117432  -999.250000 9.8750000000 156.03117371 96.341796875 153.70930481 2.9570000172 2.9240000248
 615.54357910  -999.250000 9.8750000000 163.94685364 94.368797302 153.56689453 2.9844999313 2.9316000938
 615.69598389  -999.250000 9.8750000000 170.49375916 92.880096436 153.30900574 2.9844999313 2.9316000938
 615.84838867  -999.250000 9.8750000000 191.80775452 91.516899109 153.89450073 2.9623999596 2.9131999016
 616.00079346  -999.250000 9.8750000000 202.25459290 92.342002869 153.94340515 2.9797999859 2.9370000362
 616.15319824  -999.250000 9.8750000000 218.70080566 95.193901062 154.48440552 2.9797999859 2.9370000362
 616.30560303  -999.250000 9.8750000000 245.25325012 95.202796936 154.62304688 2.9939999580 2.9451999664
 616.45800781  -999.250000 9.8750000000 249.48262024 91.911499023 154.75587463 2.9918999672 2.9453999996
 616.61041260  -999.250000 9.8750000000 244.24473572 89.292800903 153.96115112 2.9748001099 2.9593000412
 616.76281738  -999.250000 9.8750000000 224.54133606 91.767997742 153.06996155 3.0085999966 2.9651999474
 616.91522217  -999.250000 9.8750000000 195.98097229 96.826103210 151.75173950 2.9909999371 2.9790999889
 617.06762695  -999.250000 9.8750000000 168.65156555 98.422401428 150.09489441 3.0006999969 2.9867000580
 617.22003174  -999.250000 9.8750000000 161.66043091 98.341697693 147.62886047 3.0230998993 3.0244998932
