# LAS format log file from PETREL
# Project units are specified as depth units
#==================================================================
~Version information
VERS.   2.0:
WRAP.   NO:
#==================================================================
~Well
STRT .m      2099.3588867 :
STOP .m      3963.2109375 :
STEP .m     0.00000000 :
NULL .        -999.250000 :
COMP.           : COMPANY
WELL.  35/8-3   : WELL
FLD.            : FIELD
LOC.            : LOCATION
SRVC.           : SERVICE COMPANY
DATE.  2018-09-11 14:49:00   : Log Export Date {yyyy-MM-dd HH:mm:ss}
PROV.           : PROVINCE
UWI.   35/8-3   : UNIQUE WELL ID
API.            : API NUMBER
#==================================================================
~Curve
DEPT .m                   : DEPTH
Lithology_geolink ._      : Lithology_geolink
DRHO .g/cm3               : DRHO
NPHI .m3/m3               : NPHI
RHOB .g/cm3               : RHOB
GR .gAPI                  : GR
DTC .us/ft                : DTC
RDEP .ohm.m               : RDEP
RSHA .ohm.m               : RSHA
RMED .ohm.m               : RMED
~Parameter
#==================================================================
~Ascii
# ...
 3941.8750000 6.0000000000 -0.003500000 0.2989000082 2.6635000706 85.272888184 77.527694702 8.7496004105 14.258530617 8.9361000061
 3942.0273438 6.0000000000 -0.005500000 0.2851999998 2.6700000763 87.570442200 76.835296631 8.9402999878 14.339434624 9.1030998230
 3942.1796875 6.0000000000 -0.007900000 0.2779999971 2.6793000698 89.526138306 76.085655212 9.0797004700 14.174323082 9.2213001251
 3942.3322754  -999.250000 -0.009400000 0.2818000019 2.6828999519 89.363792419 75.559982300 9.1275997162 14.250999451 9.2679004669
 3942.4846191  -999.250000 -0.011800000 0.2924999893 2.6754999161 89.426139832 76.052658081 9.1400995255 14.281649590 9.2838001251
 3942.6369629  -999.250000 -0.014200000 0.3001999855 2.6635999680 91.315917969 75.902862549 9.1596002579 14.187936783 9.3121995926
 3942.7893066  -999.250000 -0.013700000 0.3016999960 2.6561000347 90.456825256 75.323219299 9.1864995956 14.272690773 9.3484001160
 3942.9416504  -999.250000 -0.011300000 0.2987999916 2.6510999203 90.537780762 76.025619507 9.2369003296 14.267007828 9.3851995468
 3943.0942383  -999.250000 -0.009700001 0.2967000008 2.6447999477 93.347686768 77.786415100 9.3194999695 14.396600723 9.4625997543
 3943.2465820  -999.250000 -0.007400000 0.2955000103 2.6431000233 99.832603455 78.663810730 9.3585996628 14.427852631 9.5009002686
 3943.3989258  -999.250000 -0.003100000 0.2917999923 2.6468000412 104.88309479 78.861335754 9.4059000015 14.273783684 9.5578002930
 3943.5512695  -999.250000 -0.000600000 0.2912000120 2.6468999386 105.43750000 79.318283081 9.4303998947 14.325679779 9.5954999924
 3943.7038574  -999.250000 -0.002000000 0.2939000130 2.6368000507 105.43750000 80.370941162 9.4391002655 14.250822067 9.6050996780
 3943.8562012  -999.250000 -0.004500000 0.2978999913 2.6242001057 105.43750000 81.162925720 9.4505996704 14.195399284 9.5972995758
 3944.0085449  -999.250000 -0.006000000 0.3003000021 2.6224000454 105.43750000 80.807960510 9.4540004730 14.195083618 9.6206998825
 3944.1608887  -999.250000 -0.007600000 0.3016999960 2.6310000420 105.43750000 80.527732849 9.4603996277 14.185004234 9.6517000198
 3944.3134766  -999.250000 -0.008100000 0.3036000133 2.6433999538 105.43750000 79.615570068 9.4612998962 14.250000000 9.6609001160
 3944.4658203  -999.250000 -0.007900000 0.3032999933 2.6542000771 105.43750000 79.167869568 9.4696998596 14.250000000 9.6604003906
 3944.6181641  -999.250000 -0.007700000 0.3027999997 2.6614000797 105.43750000 78.904289246 9.4728002548 14.250000000 9.6731996536
 3944.7705078  -999.250000 -0.006200000 0.3025000095 2.6661000252 105.43750000 79.205917358 9.4750995636 14.250000000 9.6619997025
 3944.9228516  -999.250000 -0.004900000 0.3028999865 2.6603999138 105.43750000 79.029327393 9.4714002609 14.250000000 9.6646003723
 3945.0754395  -999.250000 -0.005300000 0.3021999896 2.6466000080 105.43750000 79.111709595 9.4518995285 14.250000000 9.6607999802
 3945.2277832  -999.250000 -0.004600000 0.3014999926 2.6384999752 105.43750000 79.456771851 9.4682998657 14.250000000 9.6731996536
 3945.3801270  -999.250000 -0.002400000 0.3039999902 2.6384999752 105.43750000 79.500175476 9.4686002731 14.250000000 9.6780004501
 3945.5324707  -999.250000 -0.001600000 0.3055000007 2.6352999210 105.43750000 79.610244751 9.4829998016 14.250000000 9.6667003632
 3945.6850586  -999.250000 -0.001900000 0.3061999977 2.6212000847 105.43750000 79.514915466 9.4724998474 14.250000000 9.6609001160
 3945.8374023  -999.250000 -0.001800000 0.3077999949 2.6077001095 105.43750000 79.610801697 9.4706001282 14.250000000 9.6646003723
 3945.9897461  -999.250000 -0.001200000 0.3116999865 2.6038000584 105.43750000 79.735588074 9.4666004181 14.250000000 9.6619997025
 3946.1420898  -999.250000 0.0008000000 0.3152000010 2.6059999466 105.43750000 79.859893799 9.4640998840 14.250000000 9.6679000854
 3946.2946777  -999.250000 0.0037000000 0.3116999865 2.6063001156 105.43750000 79.544113159 9.4739999771 14.250000000 9.6644001007
 3946.4470215  -999.250000 0.0062000002 0.3063000143 2.6031000614 105.43750000 79.610420227 9.4734001160 14.250000000 9.6576004028
 3946.5993652  -999.250000 0.0088999998 0.3059999943 2.6010999680 105.43750000 79.625175476 9.4688997269 14.250000000 9.6555995941
 3946.7517090  -999.250000 0.0131000001 0.3082000017 2.6001000404 105.43750000 79.735061646 9.4663000107 14.250000000 9.6639995575
 3946.9040527  -999.250000 0.0173000004 0.3129999936 2.5973000526 105.43750000 79.529327393 9.4660997391 14.250000000 9.6522998810
 3947.0566406  -999.250000 0.0197000001 0.3186999857 2.5945999622 105.43750000 79.610649109 9.4785003662 14.250000000 9.6517000198
 3947.2089844  -999.250000 0.0190999992 0.3244000077 2.5924999714 105.43750000 79.625000000 9.4781999588 14.250000000 9.6549997330
 3947.3613281  -999.250000 0.0173000004 0.3271999955 2.5919001102 105.43750000 79.624824524 9.4841003418 14.250000000 9.6436996460
 3947.5136719  -999.250000 0.0153999999 0.3221000135 2.5896000862 105.43750000 79.514762878 9.4786996841 14.250000000 9.6538000107
 3947.6662598  -999.250000 0.0142999999 0.3147000074 2.5836999416 105.43750000 79.610443115 9.4757003784 14.250000000 9.6511001587
 3947.8186035  -999.250000 0.0164000001 0.3100999892 2.5822999477 105.43750000 79.625175476 9.4734001160 14.250000000 9.6473999023
 3947.9709473  -999.250000 0.0229000002 0.3122999966 2.5920000076 105.43750000 79.735237122 9.4690999985 14.250000000 9.6470003128
 3948.1232910  -999.250000 0.0309999995 0.3203999996 2.6078999043 105.43750000 79.639755249 9.4660997391 14.250000000 9.6457996368
 3948.2758789  -999.250000 0.0361000001 0.3276999891 2.6154000759 105.43750000 79.734733582 9.4682998657 14.250000000 9.6381998062
 3948.4282227  -999.250000 0.0372000001 0.3265999854 2.6115000248 105.43750000 79.529151917 9.4664001465 14.250000000 9.6457996368
 3948.5805664  -999.250000 0.0372000001 0.3170000017 2.6091001034 105.43750000 79.500000000 9.4890003204 14.250000000 9.6470003128
 3948.7329102  -999.250000 0.0357999988 0.3075999916 2.6115999222 105.43750000 79.500175476 9.4815998077 14.250000000 9.6427001953
 3948.8852539  -999.250000 0.0326999985 0.3061000109 2.6113998890 105.43750000 79.610420227 9.4573001862 14.250000000 9.6291999817
 3949.0378418  -999.250000 0.0288999993 0.3147000074 2.6052999496 105.43750000 79.624824524 9.4729003906 14.250000000 9.6403999329
 3949.1901855  -999.250000 0.0217000004 0.3249999881 2.5934000015 105.43750000 79.514556885 9.4734001160 14.250000000 9.6378002167
 3949.3425293  -999.250000 0.0149999997 0.3300999999 2.5855000019 105.43750000 79.610626221 9.4835996628  -999.250000 9.6287002563
 3949.4948730  -999.250000 0.0133999996 0.3258000016 2.5866999626 105.43750000 79.625000000 9.4786996841  -999.250000  -999.250000
 3949.6474609  -999.250000 0.0149999997 0.3163000047 2.5920999050 105.43750000 79.624649048  -999.250000  -999.250000  -999.250000
 3949.7998047  -999.250000 0.0176999997 0.3113999963 2.5978999138 105.43750000 79.514556885  -999.250000  -999.250000  -999.250000
 3949.9521484  -999.250000 0.0196000002 0.3134999871 2.6001000404 105.43750000 79.610450745  -999.250000  -999.250000  -999.250000
 3950.1044922  -999.250000 0.0198999997 0.3167999983 2.5978999138 105.43750000 79.514381409  -999.250000  -999.250000  -999.250000
 3950.2570801  -999.250000 0.0188999996 0.3167999983 2.5933001041 105.43750000 79.500000000  -999.250000  -999.250000  -999.250000
 3950.4094238  -999.250000 0.0170000009 0.3147999942 2.5906000137 105.43750000 79.500000000  -999.250000  -999.250000  -999.250000
 3950.5617676  -999.250000 0.0157999992 0.3163999915 2.5922999382 105.43750000 79.500000000  -999.250000  -999.250000  -999.250000
 3950.7141113  -999.250000 0.0181000009 0.3206000030 2.5980999470 105.43750000 79.500175476  -999.250000  -999.250000  -999.250000
 3950.8666992  -999.250000 0.0218000002 0.3257000148 2.6026000977 105.43750000 79.610092163  -999.250000  -999.250000  -999.250000
 3951.0190430  -999.250000 0.0209999997 0.3316999972 2.6008999348  -999.250000  -999.250000  -999.250000  -999.250000  -999.250000
 3951.1713867  -999.250000 0.0168999992 0.3337000012 2.5987000465  -999.250000  -999.250000  -999.250000  -999.250000  -999.250000
