# LAS format log file from PETREL
# Project units are specified as depth units
#==================================================================
~Version information
VERS.   2.0:
WRAP.   NO:
#==================================================================
~Well
STRT .m      2099.3588867 :
STOP .m      3963.2109375 :
STEP .m     0.00000000 :
NULL .        -999.250000 :
COMP.           : COMPANY
WELL.  35/8-3   : WELL
FLD.            : FIELD
LOC.            : LOCATION
SRVC.           : SERVICE COMPANY
DATE.  2018-09-11 14:49:00   : Log Export Date {yyyy-MM-dd HH:mm:ss}
PROV.           : PROVINCE
UWI.   35/8-3   : UNIQUE WELL ID
API.            : API NUMBER
#==================================================================
~Curve
DEPT .m                   : DEPTH
Lithology_geolink ._      : Lithology_geolink
DRHO .g/cm3               : DRHO
NPHI .m3/m3               : NPHI
RHOB .g/cm3               : RHOB
GR .gAPI                  : GR
DTC .us/ft                : DTC
RDEP .ohm.m               : RDEP
RSHA .ohm.m               : RSHA
RMED .ohm.m               : RMED
~Parameter
#==================================================================
~Ascii
# ...
 2713.5310059 6.0000000000 -0.002800000 0.2452999949 2.4941000938 87.503501892 91.537300110 2.1798000336  -999.250000 2.2309999466
 2713.6833496 6.0000000000 -0.005900000 0.2423000038 2.4930999279 88.215797424 90.549697876 2.2572999001  -999.250000 2.3366000652
 2713.8356934 6.0000000000 -0.006100000 0.2508000135 2.4921000004 84.567497253 90.856399536 2.3213000298  -999.250000 2.4193999767
 2713.9880371 6.0000000000 -0.005300000 0.2567999959 2.4911999702 82.355598450 90.756202698 2.4054999352  -999.250000 2.4460999966
 2714.1403809 6.0000000000 -0.005100000 0.2547000051 2.4900000095 84.744796753 90.749992371 2.4723999500  -999.250000 2.2869999409
 2714.2929688 6.0000000000 -0.006200000 0.2551000118 2.4848999977 89.507797241 92.413101196 2.4539999962  -999.250000 2.2153000832
 2714.4453125 6.0000000000 -0.006700000 0.2632000148 2.4807999134 87.611801147 92.500000000 2.4430000782  -999.250000 2.4121000767
 2714.5976563 6.0000000000 -0.005500000 0.2700999975 2.4842998981 87.024803162 92.024803162 2.4289999008  -999.250000 2.4244000912
 2714.7500000 6.0000000000 -0.004200000 0.2684000134 2.4923000336 87.118598938 91.762802124 2.4317998886  -999.250000 2.4337999821
 2714.9025879 6.0000000000 -0.003300000 0.2606000006 2.4992001057 87.837699890 90.918502808 2.4300000668  -999.250000 2.4842998981
 2715.0549316 6.0000000000 -0.002700000 0.2547000051 2.5020999908 84.489501953 90.756202698 2.4333999157  -999.250000 2.5178000927
 2715.2072754 6.0000000000 -0.003400000 0.2570999861 2.5041999817 81.699096680 90.274803162 2.4425001144  -999.250000 2.6224999428
 2715.3596191 5.0000000000 -0.006300000 0.2624000013 2.5053000450 77.345397949 89.537292480 2.4660000801  -999.250000 2.8015000820
 2715.5122070 5.0000000000 -0.009700001 0.2619000077 2.5006000996 71.710899353 90.213890076 2.4869999886  -999.250000 3.0353000164
 2715.6645508 5.0000000000 -0.011700000 0.2533000112 2.4920001030 71.734497070 90.725196838 2.4762001038  -999.250000 3.2655000687
 2715.8168945 5.0000000000 -0.011900000 0.2463999987 2.4837999344 74.125801086 90.749992371 2.4254000187  -999.250000 3.5236001015
 2715.9692383 5.0000000000 -0.010000000 0.2488999963 2.4816000462 80.902198792 91.937896729 2.3510999680  -999.250000 3.7655999660
 2716.1215820 5.0000000000 -0.007700000 0.2547000051 2.4825000763 82.796897888 93.665901184 2.2744998932  -999.250000 3.9339001179
 2716.2741699 6.0000000000 -0.006000000 0.2587000132 2.4825000763 84.122398376 94.581596375 2.2086000443  -999.250000 3.8954999447
 2716.4265137 6.0000000000 -0.005100000 0.2617999911 2.4835000038 86.919700623 94.862602234 2.1675999165  -999.250000 3.3057999611
 2716.5788574 6.0000000000 -0.005100000 0.2655999959 2.4892001152 85.874603271 93.924705505 2.1349999905  -999.250000 2.6888000965
 2716.7312012 5.0000000000 -0.004200000 0.2644999921 2.5037000179 82.135902405 91.977401733 2.1145999432  -999.250000 2.2866001129
 2716.8837891 5.0000000000 -0.002700000 0.2522999942 2.5188999176 72.493698120 90.449501038 2.1113998890  -999.250000 2.0687000751
 2717.0361328 5.0000000000 -0.002600000 0.2389000058 2.5230998993 68.614501953 89.305900574 2.1064000130  -999.250000 2.0304999352
 2717.1884766 5.0000000000 -0.004200000 0.2399999946 2.5125000477 73.122200012 89.368598938 2.1342000961  -999.250000 2.0555000305
 2717.3408203 5.0000000000 -0.006700000 0.2565999925 2.4955999851 82.447097778 90.560897827 2.1937999725  -999.250000 2.0690999031
 2717.4934082 6.0000000000 -0.009900000 0.2703000009 2.4853999615 88.461196899 90.625007629 2.2641999722  -999.250000 2.0882999897
 2717.6457520 6.0000000000 -0.012400000 0.2689000070 2.4860000610 90.947601318 89.793502808 2.3427999020  -999.250000 2.1426000595
 2717.7980957 7.0000000000 -0.013200000 0.2628999949 2.4944999218 87.385902405 89.987197876 2.3870999813  -999.250000 2.2874999046
 2717.9504395 7.0000000000 -0.012600000 0.2657999992 2.5027999878 90.626602173 90.711502075 2.4026000500  -999.250000 2.5741000175
 2718.1027832 7.0000000000 -0.011900000 0.2716999948 2.5065999031 92.950698853 90.631202698 2.4075000286  -999.250000 2.9270000458
 2718.2553711 7.0000000000 -0.010200000 0.2675000131 2.5056002140 100.84320068 90.743797302 2.4079999924  -999.250000 3.1017999649
 2718.4077148 7.0000000000 -0.006900000 0.2545000017 2.5004999638 101.30940247 91.106399536 2.3968999386  -999.250000 3.2149999142
 2718.5600586 7.0000000000 -0.004300000 0.2478999943 2.4955000877 95.788803101 91.243797302 2.3657000065  -999.250000 3.2555000782
 2718.7124023 7.0000000000 -0.003900000 0.2509000003 2.4932999611 86.842201233 91.724403381 2.3382999897  -999.250000 3.2439000607
 2718.8649902 7.0000000000 -0.003800000 0.2515000105 2.4949998856 86.909500122 92.343902588 2.3078000546  -999.250000 3.1730000973
 2719.0173340 7.0000000000 -0.003900000 0.2522000074 2.4974000454 88.481796265 92.493797302 2.2874999046  -999.250000 3.0148999691
 2719.1696777 6.0000000000 -0.005700000 0.2615999877 2.4976000786 96.580802917 92.381195068 2.2799000740  -999.250000 2.8315999508
 2719.3220215 6.0000000000 -0.006800000 0.2750000060 2.4985001087 91.959503174 91.663398743 2.2555000782  -999.250000 2.6710999012
 2719.4746094 6.0000000000 -0.005200000 0.2829999924 2.5027000904 86.698303223 91.625000000 2.2479999065  -999.250000 2.5418000221
 2719.6269531 6.0000000000 -0.003700000 0.2822999954 2.5057001114 80.498001099 92.337699890 2.2420001030  -999.250000 2.4593000412
 2719.7792969 6.0000000000 -0.004300000 0.2768000066 2.5044999123 83.810600281 92.612594604 2.2400000095  -999.250000 2.4138998985
 2719.9316406 6.0000000000 -0.004700000 0.2685999870 2.5020999908 90.177101135 92.387390137 2.2572000027  -999.250000 2.4052999020
 2720.0839844 6.0000000000 -0.004300000 0.2633000016 2.5020999908 92.939300537 91.423095703 2.2702000141  -999.250000 2.4451999664
 2720.2365723 6.0000000000 -0.004300000 0.2669999897 2.5048000813 87.775901794 91.612602234 2.2732000351  -999.250000 2.6122999191
 2720.3889160 6.0000000000 -0.004300000 0.2721999884 2.5074999332 80.966499329 91.149803162 2.2811999321  -999.250000 2.8276998997
 2720.5412598 6.0000000000 -0.003500000 0.2721999884 2.5113000870 82.109901428 91.837699890 2.2622001171  -999.250000 3.0555999279
 2720.6936035 6.0000000000 -0.001100000 0.2720000148 2.5171000957 81.771697998 92.825302124 2.2435998917  -999.250000 3.1421000957
 2720.8461914 6.0000000000 0.0023000001 0.2723999918 2.5211000443 84.422996521 93.468994141 2.2163999081  -999.250000 3.1040999889
 2720.9985352 6.0000000000 0.0041999999 0.2746999860 2.5186998844 83.433998108 94.925498962 2.1809000969  -999.250000 3.0116000175
 2721.1508789 6.0000000000 0.0041999999 0.2815000117 2.5114998817 88.185997009 95.356407166 2.1684999466  -999.250000 2.7881000042
 2721.3032227 6.0000000000 0.0035000001 0.2903000116 2.5060999393 88.021697998 94.899810791 2.1350998878  -999.250000 2.5211999416
 2721.4558105 6.0000000000 0.0012000001 0.2930000126 2.5000000000 87.642997742 93.804100037 2.1463999748  -999.250000 2.3438000679
 2721.6081543 6.0000000000 -0.003000000 0.2845000029 2.4923999310 88.874397278 92.560096741 2.1695001125  -999.250000 2.2997000217
 2721.7604980 6.0000000000 -0.006400000 0.2779999971 2.4888000488 92.739097595 91.668403625 2.1721999645  -999.250000 2.3020000458
 2721.9128418 6.0000000000 -0.007300000 0.2741999924 2.4906001091 94.600601196 91.387397766 2.2081000805  -999.250000 2.2683000565
 2722.0651855 6.0000000000 -0.005600000 0.2655000091 2.4967999458 86.774597168 91.494003296 2.2472000122  -999.250000 2.2623999119
 2722.2177734 6.0000000000 -0.003500000 0.2590000033 2.5016999245 87.267402649 91.619003296 2.2839999199  -999.250000 2.2927999496
 2722.3701172 6.0000000000 -0.002300000 0.2637999952 2.5048000813 86.421501160 92.100189209 2.3208999634  -999.250000 2.4549999237
 2722.5224609 6.0000000000 -0.000700000 0.2757000029 2.5090999603 89.344703674 92.243789673 2.3603999615  -999.250000 2.6575000286
 2722.6748047 6.0000000000 0.0007000000 0.2759999931 2.5114998817 86.411499023 91.893600464 2.3764998913  -999.250000 2.7255001068
 2722.8273926 6.0000000000 0.0008000000 0.2646000087 2.5111000538 85.596603394 91.518600464 2.3894999027  -999.250000 2.7778999805
