# LAS format log file from PETREL
# Project units are specified as depth units
#==================================================================
~Version information
VERS.   2.0:
WRAP.   NO:
#==================================================================
~Well
STRT .m      2099.3588867 :
STOP .m      3963.2109375 :
STEP .m     0.00000000 :
NULL .        -999.250000 :
COMP.           : COMPANY
WELL.  35/8-3   : WELL
FLD.            : FIELD
LOC.            : LOCATION
SRVC.           : SERVICE COMPANY
DATE.  2018-09-11 14:49:00   : Log Export Date {yyyy-MM-dd HH:mm:ss}
PROV.           : PROVINCE
UWI.   35/8-3   : UNIQUE WELL ID
API.            : API NUMBER
#==================================================================
~Curve
DEPT .m                   : DEPTH
Lithology_geolink ._      : Lithology_geolink
DRHO .g/cm3               : DRHO
NPHI .m3/m3               : NPHI
RHOB .g/cm3               : RHOB
GR .gAPI                  : GR
DTC .us/ft                : DTC
RDEP .ohm.m               : RDEP
RSHA .ohm.m               : RSHA
RMED .ohm.m               : RMED
~Parameter
#==================================================================
~Ascii
 2099.3588867 5.0000000000 -1.035500050 0.4781999886 1.7281999588 54.000000000 117.75000000 1.1270999908  -999.250000 1.2066999674
 2099.5112305 5.0000000000 -1.031700015 0.4896000028 1.7367999554 55.437500000 118.25000000 1.1263999939  -999.250000 1.2199000120
 2099.6635742 5.0000000000 -1.026399970 0.5105000138 1.7553999424 57.343700409 119.24999237 1.1286000013  -999.250000 1.2315000296
 2099.8161621 6.0000000000 -1.019899964 0.5289000273 1.7762999535 63.531299591 119.24999237 1.1334999800  -999.250000 1.2144000530
 2099.9685059 6.0000000000 -1.019199967 0.5428000093 1.7842999697 63.031299591 119.24999237 1.1370999813  -999.250000 1.1940000057
 2100.1208496 6.0000000000 -1.026299953 0.5534999967 1.7806999683 65.375000000 119.24999237 1.1333999634  -999.250000 1.1854000092
 2100.2731934 6.0000000000 -1.029500008 0.5440999866 1.7865999937 61.656299591 119.00000000 1.1288000345  -999.250000 1.1966999769
 2100.4255371 6.0000000000 -1.021600008 0.5116999745 1.8098000288 65.062500000 118.75000000 1.1239999533  -999.250000 1.2081999779
 2100.5781250 6.0000000000 -1.012400031 0.4801000059 1.8278000355 64.375000000 118.25000000 1.1196999550  -999.250000 1.2035000324
 2100.7304688 6.0000000000 -1.009299994 0.4742000103 1.8222999573 64.250000000 118.75000000 1.1174999475  -999.250000 1.1930999756
 2100.8828125 6.0000000000 -1.007900000 0.4842999876 1.8005000353 60.593700409 118.50000763 1.1166000366  -999.250000 1.1911000013
 2101.0351563 6.0000000000 -1.005100012 0.4889000058 1.7743999958 57.187500000 117.99999237 1.1134999990  -999.250000 1.1886999607
 2101.1877441 6.0000000000 -1.011899948 0.4934999943 1.7460999489 62.343700409 117.99999237 1.1042000055  -999.250000 1.1979000568
 2101.3400879 6.0000000000 -1.044299960 0.5102999806 1.7243000269 65.375000000 118.25000000 1.0976999998  -999.250000 1.2195999622
 2101.4924316 6.0000000000 -1.094300032 0.5271000266 1.7474999428 66.812500000 118.75000000 1.0898000002  -999.250000 1.2446999550
 2101.6447754 6.0000000000 -1.136199951 0.5311999917 1.8510999680 63.656299591 119.50000000 1.0874999762  -999.250000 1.2397999763
 2101.7973633 6.0000000000 -1.156399965 0.5181999803 1.9943000078 60.500000000 120.00000000 1.0736999512  -999.250000 1.2160999775
 2101.9497070 6.0000000000 -1.170699954 0.4995000064 2.0532999039 59.718799591 120.00000000 1.0692000389  -999.250000 1.1829999685
 2102.1020508 6.0000000000 -1.184499979 0.4839999974 1.9744000435 59.406299591 120.00000000 1.0650000572  -999.250000 1.1674000025
 2102.2543945 6.0000000000 -1.173300028 0.4783999920 1.8602999449 61.687500000 119.50000000 1.0611000061  -999.250000 1.1526000500
 2102.4067383 6.0000000000 -1.137300014 0.4905999899 1.8056999445 62.906299591 120.00000000 1.0587999821  -999.250000 1.1373000145
 2102.5593262 6.0000000000 -1.110499978 0.5124999881 1.7971999645 66.062500000 120.49999237 1.0563999414  -999.250000 1.1107000113
 2102.7116699 6.0000000000 -1.107699990 0.5303999782 1.7884999514 66.687500000 120.49999237 1.0607999563  -999.250000 1.1065000296
 2102.8640137 6.0000000000 -1.121799946 0.5303999782 1.7540999651 68.125000000 120.49999237 1.0651999712  -999.250000 1.0839999914
 2103.0163574 6.0000000000 -1.140900016 0.5285999775 1.7066999674 63.812500000 119.00000000 1.0701999664  -999.250000 1.0850000381
 2103.1689453 6.0000000000 -1.152199984 0.5307999849 1.6768000126 63.468799591 119.00000000 1.0750000477  -999.250000 1.0939999819
 2103.3212891 6.0000000000 -1.160099983 0.5220999718 1.6632000208 62.562500000 118.50000763 1.0809999704  -999.250000 1.1204999685
 2103.4736328 6.0000000000 -1.167700052 0.5047000051 1.6632000208 64.750000000 117.99999237 1.0901000500  -999.250000 1.1404000521
 2103.6259766 6.0000000000 -1.163699985 0.4911000133 1.6877000332 63.031299591 118.50000763 1.1071000099  -999.250000 1.1476999521
 2103.7785645 6.0000000000 -1.151100039 0.4896999896 1.7254999876 60.437500000 118.50000763 1.1151000261  -999.250000 1.1694999933
 2103.9309082 6.0000000000 -1.144999981 0.4875999987 1.7450000048 61.406200409 117.75000000 1.1151000261  -999.250000 1.1759999990
 2104.0832520 6.0000000000 -1.143599987 0.4787999988 1.7434999943 61.187500000 117.75000000 1.1152000427  -999.250000 1.1650999784
 2104.2355957 6.0000000000 -1.134899974 0.4866999984 1.7539000511 65.562500000 117.75000000 1.1105999947  -999.250000 1.1849000454
 2104.3879395 6.0000000000 -1.123700023 0.5094000101 1.7776000500 62.937500000 117.50000000 1.1030999422  -999.250000 1.2408000231
 2104.5405273 6.0000000000 -1.116000056 0.5248000026 1.7951999903 65.375000000 120.00000000 1.0972000360  -999.250000 1.2374999523
 2104.6928711 6.0000000000 -1.108399987 0.5256000161 1.7987999916 62.562500000 119.75000000 1.0944000483  -999.250000 1.1776000261
 2104.8452148 6.0000000000 -1.106099963 0.5220999718 1.7850999832 65.562500000 119.24999237 1.0951999426  -999.250000 1.1531000137
 2104.9975586 6.0000000000 -1.111799955 0.5170999765 1.7645000219 64.875000000 119.75000000 1.0820000172  -999.250000 1.1488000154
 2105.1501465 6.0000000000 -1.116899967 0.4954999983 1.7477999926 66.812500000 119.24999237 1.0819000006  -999.250000 1.1475000381
 2105.3024902 6.0000000000 -1.123100042 0.4657000005 1.7338999510 61.937500000 119.24999237 1.0844999552  -999.250000 1.1320999861
 2105.4548340 6.0000000000 -1.135900021 0.4546000063 1.7189999819 62.500000000 119.24999237 1.0873999596  -999.250000 1.1224999428
 2105.6071777 6.0000000000 -1.139000058 0.4704000056 1.7193000317 61.562500000 119.00000000 1.0809999704  -999.250000 1.1204999685
 2105.7597656 6.0000000000 -1.123200059 0.4914000034 1.7427999973 66.625000000 118.75000000 1.0887000561  -999.250000 1.1335999966
 2105.9121094 7.0000000000 -1.104400039 0.4970999956 1.7746000290 66.375000000 118.75000000 1.0937000513  -999.250000 1.1648999453
 2106.0644531 7.0000000000 -1.092700005 0.4972000122 1.8006000519 64.750000000 119.00000000 1.0956000090  -999.250000 1.1858999729
 2106.2167969 7.0000000000 -1.084499955 0.5023000240 1.8156001568 63.375000000 119.50000000 1.1003999710  -999.250000 1.1844999790
 2106.3691406 7.0000000000 -1.081300020 0.5047000051 1.8159999847 65.312500000 118.75000000 1.1003999710  -999.250000 1.1780999899
 2106.5217285 7.0000000000 -1.088400006 0.5038999915 1.7976000309 69.250000000 119.50000000 1.0989999771  -999.250000 1.1750999689
 2106.6740723 7.0000000000 -1.094300032 0.5005000234 1.7799999714 68.750000000 119.24999237 1.0887999535  -999.250000 1.1854000092
 2106.8264160 7.0000000000 -1.089400053 0.4954999983 1.7776000500 68.125000000 120.25000000 1.0683000088  -999.250000 1.1813999414
 2106.9787598 7.0000000000 -1.083299994 0.4905999899 1.7776999474 66.812500000 120.00000000 1.0601999760  -999.250000 1.1701999903
 2107.1313477 7.0000000000 -1.080899954 0.4808999896 1.7762000561 65.687500000 120.25000000 1.0571999550  -999.250000 1.1773999929
 2107.2836914 7.0000000000 -1.078099966 0.4720000029 1.7812000513 65.375000000 120.25000000 1.0577000380  -999.250000 1.1640000343
 2107.4360352 7.0000000000 -1.077499986 0.4582999945 1.7919000387 64.625000000 120.75000000 1.0499999523  -999.250000 1.1475000381
 2107.5883789 7.0000000000 -1.082200050 0.4406000078 1.7965999842 66.937500000 121.50000000 1.0443999767  -999.250000 1.1262999773
 2107.7409668 6.0000000000 -1.089699984 0.4404000044 1.7876000404 62.250000000 122.00001526 1.0327999592  -999.250000 1.1591999531
 2107.8933105 6.0000000000 -1.097300053 0.4643999934 1.7707999945 60.750000000 121.74999237 1.0218000412  -999.250000 1.2006000280
 2108.0456543 6.0000000000 -1.099200010 0.4889000058 1.7612999678 60.906200409 121.00000000 1.0139000416  -999.250000 1.2000999451
 2108.1979980 6.0000000000 -1.095900059 0.4893999994 1.7646000385 64.812500000 120.75000000 1.0121999979  -999.250000 1.1505999565
 2108.3505859 6.0000000000 -1.094499946 0.4758999944 1.7732000351 66.125000000 121.25000000 1.0183999538  -999.250000 1.1268999577
 2108.5029297 6.0000000000 -1.094200015 0.4796000123 1.7840000391 65.500000000 120.25000000 1.0223000050  -999.250000 1.0982999802
 2108.6552734 6.0000000000 -1.094599962 0.5048999786 1.7939000130 63.875000000 120.25000000 1.0183999538  -999.250000 1.0859999657
