# LAS format log file from PETREL
# Project units are specified as depth units
#==================================================================
~Version information
VERS.   2.0:
WRAP.   NO:
#==================================================================
~Well
STRT .m      2099.3588867 :
STOP .m      3963.2109375 :
STEP .m     0.00000000 :
NULL .        -999.250000 :
COMP.           : COMPANY
WELL.  35/8-3   : WELL
FLD.            : FIELD
LOC.            : LOCATION
SRVC.           : SERVICE COMPANY
DATE.  2018-09-11 14:49:00   : Log Export Date {yyyy-MM-dd HH:mm:ss}
PROV.           : PROVINCE
UWI.   35/8-3   : UNIQUE WELL ID
API.            : API NUMBER
#==================================================================
~Curve
DEPT .m                   : DEPTH
Lithology_geolink ._      : Lithology_geolink
DRHO .g/cm3               : DRHO
NPHI .m3/m3               : NPHI
RHOB .g/cm3               : RHOB
GR .gAPI                  : GR
DTC .us/ft                : DTC
RDEP .ohm.m               : RDEP
RSHA .ohm.m               : RSHA
RMED .ohm.m               : RMED
~Parameter
#==================================================================
~Ascii
# ...
 3082.0341797 13.000000000 -0.002300000 0.1717000008 2.5936999321 69.074729919 83.725234985 2.2100338936  -999.250000 2.8405001163
 3082.1865234 13.000000000 -0.000400000 0.1703999937 2.5947000980 69.595039368 83.750198364 2.2311394215  -999.250000 3.1989998817
 3082.3391113 13.000000000 0.0002000000 0.1855999976 2.5924999714 72.243011475 83.869194031 2.2557301521  -999.250000 3.4755001068
 3082.4914551 13.000000000 -0.000300000 0.1978999972 2.5868000984 73.675811768 83.993797302 2.2963056564  -999.250000 3.2558000088
 3082.6437988 13.000000000 -0.000200000 0.1947000027 2.5815000534 71.315826416 84.118995667 2.2998044491  -999.250000 3.1809999943
 3082.7961426 13.000000000 0.0007000000 0.1861999929 2.5810000896 71.957290649 84.242858887 2.3026738167  -999.250000 3.2908999920
 3082.9487305 13.000000000 0.0007000000 0.1859000027 2.5811998844 70.522750854 83.655380249 2.2863252163  -999.250000 3.4811000824
 3083.1010742 13.000000000 -0.000700000 0.1949000061 2.5778000355 72.156387329 83.149223328 2.2630169392  -999.250000 3.7560999393
 3083.2534180 13.000000000 -0.001500000 0.2037000060 2.5761001110 71.769241333 82.294586182 2.2735733986  -999.250000 3.8870000839
 3083.4057617 13.000000000 -0.000500000 0.2027000040 2.5785999298 68.312507629 82.961997986 2.2568738461  -999.250000 3.8455998898
 3083.5583496 13.000000000 0.0008000000 0.1958999932 2.5817999840 72.921730042 82.528556824 2.2404885292  -999.250000 3.8619000912
 3083.7106934 13.000000000 0.0001000000 0.1896000057 2.5811998844 70.886871338 83.450683594 2.2368874550  -999.250000 3.6914999485
 3083.8630371 13.000000000 -0.000300000 0.1885000020 2.5787999630 78.275245667 84.686759949 2.2290160656  -999.250000 3.3870000839
 3084.0153809 13.000000000 0.0010000000 0.1923999935 2.5769000053 75.068092346 85.224662781 2.2389307022  -999.250000 3.1092000008
 3084.1677246 13.000000000 0.0013000000 0.1957000047 2.5708000660 77.363716125 84.892807007 2.2581324577  -999.250000 2.8499999046
 3084.3203125 13.000000000 0.0013000000 0.1979999989 2.5652999878 73.713623047 84.395935059 2.2783813477  -999.250000 2.6089999676
 3084.4726563 13.000000000 0.0033000000 0.2025000006 2.5680000782 78.361976624 83.187194824 2.3037960529  -999.250000 2.5253999233
 3084.6250000 13.000000000 0.0048000002 0.2096000016 2.5755000114 77.972785950 82.055046082 2.3637068272  -999.250000 2.4985001087
 3084.7773438 13.000000000 0.0040000002 0.2150000036 2.5803000927 78.697860718 81.524383545 2.4303588867  -999.250000 2.5243999958
 3084.9299316 13.000000000 0.0024000001 0.2118999958 2.5787999630 71.386428833 81.260841370 2.5297341347  -999.250000 2.5871000290
 3085.0822754 13.000000000 -0.000500000 0.2001000047 2.5745999813 71.831031799 80.775749207 2.6652035713  -999.250000 2.6842000484
 3085.2346191 13.000000000 -0.002600000 0.1844999939 2.5755000114 72.350807190 80.867485046 2.7922062874  -999.250000 2.7932999134
 3085.3869629 13.000000000 -0.001100000 0.1747999936 2.5836999416 72.722862244 80.043243408 2.8584394455  -999.250000 3.0476999283
 3085.5395508 13.000000000 0.0004000000 0.1735000014 2.5896999836 67.398376465 79.883079529 2.8830411434  -999.250000 3.5920999050
 3085.6918945 13.000000000 -0.000500000 0.1745000035 2.5883998871 65.521736145 80.470474243 2.8958740234  -999.250000 4.1872000694
 3085.8442383 13.000000000 -0.001400000 0.1728000045 2.5838999748 65.797927856 81.451141357 2.8796215057  -999.250000 4.9246997833
 3085.9965820 13.000000000 -0.001400000 0.1695999950 2.5815000534 68.309791565 81.976379395 2.8306267262  -999.250000 5.6010999680
 3086.1489258 13.000000000 -0.002000000 0.1764000058 2.5811998844 69.861877441 82.714080811 2.7848744392  -999.250000 5.8277997971
 3086.3015137 13.000000000 -0.002600000 0.1928000003 2.5789000988 69.176673889 83.582015991 2.7063064575  -999.250000 5.3537001610
 3086.4538574 13.000000000 -0.002100000 0.2066999972 2.5754001141 72.687095642 83.744186401 2.6147842407  -999.250000 4.7142000198
 3086.6062012 13.000000000 -0.001800000 0.2123000026 2.5734999180 71.682136536 83.988006592 2.5424690247  -999.250000 4.1953001022
 3086.7585449 13.000000000 -0.001400000 0.2126999944 2.5727000237 68.649902344 84.237052917 2.4607937336  -999.250000 3.6765999794
 3086.9111328 13.000000000 -0.000500000 0.2143000066 2.5717999935 65.356132507 83.892791748 2.3945748806  -999.250000 3.2518000603
 3087.0634766 13.000000000 -0.000100000 0.2142000049 2.5694999695 66.621696472 83.635475159 2.3868298531  -999.250000 2.9714000225
 3087.2158203 13.000000000 0.0013000000 0.2091999948 2.5741999149 72.044723511 82.434242249 2.4054417610  -999.250000 2.8805999756
 3087.3681641 13.000000000 0.0038999999 0.2046999931 2.5857000351 73.680725098 81.898582458 2.4314503670  -999.250000 2.8966000080
 3087.5207520 13.000000000 0.0046999999 0.2029000074 2.5919001102 73.559799194 81.638496399 2.4628741741  -999.250000 3.0304999352
 3087.6730957 13.000000000 0.0037000000 0.2055999935 2.5940999985 69.816955566 81.981620789 2.4859704971  -999.250000 3.1868999004
 3087.8254395 13.000000000 0.0027000001 0.2189999968 2.5969998837 67.542022705 82.120719910 2.4674875736  -999.250000 3.2060999870
 3087.9777832 13.000000000 0.0014000000 0.2409999967 2.5989999771 64.950393677 83.317092896 2.4597039223  -999.250000 3.1856000423
 3088.1301270 13.000000000 0.0002000000 0.2554000020 2.5945999622 72.243171692 84.683052063 2.3997442722  -999.250000 3.2023000717
 3088.2827148 13.000000000 -0.000400000 0.2495999932 2.5857000351 75.774574280 85.460922241 2.3650047779  -999.250000 3.1614999771
 3088.4350586 13.000000000 0.0000000000 0.2299000025 2.5836000443 76.290596008 84.905487061 2.3665440083  -999.250000 2.9860000610
 3088.5874023 13.000000000 0.0015000000 0.2122000009 2.5910000801 74.231613159 84.515899658 2.3940134048  -999.250000 2.7658998966
 3088.7397461 13.000000000 0.0027000001 0.2046999931 2.5999000072 73.058670044 82.834281921 2.4023778439  -999.250000 2.7585000992
 3088.8923340 13.000000000 0.0024000001 0.2038999945 2.6013000011 74.765205383 81.204696655 2.3885161877  -999.250000 3.0910000801
 3089.0446777 13.000000000 0.0014000000 0.2037000060 2.5941998959 69.600936890 80.890441895 2.3623220921  -999.250000 3.6252000332
 3089.1970215 13.000000000 0.0002000000 0.2067999989 2.5834000111 71.865760803 82.541275024 2.3137454987  -999.250000 4.2346000671
 3089.3493652 13.000000000 -0.001100000 0.2164999992 2.5771999359 71.414138794 84.529182434 2.2797598839  -999.250000 4.8576998711
 3089.5019531 13.000000000 -0.001800000 0.2270999998 2.5780000687 76.427101135 86.768493652 2.2546753883  -999.250000 5.0661001205
 3089.6542969 13.000000000 -0.002400000 0.2366999984 2.5778000355 77.524330139 88.417694092 2.2156918049  -999.250000 4.6781001091
 3089.8066406 13.000000000 -0.004500000 0.2443999946 2.5676000118 81.649589539 88.974334717 2.1481628418  -999.250000 4.0359997749
 3089.9589844 13.000000000 -0.007600000 0.2500000000 2.5506000519 79.013671875 89.000000000 2.0625672340  -999.250000 3.7090001106
 3090.1113281 13.000000000 -0.009500000 0.2545999885 2.5381000042 72.575340271 89.000381470 1.9797980785  -999.250000 3.6979999542
 3090.2639160 13.000000000 -0.009100000 0.2527000010 2.5344998837 70.258201599 89.238403320 1.9162219763  -999.250000 3.6788001060
 3090.4162598 13.000000000 -0.007600000 0.2397000045 2.5348999500 78.867210388 89.487045288 1.8919159174  -999.250000 3.4172999859
 3090.5686035 13.000000000 -0.005700000 0.2128999978 2.5341999531 85.787643433 89.142044067 1.9019072056  -999.250000 2.9730000496
 3090.7209473 13.000000000 -0.003200000 0.1863999963 2.5329999924 86.115959167 88.173858643 1.9064147472  -999.250000 2.5715000629
 3090.8735352 13.000000000 -0.001100000 0.1755000055 2.5341999531 80.477561951 87.651245117 1.9156607389  -999.250000 2.3931000233
 3091.0258789 13.000000000 -0.000800000 0.1729000062 2.5364999771 78.947334290 88.100433350 1.9346344471  -999.250000 2.3714001179
 3091.1782227 13.000000000 -0.002000000 0.1714999974 2.5392999649 83.395767212 88.242668152 1.9562050104  -999.250000 2.3750998974
 3091.3305664 13.000000000 -0.003800000 0.1746000051 2.5446999073 87.373970032 87.536285400 2.0217299461  -999.250000 2.2818000317
