# LAS format log file from PETREL
# Project units are specified as depth units
#==================================================================
~Version information
VERS.   2.0:
WRAP.   NO:
#==================================================================
~Well
STRT .m      1821.0274658 :
STOP .m      4027.3225098 :
STEP .m     0.00000000 :
NULL .        -999.250000 :
COMP.           : COMPANY
WELL.  35/8-6 S   : WELL
FLD.            : FIELD
LOC.            : LOCATION
SRVC.           : SERVICE COMPANY
DATE.  2018-09-11 14:49:01   : Log Export Date {yyyy-MM-dd HH:mm:ss}
PROV.           : PROVINCE
UWI.   35/8-6 S   : UNIQUE WELL ID
API.            : API NUMBER
#==================================================================
~Curve
DEPT .m                   : DEPTH
Lithology_geolink ._      : Lithology_geolink
CALI .in                  : CALI
BS .in                    : BS
ROP .m/h                  : ROP
DRHO .g/cm3               : DRHO
NPHI .m3/m3               : NPHI
RHOB .g/cm3               : RHOB
PEF .b/e                  : PEF
GR .gAPI                  : GR
DTC .us/ft                : DTC
DTS .us/ft                : DTS
RDEP .ohm.m               : RDEP
RMED .ohm.m               : RMED
~Parameter
#==================================================================
~Ascii
# ...
 2692.7556152 5.0000000000 12.383299828 12.250000954 153.07054138 0.0197000001 0.2633000016 2.4131000042 4.5151000023 73.377403259  -999.250000  -999.250000 1.8109999895 1.7387000322
 2692.9079590 5.0000000000 12.381399155 12.250000954 156.97407532 0.0208000001 0.2614000142 2.4123001099 4.9243998528 85.285697937  -999.250000  -999.250000 1.8453999758 1.7673000097
 2693.0605469 5.0000000000 12.373000145 12.250000954 156.87368774 0.0239000004 0.2599999905 2.4203999043 4.8716998100 82.040901184  -999.250000  -999.250000 1.8746999502 1.7990000248
 2693.2128906 5.0000000000 12.374700546 12.250000954 156.97802734 0.0210999995 0.2518000007 2.4240999222 4.7511000633 74.850097656  -999.250000  -999.250000 1.8740999699 1.7992999554
 2693.3652344 5.0000000000 12.378299713 12.250000954 162.20735168 0.0204000007 0.2687999904 2.4254999161 4.7221999168 71.422798157  -999.250000  -999.250000 1.8948999643 1.8192000389
 2693.5175781 5.0000000000 12.383299828 12.250000954 168.31823730 0.0240000002 0.2669000030 2.4270000458 4.8524999619 71.863098145  -999.250000  -999.250000 1.8955999613 1.8235000372
 2693.6699219 5.0000000000 12.381799698 12.250000954 168.68373108 0.0274000000 0.2655999959 2.4258000851 5.4689002037 64.490097046  -999.250000  -999.250000 1.8868999481 1.8123999834
 2693.8225098 5.0000000000 12.385899544 12.250000954 168.30183411 0.0183000006 0.2630999982 2.4126000404 5.3432998657 73.353302002  -999.250000  -999.250000 1.8840999603 1.8148000240
 2693.9748535 5.0000000000 12.390099525 12.250000954 171.70046997 0.0291000009 0.2538000047 2.4470999241 5.5943999290 75.504699707  -999.250000  -999.250000 1.8976000547 1.8338999748
 2694.1271973 5.0000000000 12.390700340 12.250000954 177.41798401 0.0245999992 0.2486999929 2.4312996864 5.5398998260 75.274803162  -999.250000  -999.250000 1.9106999636 1.8345999718
 2694.2795410 5.0000000000 12.397998810 12.250000954 178.12139893 0.0195000004 0.2529000044 2.4179000854 5.2094001770 76.235099792  -999.250000  -999.250000 1.8739000559 1.8193999529
 2694.4321289 5.0000000000 12.397300720 12.250000954 169.25163269 0.0265999995 0.2549999952 2.4214000702 5.6272997856 77.023803711  -999.250000  -999.250000 1.8487000465 1.7929999828
 2694.5844727 5.0000000000 12.395899773 12.250000954 171.62992859 0.0292000007 0.2465000004 2.4414000511 5.6434001923 72.846199036  -999.250000  -999.250000 1.8370000124 1.7773000002
 2694.7368164 5.0000000000 12.386799812 12.250000954 179.93045044 0.0308999997 0.2612999976 2.4393999577 5.5039000511 71.456199646  -999.250000  -999.250000 1.8282999992 1.7703000307
 2694.8891602 5.0000000000 12.379400253 12.250000954 186.96850586 0.0188999996 0.2578000128 2.4309999943 5.1865000725 74.290702820  -999.250000  -999.250000 1.8323999643 1.7634999752
 2695.0417480 5.0000000000 12.386300087 12.250000954 189.23983765 0.0219999999 0.2623000145 2.4354999065 5.4551000595 79.456901550  -999.250000  -999.250000 1.8299000263 1.7617000341
 2695.1940918 5.0000000000 12.377901077 12.250000954 172.67520142 0.0272000004 0.2680999935 2.4395999908 5.6085000038 68.766799927  -999.250000  -999.250000 1.8338999748 1.7653000355
 2695.3464355 5.0000000000 12.375699043 12.250000954 153.61746216 0.0355000012 0.2698999941 2.4507000446 5.5373997688 74.246101379  -999.250000  -999.250000 1.8459000587 1.7841999531
 2695.4987793 5.0000000000 12.371400833 12.250000954 125.09284973 0.0357999988 0.2666999996 2.4523000717 5.5791997910 78.539398193  -999.250000  -999.250000 1.8652000427 1.8025000095
 2695.6511230 5.0000000000 12.370600700 12.250000954 115.03478241 0.0333999991 0.2587000132 2.4409000874 5.5728998184 75.174598694  -999.250000  -999.250000 1.8582999706 1.8028999567
 2695.8037109 5.0000000000 12.358100891 12.250000954 132.93405151 0.0178999994 0.2381999940 2.4446001053 5.0089001656 78.035797119  -999.250000  -999.250000 1.8080999851 1.7568000555
 2695.9560547 5.0000000000 12.360400200 12.250000954 162.39927673 0.0182000007 0.2653999925 2.4235999584 5.3646001816 73.424797058  -999.250000  -999.250000 1.8028000593 1.7424000502
 2696.1083984 5.0000000000 12.373099327 12.250000954 182.53741455 0.0114000002 0.2669000030 2.4096999168 4.9215998650 69.251899719  -999.250000  -999.250000 1.8099000454 1.7477999926
 2696.2607422 5.0000000000 12.374199867 12.250000954 190.26542664 0.0296000000 0.2513999939 2.4349000454 4.9305000305 83.734199524  -999.250000  -999.250000 1.8408999443 1.7576999664
 2696.4133301 5.0000000000 12.375501633 12.250000954 193.38156128 0.0104999999 0.2442999929 2.4056000710 4.3063998222 80.467697144  -999.250000  -999.250000 1.8695000410 1.7749999762
 2696.5656738 5.0000000000 12.379099846 12.250000954 185.75427246 0.0258000009 0.2558999956 2.4310998917 4.1771001816 73.170501709  -999.250000  -999.250000 1.8644000292 1.7915999889
 2696.7180176 5.0000000000 12.371801376 12.250000954 181.14239502 0.0163000003 0.2723999918 2.4203000069 3.9572999477 78.934501648  -999.250000  -999.250000 1.8818999529 1.8142000437
 2696.8703613 5.0000000000 12.364100456 12.250000954 180.40222168 0.0250000004 0.2797999978 2.4170999527 4.1996002197 79.942703247  -999.250000  -999.250000 1.8739999533 1.8118000031
 2697.0229492 5.0000000000 12.357300758 12.250000954 175.79167175 0.0218000002 0.2560999990 2.4126999378 3.9351999760 87.845703125  -999.250000  -999.250000 1.8831000328 1.8164000511
 2697.1752930 5.0000000000 12.351599693 12.250000954 174.69258118 0.0287999995 0.2531999946 2.4265000820 4.1104998589 80.163497925  -999.250000  -999.250000 1.9225000143 1.8430999517
 2697.3276367 5.0000000000 12.349599838 12.250000954 175.35171509 0.0304000005 0.2592000067 2.4274001122 4.3141999245 77.826599121  -999.250000  -999.250000 1.9197000265 1.8473000526
 2697.4799805 5.0000000000 12.356399536 12.250000954 183.15190125 0.0307999998 0.2574000061 2.4256999493 4.3239002228 68.768501282  -999.250000  -999.250000 1.9443999529 1.8707000017
 2697.6323242 5.0000000000 12.357300758 12.250000954 193.41403198 0.0322000012 0.2590000033 2.4356000423 4.1346998215 71.077903748  -999.250000  -999.250000 1.9455000162 1.8803999424
 2697.7849121 5.0000000000 12.341899872 12.250000954 196.37074280 0.0278999992 0.2599999905 2.4323000908 4.2908000946 74.816902161  -999.250000  -999.250000 1.9483000040 1.8808000088
 2697.9372559 5.0000000000 12.324500084 12.250000954 192.37893677 0.0296999998 0.2705000043 2.4337000847 4.4946999550 75.483398438  -999.250000  -999.250000 1.8981000185 1.8458000422
 2698.0895996 5.0000000000 12.341500282 12.250000954 182.50000000 0.0366000012 0.2666000128 2.4442999363 4.6254000664 69.941001892  -999.250000  -999.250000 1.8875000477 1.8296999931
 2698.2419434 5.0000000000 12.344499588 12.250000954 171.26574707 0.0322000012 0.2561999857 2.4405999184 4.5107002258 72.013801575  -999.250000  -999.250000 1.8968000412 1.8355000019
 2698.3945313 5.0000000000 12.354000092 12.250000954 170.37106323 0.0270000007 0.2727999985 2.4279000759 4.9052000046 74.304702759  -999.250000  -999.250000 1.9278000593 1.8552000523
 2698.5468750 5.0000000000 12.339799881 12.250000954 168.32086182 0.0260000005 0.2597999871 2.4184999466 4.7813000679 68.982398987  -999.250000  -999.250000 1.8967000246 1.8372000456
 2698.6992188 5.0000000000 12.343400002 12.250000954 164.41239929 0.0208999999 0.2544000149 2.4124000072 4.7673001289 84.672698975  -999.250000  -999.250000 1.8445999622 1.7920000553
 2698.8515625 5.0000000000 12.349000931 12.250000954 163.80151367 0.0208999999 0.2635000050 2.4151999950 4.9772000313 80.609703064  -999.250000  -999.250000 1.8517999649 1.7857999802
 2699.0041504 5.0000000000 12.356199265 12.250000954 164.00556946 0.0263999999 0.2667999864 2.4168000221 5.1290001869 77.955703735  -999.250000  -999.250000 1.8759000301 1.8020999432
 2699.1564941 5.0000000000 12.347599983 12.250000954 155.53970337 0.0227000006 0.2596000135 2.4103000164 4.8624000549 76.831199646  -999.250000  -999.250000 1.8722000122 1.7900999784
 2699.3088379 5.0000000000 12.332401276 12.250000954 148.71522522 0.0104999999 0.2587000132 2.4124000072 4.3706998825 76.178199768  -999.250000  -999.250000 1.8765000105 1.7956999540
