# LAS format log file from PETREL
# Project units are specified as depth units
#==================================================================
~Version information
VERS.   2.0:
WRAP.   NO:
#==================================================================
~Well
STRT .m      1821.0274658 :
STOP .m      4027.3225098 :
STEP .m     0.00000000 :
NULL .        -999.250000 :
COMP.           : COMPANY
WELL.  35/8-6 S   : WELL
FLD.            : FIELD
LOC.            : LOCATION
SRVC.           : SERVICE COMPANY
DATE.  2018-09-11 14:49:01   : Log Export Date {yyyy-MM-dd HH:mm:ss}
PROV.           : PROVINCE
UWI.   35/8-6 S   : UNIQUE WELL ID
API.            : API NUMBER
#==================================================================
~Curve
DEPT .m                   : DEPTH
Lithology_geolink ._      : Lithology_geolink
CALI .in                  : CALI
BS .in                    : BS
ROP .m/h                  : ROP
DRHO .g/cm3               : DRHO
NPHI .m3/m3               : NPHI
RHOB .g/cm3               : RHOB
PEF .b/e                  : PEF
GR .gAPI                  : GR
DTC .us/ft                : DTC
DTS .us/ft                : DTS
RDEP .ohm.m               : RDEP
RMED .ohm.m               : RMED
~Parameter
#==================================================================
~Ascii
# ...
 3128.6196289 6.0000000000 12.393998146 12.250000954 157.15715027 0.0173000004 0.2424000055 2.4739999771 4.2992000580 80.619903564  -999.250000  -999.250000 1.8523999453 1.7819000483
 3128.7719727 6.0000000000 12.385699272 12.250000954 152.61221313 0.0192000009 0.2355999947 2.4719998837 4.1785001755 74.029998779  -999.250000  -999.250000 1.8555999994 1.7965999842
 3128.9243164 6.0000000000 12.382499695 12.250000954 157.25425720 0.0148999998 0.2355999947 2.4709000587 4.0117001534 70.035003662  -999.250000  -999.250000 1.8458000422 1.7834999561
 3129.0769043 6.0000000000 12.384598732 12.250000954 156.83038330 0.0357999988 0.2345000058 2.4755001068 4.6796998978 72.353698730  -999.250000  -999.250000 1.8007999659 1.7494000196
 3129.2292480 6.0000000000 12.385600090 12.250000954 150.87466431 0.0307999998 0.2443999946 2.4716000557 4.2743000984 74.369903564  -999.250000  -999.250000 1.7757999897 1.7326999903
 3129.3815918 6.0000000000 12.393099785 12.250000954 154.87335205 0.0289999992 0.2578000128 2.4716999531 4.4372000694 74.009597778  -999.250000  -999.250000 1.7632000446 1.7029000521
 3129.5339355 6.0000000000 12.398899078 12.250000954 177.78445435 0.0219000001 0.2358999997 2.4670999050 4.4222002029 84.814399719  -999.250000  -999.250000 1.7581000328 1.6966999769
 3129.6865234 6.0000000000 12.390399933 12.250000954 198.76870728 0.0141000003 0.2342000008 2.4590001106 4.3196001053 82.419197083  -999.250000  -999.250000 1.7459000349 1.6843999624
 3129.8388672 6.0000000000 12.397000313 12.250000954 184.82742310 0.0199999996 0.2425999939 2.4588000774 4.7869000435 74.219902039  -999.250000  -999.250000 1.7468999624 1.6941000223
 3129.9912109 6.0000000000 12.387000084 12.250000954 168.13386536 0.0216000006 0.2347999960 2.4795999527 5.3541998863 72.492797852  -999.250000  -999.250000 1.7572000027 1.7064000368
 3130.1435547 6.0000000000 12.392000198 12.250000954 165.11810303 0.0133999996 0.2363999933 2.4581000805 5.4835000038 75.299697876  -999.250000  -999.250000 1.8130999804 1.7308000326
 3130.2958984 6.0000000000 12.393200874 12.250000954 164.52165222 0.0200999994 0.2242999971 2.4744999409 5.5128002167 73.318298340  -999.250000  -999.250000 1.8727999926 1.8130999804
 3130.4484863 6.0000000000 12.376700401 12.250000954 164.34613037 0.0270000007 0.2252999991 2.4962999821 5.5469999313 84.625999451  -999.250000  -999.250000 1.9881000519 1.9496999979
 3130.6008301 6.0000000000 12.426600456 12.250000954 173.52099609 0.0219000001 0.2205999941 2.4835000038 5.7390999794 74.627403259  -999.250000  -999.250000 2.1080999374 2.0550999641
 3130.7531738 6.0000000000 12.445200920 12.250000954 183.88090515 -0.001200000 0.2184000015 2.5394999981 6.1633000374 71.809997559  -999.250000  -999.250000 2.2042000294 2.1386001110
 3130.9055176 6.0000000000 12.428899765 12.250000954 185.34809875 0.0275999997 0.2215999961 2.6744999886 5.4166002274 56.364898682  -999.250000  -999.250000 2.3357000351 2.2948999405
 3131.0581055 5.0000000000 12.400500298 12.250000954 177.90649414 0.0313999988 0.2215999961 2.6178998947 6.0369000435 62.815299988  -999.250000  -999.250000 2.4707000256 2.4386000633
 3131.2104492 5.0000000000 12.392499924 12.250000954 168.48721313 0.0406999998 0.2287999988 2.7037999630 7.2832999229 68.509696960  -999.250000  -999.250000 2.4447000027 2.4414000511
 3131.3627930 5.0000000000 12.391799927 12.250000954 166.07907104 0.0315000005 0.2273000032 2.7885000706 8.6410999298 63.344001770  -999.250000  -999.250000 2.4003000259 2.4598999023
 3131.5151367 5.0000000000 12.409500122 12.250000954 166.12794495 0.0866999999 0.2331999987 2.8733000755 6.6648001671 76.612701416  -999.250000  -999.250000 2.3313000202 2.3738000393
 3131.6677246 5.0000000000 12.410500526 12.250000954 157.98129272 0.0507000014 0.2381999940 2.6020998955 5.7965002060 71.150299072  -999.250000  -999.250000 2.2040998936 2.1981999874
 3131.8200684 5.0000000000 12.414699554 12.250000954 155.12565613 0.0148000000 0.2388000041 2.5971000195 7.8821997643 75.276100159  -999.250000  -999.250000 2.2032001019 2.1270000935
 3131.9724121 5.0000000000 12.403300285 12.250000954 152.40977478 0.0175999999 0.2415000051 2.5204000473 6.1480998993 73.518096924  -999.250000  -999.250000 2.1812999249 2.1089999676
 3132.1247559 5.0000000000 12.394301414 12.250000954 153.46784973 0.0315000005 0.2374999970 2.5044999123 5.4415998459 76.628303528  -999.250000  -999.250000 2.1503999233 2.0780000687
 3132.2770996 5.0000000000 12.381098747 12.250000954 166.18502808 0.0368999988 0.2334000021 2.5211999416 5.5555000305 74.736396790  -999.250000  -999.250000 2.1584000587 2.0731000900
 3132.4296875 5.0000000000 12.386599541 12.250000954 173.43536377 0.0340000018 0.2434999943 2.4972999096 5.3762001991 77.813903809  -999.250000  -999.250000 2.1742999554 2.0980000496
 3132.5820313 6.0000000000 12.390600204 12.250000954 169.09941101 0.0308999997 0.2329999954 2.4921000004 5.3938999176 73.457199097  -999.250000  -999.250000 2.1840000153 2.1001999378
 3132.7343750 6.0000000000 12.409199715 12.250000954 158.02789307 0.0324999988 0.2282000035 2.4941999912 5.3864002228 72.251899719  -999.250000  -999.250000 2.1559998989 2.0980000496
 3132.8867188 6.0000000000 12.467800140 12.250000954 152.39633179 0.0266999993 0.2319000065 2.4821000099 5.2958998680 71.538597107  -999.250000  -999.250000 2.1637001038 2.0850000381
 3133.0393066 6.0000000000 12.432700157 12.250000954 156.09907532 0.0252999999 0.2210000008 2.4893999100 5.4442000389 77.413002014  -999.250000  -999.250000 2.1923000813 2.0959000587
 3133.1916504 6.0000000000 12.463898659 12.250000954 174.37106323 0.0277999993 0.2231999934 2.4979999065 5.4668002129 77.232803345  -999.250000  -999.250000 2.2149000168 2.1331000328
 3133.3439941 6.0000000000 12.478099823 12.250000954 183.10301208 0.0329000019 0.2213000059 2.4972999096 5.6128997803 76.336799622  -999.250000  -999.250000 2.2381000519 2.1696000099
 3133.4963379 5.0000000000 12.443499565 12.250000954 166.12565613 0.0329000019 0.2118999958 2.4911999702 5.4493999481 79.509300232  -999.250000  -999.250000 2.2734999657 2.1777000427
 3133.6489258 5.0000000000 12.386699677 12.250000954 151.90092468 0.0285000000 0.2138999999 2.4893999100 5.2746000290 85.275901794  -999.250000  -999.250000 2.2546000481 2.1742999554
 3133.8012695 5.0000000000 12.396200180 12.250000954 138.48490906 0.0299999993 0.2185000032 2.4872000217 5.2845001221 72.414299011  -999.250000  -999.250000 2.2286999226 2.1624000072
 3133.9536133 5.0000000000 12.388100624 12.250000954 125.79659271 0.0346999988 0.2237000018 2.4946000576 5.3143000603 68.914901733  -999.250000  -999.250000 2.2376999855 2.1570000648
 3134.1059570 5.0000000000 12.383299828 12.250000954 119.19126892 0.0337999985 0.2157000005 2.4960000515 5.3136000633 72.035499573  -999.250000  -999.250000 2.2295999527 2.1673998833
 3134.2583008 5.0000000000 12.364600182 12.250000954 112.37107086 0.0359000005 0.2234999985 2.6108000278 5.4114999771 64.676200867  -999.250000  -999.250000 2.2314000130 2.1700999737
 3134.4108887 5.0000000000 12.363499641 12.250000954 107.54331207 0.0414999984 0.2263000011 2.6440999508 5.9057002068 59.449901581  -999.250000  -999.250000 2.2372999191 2.1849999428
 3134.5632324 5.0000000000 12.373999596 12.250000954 93.298881531 0.0294000003 0.2327000052 2.5074999332 5.6873002052 67.077400208  -999.250000  -999.250000 2.2479999065 2.2030999660
 3134.7155762 5.0000000000 12.381898880 12.250000954 56.388118744 0.0357000008 0.2536999881 2.5109999180 5.8628997803 68.673400879  -999.250000  -999.250000 2.1840000153 2.1233999729
 3134.8679199 5.0000000000 12.395600319 12.250000954 24.906167984 0.0201999992 0.2642999887 2.4844000340 5.2864999771 76.451499939  -999.250000  -999.250000 1.9944000244 1.9451999664
 3135.0205078 5.0000000000 12.393899918 12.250000954 39.616142273 0.0210999995 0.2502000034 2.4921998978 5.4499998093 69.565597534  -999.250000  -999.250000 1.8286999464 1.7700999975
 3135.1728516 5.0000000000 12.378398895 12.250000954 113.25524139 0.0245999992 0.2410999984 2.4907999039 5.4215002060 65.473602295  -999.250000  -999.250000 1.8249000311 1.7238999605
