# LAS format log file from PETREL
# Project units are specified as depth units
#==================================================================
~Version information
VERS.   2.0:
WRAP.   NO:
#==================================================================
~Well
STRT .m      2099.3588867 :
STOP .m      3963.2109375 :
STEP .m     0.00000000 :
NULL .        -999.250000 :
COMP.           : COMPANY
WELL.  35/8-3   : WELL
FLD.            : FIELD
LOC.            : LOCATION
SRVC.           : SERVICE COMPANY
DATE.  2018-09-11 14:49:00   : Log Export Date {yyyy-MM-dd HH:mm:ss}
PROV.           : PROVINCE
UWI.   35/8-3   : UNIQUE WELL ID
API.            : API NUMBER
#==================================================================
~Curve
DEPT .m                   : DEPTH
Lithology_geolink ._      : Lithology_geolink
DRHO .g/cm3               : DRHO
NPHI .m3/m3               : NPHI
RHOB .g/cm3               : RHOB
GR .gAPI                  : GR
DTC .us/ft                : DTC
RDEP .ohm.m               : RDEP
RSHA .ohm.m               : RSHA
RMED .ohm.m               : RMED
~Parameter
#==================================================================
~Ascii
# ...
 3450.5373535 7.0000000000 0.0010000000 0.2527000010 2.5280001163 96.338401794 76.618797302 19.565700531 10.466799736 13.001000404
 3450.6896973 7.0000000000 0.0030000000 0.2842000127 2.5401000977 98.732200623 77.337699890 21.588199615 16.757600784 14.145099640
 3450.8420410 7.0000000000 0.0060999999 0.3003999889 2.5308001041 102.43299866 79.035400391 22.231500626 20.835599899 14.824799538
 3450.9943848 7.0000000000 0.0093000000 0.3084000051 2.5095999241 111.23729706 81.619598389 21.541599274 21.062000275 14.751500130
 3451.1469727 7.0000000000 0.0107000005 0.3043000102 2.4958000183 113.05359650 81.987602234 19.388999939 19.492099762 13.854399681
 3451.2993164 7.0000000000 0.0137000000 0.2951000035 2.5032000542 110.80860138 80.812095642 15.606399536 17.260599136 11.785699844
 3451.4516602 7.0000000000 0.0151000004 0.2951000035 2.5215001106 105.22319794 80.512397766 12.444299698 11.746899605 9.8892002106
 3451.6040039 7.0000000000 0.0098000001 0.3021999896 2.5327000618 97.631896973 80.856407166 9.9760999680 4.6491999626 8.2909002304
 3451.7565918 6.0000000000 0.0027000001 0.3120000064 2.5325999260 95.052200317 81.231391907 8.5757999420 3.0204000473 7.3371000290
 3451.9089355 6.0000000000 -0.000400000 0.3097000122 2.5239000320 97.491500854 82.913093567 8.3654003143 8.1641998291 7.3000001907
 3452.0612793 6.0000000000 -0.001600000 0.3027000129 2.5107998848 102.37660217 84.544296265 7.7649002075 13.411700249 6.8979001045
 3452.2136230 6.0000000000 -0.001900000 0.3005999923 2.5037000179 109.03970337 84.625000000 7.4123001099 11.512599945 6.5784997940
 3452.3659668 6.0000000000 -0.000400000 0.2915000021 2.5090999603 106.16739655 84.743797302 6.7544999123 6.9103999138 6.0282001495
 3452.5185547 6.0000000000 0.0020000001 0.2721999884 2.5190000534 108.31639862 84.156097412 6.7221999168 5.7968997955 5.9629001617
 3452.6708984 6.0000000000 0.0049000001 0.2477999926 2.5294001102 107.13079834 81.630401611 7.0148000717 8.4920997620 6.1893000603
 3452.8232422 6.0000000000 0.0051000002 0.2329999954 2.5329000950 107.30010223 79.005401611 8.1585998535 14.440299988 7.0970997810
 3452.9755859 6.0000000000 0.0034000000 0.2313999981 2.5292000771 102.79090118 77.685096741 11.100799561 19.961099625 9.1518001556
 3453.1281738 6.0000000000 0.0017000000 0.2325000018 2.5226998329 97.505401611 76.197097778 17.673400879 23.257699966 13.317899704
 3453.2805176 6.0000000000 -0.0000000000 0.2391999960 2.5197000504 95.468002319 75.768592834 23.968099594 28.520599365 16.819099426
 3453.4328613 6.0000000000 -0.002000000 0.2567999959 2.5179998875 94.305900574 77.413101196 33.870700836 38.074699402 21.710300446
 3453.5852051 6.0000000000 -0.002300000 0.2773999870 2.5160999298 97.279098511 78.925498962 41.641998291 43.498001099 25.063299179
 3453.7377930 6.0000000000 0.0011000000 0.2924000025 2.5167000294 96.723602295 80.546897888 38.604198456 41.350200653 23.391599655
 3453.8901367 6.0000000000 0.0060999999 0.2973000109 2.5178999901 100.25150299 80.506202698 35.071399689 34.432800293 21.482400894
 3454.0424805 6.0000000000 0.0118000004 0.2834999859 2.5208001137 101.92240143 81.569091797 33.140800476 29.886199951 20.468099594
 3454.1948242 6.0000000000 0.0159000009 0.2459000051 2.5201001167 103.72250366 81.268600464 32.060298920 28.951499939 19.860500336
 3454.3471680 6.0000000000 0.0184000004 0.2048999965 2.5167000294 98.644699097 80.537208557 27.897800446 25.572399139 17.707000732
 3454.4997559 6.0000000000 0.0192000009 0.1823000014 2.5141999722 97.365303040 81.569091797 22.064300537 19.087799072 14.721300125
 3454.6520996 6.0000000000 0.0183000006 0.1771000028 2.5139999390 94.758499146 79.605598450 18.065799713 10.606300354 12.568799973
 3454.8044434 6.0000000000 0.0172000006 0.1766999960 2.5134999752 94.150596619 78.551216125 15.599399567 5.9222002029 11.089900017
 3454.9567871 6.0000000000 0.0189999994 0.1897999942 2.5050001144 93.709197998 79.093910217 16.113800049 6.2715001106 11.258600235
 3455.1093750 7.0000000000 0.0175000001 0.2164999992 2.4921000004 103.30950165 77.699508667 19.093000412 7.8667998314 12.915900230
 3455.2617188 7.0000000000 0.0120999999 0.2492000014 2.4902999401 110.40529633 80.119606018 21.507999420 8.3287000656 14.303999901
 3455.4140625 7.0000000000 0.0102000004 0.2827999890 2.5051999092 109.32679749 81.080215454 22.044900894 4.8427000046 14.587200165
 3455.5664063 7.0000000000 0.0082000000 0.3127999902 2.5211000443 108.71630096 82.666702271 21.200300217 1.5677000284 14.421299934
 3455.7189941 7.0000000000 0.0041999999 0.3282000124 2.5251998901 109.10330200 84.769401550 19.465400696 3.7402000427 13.768500328
 3455.8713379 7.0000000000 0.0023000001 0.3228000104 2.5253000259 111.20379639 84.281097412 13.957099915 9.7733001709 10.826299667
 3456.0236816 7.0000000000 0.0035000001 0.3213999867 2.5281999111 108.34269714 84.012397766 8.6789999008 12.399200439 7.3203001022
 3456.1760254 7.0000000000 0.0038999999 0.3282999992 2.5318000317 110.32569885 83.881202698 7.4875998497 10.683849335 6.4626002312
 3456.3283691 7.0000000000 0.0044999998 0.3280999959 2.5348999500 108.18029785 83.043403625 4.5823001862 10.272683144 4.1550002098
 3456.4809570 7.0000000000 0.0066000000 0.3118000031 2.5336999893 111.09159851 83.593902588 4.2427000999 6.6487536430 3.9035999775
 3456.6333008 7.0000000000 0.0077000000 0.2906000018 2.5295999050 106.55780029 82.912300110 4.4791998863 6.5221142769 4.1493000984
 3456.7856445 7.0000000000 0.0059000002 0.2865999937 2.5265998840 115.63749695 82.043502808 4.5503001213 14.257872581 4.2210998535
 3456.9379883 7.0000000000 0.0046000001 0.2951999903 2.5308001041 115.35279846 82.000000000 4.7674999237 15.164419174 4.3569002151
 3457.0905762 7.0000000000 0.0038000001 0.3030999899 2.5411999226 119.23259735 81.643600464 8.4442996979 8.3835620880 7.2411999702
 3457.2429199 7.0000000000 0.0008000000 0.3077000082 2.5499999523 110.11250305 81.981399536 10.348699570 7.6973910332 8.7613000870
 3457.3952637 7.0000000000 -0.001400000 0.3098999858 2.5536999702 109.56559753 81.881210327 10.508600235 14.548231125 8.9085998535
 3457.5476074 7.0000000000 -0.001100000 0.3084999919 2.5499999523 110.33460236 81.281097412 11.147600174 16.682559967 9.2805004120
 3457.7001953 7.0000000000 0.0027000001 0.3007999957 2.5304000378 115.37259674 81.012001038 12.231599808 14.601903915 9.9322004318
 3457.8525391 7.0000000000 0.0105999997 0.2894999981 2.4818000793 114.73400116 82.069198608 12.643699646 14.728896141 10.164899826
 3458.0048828 7.0000000000 0.0144999996 0.2820999920 2.4210000038 110.11409760 83.431701660 10.179300308 15.345954895 8.3837003708
 3458.1572266 7.0000000000 0.0131999999 0.2802999914 2.3859999180 109.22160339 81.361793518 9.2438001633 12.815846443 7.6680998802
 3458.3095703 7.0000000000 0.0126999998 0.2922999859 2.4000999928 106.39119720 81.606994629 9.5780000687 6.7950053215 7.8076000214
 3458.4621582 7.0000000000 0.0091000004 0.3152000010 2.4486000538 106.30940247 79.961799622 9.8091001511 2.3714118004 7.8379998207
 3458.6145020 6.0000000000 -0.000500000 0.3312999904 2.4997999668 102.98639679 81.062896729 14.223999977 1.3217829466 10.598699570
 3458.7668457 6.0000000000 -0.007900000 0.3368999958 2.5360999107 107.08889771 82.194099426 17.200300217 4.9390511513 12.681599617
 3458.9191895 6.0000000000 -0.008900000 0.3357000053 2.5455000401 109.68849945 82.962799072 18.073400497 13.954412460 13.296899796
 3459.0717773 6.0000000000 -0.005800000 0.3291000128 2.5385000706 107.08029938 83.950302124 19.017799377 21.637992859 13.461700439
 3459.2241211 6.0000000000 -0.001100000 0.3095999956 2.5353000164 105.39320374 83.406097412 20.580699921 25.496538162 14.103799820
 3459.3764648 6.0000000000 0.0027999999 0.2680000067 2.5367000103 101.10220337 85.391197205 21.846799850 24.576757431 15.006600380
 3459.5288086 6.0000000000 0.0054000001 0.2172999978 2.5308001041 104.01760101 86.923103333 21.730400085 18.812673569 15.137499809
 3459.6813965 6.0000000000 0.0048000002 0.1768999994 2.5057001114 92.961799622 85.693298340 19.444999695 15.045393944 13.591600418
 3459.8337402 6.0000000000 0.0013000000 0.1580999941 2.4667999744 83.822097778 85.862602234 18.380399704 11.141140938 12.561200142
