# LAS format log file from PETREL
# Project units are specified as depth units
#==================================================================
~Version information
VERS.   2.0:
WRAP.   NO:
#==================================================================
~Well
STRT .m      1821.0274658 :
STOP .m      4027.3225098 :
STEP .m     0.00000000 :
NULL .        -999.250000 :
COMP.           : COMPANY
WELL.  35/8-6 S   : WELL
FLD.            : FIELD
LOC.            : LOCATION
SRVC.           : SERVICE COMPANY
DATE.  2018-09-11 14:49:01   : Log Export Date {yyyy-MM-dd HH:mm:ss}
PROV.           : PROVINCE
UWI.   35/8-6 S   : UNIQUE WELL ID
API.            : API NUMBER
#==================================================================
~Curve
DEPT .m                   : DEPTH
Lithology_geolink ._      : Lithology_geolink
CALI .in                  : CALI
BS .in                    : BS
ROP .m/h                  : ROP
DRHO .g/cm3               : DRHO
NPHI .m3/m3               : NPHI
RHOB .g/cm3               : RHOB
PEF .b/e                  : PEF
GR .gAPI                  : GR
DTC .us/ft                : DTC
DTS .us/ft                : DTS
RDEP .ohm.m               : RDEP
RMED .ohm.m               : RMED
~Parameter
#==================================================================
~Ascii
# ...
 3732.1235352 6.0000000000 8.2813997269 8.5000000000 63.883853912 -0.017000001 0.3704000115 2.5102000237 6.8077998161 101.56490326 98.156997681 192.66839600 2.9892001152 2.7509000301
 3732.2761230 6.0000000000 7.8772997856 8.5000000000 69.771324158 -0.007000000 0.3768999875 2.5234000683 6.7922000885 108.58390045 97.629302979 191.89860535 3.0362999439 2.8122999668
 3732.4284668 6.0000000000 8.1155004501 8.5000000000 69.058395386 -0.006200000 0.3673000038 2.5146999359 6.8843002319 109.50630188 97.461799622 189.32740784 2.9960000515 2.7478001118
 3732.5808105 6.0000000000 8.4926004410 8.5000000000 68.168968201 -0.010800000 0.3718000054 2.4958000183 7.0970997810 113.22389984 97.325599670 188.21130371 2.9663000107 2.7360999584
 3732.7331543 6.0000000000 8.4858999252 8.5000000000 69.213584900 -0.015300000 0.3756999969 2.4941000938 6.8747000694 112.63849640 98.110198975 185.97920227 2.9412999153 2.7012999058
 3732.8857422 6.0000000000 8.3245000839 8.5000000000 71.895339966 -0.021800000 0.3632999957 2.5023000240 6.7151999474 107.77159882 98.390800476 185.51371765 2.9718999863 2.7469999790
 3733.0380859 6.0000000000 8.3240995407 8.5000000000 66.780509949 -0.012600000 0.3723999858 2.5209999084 6.5514998436 111.22570038 98.543998718 188.59170532 2.9530999660 2.7383000851
 3733.1904297 6.0000000000 8.4149999619 8.5000000000 59.120407104 -0.012700000 0.3662999868 2.5109999180 6.6661000252 113.50859833 98.682708740 188.55819702 2.9435000420 2.6707000732
 3733.3427734 6.0000000000 8.3396997452 8.5000000000 58.809047699 -0.025800001 0.3610000014 2.5060000420 6.2683000565 114.87310028 97.878196716 186.22360229 2.9979000092 2.6882998943
 3733.4951172 6.0000000000 8.0538997650 8.5000000000 64.441604614 -0.006400000 0.3612000048 2.5350000858 7.0899000168 111.27100372 97.637802124 186.34901428 3.1180999279 2.7746999264
 3733.6477051 6.0000000000 7.8238000870 8.5000000000 67.628608704 -0.011700000 0.3540999889 2.5243999958 6.6723999977 109.19779968 97.304603577 182.15299988 3.1691000462 2.8459000587
 3733.8000488 6.0000000000 7.8461995125 8.5000000000 65.163383484 -0.026000001 0.3506999910 2.5130000114 6.9155998230 109.81700134 97.150299072 179.99110413 3.1480998993 2.8440999985
 3733.9523926 6.0000000000 8.0431003571 8.5000000000 58.391075134 -0.021700000 0.3483000100 2.5513000488 6.9239997864 106.24849701 96.361000061 175.70321655 3.1565999985 2.8938999176
 3734.1047363 6.0000000000 8.0089998245 8.5000000000 56.827426910 0.0013000000 0.3535999954 2.5871000290 6.5460000038 110.42810059 95.669502258 175.21429443 3.0903000832 2.8615999222
 3734.2573242 6.0000000000 7.8779001236 8.5000000000 56.879264832 -0.002600000 0.3501000106 2.5360999107 6.8892998695 115.56469727 95.346199036 176.75199890 3.0671999454 2.8282001019
 3734.4096680 7.0000000000 7.8537006378 8.5000000000 57.803810120 -0.012700000 0.3668000102 2.5118999481 6.5953998566 112.32869720 95.156501770 179.07879639 2.9962000847 2.7743999958
 3734.5620117 7.0000000000 7.9258003235 8.5000000000 62.641403198 -0.010900000 0.3707999885 2.5104000568 6.6325001717 117.64830017 94.910102844 181.37380981 2.9384000301 2.6896998882
 3734.7143555 7.0000000000 8.2681999207 8.5000000000 65.850067139 -0.010800000 0.3770000041 2.5114998817 6.7913999557 116.74150085 95.628997803 184.66299438 2.9741001129 2.7209000587
 3734.8669434 7.0000000000 8.4746999741 8.5000000000 66.015747070 -0.009500000 0.3776000142 2.5122001171 6.6181001663 123.78250122 98.376197815 186.30209351 2.9321000576 2.6933999062
 3735.0192871 7.0000000000 8.4895000458 8.5000000000 71.529853821 -0.013700000 0.3880999982 2.5048999786 6.3930001259 116.76709747 100.03610229 188.87089539 2.9651999474 2.6765999794
 3735.1716309 7.0000000000 8.4638004303 8.5000000000 84.145668030 -0.018100001 0.3905000091 2.5013000965 6.8158998489 116.07849884 101.45610809 188.86639404 3.1942999363 2.8938999176
 3735.3239746 7.0000000000 8.4253997803 8.5000000000 93.831039429 -0.016899999 0.3838000000 2.5181999207 6.8481998444 119.21489716 102.78479767 186.02870178 3.3824999332 3.1273999214
 3735.4763184 7.0000000000 8.4233999252 8.5000000000 91.027229309 -0.005300000 0.3862999976 2.5134000778 6.9078998566 113.79160309 102.54570007 183.63929749 3.4946000576 3.2781000137
 3735.6289063 7.0000000000 8.2805004120 8.5000000000 81.425529480 -0.007100000 0.3697000146 2.4742999077 6.9229998589 116.96289825 102.30210114 184.12950134 3.5206000805 3.3338999748
 3735.7812500 7.0000000000 8.3811998367 8.5000000000 75.499343872 -0.012900000 0.3729000092 2.4565999508 6.6150999069 117.26629639 102.00029755 186.14880371 3.5743999481 3.4235999584
 3735.9335938 7.0000000000 8.4358997345 8.5000000000 71.208335876 -0.011900000 0.3684999943 2.4572000504 6.5507998466 112.33350372 101.30459595 188.02571106 3.5120000839 3.3963000774
 3736.0859375 7.0000000000 8.4905996323 8.5000000000 73.182090759 -0.010800000 0.3682000041 2.4577999115 6.4864997864 110.45089722 100.11779785 188.51159668 3.3907999992 3.2613000870
 3736.2385254 7.0000000000 8.4169998169 8.5000000000 76.559707642 -0.014900000 0.3749000132 2.4644000530 6.2821998596 115.25540161 99.962799072 188.03190613 3.3750998974 3.2637000084
 3736.3908691 7.0000000000 8.4137001038 8.5000000000 70.634185791 -0.016000001 0.3671999872 2.4790999889 6.2126002312 119.60839844 99.498802185 188.72059631 3.4012999535 3.2795000076
 3736.5432129 7.0000000000 8.4942998886 8.5000000000 68.662071228 -0.006000000 0.3731000125 2.4869000912 6.2764000893 116.66120148 99.402603149 189.18890381 3.3094000816 3.1096999645
 3736.6955566 7.0000000000 8.5032997131 8.5000000000 76.579399109 -0.017400000 0.3698000014 2.4647998810 6.0697999001 114.45130157 99.241607666 188.12210083 3.1398999691 2.8485000134
 3736.8481445 7.0000000000 8.4921998978 8.5000000000 88.951118469 -0.021500001 0.3623999953 2.4842998981 6.5137000084 123.47080231 99.514198303 185.61508179 3.0250000954 2.6352000237
 3737.0004883 7.0000000000 8.4983997345 8.5000000000 91.067916870 -0.011600000 0.3625000119 2.5218999386 6.9963002205 116.80639648 99.591003418 186.34408569 3.1903998852 2.7627000809
 3737.1528320 7.0000000000 8.5094995499 8.5000000000 81.501640320 -0.005600000 0.3560999930 2.5132999420 6.7013998032 115.25399780 99.881698608 186.88478088 3.4033999443 2.9990999699
 3737.3051758 7.0000000000 8.5102996826 8.5000000000 75.417320251 -0.013900000 0.3549000025 2.4820001125 6.5753002167 105.83409882 100.15460205 186.28320313 3.4530000687 3.0464999676
 3737.4575195 7.0000000000 8.4933996201 8.5000000000 76.704071045 -0.016300000 0.3501000106 2.4900999069 6.4254999161 102.00810242 100.60569763 184.46359253 3.5055999756 3.1124999523
 3737.6101074 7.0000000000 8.4932003021 8.5000000000 78.080383301 -0.014100000 0.3452000022 2.4976999760 6.3182001114 104.55660248 99.480201721 181.56738281 3.5583999157 3.2016000748
 3737.7624512 7.0000000000 8.4785003662 8.5000000000 76.657806396 -0.013100000 0.3632999957 2.5014998913 6.4959001541 118.56379700 98.428901672 179.03300476 3.6070001125 3.3513998985
 3737.9147949 7.0000000000 8.4820995331 8.5000000000 73.513450623 -0.015000000 0.3610999882 2.4885001183 6.6104001999 109.46130371 97.837097168 180.48649597 3.5750000477 3.3903999329
 3738.0671387 7.0000000000 8.4879999161 8.5000000000 71.072181702 -0.005200000 0.3722999990 2.4839000702 6.6312999725 114.97640228 97.487701416 179.94970703 3.4688000679 3.2899999619
 3738.2197266 7.0000000000 8.4952001572 8.5000000000 77.016075134 -0.014600000 0.3727000058 2.4577000141 6.7375001907 116.77880096 98.076400757 182.22790527 3.4403998852 3.2383999825
 3738.3720703 7.0000000000 8.5073003769 8.5000000000 87.215881348 -0.012200000 0.3644999862 2.4672999382 6.7918000221 112.70490265 99.503303528 184.27511597 3.3062999249 3.0297999382
 3738.5244141 7.0000000000 8.4830999374 8.5000000000 86.816604614 -0.010600000 0.3700999916 2.4846999645 6.8860001564 109.45709991 100.55680847 187.34960938 3.2281999588 2.8993000984
 3738.6767578 7.0000000000 8.4867000580 8.5000000000 82.674537659 -0.014100000 0.3680000007 2.4939999580 7.1490001678 112.28189850 101.22360229 188.13209534 3.1886000633 2.8206000328
