# LAS format log file from PETREL
# Project units are specified as depth units
#==================================================================
~Version information
VERS.   2.0:
WRAP.   NO:
#==================================================================
~Well
STRT .m      2099.3588867 :
STOP .m      3963.2109375 :
STEP .m     0.00000000 :
NULL .        -999.250000 :
COMP.           : COMPANY
WELL.  35/8-3   : WELL
FLD.            : FIELD
LOC.            : LOCATION
SRVC.           : SERVICE COMPANY
DATE.  2018-09-11 14:49:00   : Log Export Date {yyyy-MM-dd HH:mm:ss}
PROV.           : PROVINCE
UWI.   35/8-3   : UNIQUE WELL ID
API.            : API NUMBER
#==================================================================
~Curve
DEPT .m                   : DEPTH
Lithology_geolink ._      : Lithology_geolink
DRHO .g/cm3               : DRHO
NPHI .m3/m3               : NPHI
RHOB .g/cm3               : RHOB
GR .gAPI                  : GR
DTC .us/ft                : DTC
RDEP .ohm.m               : RDEP
RSHA .ohm.m               : RSHA
RMED .ohm.m               : RMED
~Parameter
#==================================================================
~Ascii
# ...
 2590.6965332 6.0000000000 0.0161000006 0.3883000016 1.9035999775 98.411102295 114.97720337 1.1599999666  -999.250000 3.6435000896
 2590.8488770 6.0000000000 0.0029000000 0.4187999964 1.7469999790 97.080703735 117.74459839 1.0426000357  -999.250000 3.0443999767
 2591.0012207 6.0000000000 -0.007500000 0.4417000115 1.6462999582 92.723602295 118.35019684 1.1288000345  -999.250000 2.8145999908
 2591.1538086 6.0000000000 -0.012900000 0.4433000088 1.6160000563 89.227798462 110.99759674 1.1617000103  -999.250000 2.0513000488
 2591.3061523 6.0000000000 -0.008100000 0.4343999922 1.6818000078 93.220497131 104.68499756 1.0537999868  -999.250000 1.5427999496
 2591.4584961 6.0000000000 0.0008000000 0.4133000076 1.8387000561 98.426696777 103.54350281 1.0333000422  -999.250000 1.3451999426
 2591.6108398 6.0000000000 0.0104999999 0.3912000060 2.0527999401 98.806297302 103.73759460 1.0306999683  -999.250000 1.1509000063
 2591.7634277 6.0000000000 0.0203000009 0.3867000043 2.2420001030 97.921501160 103.63120270 1.0947999954  -999.250000 0.9815999866
 2591.9157715 6.0000000000 0.0218000002 0.3912000060 2.3408000469 103.87390137 104.45649719 1.3034000397  -999.250000 0.8529000282
 2592.0681152 6.0000000000 0.0125000002 0.3977999985 2.3684999943 99.851699829 104.61880493 1.6713999510  -999.250000 0.8414000273
 2592.2204590 6.0000000000 0.0076000001 0.3930000067 2.3673000336 100.33660126 105.45520020 1.9737000465  -999.250000 0.8363999724
 2592.3730469 6.0000000000 0.0099999998 0.3865999877 2.3633000851 89.879798889 105.14420319 2.0917000771  -999.250000 0.7493000031
 2592.5253906 6.0000000000 0.0100999996 0.3727999926 2.3647000790 89.253097534 105.48139954 2.0541000366  -999.250000 0.7634000182
 2592.6777344 6.0000000000 0.0078999996 0.3449000120 2.3791000843 90.616096497 105.38121033 1.8392000198  -999.250000 0.9570000172
 2592.8300781 6.0000000000 0.0049999999 0.3167000115 2.4021000862 91.992103577 106.08660126 1.7237000465  -999.250000 1.2374999523
 2592.9824219 7.0000000000 0.0010000000 0.3041000068 2.4165999889 96.924697876 104.82050323 1.5888999701  -999.250000 1.4141999483
 2593.1350098 7.0000000000 -0.001700000 0.3089999855 2.4159998894 96.652900696 101.78020477 1.2867000103  -999.250000 1.4206999540
 2593.2873535 7.0000000000 -0.002700000 0.3143999875 2.4089999199 102.98030090 102.57530212 1.2386000156  -999.250000 1.5475000143
 2593.4396973 6.0000000000 -0.001100000 0.3125000000 2.3986001015 99.451797485 104.52560425 1.2526999712  -999.250000 1.5514999628
 2593.5920410 6.0000000000 0.0060000001 0.3167999983 2.3585000038 96.577201843 104.50621033 1.2318999767  -999.250000 1.4445999861
 2593.7446289 6.0000000000 0.0118000004 0.3413999975 2.2776999474 89.844100952 105.92559814 1.2256000042  -999.250000 1.4082000256
 2593.8969727 6.0000000000 0.0113000004 0.3740999997 2.2016999722 90.569099426 105.64360046 1.2546000481  -999.250000 1.4953999519
 2594.0493164 6.0000000000 0.0124000004 0.3894000053 2.1919999123 88.249198914 107.05049896 1.2474000454  -999.250000 1.4036999941
 2594.2016602 6.0000000000 0.0182000007 0.3858999908 2.2572999001 91.094703674 105.93710327 1.3331999779  -999.250000 2.0081999302
 2594.3542480 6.0000000000 0.0146000003 0.3765999973 2.3443000317 90.615074158 105.87081909 1.4086999893  -999.250000 2.4075999260
 2594.5065918 6.0000000000 0.0027000001 0.3598999977 2.4049999714 96.027832031 104.56742859 1.3624999523  -999.250000 1.5999000072
 2594.6589355 6.0000000000 -0.004000000 0.3325000107 2.4347999096 96.672546387 104.02533722 1.3501000404  -999.250000 1.0773999691
 2594.8112793 6.0000000000 -0.005600000 0.3030999899 2.4472999573 98.944213867 104.35643005 1.3473000526  -999.250000 1.0199999809
 2594.9638672 6.0000000000 -0.001000000 0.2888000011 2.4414000511 98.763359070 104.37691498 1.3293000460  -999.250000 1.1862000227
 2595.1162109 6.0000000000 0.0166999996 0.2982999980 2.3998000622 98.096305847 104.97119141 1.3401999474  -999.250000 1.3528000116
 2595.2685547 6.0000000000 0.0381000005 0.3310999870 2.3145999908 98.537353516 105.71115112 1.4048000574  -999.250000 1.2264000177
 2595.4208984 6.0000000000 0.0434999987 0.3718999922 2.2283000946 98.325737000 104.68157196 1.4907000065  -999.250000 1.1381000280
 2595.5732422 6.0000000000 0.0450999998 0.3925000131 2.2126998901 98.850090027 105.09909821 1.5078999996  -999.250000 1.1963000298
 2595.7258301 7.0000000000 0.0516999997 0.3880999982 2.2822999954 100.78579712 104.41142273 1.5091999769  -999.250000 1.2137000561
 2595.8781738 7.0000000000 0.0430999994 0.3702999949 2.3717999458 103.96976471 104.13681793 1.4634000063  -999.250000 1.2498999834
 2596.0305176 7.0000000000 0.0199999996 0.3535000086 2.4228000641 107.68547821 103.76818085 1.4041999578  -999.250000 1.3468999863
 2596.1828613 7.0000000000 0.0057000001 0.3447999954 2.4428000450 105.66723633 103.51181030 1.4002000093  -999.250000 1.3737000227
 2596.3354492 7.0000000000 0.0037000000 0.3486000001 2.4509999752 99.310974121 103.14527893 1.3766000271  -999.250000 1.5018999577
 2596.4877930 7.0000000000 0.0031000001 0.3578000069 2.4519999027 91.515090942 103.48161316 1.4192999601  -999.250000 1.7328000069
 2596.6401367 6.0000000000 0.0022000000 0.3637000024 2.4521999359 90.826553345 103.61842346 1.5099999905  -999.250000 1.7740000486
 2596.7924805 6.0000000000 0.0030000000 0.3580000103 2.4544999599 89.932708740 103.38721466 1.6007000208  -999.250000 1.5176999569
 2596.9450684 6.0000000000 0.0054000001 0.3398999870 2.4593999386 95.997901917 103.01762390 1.6015000343  -999.250000 1.3773000240
 2597.0974121 6.0000000000 0.0049000001 0.3208000064 2.4598000050 100.82497406 102.52476501 1.5427000523  -999.250000 1.4495999813
 2597.2497559 6.0000000000 0.0026000000 0.3072000146 2.4586999416 99.873458862 102.50114441 1.4922000170  -999.250000 1.7705999613
 2597.4020996 6.0000000000 0.0011000000 0.3055999875 2.4581999779 99.146842957 103.21261597 1.4584000111  -999.250000 1.8745000362
 2597.5544434 6.0000000000 -0.000700000 0.3018999994 2.4544999599 90.822502136 103.84256744 1.4838999510  -999.250000 1.8092999458
 2597.7070313 6.0000000000 -0.003100000 0.2996999919 2.4493999481 90.086051941 103.63738251 1.4687999487  -999.250000 1.7661000490
 2597.8593750 6.0000000000 -0.004100000 0.3064000010 2.4446001053 92.443733215 103.50714111 1.4440000057  -999.250000 1.7043999434
 2598.0117188 6.0000000000 -0.004200000 0.3102000058 2.4393999577 95.832427979 104.09433746 1.4519000053  -999.250000 1.6376999617
 2598.1640625 7.0000000000 -0.005600000 0.3102999926 2.4337000847 97.842308044 104.36186981 1.4528000355  -999.250000 1.6962000132
 2598.3166504 7.0000000000 -0.005800000 0.3106999993 2.4331998825 98.538208008 103.90127563 1.4625999928  -999.250000 1.8790999651
 2598.4689941 7.0000000000 -0.003900000 0.3125999868 2.4393000603 100.94402313 104.11300659 1.4580999613  -999.250000 1.7536000013
 2598.6213379 7.0000000000 -0.003100000 0.3183000088 2.4442999363 104.49921417 104.36186981 1.4645999670  -999.250000 1.6324000359
 2598.7736816 7.0000000000 -0.003100000 0.3240000010 2.4444000721 99.394676208 103.89995575 1.4356000423  -999.250000 1.6234999895
 2598.9262695 6.0000000000 -0.002300000 0.3294999897 2.4435999393 95.262611389 103.99400330 1.4421000481  -999.250000 1.6059999466
 2599.0786133 6.0000000000 -0.003100000 0.3257000148 2.4396998882 92.813110352 104.11747742 1.4234999418  -999.250000 1.5848000050
 2599.2309570 6.0000000000 -0.003300000 0.3237000108 2.4367001057 97.552124023 103.29457855 1.4151999950  -999.250000 1.5533000231
 2599.3833008 6.0000000000 -0.001000000 0.3341999948 2.4307999611 93.946235657 103.96294403 1.4193999767  -999.250000 1.5963000059
 2599.5356445 6.0000000000 0.0007000000 0.3476000130 2.4198000431 90.476646423 104.11709595 1.4651000500  -999.250000 1.6145999432
 2599.6882324 6.0000000000 0.0012000001 0.3488000035 2.4133999348 86.343551636 103.05838776 1.4452999830  -999.250000 1.5626000166
 2599.8405762 6.0000000000 0.0019000000 0.3319000006 2.4216001034 89.633697510 103.83014679 1.4570000172  -999.250000 1.5389000177
 2599.9929199 6.0000000000 0.0020000001 0.3161999881 2.4407000542 92.180221558 102.92481232 1.4462000132  -999.250000 1.5556999445
