# LAS format log file from PETREL
# Project units are specified as depth units
#==================================================================
~Version information
VERS.   2.0:
WRAP.   NO:
#==================================================================
~Well
STRT .m      1821.0274658 :
STOP .m      4027.3225098 :
STEP .m     0.00000000 :
NULL .        -999.250000 :
COMP.           : COMPANY
WELL.  35/8-6 S   : WELL
FLD.            : FIELD
LOC.            : LOCATION
SRVC.           : SERVICE COMPANY
DATE.  2018-09-11 14:49:01   : Log Export Date {yyyy-MM-dd HH:mm:ss}
PROV.           : PROVINCE
UWI.   35/8-6 S   : UNIQUE WELL ID
API.            : API NUMBER
#==================================================================
~Curve
DEPT .m                   : DEPTH
Lithology_geolink ._      : Lithology_geolink
CALI .in                  : CALI
BS .in                    : BS
ROP .m/h                  : ROP
DRHO .g/cm3               : DRHO
NPHI .m3/m3               : NPHI
RHOB .g/cm3               : RHOB
PEF .b/e                  : PEF
GR .gAPI                  : GR
DTC .us/ft                : DTC
DTS .us/ft                : DTS
RDEP .ohm.m               : RDEP
RMED .ohm.m               : RMED
~Parameter
#==================================================================
~Ascii
# ...
 1968.5509033 6.0000000000 12.470400810 12.250000954 172.08728027 0.0220999997 0.3623000085 2.3566999435 6.1951999664 62.931701660  -999.250000  -999.250000 1.6118999720 1.5191999674
 1968.7032471 6.0000000000 12.464300156 12.250000954 180.82742310 0.0176999997 0.3411999941 2.3427000046 5.9716000557 83.634803772  -999.250000  -999.250000 1.7056000233 1.5651999712
 1968.8557129 6.0000000000 12.459898949 12.250000954 193.16567993 0.0272999983 0.3368000090 2.3517999649 6.4689998627 74.520401001  -999.250000  -999.250000 1.8408000469 1.6758999825
 1969.0080566 6.0000000000 12.473598480 12.250000954 183.17059326 0.0410000011 0.3375999928 2.3657999039 7.1753997803 69.784103394  -999.250000  -999.250000 2.0947999954 1.9694000483
 1969.1605225 6.0000000000 12.469099998 12.250000954 157.58300781 0.0195000004 0.3054000139 2.3963999748 7.0844001770 67.395401001  -999.250000  -999.250000 2.1658999920 2.2327001095
 1969.3128662 6.0000000000 12.465100288 12.250000954 125.10893250 0.0292000007 0.3055000007 2.4581999779 7.0771999359 62.042198181  -999.250000  -999.250000 1.7913000584 1.8558000326
 1969.4652100 6.0000000000 12.465000153 12.250000954 117.74705505 0.0392999984 0.2644000053 2.4814000130 6.7332000732 68.956497192  -999.250000  -999.250000 1.5923000574 1.6010999680
 1969.6176758 6.0000000000 12.467399597 12.250000954 142.72966003 0.0379999988 0.2967999876 2.4184000492 5.9443998337 91.908302307  -999.250000  -999.250000 1.5514999628 1.5370999575
 1969.7700195 6.0000000000 12.473199844 12.250000954 169.14533997 0.0297999997 0.3357001543 2.3429000378 6.2119998932 77.277603149  -999.250000  -999.250000 1.5583000183 1.5001000166
 1969.9224854 6.0000000000 12.478400230 12.250000954 174.41371155 0.0406999998 0.3359030485 2.3638000488 6.7104001045 80.915000916  -999.250000  -999.250000 1.5712000132 1.4707000256
 1970.0747070 6.0000000000 12.475997925 12.250000954 162.27909851 0.0413994379 0.3397000134 2.3592035770 6.8828616142 86.688766479  -999.250000  -999.250000 1.5957803726 1.4566112757
 1970.2271729 6.0000000000 12.488699913 12.250000954 153.94203186 0.0400011204 0.3607000113 2.3535044193 7.0229878426 78.184921265  -999.250000  -999.250000 1.6399645805 1.4780827761
 1970.3795166 6.0000000000 12.495500565 12.250000954 142.95172119 0.0391007215 0.3605000079 2.3675887585 7.4505572319 73.483360291  -999.250000  -999.250000 1.6810671091 1.5615330935
 1970.5319824 5.0000000000 12.501998901 12.250000954 138.32849121 0.0456947163 0.3145999908 2.3933792114 7.6861114502 74.661056519  -999.250000  -999.250000 1.7100768089 1.6478308439
 1970.6843262 5.0000000000 12.507800102 12.250000954 152.78794861 0.0491971932 0.3382000029 2.3971970081 7.6237502098 74.688980103  -999.250000  -999.250000 1.6314630508 1.5966411829
 1970.8366699 5.0000000000 12.512198448 12.250000954 188.08283997 0.0502999984 0.3413999975 2.3871161938 7.3247790337 73.415145874  -999.250000  -999.250000 1.6215158701 1.5918076038
 1970.9891357 5.0000000000 12.515701294 12.250000954 173.12950134 0.0299999993 0.3468999863 2.3585228920 6.8806557655 67.762229919  -999.250000  -999.250000 1.6689620018 1.6294698715
 1971.1414795 5.0000000000 12.520400047 12.250000954 145.98182678 0.0377000012 0.3316000104 2.3844583035 7.3540406227 68.942604065  -999.250000  -999.250000 1.6780854464 1.6457738876
 1971.2939453 5.0000000000 12.523099899 12.250000954 135.69981384 0.0452999994 0.2967000008 2.4050836563 7.6640520096 75.904914856  -999.250000  -999.250000 1.6773005724 1.6311118603
 1971.4462891 5.0000000000 12.520999908 12.250000954 139.66488647 0.0520999990 0.3059000075 2.4039018154 7.7145195007 80.416671753  -999.250000  -999.250000 1.6594285965 1.5800818205
 1971.5987549 5.0000000000 12.533200264 12.250000954 139.33393860 0.0441000015 0.3102000058 2.3802189827 7.5256514549 76.239059448  -999.250000  -999.250000 1.6610987186 1.5857954025
 1971.7510986 5.0000000000 12.550499916 12.250000954 141.92672729 0.0439000018 0.3136999905 2.3710000515 7.4682002068 77.102005005  -999.250000  -999.250000 1.6876786947 1.6133778095
 1971.9035645 5.0000000000 12.560099602 12.250000954 139.67143250 0.0461999997 0.3018999994 2.3771998882 7.3973999023 69.594017029  -999.250000  -999.250000 1.6822043657 1.6210937500
 1972.0559082 5.0000000000 12.560099602 12.250000954 130.61160278 0.0643000007 0.2867999971 2.4035000801 7.9464001656 68.566017151  -999.250000  -999.250000 1.6351377964 1.5989177227
 1972.2083740 5.0000000000 12.565401077 12.250000954 118.19662476 0.0675999969 0.2958999872 2.4026000500 7.9535999298 68.429908752  -999.250000  -999.250000 1.5775461197 1.5379488468
 1972.3607178 5.0000000000 12.565199852 12.250000954 115.48641968 0.0548000000 0.2926000059 2.3801999092 7.4411997795 77.004127502  -999.250000  -999.250000 1.5866925716 1.5426962376
 1972.5131836 5.0000000000 12.567199707 12.250000954 111.24388885 0.0588999987 0.3023999929 2.3768000603 7.4458999634 91.357505798  -999.250000  -999.250000 1.6054849625 1.5379037857
 1972.6655273 5.0000000000 12.561901093 12.250000954 123.44887543 0.0564999990 0.3136999905 2.3571000099 7.9807000160 68.459274292  -999.250000  -999.250000 1.6645526886 1.5409975052
 1972.8178711 5.0000000000 12.545900345 12.250000954 145.61473083 0.0458999984 0.3208000064 2.3433001041 7.8158998489 78.082733154  -999.250000  -999.250000 1.9115040302 1.6959514618
 1972.9703369 5.0000000000 12.534299850 12.250000954 140.22319031 0.0533000007 0.3104999959 2.3494999409 8.0490999222 60.226631165  -999.250000  -999.250000 2.3865194321 2.1258554459
 1973.1226807 5.0000000000 12.544699669 12.250000954 115.10622406 0.0337000005 0.3003000021 2.3524999619 8.2370996475 61.562435150  -999.250000  -999.250000 3.3243963718 3.3060076237
 1973.2751465 16.000000000 12.557299614 12.250000954 86.879890442 0.0252999999 0.3014000058 2.4326000214 8.9308996201 48.679233551  -999.250000  -999.250000 3.4656879902 3.7298617363
 1973.4274902 16.000000000 12.553400040 12.250000954 64.108001709 0.0350000001 0.2957000136 2.5299000740 8.6777000427 46.504272461  -999.250000  -999.250000 3.2800977230 3.7701358795
 1973.5799561 16.000000000 12.555299759 12.250000954 51.318626404 0.0663999990 0.2689000070 2.5701000690 7.9607000351 56.235794067  -999.250000  -999.250000 2.1792826653 2.3749189377
 1973.7322998 5.0000000000 12.563199043 12.250000954 54.774776459 0.0652000010 0.1982000023 2.4807999134 7.3930001259 65.458610535  -999.250000  -999.250000 1.9411902428 2.0407669544
 1973.8847656 5.0000000000 12.551600456 12.250000954 91.425689697 0.0698999986 0.1539999992 2.4170999527 7.8372001648 76.005752563  -999.250000  -999.250000 1.8414797783 1.8714354038
 1974.0371094 6.0000000000 12.545200348 12.250000954 172.12428284 0.0705000013 0.1403000057 2.3893001080 7.7799000740 83.402168274  -999.250000  -999.250000 1.8031306267 1.7526950836
 1974.1895752 6.0000000000 12.523400307 12.250000954 212.68408203 0.0566999987 0.1476999968 2.3598001003 7.5227999687 85.848243713  -999.250000  -999.250000 1.9476841688 1.7999620438
 1974.3419189 6.0000000000 12.492400169 12.250000954 233.32795715 0.0511000007 0.2203000039 2.3689999580 8.3795995712 83.239288330  -999.250000  -999.250000 1.8673645258 1.6851919889
 1974.4943848 6.0000000000 12.436800003 12.250000954 225.45907593 0.0570000000 0.2685999870 2.3880999088 8.7628002167 77.889091492  -999.250000  -999.250000 1.7685791254 1.6148562431
 1974.6467285 6.0000000000 12.513500214 12.250000954 201.19696045 0.0526000001 0.2996000051 2.3708999157 7.5931000710 83.277770996  -999.250000  -999.250000 1.6665817499 1.5669384003
 1974.7990723 6.0000000000 12.530900002 12.250000954 176.62008667 0.0675999969 0.3021000028 2.3947000504 7.8257999420 82.505447388  -999.250000  -999.250000 1.5756456852 1.5173794031
 1974.9515381 6.0000000000 12.537799835 12.250000954 165.87178040 0.0522999987 0.3129999936 2.3605000973 7.4271001816 100.22039032  -999.250000  -999.250000 1.5631098747 1.5206972361
 1975.1038818 6.0000000000 12.540299416 12.250000954 166.85438538 0.0487000011 0.3341000080 2.3592998981 7.5592999458 106.28619385  -999.250000  -999.250000 1.6467658281 1.6053642035
