# LAS format log file from PETREL
# Project units are specified as depth units
#==================================================================
~Version information
VERS.   2.0:
WRAP.   NO:
#==================================================================
~Well
STRT .m      1821.0274658 :
STOP .m      4027.3225098 :
STEP .m     0.00000000 :
NULL .        -999.250000 :
COMP.           : COMPANY
WELL.  35/8-6 S   : WELL
FLD.            : FIELD
LOC.            : LOCATION
SRVC.           : SERVICE COMPANY
DATE.  2018-09-11 14:49:01   : Log Export Date {yyyy-MM-dd HH:mm:ss}
PROV.           : PROVINCE
UWI.   35/8-6 S   : UNIQUE WELL ID
API.            : API NUMBER
#==================================================================
~Curve
DEPT .m                   : DEPTH
Lithology_geolink ._      : Lithology_geolink
CALI .in                  : CALI
BS .in                    : BS
ROP .m/h                  : ROP
DRHO .g/cm3               : DRHO
NPHI .m3/m3               : NPHI
RHOB .g/cm3               : RHOB
PEF .b/e                  : PEF
GR .gAPI                  : GR
DTC .us/ft                : DTC
DTS .us/ft                : DTS
RDEP .ohm.m               : RDEP
RMED .ohm.m               : RMED
~Parameter
#==================================================================
~Ascii
# ...
 2840.2788086 6.0000000000 12.388500214 12.250000954 112.12041473 0.0328000002 0.2926999927 2.4314999580 4.9203000069 84.293998718  -999.250000  -999.250000 1.2977000475 1.2443000078
 2840.4311523 6.0000000000 12.409000397 12.250000954 112.13550568 0.0192000009 0.2763999999 2.4168999195 4.5110001564 86.812896729  -999.250000  -999.250000 1.3173999786 1.2577999830
 2840.5837402 6.0000000000 12.418899536 12.250000954 121.85039520 0.0254999995 0.2852999866 2.4442999363 4.7400999069 85.925697327  -999.250000  -999.250000 1.3271000385 1.2702000141
 2840.7360840 6.0000000000 12.427599907 12.250000954 121.93470764 0.0227000006 0.2772000134 2.4349999428 5.0480999947 81.848503113  -999.250000  -999.250000 1.3508000374 1.3055000305
 2840.8884277 6.0000000000 12.380499840 12.250000954 105.80905151 0.0241000000 0.2788000107 2.4437999725 5.1612000465 78.604797363  -999.250000  -999.250000 1.3589999676 1.3161000013
 2841.0407715 6.0000000000 12.391100883 12.250000954 103.52854156 0.0307999998 0.2921999991 2.4626998901 5.1426000595 85.177398682  -999.250000  -999.250000 1.3342000246 1.3037999868
 2841.1931152 6.0000000000 12.446100235 12.250000954 107.69586182 0.0296999998 0.2856000066 2.4470000267 5.0343999863 91.765502930  -999.250000  -999.250000 1.3076000214 1.2692999840
 2841.3457031 6.0000000000 12.489300728 12.250000954 102.54166412 0.0297999997 0.2784999907 2.4349000454 4.8228001595 84.573997498  -999.250000  -999.250000 1.2897000313 1.2475999594
 2841.4980469 6.0000000000 12.475997925 12.250000954 95.429786682 0.0170000009 0.2867000103 2.4177000523 4.8386001587 92.373497009  -999.250000  -999.250000 1.2877000570 1.2280000448
 2841.6503906 6.0000000000 12.418800354 12.250000954 104.18799591 0.0183000006 0.2888000011 2.4189000130 4.8975000381 90.908203125  -999.250000  -999.250000 1.2799999714 1.2236000299
 2841.8027344 6.0000000000 12.387700081 12.250000954 121.10794830 0.0206000004 0.2967000008 2.4258999825 5.2642998695 79.667602539  -999.250000  -999.250000 1.3291000128 1.2684999704
 2841.9553223 6.0000000000 12.383899689 12.250000954 124.02297211 0.0324999988 0.3080999851 2.4418001175 5.5058999062 95.023002625  -999.250000  -999.250000 1.3472000360 1.2934000492
 2842.1076660 6.0000000000 12.392600060 12.250000954 111.24540710 0.0340999998 0.2944000065 2.4367001057 5.5089001656 85.967201233  -999.250000  -999.250000 1.3435000181 1.2978999615
 2842.2600098 6.0000000000 12.426300049 12.250000954 93.430450439 0.0326000005 0.2926999927 2.4409000874 5.4797000885 83.804000854  -999.250000  -999.250000 1.3401000500 1.3014999628
 2842.4123535 6.0000000000 12.426300049 12.250000954 95.128936768 0.0291000009 0.2863999903 2.4560000896 6.1454000473 85.168899536  -999.250000  -999.250000 1.3487000465 1.3130999804
 2842.5649414 6.0000000000 12.433799744 12.250000954 127.33760834 0.0238000005 0.2863999903 2.4488000870 5.0454001427 86.502098083  -999.250000  -999.250000 1.3719999790 1.3278000355
 2842.7172852 6.0000000000 12.433899879 12.250000954 181.88452148 0.0299999993 0.2896000147 2.4495999813 5.3474998474 89.512603760  -999.250000  -999.250000 1.3650000095 1.3164999485
 2842.8696289 6.0000000000 12.434399605 12.250000954 191.50590515 0.0221999995 0.2799000144 2.4402000904 5.4133000374 81.544296265  -999.250000  -999.250000 1.3710000515 1.3224999905
 2843.0219727 6.0000000000 12.424599648 12.250000954 186.87893677 0.0254999995 0.2854000032 2.4365999699 5.3625001907 86.322303772  -999.250000  -999.250000 1.3482999802 1.3141000271
 2843.1743164 5.0000000000 12.419599533 12.250000954 182.85006714 0.0280000009 0.2768000066 2.4402000904 5.3470997810 80.054397583  -999.250000  -999.250000 1.3525999784 1.3058999777
 2843.3269043 5.0000000000 12.422300339 12.250000954 192.42256165 0.0238000005 0.2811999917 2.4391000271 4.9401001930 82.209098816  -999.250000  -999.250000 1.3547999859 1.3052999973
 2843.4792480 5.0000000000 12.407300949 12.250000954 188.46488953 0.0247000009 0.2922999859 2.4440000057 5.1167001724 78.296897888  -999.250000  -999.250000 1.3597999811 1.3076000214
 2843.6315918 5.0000000000 12.387100220 12.250000954 184.90747070 0.0205000006 0.2790000141 2.4388999939 5.0534000397 75.490501404  -999.250000  -999.250000 1.3673000336 1.3164999485
 2843.7839355 5.0000000000 12.396800041 12.250000954 186.29429626 0.0297999997 0.2842000127 2.4498999119 4.9973998070 78.948196411  -999.250000  -999.250000 1.3547999859 1.3062000275
 2843.9365234 5.0000000000 12.449000359 12.250000954 188.52001953 0.0326999985 0.2883000076 2.4432001114 4.9865999222 94.273101807  -999.250000  -999.250000 1.3515000343 1.2947000265
 2844.0888672 5.0000000000 12.464300156 12.250000954 192.99836731 0.0263000000 0.2912999988 2.4302000999 4.5205001831 90.026496887  -999.250000  -999.250000 1.3458000422 1.2853000164
 2844.2412109 5.0000000000 12.475600243 12.250000954 189.64468384 0.0177999996 0.2935000062 2.4217998981 4.2476000786 89.882003784  -999.250000  -999.250000 1.3306000233 1.2777999640
 2844.3935547 5.0000000000 12.384901047 12.250000954 186.59317017 0.0197000001 0.2854999900 2.4272999763 4.7702999115 93.193901062  -999.250000  -999.250000 1.3367999792 1.2836999893
 2844.5461426 5.0000000000 12.389397621 12.250000954 185.06266785 0.0210999995 0.2951999903 2.4272000790 5.2590999603 89.386497498  -999.250000  -999.250000 1.3463000059 1.2976000309
 2844.6984863 5.0000000000 12.376500130 12.250000954 185.53707886 0.0346999988 0.3000000119 2.4370000362 5.6865000725 85.907302856  -999.250000  -999.250000 1.3804999590 1.3256000280
 2844.8508301 6.0000000000 12.368699074 12.250000954 193.17913818 0.0390999988 0.2915999889 2.4435000420 5.7206001282 89.566200256  -999.250000  -999.250000 1.3960000277 1.3480999470
 2845.0031738 6.0000000000 12.364499092 12.250000954 217.80937195 0.0368000008 0.2964999974 2.4460999966 5.5763001442 89.208503723  -999.250000  -999.250000 1.3862999678 1.3440999985
 2845.1555176 6.0000000000 12.361499786 12.250000954 225.41831970 0.0425000004 0.2937000096 2.4572999477 5.2765998840 88.746902466  -999.250000  -999.250000 1.3818000555 1.3381999731
 2845.3081055 6.0000000000 12.371400833 12.250000954 210.61254883 0.0208000001 0.2879000008 2.4324998856 4.7937998772 72.535003662  -999.250000  -999.250000 1.3887000084 1.3401000500
 2845.4604492 6.0000000000 12.385800362 12.250000954 202.14436340 0.0119000003 0.2987999916 2.4249000549 4.5279002190 83.145500183  -999.250000  -999.250000 1.3846999407 1.3365000486
 2845.6127930 6.0000000000 12.387399673 12.250000954 198.93275452 0.0077000000 0.2610000074 2.4216001034 4.4895000458 94.031097412  -999.250000  -999.250000 1.3739999533 1.3228000402
 2845.7651367 6.0000000000 12.383099556 12.250000954 192.63615417 0.0093000000 0.2712999880 2.4158999920 4.7307000160 77.823303223  -999.250000  -999.250000 1.3583999872 1.3082000017
 2845.9177246 6.0000000000 12.385398865 12.250000954 181.01936340 0.0262000002 0.3028999865 2.4293000698 5.2554998398 82.723999023  -999.250000  -999.250000 1.3524999619 1.3030999899
 2846.0700684 6.0000000000 12.384598732 12.250000954 172.66174316 0.0179999992 0.2984000146 2.4268999100 5.2311000824 84.660301208  -999.250000  -999.250000 1.3516999483 1.2993999720
 2846.2224121 6.0000000000 12.377799988 12.250000954 167.46916199 0.0107000005 0.3028999865 2.4305999279 5.1771001816 89.156196594  -999.250000  -999.250000 1.3516000509 1.2971999645
 2846.3747559 6.0000000000 12.383800507 12.250000954 170.17848206 0.0125000002 0.2998000085 2.4277000427 5.4025001526 87.592597961  -999.250000  -999.250000 1.3496999741 1.2985999584
 2846.5273438 6.0000000000 12.393300056 12.250000954 178.77099609 0.0274999999 0.2843999863 2.4440000057 5.6329998970 88.099296570  -999.250000  -999.250000 1.3617999554 1.3221999407
 2846.6796875 5.0000000000 12.390798569 12.250000954 187.10072327 0.0304000005 0.2739999890 2.4537000656 5.5255999565 85.127899170  -999.250000  -999.250000 1.3720999956 1.3209999800
 2846.8320313 5.0000000000 12.381898880 12.250000954 197.16009521 0.0274999999 0.2662000060 2.4410998821 5.4278001785 76.868499756  -999.250000  -999.250000 1.3945000172 1.3367999792
