# LAS format log file from PETREL
# Project units are specified as depth units
#==================================================================
~Version information
VERS.   2.0:
WRAP.   NO:
#==================================================================
~Well
STRT .m      2099.3588867 :
STOP .m      3963.2109375 :
STEP .m     0.00000000 :
NULL .        -999.250000 :
COMP.           : COMPANY
WELL.  35/8-3   : WELL
FLD.            : FIELD
LOC.            : LOCATION
SRVC.           : SERVICE COMPANY
DATE.  2018-09-11 14:49:00   : Log Export Date {yyyy-MM-dd HH:mm:ss}
PROV.           : PROVINCE
UWI.   35/8-3   : UNIQUE WELL ID
API.            : API NUMBER
#==================================================================
~Curve
DEPT .m                   : DEPTH
Lithology_geolink ._      : Lithology_geolink
DRHO .g/cm3               : DRHO
NPHI .m3/m3               : NPHI
RHOB .g/cm3               : RHOB
GR .gAPI                  : GR
DTC .us/ft                : DTC
RDEP .ohm.m               : RDEP
RSHA .ohm.m               : RSHA
RMED .ohm.m               : RMED
~Parameter
#==================================================================
~Ascii
# ...
 3696.2062988 6.0000000000 -0.003200000 0.3084999919 2.5764999390 85.286399841 90.384262085 4.1290135384 6.3186306953 4.3540000916
 3696.3586426 6.0000000000 -0.002600000 0.3174999952 2.5739998817 85.903686523 91.166114807 4.0749192238 6.2126832008 4.2877001762
 3696.5109863 6.0000000000 -0.003100000 0.3240999877 2.5773000717 82.840476990 92.797012329 3.9620597363 5.8275737762 4.1743998528
 3696.6635742 6.0000000000 -0.003600000 0.3224000037 2.5894000530 82.325469971 92.111129761 3.8748214245 5.3755216599 4.1009001732
 3696.8159180 6.0000000000 -0.002600000 0.3154000044 2.6092000008 81.816055298 90.343940735 3.9127490520 5.4769349098 4.1398000717
 3696.9682617 6.0000000000 -0.001800000 0.3104000092 2.6250000000 81.963127136 90.124114990 4.0059647560 6.1843671799 4.2350001335
 3697.1206055 6.0000000000 -0.004200000 0.3111000061 2.6243000031 77.246330261 89.569679260 4.2338180542 6.4130644798 4.4615001678
 3697.2729492 6.0000000000 -0.007500000 0.3219000101 2.6173999310 77.953971863 88.064659119 4.5563793182 6.3911781311 4.8011999130
 3697.4255371 6.0000000000 -0.008400000 0.3379000127 2.6198999882 80.559982300 87.986862183 4.5450367928 6.4393672943 4.8267002106
 3697.5778809 6.0000000000 -0.008800000 0.3476999998 2.6245000362 82.645004272 88.441947937 4.9931302071 6.2422766685 5.2430000305
 3697.7302246 6.0000000000 -0.010400000 0.3380999863 2.6208000183 85.134521484 88.721733093 5.3235964775 6.2277646065 5.5662999153
 3697.8825684 6.0000000000 -0.011000000 0.3109999895 2.6119000912 82.839332581 89.299552917 5.3836779594 6.3316407204 5.5943999290
 3698.0351563 5.0000000000 -0.010400000 0.2896000147 2.6052000523 80.169815063 87.824447632 5.3701090813 7.2341241837 5.6149997711
 3698.1875000 5.0000000000 -0.010700000 0.2881000042 2.6006000042 76.339408875 86.189788818 5.3729724884 8.7981624603 5.6215000153
 3698.3398438 5.0000000000 -0.011300000 0.2978999913 2.5943000317 74.166313171 86.000709534 5.3553037643 8.2111530304 5.6040000916
 3698.4921875 5.0000000000 -0.010400000 0.3023999929 2.5882999897 75.487411499 86.440994263 5.1698451042 6.4994564056 5.4643998146
 3698.6447754 5.0000000000 -0.009000000 0.3000000119 2.5822999477 78.167457581 86.060791016 4.6362023354 6.1616573334 4.9257092476
 3698.7971191 5.0000000000 -0.006700000 0.3025999963 2.5790998936 77.062232971 86.773826599 4.3253288269 6.4287023544 4.6170277596
 3698.9494629 5.0000000000 -0.003100000 0.3061000109 2.5773000717 75.274513245 87.537620544 4.2813272476 6.4299273491 4.5723099709
 3699.1018066 5.0000000000 0.0002000000 0.3025000095 2.5747001171 75.284233093 87.734893799 4.4233651161 6.2604331970 4.7034759521
 3699.2541504 5.0000000000 0.0035000001 0.3019999862 2.5722999573 75.864341736 87.419891357 4.6513986588 6.4682240486 4.9382815361
 3699.4067383 5.0000000000 0.0076000001 0.3169000149 2.5697000027 75.820449829 88.037429810 5.0253844261 6.5458478928 5.3019094467
 3699.5590820 5.0000000000 0.0099999998 0.3391000032 2.5655999184 71.677124023 88.127128601 5.4523272514 6.7009844780 5.7444415092
 3699.7114258 5.0000000000 0.0089999996 0.3470999897 2.5599999428 74.000343323 89.450958252 5.7812571526 7.1279134750 6.1445007324
 3699.8637695 5.0000000000 0.0052000000 0.3395999968 2.5548999310 77.088615417 90.177902222 6.0662059784 7.5732111931 6.4565157890
 3700.0163574 5.0000000000 0.0001000000 0.3294000030 2.5515000820 82.971527100 90.802139282 6.1944451332 8.0798101425 6.5908694267
 3700.1687012 6.0000000000 -0.003500000 0.3181999922 2.5536000729 87.719093323 90.873939514 6.1458454132 8.4878072739 6.5499315262
 3700.3210449 6.0000000000 -0.005100000 0.3097000122 2.5625998974 89.514610291 90.213439941 5.9870743752 8.4290809631 6.3823924065
 3700.4733887 6.0000000000 -0.005600000 0.3077000082 2.5729000568 86.584449768 90.674644470 5.8460421562 7.7932138443 6.2527890205
 3700.6259766 6.0000000000 -0.004200000 0.3115000129 2.5787999630 82.310729980 88.644233704 5.5605759621 7.3028492928 5.9339146614
 3700.7783203 6.0000000000 -0.002700000 0.3152999878 2.5801000595 80.266021729 87.156219482 5.4598584175 7.1307020187 5.8141245842
 3700.9306641 6.0000000000 -0.004300000 0.3158999979 2.5769000053 81.271934509 85.674743652 5.6212472916 6.7585663795 5.9544310570
 3701.0830078 5.0000000000 -0.006300000 0.3140999973 2.5724000931 78.173751831 85.389366150 5.9004383087 6.9266624451 6.2236666679
 3701.2355957 5.0000000000 -0.006300000 0.3091000021 2.5680000782 77.084983826 85.375350952 6.2993001938 8.2760334015 6.6404314041
 3701.3879395 5.0000000000 -0.007400000 0.3079000115 2.5617001057 76.613273621 85.486343384 6.6735873222 8.9405326843 7.0555481911
 3701.5402832 5.0000000000 -0.009700001 0.3152999878 2.5546998978 76.786094666 85.942222595 6.9151229858 8.9616317749 7.3352231979
 3701.6926270 5.0000000000 -0.009800000 0.3262000084 2.5515000820 78.522682190 86.330894470 7.0546345711 9.3556098938 7.5370011330
 3701.8449707 5.0000000000 -0.010000000 0.3343000114 2.5513000488 76.209541321 85.822517395 7.2636981010 9.6741981506 7.7252087593
 3701.9975586 5.0000000000 -0.012600000 0.3413000107 2.5515999794 77.969635010 86.081840515 7.5124459267 10.111520767 7.9804568291
 3702.1499023 5.0000000000 -0.013800000 0.3470000029 2.5534999371 75.988357544 86.123229980 7.7141523361 10.773075104 8.1542663574
 3702.3022461 5.0000000000 -0.011800000 0.3450999856 2.5585000515 76.952285767 85.019195557 7.9965434074 11.381018639 8.3832950592
 3702.4545898 5.0000000000 -0.008900000 0.3341000080 2.5648999214 74.140632629 83.767913818 8.3355550766 11.704990387 8.7544460297
 3702.6071777 5.0000000000 -0.005600000 0.3219000101 2.5717999935 74.909164429 82.961250305 8.5566205978 12.010342598 8.9077930450
 3702.7595215 5.0000000000 -0.002300000 0.3174000084 2.5790998936 74.900398254 82.543472290 8.6253042221 12.085336685 8.9990091324
 3702.9118652 5.0000000000 -0.001700000 0.3161999881 2.5852999687 77.079689026 82.279861450 8.6274747849 11.796426773 9.0050563812
 3703.0642090 5.0000000000 -0.003800000 0.3084000051 2.5894000530 75.329490662 82.690795898 8.5493030548 11.813474655 8.9772357941
 3703.2167969 5.0000000000 -0.006900000 0.2957000136 2.5910000801 75.451255798 81.756149292 8.3642978668 12.170670509 8.7497062683
 3703.3691406 5.0000000000 -0.010200000 0.2867000103 2.5896000862 76.001686096 82.176765442 8.2386665344 11.817317009 8.5953874588
 3703.5214844 5.0000000000 -0.012300000 0.2881000042 2.5859000683 79.041122437 82.029327393 8.0299062729 10.892492294 8.3376922607
 3703.6738281 5.0000000000 -0.011700000 0.2980999947 2.5833001137 78.052795410 82.112396240 7.5974712372 10.200947762 7.9585857391
 3703.8259277 5.0000000000 -0.010300000 0.3072000146 2.5822999477 76.492797852 83.230796814 7.2680997849 9.5455999374 7.7003002167
 3703.9782715 5.0000000000 -0.009100000 0.3106000125 2.5855000019 75.318901062 83.264602661 7.0311999321 9.2636995316 7.4930000305
 3704.1308594 5.0000000000 -0.007200000 0.3124000132 2.5917000771 78.774696350 83.691497803 6.7709999084 9.2581996918 7.2607002258
 3704.2832031 5.0000000000 -0.006100000 0.3149999976 2.5945999622 77.539199829 82.756591797 6.5329999924 8.8459997177 6.9959998131
 3704.4355469 5.0000000000 -0.006500000 0.3186999857 2.5954000950 75.875000000 82.514396667 6.3515000343 8.3147001266 6.7767000198
 3704.5878906 5.0000000000 -0.007800000 0.3260999918 2.5971000195 73.589897156 83.052009583 6.2288999557 8.1101999283 6.6262001991
 3704.7404785 5.0000000000 -0.010200000 0.3370000124 2.5987000465 73.643600464 83.014602661 6.2277002335 8.1223001480 6.5809998512
 3704.8928223 5.0000000000 -0.013900000 0.3418999910 2.5947999954 76.722900391 82.668899536 6.3211002350 8.0729999542 6.6641998291
 3705.0451660 5.0000000000 -0.016799999 0.3332000077 2.5864999294 77.566596985 83.176994324 6.4657998085 8.2847003937 6.8227000237
 3705.1975098 5.0000000000 -0.017300000 0.3194000125 2.5831999779 77.569801331 83.250000000 6.6616001129 8.6450996399 6.9944000244
 3705.3500977 5.0000000000 -0.016400000 0.3093999922 2.5831999779 74.416801453 82.918899536 7.0132999420 9.0068998337 7.3625998497
 3705.5024414 5.0000000000 -0.014300000 0.3016999960 2.5806999207 73.724098206 82.985397339 7.4760999680 9.6969003677 7.8236999512
