# LAS format log file from PETREL
# Project units are specified as depth units
#==================================================================
~Version information
VERS.   2.0:
WRAP.   NO:
#==================================================================
~Well
STRT .m      2099.3588867 :
STOP .m      3963.2109375 :
STEP .m     0.00000000 :
NULL .        -999.250000 :
COMP.           : COMPANY
WELL.  35/8-3   : WELL
FLD.            : FIELD
LOC.            : LOCATION
SRVC.           : SERVICE COMPANY
DATE.  2018-09-11 14:49:00   : Log Export Date {yyyy-MM-dd HH:mm:ss}
PROV.           : PROVINCE
UWI.   35/8-3   : UNIQUE WELL ID
API.            : API NUMBER
#==================================================================
~Curve
DEPT .m                   : DEPTH
Lithology_geolink ._      : Lithology_geolink
DRHO .g/cm3               : DRHO
NPHI .m3/m3               : NPHI
RHOB .g/cm3               : RHOB
GR .gAPI                  : GR
DTC .us/ft                : DTC
RDEP .ohm.m               : RDEP
RSHA .ohm.m               : RSHA
RMED .ohm.m               : RMED
~Parameter
#==================================================================
~Ascii
# ...
 3204.8686523 13.000000000 0.0022000000 0.3179999888 2.4323000908 91.917083740 94.907196045 1.8231999874  -999.250000 1.8025000095
 3205.0209961 13.000000000 0.0098000001 0.3045000136 2.4704000950 99.688667297 92.972801208 1.5546000004  -999.250000 2.1951999664
 3205.1733398 13.000000000 0.0164999999 0.3005999923 2.4976999760 92.883995056 92.041542053 1.5176000595  -999.250000 2.2657001019
 3205.3256836 13.000000000 0.0230999999 0.3072000146 2.4888999462 96.122833252 90.810668945 1.5295000076  -999.250000 2.3115999699
 3205.4782715 13.000000000 0.0197999999 0.3106000125 2.4546000957 95.962150574 89.917762756 1.5070999861  -999.250000 2.3929998875
 3205.6306152 13.000000000 0.0174000002 0.3048999906 2.4468998909 97.660049438 89.279525757 1.5493999720  -999.250000 2.1565001011
 3205.7829590 13.000000000 0.0263000000 0.2980999947 2.4916000366 97.678031921 88.299812317 1.6469000578  -999.250000 1.8934999704
 3205.9353027 13.000000000 0.0293000005 0.2913999856 2.5555999279 89.847213745 88.371292114 1.6279000044  -999.250000 1.8911999464
 3206.0878906 13.000000000 0.0167999994 0.2761999965 2.5941998959 89.722549438 89.913459778 1.6862000227  -999.250000 2.1572000980
 3206.2402344 13.000000000 0.0049000001 0.2565000057 2.6017999649 86.001876831 88.095756531 1.6886999607  -999.250000 2.0959999561
 3206.3925781 13.000000000 -0.000200000 0.2506999969 2.5911002159 86.048507690 87.881011963 1.7608000040  -999.250000 2.1747000217
 3206.5449219 13.000000000 -0.004600000 0.2648999989 2.5782001019 85.054527283 87.760375977 1.8325999975  -999.250000 2.3594000340
 3206.6972656 13.000000000 -0.006100000 0.2858999968 2.5780999660 86.133163452 90.360763550 1.8531999588  -999.250000 2.3294000626
 3206.8498535 13.000000000 -0.003500000 0.2926000059 2.5864999294 89.029281616 88.714759827 1.8468999863  -999.250000 2.4691998959
 3207.0021973 13.000000000 -0.002400000 0.2800999880 2.5817000866 86.147178650 87.675659180 1.8251999617  -999.250000 2.7927000523
 3207.1545410 13.000000000 -0.004800000 0.2684000134 2.5622999668 79.345336914 88.338905334 1.8039000034  -999.250000 2.8708000183
 3207.3068848 13.000000000 -0.005800000 0.2763999999 2.5511999130 77.878921509 89.088340759 1.7674000263  -999.250000 3.1198999882
 3207.4594727 13.000000000 -0.005200000 0.2958000004 2.5546998978 82.529663086 89.486030579 1.7651000023  -999.250000 3.1997001171
 3207.6118164 13.000000000 -0.006100000 0.3018999994 2.5552000999 90.303367615 90.926490784 1.7322000265  -999.250000 3.0992000103
 3207.7641602 13.000000000 -0.006900000 0.2872000039 2.5467000008 88.719947815 90.048217773 1.6943000555  -999.250000 2.8910999298
 3207.9165039 13.000000000 -0.005800000 0.2709999979 2.5422000885 86.075248718 90.120330811 1.6971000433  -999.250000 2.9102001190
 3208.0690918 13.000000000 -0.004200000 0.2714999914 2.5506999493 88.841911316 91.075469971 1.7098000050  -999.250000 3.3884999752
 3208.2214355 13.000000000 -0.002600000 0.2816999853 2.5648000240 86.984092712 91.125373840 1.7007000446  -999.250000 3.0747001171
 3208.3737793 13.000000000 -0.002800000 0.2869000137 2.5703001022 91.271293640 91.363586426 1.6728999615  -999.250000 2.4235000610
 3208.5261230 13.000000000 -0.004700000 0.2858000100 2.5685999393 87.351936340 91.731811523 1.6303000450  -999.250000 2.1345000267
 3208.6784668 13.000000000 -0.007000000 0.2856999934 2.5680000782 93.536911011 91.985527039 1.6080000401  -999.250000 1.9782999754
 3208.8310547 13.000000000 -0.006800000 0.2949999869 2.5567998886 91.798324585 90.693077087 1.5924999714  -999.250000 1.9105999470
 3208.9833984 13.000000000 -0.001300000 0.3104999959 2.4972999096 92.455101013 90.623291016 1.6158000231  -999.250000 1.9808000326
 3209.1357422 13.000000000 0.0107000005 0.3170000017 2.3870000839 89.586212158 89.552192688 1.7087999582  -999.250000 2.0506000519
 3209.2880859 13.000000000 0.0289999992 0.3045000136 2.2939000130 87.476104736 87.246047974 1.7657999992  -999.250000 1.9375000000
 3209.4406738 13.000000000 0.0513999984 0.2818999887 2.2915999889 86.600547791 89.151428223 1.7811000347  -999.250000 2.0053000450
 3209.5930176 13.000000000 0.0727000013 0.2694000006 2.3966999054 85.499496460 92.333038330 1.8001999855  -999.250000 2.1466999054
 3209.7453613 13.000000000 0.0783000067 0.2720000148 2.5397000313 89.298431396 88.935050964 1.7568000555  -999.250000 2.5643999577
 3209.8977051 13.000000000 0.0568000004 0.2802000046 2.5882000923 89.449142456 88.162322998 1.6913000345  -999.250000 2.7818999290
 3210.0502930 13.000000000 0.0207000002 0.2924999893 2.4572999477 94.760597229 92.037574768 1.6965999603  -999.250000 3.2899999619
 3210.2026367 13.000000000 -0.001200000 0.3088000119 2.2374999523 90.441596985 91.658905029 1.8350000381  -999.250000 3.2569000721
 3210.3549805 13.000000000 0.0020999999 0.3195999861 2.0813000202 97.855949402 93.407890320 1.8402999640  -999.250000 3.6184000969
 3210.5073242 13.000000000 0.0288999993 0.3176000118 2.0513999462 101.87559509 94.091857910 1.8421000242  -999.250000 3.7325000763
 3210.6596680 13.000000000 0.0734999999 0.3088000119 2.1322999001 103.42014313 92.819519043 1.8522000313  -999.250000 3.0899000168
 3210.8122559 13.000000000 0.1102999970 0.3066000044 2.2360999584 98.147048950 93.577835083 1.7062000036  -999.250000 2.6870000362
 3210.9645996 13.000000000 0.1274999976 0.3122999966 2.2913999557 95.858276367 92.438041687 1.5750000477  -999.250000 3.4309999943
 3211.1169434 13.000000000 0.1272000074 0.3181999922 2.2762000561 97.654945374 93.090621948 1.6416000128  -999.250000 3.8387000561
 3211.2692871 13.000000000 0.1150999963 0.3156999946 2.2125000954 100.36581421 94.903709412 1.6470999718  -999.250000 3.4804999828
 3211.4218750 13.000000000 0.1055999994 0.3068000078 2.1586000919 101.85568237 92.978347778 1.7064000368  -999.250000 3.2063000202
 3211.5742188 13.000000000 0.1067999974 0.2996000051 2.1496999264 98.609489441 92.279808044 1.7041000128  -999.250000 2.6712999344
 3211.7265625 13.000000000 0.1127000004 0.2978999913 2.1726000309 97.599555969 91.545806885 1.5810999870  -999.250000 2.3887000084
 3211.8789063 13.000000000 0.1089000031 0.2998000085 2.1656999588 93.605705261 96.839950562 1.5649000406  -999.250000 4.4194002151
 3212.0314941 13.000000000 0.0900999978 0.3003999889 2.0999000072 107.75897980 93.308242798 1.6838999987  -999.250000 5.9229001999
 3212.1838379 13.000000000 0.0592000000 0.3095999956 2.0097000599 110.99623871 88.499816895 1.6670000553  -999.250000 10.086000443
 3212.3361816 13.000000000 0.0265999995 0.3294000030 1.9356000423 112.00205231 93.251052856 1.7694000006  -999.250000 28.985300064
 3212.4885254 13.000000000 0.0044000000 0.3472000062 1.8852000237 102.43422699 95.402671814 1.9713000059  -999.250000 9.1596002579
 3212.6408691 13.000000000 -0.009400000 0.3479000032 1.8272000551 99.029800415 96.566719055 1.8380999565  -999.250000 3.3338000774
 3212.7934570 13.000000000 -0.020300001 0.3352999985 1.7451000214 100.72255707 95.084022522 1.4897999763  -999.250000 2.4904999733
 3212.9458008 13.000000000 -0.028300000 0.3328000009 1.6646000147 104.67535400 97.142166138 1.5765000582  -999.250000 2.4223999977
 3213.0981445 13.000000000 -0.032800000 0.3373999894 1.6138999462 101.95882416 97.363670349 1.5269000530  -999.250000 1.9557000399
 3213.2504883 13.000000000 -0.033000000 0.3339999914 1.6032999754 98.487258911 94.165145874 1.3899999857  -999.250000 2.2019999027
 3213.4030762 13.000000000 -0.028000001 0.3289999962 1.6403000355 99.041664124 92.582618713 1.5550999641  -999.250000 2.5064001083
 3213.5554199 13.000000000 -0.017700000 0.3310000002 1.7293000221 104.17313385 95.114204407 1.5492999554  -999.250000 1.6990000010
 3213.7077637 13.000000000 -0.004300000 0.3398999870 1.8445999622 105.56153107 95.486671448 1.5690000057  -999.250000 1.6706000566
 3213.8601074 13.000000000 0.0048000002 0.3481999934 1.9175000191 102.77110291 94.895217896 1.7730000019  -999.250000 2.4563000202
 3214.0126953 13.000000000 0.0037000000 0.3513999879 1.9040999413 100.97114563 88.129570007 1.5940999985  -999.250000 3.0155999660
 3214.1650391 13.000000000 -0.003500000 0.3603999913 1.8423999548 103.01387787 92.732933044 1.2942999601  -999.250000 2.7769000530
