# LAS format log file from PETREL
# Project units are specified as depth units
#==================================================================
~Version information
VERS.   2.0:
WRAP.   NO:
#==================================================================
~Well
STRT .m      1821.0274658 :
STOP .m      4027.3225098 :
STEP .m     0.00000000 :
NULL .        -999.250000 :
COMP.           : COMPANY
WELL.  35/8-6 S   : WELL
FLD.            : FIELD
LOC.            : LOCATION
SRVC.           : SERVICE COMPANY
DATE.  2018-09-11 14:49:01   : Log Export Date {yyyy-MM-dd HH:mm:ss}
PROV.           : PROVINCE
UWI.   35/8-6 S   : UNIQUE WELL ID
API.            : API NUMBER
#==================================================================
~Curve
DEPT .m                   : DEPTH
Lithology_geolink ._      : Lithology_geolink
CALI .in                  : CALI
BS .in                    : BS
ROP .m/h                  : ROP
DRHO .g/cm3               : DRHO
NPHI .m3/m3               : NPHI
RHOB .g/cm3               : RHOB
PEF .b/e                  : PEF
GR .gAPI                  : GR
DTC .us/ft                : DTC
DTS .us/ft                : DTS
RDEP .ohm.m               : RDEP
RMED .ohm.m               : RMED
~Parameter
#==================================================================
~Ascii
# ...
 4020.4643555 6.0000000000 8.5156002045 8.5000000000 66.315948486 -0.039400000 0.3314999938 2.5947999954 7.5159997940 90.883796692  -999.250000  -999.250000 2.0720999241 1.9124000072
 4020.6166992 6.0000000000 8.5160999298 8.5000000000 62.969161987 -0.006700000 0.3169000149 2.7318000793 9.1170997620 89.506797791  -999.250000  -999.250000 2.0692999363 1.8996000290
 4020.7692871 6.0000000000 8.5104999542 8.5000000000 60.833667755 0.0108000003 0.3143000007 2.7227001190 7.7744002342 82.717102051  -999.250000  -999.250000 2.0769999027 1.9085999727
 4020.9216309 6.0000000000 8.5045003891 8.5000000000 67.419616699 -0.013600000 0.3167999983 2.6059999466 6.8397002220 82.861999512  -999.250000  -999.250000 2.0311000347 1.8942999840
 4021.0739746 6.0000000000 8.5221996307 8.5000000000 68.892059326 -0.013500000 0.3278000057 2.5861001015 6.9155001640 84.494796753  -999.250000  -999.250000 2.0341999531 1.9311000109
 4021.2263184 6.0000000000 8.5191001892 8.5000000000 64.089241028 -0.013600000 0.3222999871 2.5813000202 7.0890998840 89.793502808  -999.250000  -999.250000 2.0408999920 1.9421000481
 4021.3789063 6.0000000000 8.4939002991 8.5000000000 69.234909058 -0.018999999 0.3508000076 2.5820999146 7.4211001396 86.560897827  -999.250000  -999.250000 1.9797999859 1.8846999407
 4021.5312500 6.0000000000 8.4954996109 8.5000000000 83.073822021 -0.016600000 0.3368000090 2.5803999901 7.4621000290 86.042900085  -999.250000  -999.250000 1.8973000050 1.8126000166
 4021.6835938 6.0000000000 8.5317001343 8.5000000000 80.902557373 -0.013100000 0.3249999881 2.5762999058 6.9812002182 90.588500977  -999.250000  -999.250000 1.8657000065 1.7367000580
 4021.8359375 6.0000000000 8.5234003067 8.5000000000 71.399604797 -0.019200001 0.3197000027 2.5634000301 7.0170998573 94.411499023  -999.250000  -999.250000 1.9450000525 1.8156000376
 4021.9885254 5.0000000000 8.5376996994 8.5000000000 68.480644226 -0.021100000 0.3323999941 2.5634000301 7.2170000076 89.044097900  -999.250000  -999.250000 2.0675001144 1.9737000465
 4022.1408691 5.0000000000 8.5183000565 8.5000000000 70.454727173 -0.023499999 0.3226999938 2.6068000793 7.9194002151 81.883102417  -999.250000  -999.250000 2.1572000980 2.1556000710
 4022.2932129 5.0000000000 8.5178003311 8.5000000000 67.128608704 0.0252000000 0.3073000014 2.7834000587 8.0949001312 69.770896912  -999.250000  -999.250000 1.9812999964 1.9675999880
 4022.4455566 5.0000000000 8.4948997498 8.5000000000 54.533138275 0.0093999999 0.3052000105 2.6568999290 6.9356999397 72.058601379  -999.250000  -999.250000 1.7638000250 1.6734000444
 4022.5979004 5.0000000000 8.4965000153 8.5000000000 41.915683746 0.0013000000 0.3213999867 2.6222000122 6.9977998734 83.052101135  -999.250000  -999.250000 1.8336000443 1.7398999929
 4022.7504883 5.0000000000 8.5122995377 8.5000000000 37.950458527 -0.004600000 0.3296000063 2.5917000771 7.3003997803 94.126800537  -999.250000  -999.250000 1.8610999584 1.7657999992
 4022.9028320 5.0000000000 8.5032997131 8.5000000000 46.225719452 -0.008500000 0.3377999961 2.5820999146 7.4204001427 90.458099365  -999.250000  -999.250000 1.8645000458 1.7716000080
 4023.0551758 6.0000000000 8.5281000137 8.5000000000 63.252624512 0.0052999998 0.3427999914 2.6012001038 7.7076997757 87.131896973  -999.250000  -999.250000 1.8585000038 1.7265000343
 4023.2075195 6.0000000000 8.5713996887 8.5000000000 66.427162170 -0.002600000 0.3371999860 2.5864000320 7.7041997910 89.350799561  -999.250000  -999.250000 1.9119999409 1.7487000227
 4023.3601074 6.0000000000 8.5396995544 8.5000000000 58.968170166 -0.007100000 0.3407999873 2.5743999481 7.3698000908 88.858100891  -999.250000  -999.250000 2.0014998913 1.8546999693
 4023.5124512 6.0000000000 8.5124998093 8.5000000000 57.612865448 -0.013300000 0.3334000111 2.5775001049 7.1008000374 90.082801819  -999.250000  -999.250000 2.0469999313 1.9430999756
 4023.6647949 6.0000000000 8.5354003906 8.5000000000 65.290023804 -0.015200000 0.3271000087 2.6124000549 7.8605999947 84.625198364  -999.250000  -999.250000 2.0374999046 1.9444999695
 4023.8171387 6.0000000000 8.5264997482 8.5000000000 65.707023621 -0.005000000 0.3246000111 2.6524000168 7.8048000336 84.969703674  -999.250000  -999.250000 1.9937000275 1.8927999735
 4023.9697266 6.0000000000 8.5204000473 8.5000000000 61.357280731 0.0013000000 0.3370999992 2.6233999729 7.4577999115 81.929298401  -999.250000  -999.250000 2.0232000351 1.9118000269
 4024.1220703 5.0000000000 8.5268001556 8.5000000000 51.074806213 -0.006700000 0.3375999928 2.5850000381 7.1508002281 90.388702393  -999.250000  -999.250000 2.0743000507 1.9651999474
 4024.2744141 5.0000000000 8.5157003403 8.5000000000 47.932743073 -0.021400001  -999.250000 2.5801000595 7.5046000481 78.281303406  -999.250000  -999.250000 2.1847999096 2.1136000156
 4024.4267578 5.0000000000 8.5089998245 8.5000000000 24.265090942 -0.071699999  -999.250000 2.6445999146 9.6641998291 64.163497925  -999.250000  -999.250000 2.2613000870 2.2974998951
 4024.5791016 5.0000000000 8.5115003586 8.5000000000 14.141732216 -0.027200000  -999.250000 2.7486999035 9.0422000885 72.130599976  -999.250000  -999.250000 1.8917000294 1.8294999599
 4024.7316895 5.0000000000 8.5075998306 8.5000000000 9.6361551285 -0.001100000  -999.250000 2.6847000122 7.4029998779 86.599800110  -999.250000  -999.250000 1.9068000317 1.7960000038
 4024.8840332 5.0000000000 8.5000000000 8.5000000000 8.0685701370 -0.023900000  -999.250000 2.5998001099 7.2195000648 85.723602295  -999.250000  -999.250000 2.0120999813 1.9165999889
 4025.0363770 5.0000000000 8.5135002136 8.5000000000 11.697178841 -0.010700000  -999.250000 2.6321001053 7.4741997719 89.462501526  -999.250000  -999.250000 2.0834000111 2.0120000839
 4025.1887207 5.0000000000 8.5143995285 8.5000000000 49.598098755 -0.001500000  -999.250000 2.6210000515 6.8917999268 85.428901672  -999.250000  -999.250000 2.0164000988 1.9433000088
 4025.3413086 5.0000000000 8.5205001831 8.5000000000 85.262794495 -0.008900000  -999.250000 2.5792000294 7.0254998207 83.481002808  -999.250000  -999.250000 1.9581999779 1.8389999866
 4025.4936523 6.0000000000 8.5215997696 8.5000000000 88.315620422 -0.003600000  -999.250000 2.5727000237 7.3489999771 92.772201538  -999.250000  -999.250000 1.9979000092 1.8499000072
 4025.6459961 6.0000000000 8.5261001587 8.5000000000 86.506233215 -0.011200000  -999.250000 2.5696001053 7.4063000679 91.394302368  -999.250000  -999.250000 2.0285999775 1.8919999599
 4025.7983398 6.0000000000 8.5181999207 8.5000000000 83.716209412 -0.014300000  -999.250000 2.5782001019 8.0328998566 87.425102234  -999.250000  -999.250000 2.0195999146 1.8775999546
 4025.9509277 6.0000000000 8.5455999374 8.5000000000 80.204727173 -0.029300001  -999.250000 2.6277000904 8.5762996674 83.844497681  -999.250000  -999.250000 2.0787999630 1.9282000065
 4026.1032715 6.0000000000 8.5405998230 8.5000000000 66.772644043 -0.009200000  -999.250000 2.7097001076 8.0322999954 79.056701660  -999.250000  -999.250000 2.2181000710 2.1157000065
 4026.2556152 6.0000000000 8.4977998734 8.5000000000 49.237205505 0.0116999997  -999.250000 2.6914999485 7.4285001755 80.568801880  -999.250000  -999.250000 2.0638000965 1.9947999716
 4026.4079590 6.0000000000 8.3711004257 8.5000000000 40.786087036 -0.002000000  -999.250000 2.5885999203 6.8070001602 85.316802979  -999.250000  -999.250000 1.9976999760 1.9082000256
 4026.5603027 6.0000000000 8.3016996384 8.5000000000 44.146984100 -0.010200000  -999.250000 2.5473999977 6.7227997780 91.862602234  -999.250000  -999.250000 2.0385000706 1.9586999416
 4026.7128906 6.0000000000 8.4868001938 8.5000000000 58.943244934 -0.012400000  -999.250000 2.5408000946 6.8572001457 97.383499146  -999.250000  -999.250000 2.0794000626 2.0072999001
 4026.8652344 6.0000000000 8.4982995987 8.5000000000 80.613189697 -0.017200001  -999.250000 2.5604000092 7.2670998573 90.024902344  -999.250000  -999.250000 2.1187000275 2.0467000008
 4027.0175781 6.0000000000 8.4099998474 8.5000000000 96.114830017 -0.014100000  -999.250000 2.6171000004 7.6223998070 84.096496582  -999.250000  -999.250000 2.2502999306 2.2016000748
