# LAS format log file from PETREL
# Project units are specified as depth units
#==================================================================
~Version information
VERS.   2.0:
WRAP.   NO:
#==================================================================
~Well
STRT .m      1821.0274658 :
STOP .m      4027.3225098 :
STEP .m     0.00000000 :
NULL .        -999.250000 :
COMP.           : COMPANY
WELL.  35/8-6 S   : WELL
FLD.            : FIELD
LOC.            : LOCATION
SRVC.           : SERVICE COMPANY
DATE.  2018-09-11 14:49:01   : Log Export Date {yyyy-MM-dd HH:mm:ss}
PROV.           : PROVINCE
UWI.   35/8-6 S   : UNIQUE WELL ID
API.            : API NUMBER
#==================================================================
~Curve
DEPT .m                   : DEPTH
Lithology_geolink ._      : Lithology_geolink
CALI .in                  : CALI
BS .in                    : BS
ROP .m/h                  : ROP
DRHO .g/cm3               : DRHO
NPHI .m3/m3               : NPHI
RHOB .g/cm3               : RHOB
PEF .b/e                  : PEF
GR .gAPI                  : GR
DTC .us/ft                : DTC
DTS .us/ft                : DTS
RDEP .ohm.m               : RDEP
RMED .ohm.m               : RMED
~Parameter
#==================================================================
~Ascii
# ...
 3564.4836426 6.0000000000 12.398200035 12.250000954 46.642391205 0.0174000002 0.1150999963 2.6844000816 7.4377999306 55.418498993  -999.250000  -999.250000 3.0843000412 3.6735999584
 3564.6359863 6.0000000000 12.410300255 12.250000954 48.673229218 0.0478999987 0.1086999997 2.7037000656 6.9200000763 80.814300537  -999.250000  -999.250000 2.3766000271 2.7818999290
 3564.7883301 6.0000000000 12.427599907 12.250000954 65.439628601 0.0463999994 0.1507000029 2.6758000851 6.7729997635 89.788803101  -999.250000  -999.250000 1.5694999695 1.6958999634
 3564.9406738 6.0000000000 12.436400414 12.250000954 76.964241028 0.0381000005 0.2005999982 2.6131000519 6.4555001259 97.804000854  -999.250000  -999.250000 1.3780000210 1.3470000029
 3565.0932617 6.0000000000 12.436300278 12.250000954 94.668968201 0.0329000019 0.2876999974 2.5920999050 5.6964998245 103.09999847  -999.250000  -999.250000 1.4083000422 1.3176000118
 3565.2456055 6.0000000000 12.452899933 12.250000954 146.20669556 0.0256999992 0.2869000137 2.5703999996 5.5991997719 98.857498169  -999.250000  -999.250000 1.3431999683 1.2225999832
 3565.3979492 6.0000000000 12.457201004 12.250000954 168.88681030 0.0184000004 0.2840999961 2.5432999134 5.3049998283 102.26599884  -999.250000  -999.250000 1.2682000399 1.1461000443
 3565.5502930 6.0000000000 12.473799706 12.250000954 158.65879822 0.0185000002 0.2861000001 2.5341000557 5.5749001503 99.060302734  -999.250000  -999.250000 1.2317999601 1.1384999752
 3565.7028809 6.0000000000 12.483401299 12.250000954 141.08694458 0.0102000004 0.2795999944 2.5274000168 5.4310998917 101.44750214  -999.250000  -999.250000 1.2237000465 1.1590000391
 3565.8552246 6.0000000000 12.498199463 12.250000954 131.14436340 0.0147000002 0.2766000032 2.5420999527 5.6905999184 96.804603577  -999.250000  -999.250000 1.2851999998 1.2232999802
 3566.0075684 6.0000000000 12.478599548 12.250000954 128.58004761 0.0198999997 0.2739999890 2.5604000092 5.9765000343 83.840103149  -999.250000  -999.250000 1.4171999693 1.3782999516
 3566.1599121 6.0000000000 12.462300301 12.250000954 122.26377869 0.0177999996 0.2513000071 2.5717000961 5.6124000549 93.022903442  -999.250000  -999.250000 1.4973000288 1.4660999775
 3566.3125000 6.0000000000 12.450301170 12.250000954 111.73950195 0.0153000001 0.2287999988 2.5703999996 5.3291001320 100.84549713  -999.250000  -999.250000 1.5210000277 1.4931000471
 3566.4648438 6.0000000000 12.465900421 12.250000954 94.641731262 0.0140000004 0.2527000010 2.5594000816 5.2726998329 85.633102417  -999.250000  -999.250000 1.5671999454 1.6044000387
 3566.6171875 6.0000000000 12.462699890 12.250000954 92.873687744 0.0153999999 0.2626000047 2.5603001118 5.4334001541 87.668502808  -999.250000  -999.250000 1.5367000103 1.5772999525
 3566.7695313 6.0000000000 12.463000298 12.250000954 93.919952393 0.0237000007 0.2545999885 2.5613000393 5.5918002129 86.324203491  -999.250000  -999.250000 1.4047000408 1.4272999763
 3566.9218750 6.0000000000 12.478899956 12.250000954 88.190948486 0.0266999993 0.2515000105 2.5627999306 5.5837998390 87.250297546  -999.250000  -999.250000 1.3336999416 1.3339999914
 3567.0744629 6.0000000000 12.486300468 12.250000954 85.670280457 0.0281000007 0.2712000012 2.5664000511 5.7189002037 90.587501526  -999.250000  -999.250000 1.3152999878 1.3116999865
 3567.2268066 6.0000000000 12.479600906 12.250000954 85.172897339 0.0252000000 0.2822999954 2.5566000938 5.6325001717 90.988899231  -999.250000  -999.250000 1.3047000170 1.2649999857
 3567.3791504 6.0000000000 12.462100029 12.250000954 90.455055237 0.0307999998 0.2777000070 2.5555999279 5.9439997673 103.57700348  -999.250000  -999.250000 1.3709000349 1.2577999830
 3567.5314941 6.0000000000 12.459300041 12.250000954 112.33596802 0.0310999993 0.2840000093 2.5534000397 6.1522002220 99.294601440  -999.250000  -999.250000 1.6706000566 1.5001000166
 3567.6840820 6.0000000000 12.458902359 12.250000954 119.51016998 0.0115999999 0.2696999907 2.5355999470 5.9267001152 76.568801880  -999.250000  -999.250000 2.4460000992 2.3550000191
 3567.8364258 6.0000000000 12.429898262 12.250000954 98.874015808 0.0093000000 0.2213999927 2.5643000603 6.0710000992 65.905700684  -999.250000  -999.250000 2.5488998890 2.5606000423
 3567.9887695 16.000000000 12.437398911 12.250000954 75.800201416 0.0203000009 0.1774999946 2.6089000702 6.2403998375 68.615501404  -999.250000  -999.250000 2.3538000584 2.4126000404
 3568.1411133 6.0000000000 12.430899620 12.250000954 64.411087036 0.0401999988 0.1756000072 2.6263999939 6.7520999908 68.141502380  -999.250000  -999.250000 2.3327000141 2.4937000275
 3568.2937012 6.0000000000 12.428199768 12.250000954 52.780185699 0.0359000005 0.2085999995 2.6082003117 6.7239999771 76.177001953  -999.250000  -999.250000 2.0190999508 2.2212998867
 3568.4460449 6.0000000000 12.430299759 12.250000954 46.867782593 0.0240000002 0.2168000042 2.5924999714 6.6345000267 90.686798096  -999.250000  -999.250000 1.6772999763 1.8066999912
 3568.5983887 6.0000000000 12.429100037 12.250000954 48.791339874 0.0373999998 0.2419999987 2.5998001099 7.3906998634 90.137100220  -999.250000  -999.250000 1.5293999910 1.5915000439
 3568.7507324 6.0000000000 12.420900345 12.250000954 45.957019806 0.0432999991 0.2594000101 2.5954000950 7.3674001694 94.307502747  -999.250000  -999.250000 1.3688000441 1.3445999622
 3568.9030762 6.0000000000 12.403500557 12.250000954 35.720142365 0.0355999991 0.2732999921 2.5977001190 6.7718000412 97.614898682  -999.250000  -999.250000 1.2616000175 1.1749000549
 3569.0556641 6.0000000000 12.413100243 12.250000954 44.013126373 0.0414999984 0.2680999935 2.5987000465 6.6697998047 89.780899048  -999.250000  -999.250000 1.2696000338 1.1772999763
 3569.2080078 6.0000000000 12.411000252 12.250000954 65.087593079 0.0381999984 0.2822000086 2.5738999844 6.5756001472 100.35630035  -999.250000  -999.250000 1.2883000374 1.2012000084
 3569.3603516 6.0000000000 12.405599594 12.250000954 73.354003906 0.0153000001 0.2644000053 2.5715999603 6.4092001915 98.428497314  -999.250000  -999.250000 1.3151999712 1.2819999456
 3569.5126953 6.0000000000 12.390300751 12.250000954 75.250328064 -0.005000000 0.2569999993 2.5847001076 6.1584000587 94.687797546  -999.250000  -999.250000 1.1859999895 1.1783000231
 3569.6652832 6.0000000000 12.422699928 12.250000954 80.579719543 0.0342000015 0.2612000108 2.6730999947 6.2628002167 95.876098633  -999.250000  -999.250000 1.1105999947 1.1140999794
 3569.8176270 6.0000000000 12.443700790 12.250000954 95.316932678 0.0461999997 0.2648999989 2.6538000107 6.0947999954 94.983596802  -999.250000  -999.250000 1.1035000086 1.1088999510
 3569.9699707 6.0000000000 12.445899963 12.250000954 113.33694458 0.0318000019 0.2709000111 2.5808000565 6.0324997902 96.535400391  -999.250000  -999.250000 1.1269999743 1.1250000000
 3570.1223145 6.0000000000 12.431599617 12.250000954 117.18207550 0.0221999995 0.2676999867 2.5520000458 5.5134000778 99.602096558  -999.250000  -999.250000 1.1615999937 1.1462999582
 3570.2749023 6.0000000000 12.445099831 12.250000954 115.33858490 0.0196000002 0.2759000063 2.5434000492 5.1152000427 95.685203552  -999.250000  -999.250000 1.1936999559 1.1462999582
 3570.4272461 7.0000000000 12.449799538 12.250000954 107.53477478 0.0199999996 0.2632000148 2.5381000042 5.3108000755 91.414703369  -999.250000  -999.250000 1.2328000069 1.1809999943
 3570.5795898 7.0000000000 12.443799973 12.250000954 89.577430725 0.0232999995 0.2806000113 2.5566999912 5.2501997948 110.04799652  -999.250000  -999.250000 1.2525000572 1.2049000263
 3570.7319336 7.0000000000 12.426199913 12.250000954 77.412071228 0.0230000000 0.2700000107 2.5585999489 5.0352001190 109.57199860  -999.250000  -999.250000 1.2548999786 1.2194999456
 3570.8842773 6.0000000000 12.418499947 12.250000954 85.043304443 0.0176999997 0.2743000090 2.5497999191 4.9728999138 100.40070343  -999.250000  -999.250000 1.2712999582 1.2523000240
 3571.0368652 6.0000000000 12.417498589 12.250000954 94.385833740 0.0138999997 0.2743000090 2.5434999466 5.0612001419 101.29650116  -999.250000  -999.250000 1.2666000128 1.2501000166
