# LAS format log file from PETREL
# Project units are specified as depth units
#==================================================================
~Version information
VERS.   2.0:
WRAP.   NO:
#==================================================================
~Well
STRT .m      2099.3588867 :
STOP .m      3963.2109375 :
STEP .m     0.00000000 :
NULL .        -999.250000 :
COMP.           : COMPANY
WELL.  35/8-3   : WELL
FLD.            : FIELD
LOC.            : LOCATION
SRVC.           : SERVICE COMPANY
DATE.  2018-09-11 14:49:00   : Log Export Date {yyyy-MM-dd HH:mm:ss}
PROV.           : PROVINCE
UWI.   35/8-3   : UNIQUE WELL ID
API.            : API NUMBER
#==================================================================
~Curve
DEPT .m                   : DEPTH
Lithology_geolink ._      : Lithology_geolink
DRHO .g/cm3               : DRHO
NPHI .m3/m3               : NPHI
RHOB .g/cm3               : RHOB
GR .gAPI                  : GR
DTC .us/ft                : DTC
RDEP .ohm.m               : RDEP
RSHA .ohm.m               : RSHA
RMED .ohm.m               : RMED
~Parameter
#==================================================================
~Ascii
# ...
 2836.3652344 6.0000000000 -0.003700000 0.2639999986 2.5302000046 80.635498047 89.868797302 2.2304999828  -999.250000 2.4941000938
 2836.5175781 6.0000000000 -0.004800000 0.2542999983 2.5286002159 86.107597351 89.875000000 2.2637000084  -999.250000 2.4396998882
 2836.6699219 6.0000000000 -0.005500000 0.2460999936 2.5262000561 88.335197449 89.875000000 2.2780001163  -999.250000 2.4279000759
 2836.8225098 6.0000000000 -0.004500000 0.2443999946 2.5278999805 87.071403503 89.756202698 2.2959001064  -999.250000 2.3645999432
 2836.9748535 6.0000000000 -0.002900000 0.2468000054 2.5302000046 86.287300110 90.225196838 2.3099000454  -999.250000 2.3103001118
 2837.1271973 5.0000000000 -0.003100000 0.2496999949 2.5274000168 85.419799805 89.301200867 2.3266000748  -999.250000 2.3835999966
 2837.2795410 5.0000000000 -0.003900000 0.2492000014 2.5234000683 81.395500183 89.131210327 2.4000000954  -999.250000 2.5109000206
 2837.4321289 5.0000000000 -0.003400000 0.2439000010 2.5248000622 76.970397949 87.937103271 2.4523999691  -999.250000 2.6356000900
 2837.5844727 5.0000000000 -0.003000000 0.2337000072 2.5301001072 73.310600281 86.689002991 2.5127000809  -999.250000 2.7562999725
 2837.7368164 5.0000000000 -0.001900000 0.2236000001 2.5362000465 79.410202026 86.150596619 2.5288999081  -999.250000 2.9958000183
 2837.8891602 5.0000000000 0.0007000000 0.2143000066 2.5362000465 80.343902588 86.243797302 2.4918000698  -999.250000 3.5141999722
 2838.0417480 5.0000000000 0.0027000001 0.2089000046 2.5241000652 77.524002075 88.031799316 2.4252998829  -999.250000 4.1974000931
 2838.1940918 5.0000000000 0.0038999999 0.2115000039 2.5062003136 71.978698730 90.259803772 2.4066998959  -999.250000 4.1757998466
 2838.3464355 5.0000000000 0.0046000001 0.2210000008 2.4958999157 73.051300049 91.560897827 2.3698999882  -999.250000 3.6586999893
 2838.4987793 5.0000000000 0.0046999999 0.2363000065 2.5007998943 77.104499817 90.793502808 2.3320999146  -999.250000 3.2211999893
 2838.6511230 5.0000000000 0.0033000000 0.2495000064 2.5106000900 79.628898621 91.225196838 2.2697000504  -999.250000 2.9261000156
 2838.8037109 5.0000000000 0.0008000000 0.2536000013 2.5148999691 72.978996277 90.893592834 2.2202999592  -999.250000 2.8666999340
 2838.9560547 5.0000000000 -0.001600000 0.2480999976 2.5167996883 77.614196777 91.112602234 2.1796000004  -999.250000 3.0185999870
 2839.1083984 5.0000000000 -0.002300000 0.2400999963 2.5218000412 77.756401062 90.769203186 2.1763999462  -999.250000 2.9544000626
 2839.2607422 5.0000000000 -0.001200000 0.2378000021 2.5265998840 84.639801025 89.443290710 2.1895999908  -999.250000 2.8454000950
 2839.4133301 5.0000000000 0.0002000000 0.2417999953 2.5241999626 79.891998291 89.375007629 2.2068998814  -999.250000 2.7176001072
 2839.5656738 5.0000000000 0.0015000000 0.2445999980 2.5169000626 75.645500183 88.662300110 2.2021999359  -999.250000 2.6868999004
 2839.7180176 5.0000000000 0.0027000001 0.2409999967 2.5088000298 74.547996521 89.929588318 2.1793999672  -999.250000 2.9647998810
 2839.8703613 5.0000000000 0.0024999999 0.2313999981 2.4974000454 74.975196838 90.356407166 2.1756000519  -999.250000 3.1408998966
 2840.0229492 6.0000000000 0.0002000000 0.2267999947 2.4842000008 74.109100342 91.444099426 2.1900000572  -999.250000 2.9154999256
 2840.1752930 6.0000000000 -0.001700000 0.2327000052 2.4797999859 76.735298157 91.618797302 2.1951000690  -999.250000 2.6559000015
 2840.3276367 6.0000000000 -0.003400000 0.2391999960 2.4892001152 81.210800171 90.555908203 2.2128999233  -999.250000 2.6373999119
 2840.4799805 6.0000000000 -0.005900000 0.2430000007 2.5035998821 84.293296814 90.262001038 2.1963999271  -999.250000 2.6809999943
 2840.6323242 6.0000000000 -0.007400000 0.2502000034 2.5120999813 85.684898376 91.081596375 2.1726000309  -999.250000 2.7121000290
 2840.7849121 6.0000000000 -0.008500000 0.2630000114 2.5132999420 84.799697876 90.768592834 2.1875998974  -999.250000 2.6961998940
 2840.9372559 6.0000000000 -0.009900000 0.2702000141 2.5158998966 88.610702515 90.512397766 2.2023000717  -999.250000 2.6998999119
 2841.0895996 6.0000000000 -0.009900000 0.2579999864 2.5257999897 88.218597412 90.499992371 2.2181000710  -999.250000 2.6749999523
 2841.2419434 6.0000000000 -0.008600000 0.2407000065 2.5336999893 89.850700378 90.143608093 2.2437000275  -999.250000 2.5901999474
 2841.3945313 6.0000000000 -0.008400000 0.2342000008 2.5304999352 85.364097595 89.887405396 2.2648000717  -999.250000 2.5106999874
 2841.5468750 6.0000000000 -0.008600000 0.2365999967 2.5230000019 85.006202698 89.518592834 2.2760999203  -999.250000 2.7365000248
 2841.6992188 6.0000000000 -0.007300000 0.2361000031 2.5197999477 83.336898804 88.906097412 2.2931001186  -999.250000 2.8835999966
 2841.8515625 6.0000000000 -0.004800000 0.2278999984 2.5234999657 84.201896667 88.994003296 2.3029999733  -999.250000 2.8656001091
 2842.0041504 6.0000000000 -0.003000000 0.2277999967 2.5292000771 82.643600464 88.524009705 2.3099000454  -999.250000 2.8801000118
 2842.1564941 6.0000000000 -0.001900000 0.2340999991 2.5311999321 79.889503479 88.381202698 2.3210000992  -999.250000 2.8901998997
 2842.3088379 6.0000000000 -0.000900000 0.2414000034 2.5278999805 83.670097351 89.206497192 2.3094999790  -999.250000 2.9755001068
 2842.4611816 6.0000000000 -0.001000000 0.2425999939 2.5199000835 82.268600464 88.774002075 2.2960000038  -999.250000 2.9941000938
 2842.6135254 5.0000000000 -0.001700000 0.2329999954 2.5125999451 79.450698853 89.345001221 2.3090999126  -999.250000 2.9063000679
 2842.7661133 5.0000000000 -0.002000000 0.2231000066 2.5116999149 75.986099243 88.186996460 2.3217999935  -999.250000 2.8238999844
 2842.9184570 5.0000000000 -0.002500000 0.2187000066 2.5176000595 74.624603271 87.768592834 2.3187999725  -999.250000 2.8478999138
 2843.0708008 5.0000000000 -0.002800000 0.2231999934 2.5276000500 72.780601501 88.106399536 2.3069999218  -999.250000 3.0353999138
 2843.2231445 5.0000000000 -0.003100000 0.2330999970 2.5336000919 73.994300842 88.600204468 2.2853999138  -999.250000 3.3017001152
 2843.3757324 5.0000000000 -0.004300000 0.2402999997 2.5294001102 76.141296387 89.337699890 2.2830998898  -999.250000 3.4939999580
 2843.5280762 5.0000000000 -0.004900000 0.2408999950 2.5225000381 77.437896729 90.206497192 2.2987999916  -999.250000 3.4421000481
 2843.6804199 5.0000000000 -0.003600000 0.2345000058 2.5208001137 77.559303284 90.368598938 2.3006999493  -999.250000 3.3283998966
 2843.8327637 6.0000000000 -0.001600000 0.2296999991 2.5260999203 76.077598572 90.256195068 2.2915999889  -999.250000 3.2156999111
 2843.9853516 6.0000000000 0.0005000000 0.2337000072 2.5357000828 83.305603027 89.418510437 2.2769000530  -999.250000 3.1164999008
 2844.1376953 6.0000000000 0.0022000000 0.2390999943 2.5434999466 85.231796265 89.375007629 2.2662999630  -999.250000 3.1147000790
 2844.2900391 6.0000000000 0.0026000000 0.2416000068 2.5483000278 87.803100586 89.849395752 2.2528998852  -999.250000 3.1665000916
 2844.4423828 6.0000000000 0.0024000001 0.2490999997 2.5504000187 84.433197021 89.756202698 2.2527999878  -999.250000 3.1052999496
 2844.5949707 6.0000000000 0.0022000000 0.2585000098 2.5487000942 87.397903442 89.987594604 2.2497999668  -999.250000 3.0100998878
 2844.7473145 6.0000000000 0.0012000001 0.2592999935 2.5439999104 91.541999817 90.118797302 2.2581999302  -999.250000 2.9096999168
 2844.8996582 6.0000000000 -0.000200000 0.2485000044 2.5385999680 96.501602173 90.006202698 2.2674000263  -999.250000 2.8366999626
 2845.0520020 6.0000000000 -0.000300000 0.2382999957 2.5364999771 95.443298340 89.643608093 2.2753999233  -999.250000 2.8004000187
 2845.2043457 6.0000000000 -0.000300000 0.2441000044 2.5350000858 91.751602173 89.506202698 2.2827000618  -999.250000 2.7283999920
 2845.3569336 6.0000000000 -0.001500000 0.2549999952 2.5311999321 92.215797424 89.143600464 2.2892999649  -999.250000 2.6359999180
 2845.5092773 6.0000000000 -0.001500000 0.2545000017 2.5290999413 87.141998291 89.243797302 2.3025999069  -999.250000 2.5555999279
 2845.6616211 6.0000000000 -0.000600000 0.2414000034 2.5288000107 86.102897644 88.774803162 2.3229999542  -999.250000 2.5281000137
