# LAS format log file from PETREL
# Project units are specified as depth units
#==================================================================
~Version information
VERS.   2.0:
WRAP.   NO:
#==================================================================
~Well
STRT .m      1821.0274658 :
STOP .m      4027.3225098 :
STEP .m     0.00000000 :
NULL .        -999.250000 :
COMP.           : COMPANY
WELL.  35/8-6 S   : WELL
FLD.            : FIELD
LOC.            : LOCATION
SRVC.           : SERVICE COMPANY
DATE.  2018-09-11 14:49:01   : Log Export Date {yyyy-MM-dd HH:mm:ss}
PROV.           : PROVINCE
UWI.   35/8-6 S   : UNIQUE WELL ID
API.            : API NUMBER
#==================================================================
~Curve
DEPT .m                   : DEPTH
Lithology_geolink ._      : Lithology_geolink
CALI .in                  : CALI
BS .in                    : BS
ROP .m/h                  : ROP
DRHO .g/cm3               : DRHO
NPHI .m3/m3               : NPHI
RHOB .g/cm3               : RHOB
PEF .b/e                  : PEF
GR .gAPI                  : GR
DTC .us/ft                : DTC
DTS .us/ft                : DTS
RDEP .ohm.m               : RDEP
RMED .ohm.m               : RMED
~Parameter
#==================================================================
~Ascii
# ...
 2109.3684082 5.0000000000 12.369099617 12.250000954 360.07315063 0.0074000000 0.3104000092 2.3097000122 3.6412000656 71.044898987  -999.250000  -999.250000 0.9751999974 0.9488999844
 2109.5207520 5.0000000000 12.370400429 12.250000954 358.69259644 0.0002000000 0.3185999990 2.3032000065 3.5729999542 76.325698853  -999.250000  -999.250000 0.9751999974 0.9383000135
 2109.6733398 5.0000000000 12.371000290 12.250000954 376.81201172 0.0080000004 0.3312000036 2.3169000149 3.6728000641 91.689598083  -999.250000  -999.250000 0.9825999737 0.9462000132
 2109.8256836 5.0000000000 12.375100136 12.250000954 383.90618896 0.0024000001 0.3291000128 2.3045001030 3.6805000305 95.221099854  -999.250000  -999.250000 0.9919000268 0.9574999809
 2109.9780273 5.0000000000 12.372199059 12.250000954 367.63516235 -0.002700000 0.3194000125 2.3013000488 3.6438000202 77.235900879  -999.250000  -999.250000 0.9896000028 0.9538000226
 2110.1303711 6.0000000000 12.368100166 12.250000954 337.69882202 0.0170000009 0.3174999952 2.3239998817 3.8501999378 81.352096558  -999.250000  -999.250000 0.9746000171 0.9355000257
 2110.2829590 6.0000000000 12.367501259 12.250000954 317.05972290 0.0120999999 0.3165000081 2.3115999699 3.6266999245 83.952796936  -999.250000  -999.250000 0.9524000287 0.9218000174
 2110.4353027 6.0000000000 12.365300179 12.250000954 307.04232788 0.0133999996 0.3179999888 2.3034999371 3.7469000816 88.251602173  -999.250000  -999.250000 0.9588999748 0.9165999889
 2110.5876465 6.0000000000 12.376798630 12.250000954 355.93896484 0.0068000001 0.3260999918 2.2971999645 4.5517997742 80.928298950  -999.250000  -999.250000 0.9858999848 0.9369999766
 2110.7399902 6.0000000000 12.376298904 12.250000954 375.34252930 0.0010000000 0.3447999954 2.2957999706 4.6216001511 82.198997498  -999.250000  -999.250000 1.0040999651 0.9603000283
 2110.8923340 6.0000000000 12.373600006 12.250000954 395.01770020 0.0265999995 0.3359999955 2.3176999092 5.3773999214 90.167396545  -999.250000  -999.250000 0.9894000292 0.9495000243
 2111.0449219 6.0000000000 12.372299194 12.250000954 400.80938721 0.0163000003 0.3707999885 2.3124001026 4.9176001549 86.369003296  -999.250000  -999.250000 0.9947999716 0.9531999826
 2111.1972656 6.0000000000 12.366200447 12.250000954 402.06069946 0.0175000001 0.3411000073 2.3113999367 4.8618001938 91.110603333  -999.250000  -999.250000 0.9995999932 0.9735000134
 2111.3496094 6.0000000000 12.363900185 12.250000954 360.34121704 0.0137999998 0.3206999898 2.3073000908 4.8898000717 78.963500977  -999.250000  -999.250000 1.0192999840 0.9883999825
 2111.5019531 6.0000000000 12.352799416 12.250000954 320.75360107 0.0215000007 0.3230000138 2.3152000904 5.3355998993 69.963096619  -999.250000  -999.250000 1.0120999813 0.9692999721
 2111.6545410 6.0000000000 12.348799706 12.250000954 298.46063232 0.0221999995 0.3127999902 2.3192999363 6.2519998550 85.582496643  -999.250000  -999.250000 1.0082999468 0.9611999989
 2111.8068848 5.0000000000 12.351799965 12.250000954 329.65454102 0.0196000002 0.3154000044 2.3080000877 5.2056999207 71.765602112  -999.250000  -999.250000 1.0068000555 0.9657999873
 2111.9592285 5.0000000000 12.346500397 12.250000954 349.37335205 0.0205000006 0.3393999934 2.3110001087 5.0907001495 66.578697205  -999.250000  -999.250000 1.0226999521 0.9832999706
 2112.1115723 5.0000000000 12.350999832 12.250000954 354.77331543 0.0121999998 0.3303999901 2.3071000576 4.8165998459 70.062400818  -999.250000  -999.250000 1.0183000565 0.9886000156
 2112.2641602 5.0000000000 12.355998993 12.250000954 355.13156128 0.0172000006 0.3328999877 2.3217000961 4.8954000473 77.246101379  -999.250000  -999.250000 1.0082999468 0.9817000031
 2112.4165039 5.0000000000 12.364700317 12.250000954 378.70736694 0.0140000004 0.3289999962 2.3220000267 4.5802001953 84.916702271  -999.250000  -999.250000 0.9997000098 0.9715999961
 2112.5688477 5.0000000000 12.371500969 12.250000954 399.65585327 0.0097000012 0.3240999877 2.3110001087 4.5219998360 83.458503723  -999.250000  -999.250000 0.9840000272 0.9564999938
 2112.7211914 5.0000000000 12.369499207 12.250000954 408.76245117 0.0135000004 0.3239000142 2.3010001183 4.8772001266 85.074096680  -999.250000  -999.250000 0.9693999887 0.9358000159
 2112.8737793 5.0000000000 12.376199722 12.250000954 409.63452148 0.0126000000 0.3375999928 2.3083999157 4.8271999359 83.684600830  -999.250000  -999.250000 0.9621999860 0.9355999827
 2113.0261230 5.0000000000 12.382999420 12.250000954 404.47439575 0.0153999999 0.3181999922 2.3078000546 5.0711002350 79.311203003  -999.250000  -999.250000 0.9751999974 0.9375000000
 2113.1784668 5.0000000000 12.381999969 12.250000954 410.50131226 0.0121999998 0.3285999894 2.3085000515 5.0960998535 86.017799377  -999.250000  -999.250000 0.9839000106 0.9433000088
 2113.3308105 5.0000000000 12.388199806 12.250000954 438.56793213 0.0154999997 0.3443999887 2.3060998917 4.9815001488 92.852798462  -999.250000  -999.250000 1.0037000179 0.9634000063
 2113.4831543 5.0000000000 12.383299828 12.250000954 427.08105469 0.0131000001 0.3553000093 2.3025000095 4.9379000664 90.256202698  -999.250000  -999.250000 1.0239000320 0.9814000130
 2113.6357422 5.0000000000 12.385699272 12.250000954 458.80484009 0.0250000004 0.3549000025 2.3148999214 5.7850999832 79.309402466  -999.250000  -999.250000 1.0240999460 0.9965999722
 2113.7880859 5.0000000000 12.382800102 12.250000954 438.79064941 0.0219000001 0.3348000050 2.3134999275 5.6202001572 79.448196411  -999.250000  -999.250000 1.0196000338 0.9932000041
 2113.9404297 5.0000000000 12.378899574 12.250000954 417.65124512 0.0181000009 0.3528999984 2.3169000149 5.2474999428 83.311500549  -999.250000  -999.250000 1.0003000498 0.9812999964
 2114.0927734 5.0000000000 12.382199287 12.250000954 394.61547852 0.0125000002 0.3269999921 2.3073999882 5.3790998459 79.947196960  -999.250000  -999.250000 1.0054999590 0.9896000028
 2114.2453613 5.0000000000 12.392999649 12.250000954 435.75393677 0.0193000007 0.3163000047 2.3083000183 5.7294998169 83.504798889  -999.250000  -999.250000 1.0090999603 0.9842000008
 2114.3977051 5.0000000000 12.400500298 12.250000954 440.44290161 0.0187999997 0.3319999874 2.3069999218 5.6479001045 79.670700073  -999.250000  -999.250000 1.0023000240 0.9745000005
 2114.5500488 5.0000000000 12.406298637 12.250000954 409.11712646 0.0085000005 0.3625999987 2.3031001091 5.0029001236 77.441497803  -999.250000  -999.250000 1.0089000463 0.9729999900
 2114.7023926 5.0000000000 12.402999878 12.250000954 370.19488525 0.0070000002 0.3384999931 2.3068997860 4.8084998131 78.041603088  -999.250000  -999.250000 1.0326999426 0.9896000028
 2114.8549805 5.0000000000 12.359100342 12.250000954 360.59054565 0.0048000002 0.3319000006 2.3020000458 5.1147999763 72.754898071  -999.250000  -999.250000 1.0261000395 0.9926999807
 2115.0073242 5.0000000000 12.346899986 12.250000954 346.21881104 -0.005700000 0.3366999924 2.3271000385 5.3022999763 80.447502136  -999.250000  -999.250000 1.0217000246 0.9933000207
 2115.1596680 5.0000000000 12.357399940 12.250000954 337.34744263 0.0151000004 0.3276999891 2.4319999218 6.0964999199 81.511901855  -999.250000  -999.250000 1.0483000278 1.0210000277
 2115.3120117 5.0000000000 12.369400024 12.250000954 299.80053711 0.0115999999 0.3657000065 2.3977999687 5.7611999512 76.910202026  -999.250000  -999.250000 1.0871000290 1.0659999847
 2115.4643555 5.0000000000 12.376199722 12.250000954 266.47998047 0.0165999997 0.3307999969 2.3887999058 5.6424999237 72.375198364  -999.250000  -999.250000 1.0872999430 1.0802999735
 2115.6169434 5.0000000000 12.374199867 12.250000954 241.58825684 0.0518999994 0.3244000077 2.4491000175 5.9558000565 81.045402527  -999.250000  -999.250000 1.0226000547 1.0160000324
 2115.7692871 5.0000000000 12.370300293 12.250000954 244.78971863 0.0154999997 0.3303999901 2.3412001133 5.1680998802 77.646797180  -999.250000  -999.250000 0.9947000146 0.9805999994
 2115.9216309 5.0000000000 12.378600121 12.250000954 253.22538757 0.0074999998 0.3555000126 2.3083999157 5.0083999634 76.771400452  -999.250000  -999.250000 0.9656000137 0.9523000121
