# LAS format log file from PETREL
# Project units are specified as depth units
#==================================================================
~Version information
VERS.   2.0:
WRAP.   NO:
#==================================================================
~Well
STRT .m      1821.0274658 :
STOP .m      4027.3225098 :
STEP .m     0.00000000 :
NULL .        -999.250000 :
COMP.           : COMPANY
WELL.  35/8-6 S   : WELL
FLD.            : FIELD
LOC.            : LOCATION
SRVC.           : SERVICE COMPANY
DATE.  2018-09-11 14:49:01   : Log Export Date {yyyy-MM-dd HH:mm:ss}
PROV.           : PROVINCE
UWI.   35/8-6 S   : UNIQUE WELL ID
API.            : API NUMBER
#==================================================================
~Curve
DEPT .m                   : DEPTH
Lithology_geolink ._      : Lithology_geolink
CALI .in                  : CALI
BS .in                    : BS
ROP .m/h                  : ROP
DRHO .g/cm3               : DRHO
NPHI .m3/m3               : NPHI
RHOB .g/cm3               : RHOB
PEF .b/e                  : PEF
GR .gAPI                  : GR
DTC .us/ft                : DTC
DTS .us/ft                : DTS
RDEP .ohm.m               : RDEP
RMED .ohm.m               : RMED
~Parameter
#==================================================================
~Ascii
# ...
 2545.2324219 5.0000000000 12.413800240 12.250000954 114.70211029 0.0138999997 0.2705999911 2.3961999416 5.1501002312 86.251998901  -999.250000  -999.250000 1.7187000513 1.6004999876
 2545.3847656 5.0000000000 12.421298981 12.250000954 107.65650177 0.0195000004 0.2711000144 2.4144999981 5.3091001511 80.307800293  -999.250000  -999.250000 1.7293000221 1.6380000114
 2545.5371094 5.0000000000 12.423998833 12.250000954 80.179138184 0.0221999995 0.2666000128 2.4163999557 5.3836998940 78.047798157  -999.250000  -999.250000 1.7461999655 1.6713000536
 2545.6896973 5.0000000000 12.425399780 12.250000954 57.577430725 0.0230999999 0.2736999989 2.4087998867 5.7779998779 72.710899353  -999.250000  -999.250000 1.7282999754 1.6813999414
 2545.8420410 5.0000000000 12.420700073 12.250000954 41.549213409 0.0211999994 0.2732999921 2.3980000019 5.5348000526 78.743103027  -999.250000  -999.250000 1.7053999901 1.6677000523
 2545.9943848 5.0000000000 12.417498589 12.250000954 55.236549377 0.0088000000 0.2657000124 2.3849000931 5.3299999237 79.473701477  -999.250000  -999.250000 1.7001999617 1.6678999662
 2546.1467285 5.0000000000 12.413200378 12.250000954 96.607284546 0.0218000002 0.2694999874 2.3980000019 5.6061000824 72.774101257  -999.250000  -999.250000 1.7145999670 1.6749000549
 2546.2993164 5.0000000000 12.405098915 12.250000954 110.48294830 0.0269000009 0.2712999880 2.4059000015 5.6652002335 73.562400818  -999.250000  -999.250000 1.6945999861 1.6584000587
 2546.4516602 5.0000000000 12.405599594 12.250000954 147.82611084 0.0296999998 0.2727999985 2.4126999378 5.7091999054 70.828598022  -999.250000  -999.250000 1.6624000072 1.6180000305
 2546.6040039 5.0000000000 12.404100418 12.250000954 169.44094849 0.0286999997 0.2809999883 2.4121999741 5.7898001671 73.910202026  -999.250000  -999.250000 1.6433000565 1.5849000216
 2546.7563477 5.0000000000 12.410800934 12.250000954 165.09318542 0.0249000005 0.2820999920 2.4163000584 5.7565999031 75.683502197  -999.250000  -999.250000 1.6190999746 1.5534000397
 2546.9089355 5.0000000000 12.410598755 12.250000954 165.63090515 0.0241000000 0.2786999941 2.4040000439 5.7188000679 70.121398926  -999.250000  -999.250000 1.6058000326 1.5388000011
 2547.0612793 5.0000000000 12.409899712 12.250000954 151.81101990 0.0299999993 0.2834999859 2.4121000767 5.6958999634 80.774101257  -999.250000  -999.250000 1.6154999733 1.5470000505
 2547.2136230 5.0000000000 12.422800064 12.250000954 147.73983765 0.0203000009 0.2800999880 2.4112000465 5.6255998611 76.280197144  -999.250000  -999.250000 1.5994999409 1.5341999531
 2547.3659668 5.0000000000 12.425200462 12.250000954 147.41535950 0.0172000006 0.2845000029 2.4154000282 5.9019999504 78.576797485  -999.250000  -999.250000 1.5887000561 1.5277999640
 2547.5185547 5.0000000000 12.421298981 12.250000954 141.83300781 0.0137999998 0.2797000110 2.4182000160 5.8083000183 73.097396851  -999.250000  -999.250000 1.6648999453 1.5870000124
 2547.6708984 5.0000000000 12.421799660 12.250000954 138.66665649 -0.001300000 0.2928999960 2.4407000542 6.2386999130 77.575897217  -999.250000  -999.250000 1.8595999479 1.7810000181
 2547.8232422 5.0000000000 12.417099953 12.250000954 147.81561279 -0.002800000 0.2843999863 2.6208000183 8.0194997787 75.238197327  -999.250000  -999.250000 2.0255999565 1.9874999523
 2547.9755859 5.0000000000 12.421999931 12.250000954 151.60269165 0.1299999952 0.2885000110 2.7943999767 7.8288002014 65.109001160  -999.250000  -999.250000 1.7854000330 1.8257000446
 2548.1279297 5.0000000000 12.409600258 12.250000954 130.69587708 0.0804999992 0.2811999917 2.5892000198 6.9885997772 70.828796387  -999.250000  -999.250000 1.5816999674 1.6000000238
 2548.2805176 5.0000000000 12.405800819 12.250000954 107.58858490 -0.029600000 0.2815999985 2.4588999748 6.6620001793 71.336196899  -999.250000  -999.250000 1.5662000179 1.5628999472
 2548.4328613 5.0000000000 12.411800385 12.250000954 92.644027710 -0.111299999 0.2739000022 2.5755999088 7.8498997688 75.829299927  -999.250000  -999.250000 1.5735000372 1.4846999645
 2548.5852051 5.0000000000 12.416099548 12.250000954 79.543968201 0.0284000002 0.2748000026 2.6958999634 5.9745001793 66.405601501  -999.250000  -999.250000 1.6736999750 1.5806000233
 2548.7375488 5.0000000000 12.426400185 12.250000954 70.734252930 -0.046500001 0.2651999891 2.6273000240 6.6012997627 78.052200317  -999.250000  -999.250000 1.7474999428 1.6973999739
 2548.8901367 5.0000000000 12.432499886 12.250000954 62.473094940 0.0544999987 0.2594000101 2.7734000683 5.8923997879 72.778701782  -999.250000  -999.250000 1.7889000177 1.7827999592
 2549.0424805 5.0000000000 12.426700592 12.250000954 70.904205322 0.0593999997 0.2433999926 2.5936000347 5.2648000717 72.063697815  -999.250000  -999.250000 1.8149000406 1.8327000141
 2549.1948242 5.0000000000 12.428400040 12.250000954 113.53247833 0.0291000009 0.2428999990 2.4416999817 5.9193000793 71.041099548  -999.250000  -999.250000 1.9251999855 1.9227000475
 2549.3471680 5.0000000000 12.433899879 12.250000954 179.90617371 -0.021100000 0.2538000047 2.5360000134 6.9711999893 78.098503113  -999.250000  -999.250000 2.0508999825 2.0093998909
 2549.4997559 5.0000000000 12.441599846 12.250000954 161.58563232 -0.097599998 0.2614000142 2.7755000591 10.275300026 69.937301636  -999.250000  -999.250000 2.1925001144 2.1530001163
 2549.6520996 5.0000000000 12.431099892 12.250000954 148.61221313 0.0132999998 0.2343000025 2.9523000717 9.1850996017 69.958900452  -999.250000  -999.250000 2.2086000443 2.1407999992
 2549.8044434 5.0000000000 12.445099831 12.250000954 139.79887390 0.0997999981 0.2465000004 2.8062996864 5.0265002251 70.861900330  -999.250000  -999.250000 2.1414999962 2.0494999886
 2549.9567871 5.0000000000 12.440900803 12.250000954 130.96751404 0.0463999994 0.2366999984 2.5076999664 5.5223999023 78.696197510  -999.250000  -999.250000 2.1461999416 2.0706000328
 2550.1091309 5.0000000000 12.427599907 12.250000954 127.70668793 0.0148000000 0.2425999939 2.4051001072 5.4586000443 72.458702087  -999.250000  -999.250000 2.2198998928 2.1805000305
 2550.2617188 5.0000000000 12.402601242 12.250000954 131.88549805 0.0315999985 0.2426999956 2.4219999313 5.8207001686 73.535202026  -999.250000  -999.250000 2.3067998886 2.2799000740
 2550.4140625 16.000000000 12.465399742 12.250000954 166.72604370 0.0229000002 0.2442000061 2.4124999046 5.9825000763 80.564796448  -999.250000  -999.250000 2.5183999538 2.4300999641
 2550.5664063 16.000000000 12.427700043 12.250000954 219.95997620 -0.008000000 0.2378000021 2.4702999592 7.3596000671 73.640098572  -999.250000  -999.250000 2.6828000546 2.5989999771
 2550.7187500 5.0000000000 12.374300003 12.250000954 215.55412292 0.0300999992 0.2301000059 2.6217000484 10.880000114 72.406097412  -999.250000  -999.250000 2.4612998962 2.4263999462
 2550.8713379 5.0000000000 12.449200630 12.250000954 184.61022949 0.1108999997 0.2458000034 2.6986999512 9.2083997726 71.263900757  -999.250000  -999.250000 2.3341999054 2.3201999664
 2551.0236816 5.0000000000 12.449200630 12.250000954 170.22834778 0.0548000000 0.2300000042 2.4851000309 5.2954998016 71.654502869  -999.250000  -999.250000 2.3111999035 2.2992000580
 2551.1760254 5.0000000000 12.473401070 12.250000954 186.52624512 0.0320999995 0.2480999976 2.4339001179 4.7491002083 74.455101013  -999.250000  -999.250000 2.2895998955 2.2620000839
 2551.3283691 5.0000000000 12.473401070 12.250000954 168.62796021 0.0264999997 0.2552999854 2.4275999069 4.3755002022 73.216003418  -999.250000  -999.250000 2.3027000427 2.2277998924
 2551.4809570 5.0000000000 12.437198639 12.250000954 160.70243835 0.0120999999 0.2545999885 2.4103999138 4.1256999969 72.304702759  -999.250000  -999.250000 2.3101000786 2.2332000732
 2551.6333008 5.0000000000 12.421500206 12.250000954 176.13977051 0.0228000004 0.2356999964 2.4240999222 4.3460998535 63.087200165  -999.250000  -999.250000 2.2923998833 2.2197000980
 2551.7856445 5.0000000000 12.376500130 12.250000954 180.60891724 0.0214000009 0.2347999960 2.4251000881 4.4242000580 76.977401733  -999.250000  -999.250000 2.3210999966 2.2300000191
