# LAS format log file from PETREL
# Project units are specified as depth units
#==================================================================
~Version information
VERS.   2.0:
WRAP.   NO:
#==================================================================
~Well
STRT .m      2099.3588867 :
STOP .m      3963.2109375 :
STEP .m     0.00000000 :
NULL .        -999.250000 :
COMP.           : COMPANY
WELL.  35/8-3   : WELL
FLD.            : FIELD
LOC.            : LOCATION
SRVC.           : SERVICE COMPANY
DATE.  2018-09-11 14:49:00   : Log Export Date {yyyy-MM-dd HH:mm:ss}
PROV.           : PROVINCE
UWI.   35/8-3   : UNIQUE WELL ID
API.            : API NUMBER
#==================================================================
~Curve
DEPT .m                   : DEPTH
Lithology_geolink ._      : Lithology_geolink
DRHO .g/cm3               : DRHO
NPHI .m3/m3               : NPHI
RHOB .g/cm3               : RHOB
GR .gAPI                  : GR
DTC .us/ft                : DTC
RDEP .ohm.m               : RDEP
RSHA .ohm.m               : RSHA
RMED .ohm.m               : RMED
~Parameter
#==================================================================
~Ascii
# ...
 2467.8620605 6.0000000000 0.0004000000 0.2964999974 2.6428999901 82.899101257 96.875007629 1.6772999763  -999.250000 2.0727999210
 2468.0144043 6.0000000000 -0.007300000 0.3032999933 2.5646998882 83.826896667 100.31410217 1.6736999750  -999.250000 2.2678999901
 2468.1667480 6.0000000000 -0.009500000 0.2996999919 2.4769999981 92.012100220 101.92549896 1.6814999580  -999.250000 2.1907000542
 2468.3193359 6.0000000000 -0.005300000 0.2906000018 2.4349999428 97.545501709 101.28730011 1.7070000172  -999.250000 2.1960999966
 2468.4716797 6.0000000000 -0.004000000 0.2793999910 2.4275999069 95.080299377 102.08149719 1.7189999819  -999.250000 2.2065999508
 2468.6240234 6.0000000000 -0.004600000 0.2797000110 2.4275000095 92.205299377 102.83770752 1.8612999916  -999.250000 8.6229000092
 2468.7763672 6.0000000000 -0.007300000 0.2994999886 2.4189000130 89.389503479 103.58779907 1.8141000271  -999.250000 4.6788997650
 2468.9289551 6.0000000000 -0.010200000 0.3161999881 2.4093999863 86.636596680 103.98139191 1.6898000240  -999.250000 2.7230000496
 2469.0812988 6.0000000000 -0.010900000 0.3102000058 2.4058001041 85.193298340 103.16851044 1.6289000511  -999.250000 2.3127999306
 2469.2336426 6.0000000000 -0.011300000 0.2797999978 2.4054999352 86.788101196 103.71889496 1.5913000107  -999.250000 2.0919001102
 2469.3859863 6.0000000000 -0.009000000 0.2628999949 2.3840000629 87.883102417 101.49659729 1.4816000462  -999.250000 2.0792000294
 2469.5383301 6.0000000000 -0.009100000 0.2831999958 2.3004000187 87.759300232 104.70110321 1.3528000116  -999.250000 2.0776998997
 2469.6909180 6.0000000000 -0.016000001 0.3316999972 2.1909999847 83.473602295 105.70649719 1.4617999792  -999.250000 2.0413000584
 2469.8432617 6.0000000000 -0.018900000 0.3680000007 2.1465001106 87.051300049 103.37419128 1.4940999746  -999.250000 1.8889000416
 2469.9956055 6.0000000000 -0.012200000 0.3644999862 2.2058999538 93.664703369 106.45730591 1.5204999447  -999.250000 1.6591000557
 2470.1479492 6.0000000000 -0.005400000 0.3409000039 2.3197999001 97.807701111 106.02999878 1.5578000546  -999.250000 1.5566999912
 2470.3005371 7.0000000000 -0.003700000 0.3249999881 2.4007999897 99.247398376 105.88120270 1.5118999481  -999.250000 1.4888000488
 2470.4528809 7.0000000000 -0.003000000 0.3330999911 2.4298000336 99.847000122 105.99379730 1.3195999861  -999.250000 1.5420000553
 2470.6052246 7.0000000000 -0.003100000 0.3537000120 2.4363999367 103.26049805 106.47519684 1.4484000206  -999.250000 1.6165000200
 2470.7575684 7.0000000000 -0.002900000 0.3607999980 2.4335999489 107.06670380 105.31008911 1.5305000544  -999.250000 1.6703000069
 2470.9101563 6.0000000000 -0.002900000 0.3440000117 2.4210999012 102.97319794 104.89360046 1.5917999744  -999.250000 1.6758999825
 2471.0625000 6.0000000000 -0.004000000 0.3163000047 2.4098000526 97.463798523 104.75620270 1.7034000158  -999.250000 1.6394000053
 2471.2148438 6.0000000000 -0.005300000 0.2991000116 2.4088997841 90.178901672 103.91850281 1.7473000288  -999.250000 1.2597999573
 2471.3671875 6.0000000000 -0.005200000 0.2949999869 2.4140999317 87.381202698 104.11219025 1.5980999470  -999.250000 1.2805000544
 2471.5195313 6.0000000000 -0.005100000 0.2982000113 2.4168000221 90.279098511 103.88739777 1.5342999697  -999.250000 1.6216000319
 2471.6721191 6.0000000000 -0.006400000 0.2985000014 2.4137001038 93.229103088 104.11260223 1.4936000109  -999.250000 1.8086999655
 2471.8244629 6.0000000000 -0.006100000 0.3036000133 2.4148001671 98.830596924 104.48079681 1.4897999763  -999.250000 1.8360999823
 2471.9768066 6.0000000000 -0.005200000 0.3106999993 2.4191999435 97.405403137 103.78850555 1.4968999624  -999.250000 1.7927999496
 2472.1291504 6.0000000000 -0.005800000 0.3125999868 2.4226999283 94.639701843 103.27480316 1.4918999672  -999.250000 1.7381000519
 2472.2817383 6.0000000000 -0.007100000 0.3100999892 2.4249000549 92.064796448 103.84391022 1.4716999531  -999.250000 1.7402000427
 2472.4340820 6.0000000000 -0.007900000 0.3000000119 2.4244999886 88.083000183 105.06100464 1.4896999598  -999.250000 1.7505999804
 2472.5864258 6.0000000000 -0.009300000 0.3009000123 2.4214000702 89.890998840 106.31089783 1.4944000244  -999.250000 1.7578999996
 2472.7387695 6.0000000000 -0.009000000 0.2992999852 2.4193999767 88.396301270 106.13740540 1.4889999628  -999.250000 1.7563999891
 2472.8913574 6.0000000000 -0.005600000 0.2951999903 2.4221000671 94.905296326 106.71890259 1.4836000204  -999.250000 1.7431000471
 2473.0437012 6.0000000000 -0.002500000 0.2969999909 2.4263000488 94.774803162 106.74999237 1.4717999697  -999.250000 1.7595000267
 2473.1960449 6.0000000000 -0.001600000 0.3005000055 2.4249999523 94.156097412 106.51239777 1.4694999456  -999.250000 1.7342000008
 2473.3483887 6.0000000000 -0.000500000 0.3109000027 2.4217000008 92.998298645 106.14420319 1.4729000330  -999.250000 1.6878999472
 2473.5007324 6.0000000000 0.0009000000 0.3167999983 2.4207003117 94.125396729 105.88739777 1.4800000191  -999.250000 1.6505999565
 2473.6533203 6.0000000000 -0.0000000000 0.3152000010 2.4221000671 95.197196960 105.99379730 1.4974000454  -999.250000 1.7509000301
 2473.8056641 6.0000000000 -0.001100000 0.3109000027 2.4263999462 97.566398621 105.52479553 1.4845000505  -999.250000 1.7617000341
 2473.9580078 6.0000000000 -0.000500000 0.3012000024 2.4279999733 96.679397583 104.90699768 1.4750000238  -999.250000 1.8012000322
 2474.1103516 6.0000000000 -0.001200000 0.2955000103 2.4279000759 94.843101501 105.58770752 1.4711999893  -999.250000 1.7339999676
 2474.2629395 6.0000000000 -0.004700000 0.2944000065 2.4265000820 92.849296570 105.86260223 1.4711999893  -999.250000 1.6958999634
 2474.4152832 6.0000000000 -0.006300000 0.2962000072 2.4240999222 94.294296265 105.16230011 1.4605000019  -999.250000 1.6914000511
 2474.5676270 6.0000000000 -0.006300000 0.3093999922 2.4159998894 98.710800171 105.95649719 1.4615000486  -999.250000 1.6325999498
 2474.7199707 6.0000000000 -0.007400000 0.3210999966 2.4019000530 95.546302795 105.16709900 1.4722000360  -999.250000 1.6814999580
 2474.8725586 6.0000000000 -0.007800000 0.3242999911 2.3933000565 92.880203247 104.17460632 1.4629000425  -999.250000 1.6403000355
 2475.0249023 6.0000000000 -0.006300000 0.3174999952 2.3982000351 96.610702515 106.26319885 1.4637999535  -999.250000 1.6337000132
 2475.1772461 6.0000000000 -0.005200000 0.3072000146 2.4084999561 98.653701782 108.75080109 1.4803999662  -999.250000 1.6138000488
 2475.3295898 6.0000000000 -0.005200000 0.2998000085 2.4191999435 98.987602234 106.02400970 1.4693000317  -999.250000 1.6111999750
 2475.4819336 6.0000000000 -0.005800000 0.2921000123 2.4267001152 96.564598083 105.39980316 1.4708000422  -999.250000 1.6188999414
 2475.6345215 6.0000000000 -0.006100000 0.2879999876 2.4289999008 94.180496216 105.25619507 1.5068000555  -999.250000 1.6152000427
 2475.7868652 6.0000000000 -0.006400000 0.2948000133 2.4261000156 93.527900696 105.13120270 1.5205999613  -999.250000 1.6132999659
 2475.9392090 6.0000000000 -0.007100000 0.3070000112 2.4205000401 91.780296326 105.59940338 1.5154999495  -999.250000 1.6169999838
 2476.0915527 6.0000000000 -0.007400000 0.3095000088 2.4200000763 97.330001831 105.38739777 1.5389000177  -999.250000 1.5906000137
 2476.2441406 6.0000000000 -0.007000000 0.3021000028 2.4226000309 102.37660217 105.13739777 1.5615999699  -999.250000 1.5563000441
 2476.3964844 6.0000000000 -0.006600000 0.3084000051 2.4244000912 100.90529633 106.19239807 1.6266000271  -999.250000 1.7667000294
 2476.5488281 6.0000000000 -0.006500000 0.3325999975 2.4223001003 96.306098938 105.77559662 1.6966999769  -999.250000 2.0346000195
 2476.7011719 6.0000000000 -0.005200000 0.3510000110 2.4221999645 91.251502991 104.91849518 1.8524999619  -999.250000 10.275199890
 2476.8537598 6.0000000000 -0.003900000 0.3558000028 2.4230000973 87.673896790 105.82530212 2.0903999805  -999.250000 36.088001251
 2477.0061035 6.0000000000 -0.003900000 0.3501000106 2.4228999615 87.144203186 105.16339111 2.1698000431  -999.250000 4.4546999931
 2477.1584473 6.0000000000 0.0000000000 0.3441999853 2.4070000648 87.895797729 102.87180328 1.8825000525  -999.250000 2.8729999065
