# LAS format log file from PETREL
# Project units are specified as depth units
#==================================================================
~Version information
VERS.   2.0:
WRAP.   NO:
#==================================================================
~Well
STRT .m      1821.0274658 :
STOP .m      4027.3225098 :
STEP .m     0.00000000 :
NULL .        -999.250000 :
COMP.           : COMPANY
WELL.  35/8-6 S   : WELL
FLD.            : FIELD
LOC.            : LOCATION
SRVC.           : SERVICE COMPANY
DATE.  2018-09-11 14:49:01   : Log Export Date {yyyy-MM-dd HH:mm:ss}
PROV.           : PROVINCE
UWI.   35/8-6 S   : UNIQUE WELL ID
API.            : API NUMBER
#==================================================================
~Curve
DEPT .m                   : DEPTH
Lithology_geolink ._      : Lithology_geolink
CALI .in                  : CALI
BS .in                    : BS
ROP .m/h                  : ROP
DRHO .g/cm3               : DRHO
NPHI .m3/m3               : NPHI
RHOB .g/cm3               : RHOB
PEF .b/e                  : PEF
GR .gAPI                  : GR
DTC .us/ft                : DTC
DTS .us/ft                : DTS
RDEP .ohm.m               : RDEP
RMED .ohm.m               : RMED
~Parameter
#==================================================================
~Ascii
# ...
 3416.9604492 2.0000000000 12.458499908 12.250000954 92.324150085 0.0333000049 0.0829000026 2.5817000866 6.0300002098 39.597400665  -999.250000  -999.250000 5.7620000839 5.5556998253
 3417.1127930 2.0000000000 12.420200348 12.250000954 86.420936584 0.0362999998 0.0935000032 2.5618000031 5.6055998802 51.260700226  -999.250000  -999.250000 5.2842998505 4.9900999069
 3417.2651367 2.0000000000 12.423500061 12.250000954 93.155517578 0.0293000005 0.0998999998 2.5452001095 5.8350000381 43.763801575  -999.250000  -999.250000 5.2944998741 4.9177999496
 3417.4174805 2.0000000000 12.419799805 12.250000954 96.207679749 0.0331000015 0.0926000029 2.5557000637 6.3505997658 39.197299957  -999.250000  -999.250000 5.6189999580 5.1971998215
 3417.5700684 2.0000000000 12.395199776 12.250000954 90.386810303 0.0255999994 0.0922000036 2.5638000965 6.5528998375 40.801601410  -999.250000  -999.250000 6.1170997620 5.6764001846
 3417.7224121 2.0000000000 12.388799667 12.250000954 88.777885437 0.0288999993 0.0917000026 2.5608000755 6.0798001289 40.535598755  -999.250000  -999.250000 5.9830999374 5.5198001862
 3417.8747559 2.0000000000 12.395600319 12.250000954 81.937004089 0.0291000009 0.0935000032 2.5471000671 6.3621001244 37.864700317  -999.250000  -999.250000 5.4148001671 4.9917998314
 3418.0270996 2.0000000000 12.422100067 12.250000954 69.728019714 0.0263999999 0.0772000030 2.5578000546 6.5034999847 41.461898804  -999.250000  -999.250000 5.7013998032 5.2957000732
 3418.1796875 2.0000000000 12.440299988 12.250000954 60.672573090 0.0303000007 0.0728000030 2.5743000507 6.4387998581 30.633100510  -999.250000  -999.250000 6.1356000900 5.7685999870
 3418.3320313 2.0000000000 12.431599617 12.250000954 50.757873535 0.0185000002 0.0711999983 2.5660998821 6.2506999969 30.761100769  -999.250000  -999.250000 6.6438999176 6.3372001648
 3418.4843750 2.0000000000 12.451499939 12.250000954 48.943901062 0.0160000008 0.0671999976 2.5801000595 6.5226998329 32.203800201  -999.250000  -999.250000 7.0086998940 6.7795000076
 3418.6367188 2.0000000000 12.469099998 12.250000954 63.938976288 0.0254999995 0.0722000003 2.5894000530 6.3871998787 33.918800354  -999.250000  -999.250000 6.9503998756 6.8042001724
 3418.7893066 2.0000000000 12.458999634 12.250000954 88.617126465 0.0328000002 0.0791999996 2.5894999504 6.4155998230 39.888401031  -999.250000  -999.250000 6.3508000374 6.3744001389
 3418.9416504 2.0000000000 12.432297707 12.250000954 100.36253357 0.0397999994 0.0856999978 2.6029999256 6.5848999023 34.572498322  -999.250000  -999.250000 6.0538997650 6.1125998497
 3419.0939941 2.0000000000 12.448400497 12.250000954 87.041992188 0.0346999988 0.0878999978 2.5950000286 6.2221999168 35.352901459  -999.250000  -999.250000 5.8298997879 5.8492999077
 3419.2463379 2.0000000000 12.413599968 12.250000954 75.392715454 0.0274000000 0.0970999971 2.5706000328 5.9187002182 36.791301727  -999.250000  -999.250000 5.6515998840 5.6174001694
 3419.3986816 2.0000000000 12.453100204 12.250000954 75.248031616 0.0247000009 0.0984999985 2.5578000546 6.3028001785 36.516700745  -999.250000  -999.250000 5.6444997787 5.5794000626
 3419.5512695 5.0000000000 12.414699554 12.250000954 78.472770691 0.0390999988 0.1054999977 2.5729000568 6.5812997818 37.677898407  -999.250000  -999.250000 5.4837999344 5.3923997879
 3419.7036133 5.0000000000 12.410100937 12.250000954 80.565940857 0.0344999991 0.1177000031 2.5525000095 6.1861000061 40.496799469  -999.250000  -999.250000 5.0619997978 4.8200998306
 3419.8559570 5.0000000000 12.408300400 12.250000954 80.659118652 0.0344000012 0.1324000061 2.5448000431 6.3316998482 47.601501465  -999.250000  -999.250000 4.4524998665 4.0205998421
 3420.0083008 5.0000000000 12.403399467 12.250000954 86.131889343 0.0351000018 0.1290999949 2.5401000977 6.4826002121 59.115699768  -999.250000  -999.250000 4.3826999664 3.8052000999
 3420.1608887 5.0000000000 12.392800331 12.250000954 90.881889343 0.0217000004 0.1032000035 2.5315001011 6.1570000648 53.416801453  -999.250000  -999.250000 5.8625001907 5.1645002365
 3420.3132324 5.0000000000 12.426500320 12.250000954 90.816268921 0.0315999985 0.1000000015 2.5490999222 6.2150001526 48.158100128  -999.250000  -999.250000 7.5760998726 6.9137001038
 3420.4655762 2.0000000000 12.419099808 12.250000954 94.448165894 0.0364000015 0.1049999967 2.5464999676 6.5406999588 49.833099365  -999.250000  -999.250000 7.6491999626 7.3157000542
 3420.6179199 2.0000000000 12.393200874 12.250000954 105.75065613 0.0364000015 0.1040000021 2.5467000008 6.7052998543 48.458099365  -999.250000  -999.250000 7.3060998917 7.5377001762
 3420.7705078 2.0000000000 12.393400192 12.250000954 109.58726501 0.0388999991 0.1032000035 2.5332000256 6.7727999687 45.325698853  -999.250000  -999.250000 7.0071001053 7.6813998222
 3420.9228516 2.0000000000 12.403399467 12.250000954 94.991798401 0.0322999991 0.1002999991 2.5423998833 6.4551000595 43.225299835  -999.250000  -999.250000 6.3882999420 7.1083002090
 3421.0751953 2.0000000000 12.397000313 12.250000954 83.237205505 0.0303000007 0.0984999985 2.5722000599 6.2613000870 36.738899231  -999.250000  -999.250000 5.6768999100 6.1002998352
 3421.2275391 2.0000000000 12.380900383 12.250000954 89.165679932 0.0311999992 0.0964000002 2.5808999538 6.3622999191 36.612598419  -999.250000  -999.250000 5.1918001175 5.2179999352
 3421.3798828 2.0000000000 12.386500359 12.250000954 104.96883392 0.0236000009 0.0901999995 2.5754001141 6.1061000824 47.485198975  -999.250000  -999.250000 5.1395998001 4.9281001091
 3421.5324707 2.0000000000 12.430500984 12.250000954 100.11056519 0.0271000005 0.0861999989 2.5752999783 6.0959000587 48.691799164  -999.250000  -999.250000 5.3260998726 4.9829001427
 3421.6848145 2.0000000000 12.439499855 12.250000954 86.696189880 0.0277999993 0.0848999992 2.5855000019 5.9377999306 47.678901672  -999.250000  -999.250000 5.4418001175 4.9247999191
 3421.8371582 2.0000000000 12.431800842 12.250000954 81.060363770 0.0241000000 0.0808999985 2.5776998997 5.9246997833 40.423599243  -999.250000  -999.250000 5.4878001213 4.8840999603
 3421.9895020 2.0000000000 12.449200630 12.250000954 87.320533752 0.0303000007 0.0833000019 2.5838999748 6.2348999977 41.098598480  -999.250000  -999.250000 5.4124999046 4.8688001633
 3422.1420898 2.0000000000 12.451999664 12.250000954 85.073165894 0.0286999997 0.0812000036 2.5892000198 6.2692999840 39.241401672  -999.250000  -999.250000 5.2712998390 4.9198999405
 3422.2944336 5.0000000000 12.455899239 12.250000954 84.765419006 0.0348999985 0.0771000013 2.6034998894 6.3087000847 36.639900208  -999.250000  -999.250000 5.2716999054 5.0510001183
 3422.4467773 5.0000000000 12.390999794 12.250000954 82.990814209 0.0253999997 0.0832000002 2.5822999477 6.0261998177 30.932199478  -999.250000  -999.250000 5.0755000114 5.0349001884
 3422.5991211 5.0000000000 12.470900536 12.250000954 74.309707642 0.0342999995 0.0918999985 2.5829999447 6.3706998825 41.593700409  -999.250000  -999.250000 5.0654001236 5.0816998482
 3422.7517090 5.0000000000 12.449700356 12.250000954 67.614501953 0.0249000005 0.1010000035 2.5752000809 6.1254000664 44.222900391  -999.250000  -999.250000 4.8456001282 4.9098000526
 3422.9040527 5.0000000000 12.420299530 12.250000954 68.284118652 0.0412999988 0.1116999984 2.5769000053 6.2393999100 37.612201691  -999.250000  -999.250000 4.2164001465 4.1192002296
 3423.0563965 5.0000000000 12.429300308 12.250000954 73.981956482 0.0329000019 0.1199999973 2.5620999336 6.0272002220 44.586601257  -999.250000  -999.250000 4.0391001701 3.7918999195
 3423.2087402 5.0000000000 12.443900108 12.250000954 80.165679932 0.0443999991 0.1035000011 2.5711998940 6.5282998085 47.336200714  -999.250000  -999.250000 4.3362002373 4.0385999680
 3423.3610840 5.0000000000 12.422300339 12.250000954 77.264106750 0.0348999985 0.0958999991 2.5624001026 6.4654002190 46.624000549  -999.250000  -999.250000 4.4875998497 4.1441998482
 3423.5136719 5.0000000000 12.452099800 12.250000954 75.286094666 0.0381999984 0.0967999995 2.5782001019 6.7922000885 45.025199890  -999.250000  -999.250000 4.7905998230 4.4426999092
