# LAS format log file from PETREL
# Project units are specified as depth units
#==================================================================
~Version information
VERS.   2.0:
WRAP.   NO:
#==================================================================
~Well
STRT .m      2099.3588867 :
STOP .m      3963.2109375 :
STEP .m     0.00000000 :
NULL .        -999.250000 :
COMP.           : COMPANY
WELL.  35/8-3   : WELL
FLD.            : FIELD
LOC.            : LOCATION
SRVC.           : SERVICE COMPANY
DATE.  2018-09-11 14:49:00   : Log Export Date {yyyy-MM-dd HH:mm:ss}
PROV.           : PROVINCE
UWI.   35/8-3   : UNIQUE WELL ID
API.            : API NUMBER
#==================================================================
~Curve
DEPT .m                   : DEPTH
Lithology_geolink ._      : Lithology_geolink
DRHO .g/cm3               : DRHO
NPHI .m3/m3               : NPHI
RHOB .g/cm3               : RHOB
GR .gAPI                  : GR
DTC .us/ft                : DTC
RDEP .ohm.m               : RDEP
RSHA .ohm.m               : RSHA
RMED .ohm.m               : RMED
~Parameter
#==================================================================
~Ascii
# ...
 3327.7028809 7.0000000000 -0.047699999 0.4618000090 1.4476000071 109.59239960 113.46430206 1.9105999470 0.1278001666 1.0146000385
 3327.8552246 7.0000000000 -0.041800000 0.4772999883 1.4908000231 117.23999786 118.73919678 1.8792999983 0.1279036850 0.9922000170
 3328.0078125 7.0000000000 -0.035799999 0.4731000066 1.5302000046 120.06430054 112.09860229 1.9320000410 0.1302115172 1.0032999516
 3328.1601563 7.0000000000 -0.032400001 0.4695000052 1.5620000362 122.26979828 109.84610748 1.9843000174 0.1337963194 1.0060000420
 3328.3125000 7.0000000000 -0.032800000 0.4742000103 1.5723999739 118.98919678 108.32440186 1.9146000147 0.1314945519 0.9919999838
 3328.4648438 7.0000000000 -0.036499999 0.4641999900 1.5470000505 120.47560120 120.84169006 1.7862999439 0.1281096041 1.0506999493
 3328.6174316 7.0000000000 -0.037900001 0.4183000028 1.5218000412 122.58529663 104.72239685 1.7151999474 0.1341995299 1.0540000200
 3328.7697754 7.0000000000 -0.029700000 0.3684999943 1.5665999651 125.00779724 99.353408813 1.8157999516 0.1652544886 1.0578999519
 3328.9221191 7.0000000000 -0.015400000 0.3476000130 1.6996999979 123.69940186 107.08460236 2.0924999714 0.1991636306 1.1331000328
 3329.0744629 7.0000000000 -0.004500000 0.3617999852 1.8240000010 118.22000122 111.89521027 2.3475999832 0.1764408648 1.1949000359
 3329.2268066 7.0000000000 -0.002000000 0.3907999992 1.8161000013 114.37380219 107.37339783 2.4639999866 0.1395884603 1.2677999735
 3329.3793945 6.0000000000 -0.009700001 0.4056999981 1.6992000341 112.64309692 104.27380371 2.3294000626 0.1323926449 1.2251000404
 3329.5317383 6.0000000000 -0.025699999 0.3932999969 1.5751999617 110.00849915 100.32369995 2.1173000336 0.1300991923 1.1849000454
 3329.6840820 6.0000000000 -0.037999999 0.3677999973 1.5003999472 110.46890259 87.414497375 2.0171999931 0.1296017617 1.1617000103
 3329.8364258 6.0000000000 -0.042399999 0.3574999869 1.4702999592 106.52690125 83.666397095 2.1914999485 0.1307001710 1.1583000422
 3329.9890137 6.0000000000 -0.047100000 0.3630000055 1.4543999434 110.05439758 107.02040100 2.3826000690 0.1307961494 1.1655999422
 3330.1413574 6.0000000000 -0.051100001 0.3666999936 1.4438999891 112.62580109 116.56529236 2.4718000889 0.1295988858 1.1973999739
 3330.2937012 7.0000000000 -0.050099999 0.3673000038 1.4442000389 119.28340149 111.17929840 2.3301999569 0.1288987249 1.1957000494
 3330.4460449 7.0000000000 -0.046999998 0.3867999911 1.4737000465 118.37969971 108.85880280 2.1271998882 0.1280993521 1.1756000519
 3330.5986328 7.0000000000 -0.044199999 0.4192000031 1.5441999435 117.83730316 123.71749878 1.9651000500 0.1277041584 1.1947000027
 3330.7509766 7.0000000000 -0.038400002 0.4250999987 1.6375999451 118.58460236 102.40499878 1.9049999714 0.1290046424 1.1778999567
 3330.9033203 7.0000000000 -0.033100002 0.3975999951 1.7049000263 120.88200378 106.00159454 2.0641999245 0.1319012791 1.2697000504
 3331.0556641 7.0000000000 -0.034200002 0.3677999973 1.7026000023 123.01940155 107.55670166 2.2532000542 0.1326987147 1.3918000460
 3331.2080078 7.0000000000 -0.038800005 0.3549999893 1.6505999565 116.41339874 108.45649719 2.3884000778 0.1318990439 1.4264999628
 3331.3605957 7.0000000000 -0.040500000 0.3580999970 1.6002000570 115.40910339 105.29240417 2.2746000290 0.1312995255 1.3588999510
 3331.5129395 7.0000000000 -0.034600001 0.3617999852 1.5885000229 112.93979645 108.09470367 2.3733000755 0.1310035288 1.4488999844
 3331.6652832 7.0000000000 -0.023000000 0.3481999934 1.6353000402 117.56410217 105.16149902 2.4556000233 0.1332099438 1.4471999407
 3331.8176270 7.0000000000 -0.013400000 0.3091000021 1.7136000395 121.61380005 107.73219299 2.4412000179 0.1394318938 1.3833999634
 3331.9702148 7.0000000000 -0.007500000 0.2691999972 1.7804000378 120.38690186 111.79540253 2.5367999077 0.1593697667 1.4543000460
 3332.1225586 6.0000000000 -0.004300000 0.2732999921 1.8088999987 114.84819794 101.42770386 2.6763999462 0.1810644120 1.4837000370
 3332.2749023 6.0000000000 -0.007200000 0.3194999993 1.8006999493 101.43620300 95.885803223 2.5538001060 0.1588525623 1.3991999626
 3332.4272461 6.0000000000 -0.015500000 0.3628000021 1.7660000324 98.255401611 108.33550262 2.4126000404 0.1292977482 1.4056999683
 3332.5798340 6.0000000000 -0.023900000 0.3828999996 1.6928999424 101.27819824 104.71629333 2.2409000397 0.1279000044 1.4002000093
 3332.7321777 7.0000000000 -0.027899999 0.3840000033 1.6068999767 111.78970337 104.73799896 2.3866000175 0.1279003322 1.4608000517
 3332.8845215 7.0000000000 -0.028500000 0.3695999980 1.5677000284 113.02529907 104.75000000 2.4054999352 0.1281025559 1.4562000036
 3333.0368652 7.0000000000 -0.030800000 0.3564000130 1.5715999603 110.50849915 100.71109772 2.3519999981 0.1297040135 1.3955999613
 3333.1894531 7.0000000000 -0.032800000 0.3612999916 1.5715999603 108.17739868 104.18251038 2.3424000740 0.1322137564 1.4072999954
 3333.3417969 7.0000000000 -0.031599998 0.3811999857 1.5585999489 116.51080322 102.11419678 2.3975999355 0.1365182698 1.4538999796
 3333.4941406 7.0000000000 -0.029600000 0.3894000053 1.5743000507 126.26329803 103.42559052 2.3575999737 0.1479205191 1.3918000460
 3333.6464844 7.0000000000 -0.025100000 0.3666000068 1.6441999674 129.00700378 100.64900208 2.6184000969 0.1607227474 1.4878000021
 3333.7988281 7.0000000000 -0.019200001 0.3425000012 1.6993999481 119.85939789 101.68789673 2.7435998917 0.1749181002 1.4613000154
 3333.9514160 7.0000000000 -0.018600000 0.3375000060 1.6816999912 114.44480133 89.038398743 2.5796999931 0.1861564666 1.3854000568
 3334.1037598 7.0000000000 -0.019900000 0.3309000134 1.6456999779 112.40560150 98.709701538 2.7207999229 0.1725636274 1.4601999521
 3334.2561035 7.0000000000 -0.019500000 0.3152000010 1.6424000263 113.32219696 113.38600159 2.5313000679 0.1498827040 1.3408000469
 3334.4084473 7.0000000000 -0.020700000 0.3199999928 1.6490000486 111.00299835 114.24360657 2.3766999245 0.1391235590 1.2618000507
 3334.5610352 7.0000000000 -0.020300001 0.3637000024 1.6358000040 108.97429657 100.35160828 2.3403999805 0.1539772749 1.2434999943
 3334.7133789 7.0000000000 -0.014700000 0.4058000147 1.6360000372 112.20110321 103.90139771 2.3190000057 0.2092967927 1.1489000320
 3334.8657227 7.0000000000 -0.006600000 0.4104999900 1.7057000399 109.64279938 101.39279938 2.2230000496 0.2697397470 1.0248999596
 3335.0180664 7.0000000000 0.0001000000 0.3993000090 1.7999999523 112.76149750 96.861801147 2.2780001163 0.3570031822 1.0102000237
 3335.1706543 7.0000000000 0.0013000000 0.4228999913 1.8184000254 112.93750000 102.91020203 2.4806001186 0.4836204648 1.0817999840
 3335.3229980 7.0000000000 -0.004200000 0.4749000072 1.7505999804 114.48179626 125.70130157 2.4763000011 0.4897617102 1.0002000332
 3335.4753418 7.0000000000 -0.012900000 0.5095999837 1.6750999689 109.63269806 126.28109741 1.8650000095 0.3410681188 0.7609000206
 3335.6276855 6.0000000000 -0.021800000 0.5223000050 1.6352000237 107.35559845 123.87419891 1.6210999489 0.1965041757 0.7405999899
 3335.7800293 6.0000000000 -0.028800000 0.5192000270 1.6011999846 105.46810150 122.79969788 1.6581000090 0.1367871910 0.7789000273
 3335.9326172 6.0000000000 -0.032699998 0.5034000278 1.5540000200 101.75160217 116.57240295 1.6883000135 0.1287980825 0.7810999751
 3336.0849609 6.0000000000 -0.030600000 0.4812999964 1.5333000422 98.889701843 111.97360229 1.6964999437 0.1282041669 0.7846000195
 3336.2373047 6.0000000000 -0.019300001 0.4654000103 1.5901999474 102.78890228 105.81050110 1.7144999504 0.1308088154 0.7810999751
 3336.3896484 6.0000000000 -0.002400000 0.4564999938 1.7213000059 107.27639771 121.41790009 1.7553999424 0.1363036782 0.7796000242
 3336.5422363 6.0000000000 0.0189999994 0.4444000125 1.8666001558 104.88639832 115.83480072 1.7820999622 0.1385872066 0.7728999853
 3336.6945801 6.0000000000 0.0397999994 0.4280000031 1.9465999603 99.523200989 115.49999237 1.7195999622 0.1345921457 0.7396000028
 3336.8469238 6.0000000000 0.0390999988 0.4144999981 1.9155999422 98.180900574 101.24519348 1.6643999815 0.1296972781 0.7071999907
 3336.9992676 6.0000000000 0.0179999992 0.4228000045 1.7978999615 104.71779633 101.68789673 1.6482000351 0.1280025691 0.7197999954
