# LAS format log file from PETREL
# Project units are specified as depth units
#==================================================================
~Version information
VERS.   2.0:
WRAP.   NO:
#==================================================================
~Well
STRT .m      2099.3588867 :
STOP .m      3963.2109375 :
STEP .m     0.00000000 :
NULL .        -999.250000 :
COMP.           : COMPANY
WELL.  35/8-3   : WELL
FLD.            : FIELD
LOC.            : LOCATION
SRVC.           : SERVICE COMPANY
DATE.  2018-09-11 14:49:00   : Log Export Date {yyyy-MM-dd HH:mm:ss}
PROV.           : PROVINCE
UWI.   35/8-3   : UNIQUE WELL ID
API.            : API NUMBER
#==================================================================
~Curve
DEPT .m                   : DEPTH
Lithology_geolink ._      : Lithology_geolink
DRHO .g/cm3               : DRHO
NPHI .m3/m3               : NPHI
RHOB .g/cm3               : RHOB
GR .gAPI                  : GR
DTC .us/ft                : DTC
RDEP .ohm.m               : RDEP
RSHA .ohm.m               : RSHA
RMED .ohm.m               : RMED
~Parameter
#==================================================================
~Ascii
# ...
 2222.1933594 6.0000000000 0.0412999988 0.4018000066 2.0487000942 102.72726440 114.15943146 1.0496771336  -999.250000 1.5167572498
 2222.3457031 6.0000000000 0.0461000018 0.3903999925 2.0912001133 101.33380127 111.87419128 1.0354000330  -999.250000 1.4277000427
 2222.4980469 6.0000000000 0.0379000008 0.3907999992 2.0657000542 100.06400299 113.88480377 1.2874000072  -999.250000 2.4949998856
 2222.6506348 6.0000000000 0.0305000003 0.4084999859 2.0350999832 97.922615051 114.47928619 1.3901952505  -999.250000 1.7006266117
 2222.8029785 6.0000000000 0.0296999998 0.4318000078 2.0497000217 96.628883362 117.59255981 1.3874053955  -999.250000 1.0318381786
 2222.9553223 6.0000000000 0.0326999985 0.4354999959 2.1005001068 99.298156738 120.13511658 1.5151486397  -999.250000 0.9930593967
 2223.1076660 6.0000000000 0.0350000001 0.4212999940 2.1496000290 101.45690155 125.95189667 1.3582999706  -999.250000 0.8428999782
 2223.2602539 6.0000000000 0.0295000002 0.4124999940 2.1210999489 96.926170349 116.74372101 1.1518191099  -999.250000 0.8121014237
 2223.4125977 6.0000000000 0.0142000001 0.4172999859 1.9716000557 94.714576721 114.83646393 1.1015516520  -999.250000 0.8753167987
 2223.5649414 6.0000000000 0.0027999999 0.4163999856 1.8062000275 86.795646667 122.34373474 1.1960068941  -999.250000 0.8857716918
 2223.7172852 6.0000000000 0.0049999999 0.4038999975 1.7573000193 93.502403259 116.81050110 1.2002999783  -999.250000 0.8680999875
 2223.8696289 6.0000000000 0.0182000007 0.3998999894 1.8324999809 92.984100342 112.46109772 1.3710000515  -999.250000 0.9369999766
 2224.0222168 6.0000000000 0.0346999988 0.4210000038 1.9312000275 94.951271057 117.47383118 1.3105810881  -999.250000 0.8343650699
 2224.1745605 6.0000000000 0.0441999994 0.4422999918 1.9740999937 91.324661255 115.38007355 1.0494999886  -999.250000 0.8750559688
 2224.3269043 6.0000000000 0.0469000004 0.4318000078 1.9911999702 93.857200623 119.05130005 0.9871000051  -999.250000 0.9724000096
 2224.4792480 6.0000000000 0.0542000011 0.4018000066 2.0455999374 95.306701660 118.06210327 1.1010999680  -999.250000 0.9126999974
 2224.6318359 7.0000000000 0.0645999983 0.3810999990 2.1124999523 96.032836914 121.79589081 1.0483572483  -999.250000 0.9275012612
 2224.7841797 7.0000000000 0.0737999976 0.3912000060 2.1368000507 98.863311768 118.44905090 1.2087881565  -999.250000 1.0528320074
 2224.9365234 7.0000000000 0.0759000033 0.4189999998 2.1170001030 101.68329620 130.13897705 1.3262153864  -999.250000 1.0104103088
 2225.0888672 7.0000000000 0.0671999976 0.4273000062 2.0861001015 108.10839844 135.73919678 1.4606000185  -999.250000 0.9545000196
 2225.2414551 7.0000000000 0.0621999986 0.3977999985 2.0775001049 102.85154724 124.34121704 1.4754328728  -999.250000 1.0635105371
 2225.3937988 6.0000000000 0.0649000034 0.3506000042 2.0989000797 101.07202911 113.51445007 1.4957752228  -999.250000 0.8834426403
 2225.5461426 6.0000000000 0.0612999983 0.3215999901 2.1275999546 99.154457092 112.05180359 1.4179152250  -999.250000 1.0346910954
 2225.6984863 6.0000000000 0.0600999966 0.3294000030 2.1619999409 96.567901611 113.42549133 1.3650000095  -999.250000 1.0915000439
 2225.8508301 6.0000000000 0.0675000027 0.3630999923 2.1765000820 98.041198730 113.02479553 1.2161999941  -999.250000 1.1123000383
 2226.0034180 6.0000000000 0.0562999994 0.3919000030 2.1052000523 91.292190552 122.26489258 1.1563632488  -999.250000 1.1097474098
 2226.1557617 6.0000000000 0.0364000015 0.3980000019 2.0002000332 90.165046692 121.31829071 1.1960191727  -999.250000 1.5124912262
 2226.3081055 6.0000000000 0.0278999992 0.3977000117 1.9632999897 89.946800232 117.44869995 1.3328000307  -999.250000 1.1325999498
 2226.4604492 6.0000000000 0.0318999998 0.4049000144 2.0046000481 91.538597107 117.25000000 1.2841000557  -999.250000 0.9847000241
 2226.6130371 6.0000000000 0.0399999991 0.4284000099 2.0517001152 88.534103394 117.01430511 1.2205216885  -999.250000 1.0512638092
 2226.7653809 6.0000000000 0.0344999991 0.4406999946 2.0499000549 83.810905457 117.95341492 1.0470900536  -999.250000 1.1532386541
 2226.9177246 6.0000000000 0.0259000007 0.4402999878 2.0364999771 89.620796204 119.90059662 1.0408999920  -999.250000 1.1148999929
 2227.0700684 7.0000000000 0.0361000001 0.4390000105 2.0673999786 100.31500244 118.33959198 1.0896999836  -999.250000 1.1130000353
 2227.2226563 7.0000000000 0.0442999974 0.4239999950 2.0908000469 105.01844025 118.72091675 1.2255232334  -999.250000 1.2873998880
 2227.3750000 7.0000000000 0.0406999998 0.3966000080 2.0748999119 100.55588531 116.60666656 1.3025004864  -999.250000 1.2870508432
 2227.5273438 7.0000000000 0.0460000001 0.3598999977 2.0687999725 99.366012573 113.41618347 1.4272316694  -999.250000 1.1313681602
 2227.6796875 7.0000000000 0.0538000017 0.3486000001 2.0906000137 101.74770355 116.33850098 1.3221999407  -999.250000 0.8618999720
 2227.8322754 7.0000000000 0.0577999987 0.3592999876 2.1310999393 100.31991577 124.57532501 1.2283494473  -999.250000 0.8226858974
 2227.9846191 7.0000000000 0.0621000007 0.3646999896 2.1798000336 93.596832275 123.09255981 1.2593982220  -999.250000 1.3124506474
 2228.1369629 6.0000000000 0.0621000007 0.3558000028 2.2263000011 93.372795105 118.94670105 1.3828213215  -999.250000 1.4060274363
 2228.2893066 6.0000000000 0.0577000007 0.3556999862 2.2550001144 95.869598389 109.95950317 1.3336999416  -999.250000 1.2359999418
 2228.4416504 6.0000000000 0.0511999987 0.3815999925 2.2493000031 96.415802002 111.40059662 1.4069000483  -999.250000 1.8198000193
 2228.5942383 6.0000000000 0.0401000008 0.4097000062 2.2177000046 92.649017334 110.08200836 1.3714835644  -999.250000 1.2752022743
 2228.7465820 6.0000000000 0.0315999985 0.4133000076 2.2067999840 96.839248657 113.32600403 1.3612185717  -999.250000 1.0901622772
 2228.8989258 6.0000000000 0.0370999984 0.3835999966 2.2281000614 100.92320251 113.26239777 1.3727999926  -999.250000 1.3786000013
 2229.0512695 6.0000000000 0.0463000014 0.3625000119 2.2288999557 103.02559662 114.43789673 1.3292000294  -999.250000 1.8395999670
 2229.2038574 6.0000000000 0.0460000001 0.3594999909 2.1819999218 97.362358093 115.21733093 1.2043257952  -999.250000 1.6042832136
 2229.3562012 6.0000000000 0.0465000011 0.3882000148 2.1270999908 96.525337219 118.09651184 1.0962418318  -999.250000 1.2196221352
 2229.5085449 6.0000000000 0.0505000018 0.4201999903 2.0834000111 95.489921570 112.31330109 1.3715898991  -999.250000 0.9847926497
 2229.6608887 6.0000000000 0.0401999988 0.4149000049 2.0162000656 95.318702698 114.37580109 1.4277000427  -999.250000 1.3545999527
 2229.8134766 6.0000000000 0.0303000007 0.3935999870 1.9751000404 95.189689636 114.73762512 1.2873222828  -999.250000 1.6549659967
 2229.9658203 6.0000000000 0.0313999988 0.3689999878 2.0114998817 92.687828064 114.74581146 1.3009762764  -999.250000 1.6958668232
 2230.1181641 6.0000000000 0.0335000008 0.3813999891 2.0838000774 92.149131775 112.13845825 1.1612862349  -999.250000 1.5506730080
 2230.2705078 6.0000000000 0.0359000005 0.4018000066 2.1215999126 93.669296265 113.42549133 0.9654999971  -999.250000 1.5961999893
 2230.4228516 6.0000000000 0.0410999991 0.4072000086 2.1033000946 96.066398621 108.98600006 1.1317000389  -999.250000 1.7927000523
 2230.5754395 6.0000000000 0.0414999984 0.4189999998 2.0641999245 97.788543701 116.10383606 1.3667924404  -999.250000 1.5038214922
 2230.7277832 6.0000000000 0.0384999998 0.4291000068 2.0216999054 97.751914978 116.49922943 1.2995885611  -999.250000 1.0809667110
 2230.8801270 6.0000000000 0.0414000005 0.4390000105 1.9988000393 95.077201843 116.02480316 1.1676000357  -999.250000 0.9977999926
 2231.0324707 6.0000000000 0.0442999974 0.4298000038 2.0136001110 94.700302124 115.05120087 1.1761000156  -999.250000 0.9645000100
 2231.1850586 6.0000000000 0.0518000014 0.4063000083 2.0613000393 94.103012085 110.49435425 1.2753019333  -999.250000 1.0910753012
 2231.3374023 6.0000000000 0.0560999997 0.3961000144 2.1052999496 99.407020569 110.96161652 1.3387281895  -999.250000 1.5119905472
 2231.4897461 6.0000000000 0.0566999987 0.3957999945 2.1256999969 98.743949890 110.28381348 1.2939720154  -999.250000 1.6304732561
