# LAS format log file from PETREL
# Project units are specified as depth units
#==================================================================
~Version information
VERS.   2.0:
WRAP.   NO:
#==================================================================
~Well
STRT .m      2099.3588867 :
STOP .m      3963.2109375 :
STEP .m     0.00000000 :
NULL .        -999.250000 :
COMP.           : COMPANY
WELL.  35/8-3   : WELL
FLD.            : FIELD
LOC.            : LOCATION
SRVC.           : SERVICE COMPANY
DATE.  2018-09-11 14:49:00   : Log Export Date {yyyy-MM-dd HH:mm:ss}
PROV.           : PROVINCE
UWI.   35/8-3   : UNIQUE WELL ID
API.            : API NUMBER
#==================================================================
~Curve
DEPT .m                   : DEPTH
Lithology_geolink ._      : Lithology_geolink
DRHO .g/cm3               : DRHO
NPHI .m3/m3               : NPHI
RHOB .g/cm3               : RHOB
GR .gAPI                  : GR
DTC .us/ft                : DTC
RDEP .ohm.m               : RDEP
RSHA .ohm.m               : RSHA
RMED .ohm.m               : RMED
~Parameter
#==================================================================
~Ascii
# ...
 2345.0275879 6.0000000000 0.0006000000 0.3043000102 2.3770999908 100.23069763 104.66850281 1.5263999701  -999.250000 1.2786999941
 2345.1801758 6.0000000000 -0.003200000 0.3115000129 2.3947000504 95.263015747 104.14991760 1.4390000105  -999.250000 1.5074000359
 2345.3325195 6.0000000000 -0.005800000 0.3210000098 2.3984000683 90.656120300 104.72189331 1.5168999434  -999.250000 1.6389000416
 2345.4848633 6.0000000000 -0.006600000 0.3185999990 2.4015998840 85.864097595 106.53179169 1.5968999863  -999.250000 1.7232999802
 2345.6372070 6.0000000000 -0.007700000 0.3066000044 2.4019999504 88.891700745 106.86260223 1.6260999441  -999.250000 1.6885000467
 2345.7897949 6.0000000000 -0.009900000 0.2976000011 2.3991999626 98.460037231 108.42372894 1.6288000345  -999.250000 1.6204999685
 2345.9421387 6.0000000000 -0.010700000 0.2992999852 2.3982000351 96.799682617 109.57005310 1.5709999800  -999.250000 1.4315999746
 2346.0944824 6.0000000000 -0.010200000 0.3082000017 2.3982999325 97.155136108 110.10042572 1.4795999527  -999.250000 1.5066000223
 2346.2468262 6.0000000000 -0.009300000 0.3201999962 2.3993999958 92.435897827 110.24379730 1.4060000181  -999.250000 1.6598999500
 2346.3994141 6.0000000000 -0.008200000 0.3239000142 2.4012000561 92.595535278 110.60566711 1.3572000265  -999.250000 1.6703000069
 2346.5517578 6.0000000000 -0.007800000 0.3165000081 2.4017000198 87.753242493 110.15052795 1.3482999802  -999.250000 1.5973000526
 2346.7041016 6.0000000000 -0.008600000 0.3077000082 2.3982000351 86.912406921 110.60119629 1.2963999510  -999.250000 1.4559999704
 2346.8564453 6.0000000000 -0.010100000 0.3023999929 2.3929998875 90.848098755 111.21800232 1.2574000359  -999.250000 1.4071999788
 2347.0087891 6.0000000000 -0.011400000 0.3046000004 2.3922998905 92.604202271 111.25000000 1.2677999735  -999.250000 1.3927999735
 2347.1613770 6.0000000000 -0.012100000 0.3122999966 2.3936998844 92.506431580 111.48648071 1.2839000225  -999.250000 1.3779000044
 2347.3137207 6.0000000000 -0.011000000 0.3246000111 2.3907001019 90.726394653 110.78780365 1.2781000137  -999.250000 1.3744000196
 2347.4660645 6.0000000000 -0.008600000 0.3391000032 2.3856000900 95.902702332 111.10579681 1.2842999697  -999.250000 1.3464000225
 2347.6184082 6.0000000000 -0.005700000 0.3458999991 2.3842000961 97.551300049 111.24359131 1.2907999754  -999.250000 1.3912999630
 2347.7709961 6.0000000000 -0.001800000 0.3411999941 2.3908998966 97.441932678 111.72504425 1.2853000164  -999.250000 1.3657000065
 2347.9233398 6.0000000000 0.0007000000 0.3282999992 2.3998000622 94.402153015 111.63120270 1.2764999866  -999.250000 1.3990999460
 2348.0756836 6.0000000000 -0.000200000 0.3125000000 2.4024000168 90.512252808 111.62519073 1.2743999958  -999.250000 1.4106999636
 2348.2280273 6.0000000000 -0.001800000 0.3036000133 2.4003000259 93.104103088 111.74378967 1.2655999660  -999.250000 1.4428999424
 2348.3806152 6.0000000000 -0.002700000 0.3079000115 2.3961000443 91.831520081 112.22485352 1.2632000446  -999.250000 1.4692000151
 2348.5329590 6.0000000000 -0.002800000 0.3226000071 2.3951001167 96.257331848 112.01218414 1.2798999548  -999.250000 1.4660999775
 2348.6853027 6.0000000000 -0.001900000 0.3364999890 2.3989000320 92.104049683 111.88137817 1.3271000385  -999.250000 1.6327999830
 2348.8376465 6.0000000000 -0.001000000 0.3409000039 2.4031000137 91.637397766 111.99379730 1.3658000231  -999.250000 1.8803999424
 2348.9899902 6.0000000000 -0.001900000 0.3353999853 2.4052000046 87.592597961 111.52558899 1.3946000338  -999.250000 2.1087000370
 2349.1425781 6.0000000000 -0.005100000 0.3251999915 2.4082999229 90.047164917 111.61956787 1.3968000412  -999.250000 1.9557000399
 2349.2949219 6.0000000000 -0.007200000 0.3188000023 2.4138000011 89.657699585 112.09947968 1.3750000000  -999.250000 1.7702000141
 2349.4472656 6.0000000000 -0.001700000 0.3181000054 2.4117000103 92.654098511 111.64980316 1.3134000301  -999.250000 1.7697999477
 2349.5996094 6.0000000000 0.0115000000 0.3258000016 2.3828999996 91.149398804 111.98139954 1.2548999786  -999.250000 1.5067000389
 2349.7521973 6.0000000000 0.0267999992 0.3361999989 2.3136999607 91.599464417 111.16894531 1.2215000391  -999.250000 1.4795000553
 2349.9045410 6.0000000000 0.0452000014 0.3440999985 2.2260000706 92.565109253 112.31214905 1.2046999931  -999.250000 1.4660999775
 2350.0568848 6.0000000000 0.0657000020 0.3485000134 2.1614999771 86.152168274 111.78066254 1.2139999866  -999.250000 1.3882000446
 2350.2092285 6.0000000000 0.0768999979 0.3535999954 2.1359000206 86.941001892 111.51239014 1.2582000494  -999.250000 1.3540999889
 2350.3618164 6.0000000000 0.0724000037 0.3610999882 2.1540000439 87.183654785 110.42806244 1.2898999453  -999.250000 1.2697000504
 2350.5141602 6.0000000000 0.0590000004 0.3619999886 2.2156000137 90.398986816 109.77770996 1.3210999966  -999.250000 1.3030999899
 2350.6665039 6.0000000000 0.0460000001 0.3456999958 2.3059999943 92.820640564 107.73062134 1.3185000420  -999.250000 1.2886999846
 2350.8188477 6.0000000000 0.0326999985 0.3172999918 2.3854000568 93.531402588 107.74379730 1.3240000010  -999.250000 1.2936999798
 2350.9711914 6.0000000000 0.0148000000 0.3039999902 2.4156999588 95.934501648 106.20819855 1.3874000311  -999.250000 1.3948999643
 2351.1237793 6.0000000000 0.0019000000 0.3138000071 2.4149999619 92.075622559 107.19570923 1.4431999922  -999.250000 1.5124000311
 2351.2761230 6.0000000000 -0.000500000 0.3319000006 2.4119000435 87.490913391 108.20265198 1.5138000250  -999.250000 1.4549000263
 2351.4284668 6.0000000000 0.0001000000 0.3420000076 2.4105999470 94.425300598 109.67321014 1.5983999968  -999.250000 1.3497999907
 2351.5808105 6.0000000000 0.0009000000 0.3431000113 2.4135000706 98.133003235 110.22429657 1.5446000099  -999.250000 1.2803000212
 2351.7333984 6.0000000000 0.0019000000 0.3481999934 2.4184999466 101.39383698 110.84452057 1.4479000568  -999.250000 1.3417999744
 2351.8857422 7.0000000000 0.0001000000 0.3531000018 2.4170000553 96.932830811 111.23047638 1.4184000492  -999.250000 1.4197000265
 2352.0380859 7.0000000000 -0.004300000 0.3476999998 2.4091000557 98.880744934 110.65694427 1.4505000114  -999.250000 1.4298000336
 2352.1904297 6.0000000000 -0.007700000 0.3384999931 2.4040999413 98.347702026 110.62500763 1.4168000221  -999.250000 1.6201000214
 2352.3430176 6.0000000000 -0.009700001 0.3370999992 2.4063999653 99.252410889 110.26914215 1.3164000511  -999.250000 1.6145000458
 2352.4953613 6.0000000000 -0.010800000 0.3397000134 2.4087998867 92.775215149 110.60738373 1.2470999956  -999.250000 1.5407999754
 2352.6477051 6.0000000000 -0.009500000 0.3362999856 2.4077999592 90.410705566 111.21932220 1.2678999901  -999.250000 1.5396000147
 2352.8000488 6.0000000000 -0.006200000 0.3334999979 2.4065999985 85.798500061 111.48760223 1.2671999931  -999.250000 1.5514999628
 2352.9523926 6.0000000000 -0.003500000 0.3364999890 2.4052999020 85.562500000 111.61859894 1.2664999962  -999.250000 1.5702999830
 2353.1049805 6.0000000000 -0.002000000 0.3366999924 2.4021999836 88.771591187 111.50561523 1.2812000513  -999.250000 1.6181999445
 2353.2573242 6.0000000000 -0.000700000 0.3269999921 2.3980998993 89.888740540 111.14414215 1.2936999798  -999.250000 1.5175000429
 2353.4096680 6.0000000000 -0.000200000 0.3129000068 2.3954000473 90.472000122 111.48139191 1.3013000488  -999.250000 1.3944000006
 2353.5620117 6.0000000000 -0.002000000 0.3097999990 2.3928999901 89.254699707 110.66979980 1.3653999567  -999.250000 1.9800000191
 2353.7145996 6.0000000000 -0.004700000 0.3161000013 2.3901998997 93.642372131 110.74304199 1.4194999933  -999.250000 2.0715999603
 2353.8669434 6.0000000000 -0.006500000 0.3253999949 2.3882999420 93.815689087 110.27285767 1.4053000212  -999.250000 1.6772999763
 2354.0192871 6.0000000000 -0.007100000 0.3330000043 2.3889000416 93.866493225 109.06143188 1.3903000355  -999.250000 1.5585000515
 2354.1716309 6.0000000000 -0.005000000 0.3276000023 2.3973000050 90.489501953 108.64360046 1.3789000511  -999.250000 1.4546999931
 2354.3242188 6.0000000000 0.0024999999 0.3233000040 2.4084999561 87.570243835 104.10456848 1.2946000099  -999.250000 1.4569000006
