# LAS format log file from PETREL
# Project units are specified as depth units
#==================================================================
~Version information
VERS.   2.0:
WRAP.   NO:
#==================================================================
~Well
STRT .m      1821.0274658 :
STOP .m      4027.3225098 :
STEP .m     0.00000000 :
NULL .        -999.250000 :
COMP.           : COMPANY
WELL.  35/8-6 S   : WELL
FLD.            : FIELD
LOC.            : LOCATION
SRVC.           : SERVICE COMPANY
DATE.  2018-09-11 14:49:01   : Log Export Date {yyyy-MM-dd HH:mm:ss}
PROV.           : PROVINCE
UWI.   35/8-6 S   : UNIQUE WELL ID
API.            : API NUMBER
#==================================================================
~Curve
DEPT .m                   : DEPTH
Lithology_geolink ._      : Lithology_geolink
CALI .in                  : CALI
BS .in                    : BS
ROP .m/h                  : ROP
DRHO .g/cm3               : DRHO
NPHI .m3/m3               : NPHI
RHOB .g/cm3               : RHOB
PEF .b/e                  : PEF
GR .gAPI                  : GR
DTC .us/ft                : DTC
DTS .us/ft                : DTS
RDEP .ohm.m               : RDEP
RMED .ohm.m               : RMED
~Parameter
#==================================================================
~Ascii
# ...
 2981.0964355 5.0000000000 12.409099579 12.250000954 130.68273926 0.0232999995 0.1997999996 2.4605000019 5.1686000824 69.301399231  -999.250000  -999.250000 2.0866999626 2.0771000385
 2981.2487793 5.0000000000 12.461001396 12.250000954 122.09121704 0.0233999994 0.1976000071 2.4688999653 5.4415998459 78.462097168  -999.250000  -999.250000 2.0773000717 2.0650000572
 2981.4011230 5.0000000000 12.410901070 12.250000954 114.92256927 0.0260000005 0.2072000057 2.4781999588 5.4393000603 67.159400940  -999.250000  -999.250000 2.0360999107 2.0222001076
 2981.5537109 6.0000000000 12.413998604 12.250000954 116.19158936 0.0280000009 0.2134999931 2.4788000584 5.3970999718 68.263397217  -999.250000  -999.250000 1.9858000278 1.9351999760
 2981.7060547 6.0000000000 12.425899506 12.250000954 118.27460480 0.0220999997 0.2247000039 2.4670999050 5.1777000427 66.651100159  -999.250000  -999.250000 1.9124000072 1.8517999649
 2981.8583984 6.0000000000 12.419899940 12.250000954 120.07152557 0.0313999988 0.2219000012 2.4684000015 5.1230001450 63.897701263  -999.250000  -999.250000 1.9032000303 1.8233000040
 2982.0107422 6.0000000000 12.413800240 12.250000954 122.67617798 0.0239000004 0.2190999985 2.4579000473 4.9997000694 73.738502502  -999.250000  -999.250000 1.9420000315 1.8514000177
 2982.1633301 6.0000000000 12.411499977 12.250000954 125.58562469 0.0264999997 0.2108000070 2.4741001129 4.8529000282 72.659301758  -999.250000  -999.250000 1.9936000109 1.9072999954
 2982.3156738 6.0000000000 12.413000107 12.250000954 124.41403961 0.0182000007 0.2110999972 2.4628000259 4.4193000793 69.537399292  -999.250000  -999.250000 1.9780000448 1.9142999649
 2982.4680176 6.0000000000 12.426300049 12.250000954 125.88385773 0.0267999992 0.2207999974 2.4577000141 4.8386001587 74.011001587  -999.250000  -999.250000 1.9168000221 1.8906999826
 2982.6203613 5.0000000000 12.422699928 12.250000954 129.66731262 0.0289999992 0.2180999964 2.4570000172 5.3178000450 71.142898560  -999.250000  -999.250000 1.8705999851 1.8560999632
 2982.7727051 5.0000000000 12.435800552 12.250000954 124.99179840 0.0342000015 0.2252999991 2.4649000168 5.6725997925 71.434303284  -999.250000  -999.250000 1.8532999754 1.8169000149
 2982.9252930 5.0000000000 12.445799828 12.250000954 126.37269592 0.0368999988 0.2198999971 2.4765999317 5.5541000366 71.698097229  -999.250000  -999.250000 1.8277000189 1.7790999413
 2983.0776367 5.0000000000 12.448700905 12.250000954 130.54461670 0.0311999992 0.2205000073 2.4581999779 5.3260998726 68.967201233  -999.250000  -999.250000 1.8107999563 1.7446000576
 2983.2299805 5.0000000000 12.448100090 12.250000954 133.00099182 0.0261000004 0.2223999947 2.4581000805 5.0086002350 67.238403320  -999.250000  -999.250000 1.8030999899 1.7400000095
 2983.3823242 5.0000000000 12.453100204 12.250000954 132.34252930 0.0208999999 0.2310000062 2.4618000984 4.8600001335 65.800201416  -999.250000  -999.250000 1.8445999622 1.7666000128
 2983.5349121 5.0000000000 12.452899933 12.250000954 134.53411865 0.0221999995 0.2261999995 2.4486000538 4.8091001511 65.604598999  -999.250000  -999.250000 1.8518999815 1.7889000177
 2983.6872559 5.0000000000 12.453200340 12.250000954 133.59153748 0.0163000003 0.2231999934 2.4456000328 4.8262000084 63.087600708  -999.250000  -999.250000 1.8666000366 1.8065999746
 2983.8395996 5.0000000000 12.444299698 12.250000954 129.82841492 0.0161000006 0.2176000029 2.4667000771 4.2870001793 57.407199860  -999.250000  -999.250000 1.9078999758 1.8575999737
 2983.9919434 5.0000000000 12.447501183 12.250000954 126.62106323 0.0195000004 0.2138999999 2.4628000259 4.5665001869 71.631599426  -999.250000  -999.250000 1.9545999765 1.9072999954
 2984.1445313 5.0000000000 12.439399719 12.250000954 125.34678650 0.0194000024 0.2163999975 2.4553999901 4.5390000343 81.853996277  -999.250000  -999.250000 1.9961999655 1.9512000084
 2984.2968750 6.0000000000 12.431900024 12.250000954 128.22669983 0.0172000006 0.2065999955 2.4568998814 4.3892998695 70.360198975  -999.250000  -999.250000 2.0724999905 2.0150001049
 2984.4492188 6.0000000000 12.435000420 12.250000954 136.16273499 0.0184000004 0.2043000013 2.4593000412 4.4556999207 67.126701355  -999.250000  -999.250000 2.1154999733 2.0592999458
 2984.6015625 6.0000000000 12.446400642 12.250000954 134.14074707 0.0192000009 0.2041999996 2.4611999989 4.6999998093 57.195999146  -999.250000  -999.250000 2.1426999569 2.1138999462
 2984.7539063 6.0000000000 12.441599846 12.250000954 120.41831207 0.0221999995 0.2016000003 2.4691998959 4.4489998817 65.054801941  -999.250000  -999.250000 2.1589999199 2.1380000114
 2984.9064941 6.0000000000 12.475600243 12.250000954 102.13221741 0.0209999997 0.2011999935 2.4690001011 4.5946998596 74.930397034  -999.250000  -999.250000 2.1926999092 2.1505000591
 2985.0588379 6.0000000000 12.465100288 12.250000954 73.835296631 0.0248000007 0.2064000070 2.4732000828 4.7548999786 75.701103210  -999.250000  -999.250000 2.1947000027 2.1561999321
 2985.2111816 6.0000000000 12.490699768 12.250000954 52.852035522 0.0282000005 0.2066999972 2.4695000648 5.0437998772 71.342300415  -999.250000  -999.250000 2.1817998886 2.1531999111
 2985.3635254 6.0000000000 12.471300125 12.250000954 42.541996002 0.0229000002 0.2145999968 2.4635000229 5.2604999542 71.029502869  -999.250000  -999.250000 2.1521999836 2.1314001083
 2985.5161133 6.0000000000 12.471699715 12.250000954 34.125984192 0.0384000018 0.2324000001 2.4802999496 5.8811001778 70.420997620  -999.250000  -999.250000 2.0727000237 2.0380001068
 2985.6684570 6.0000000000 12.484298706 12.250000954 48.230972290 0.0381000005 0.2275000066 2.4914000034 5.5767002106 73.354202271  -999.250000  -999.250000 1.9664000273 1.9196000099
 2985.8208008 6.0000000000 12.461899757 12.250000954 106.57218170 0.0428000018 0.2125000060 2.4904999733 5.6224999428 79.068397522  -999.250000  -999.250000 1.8861000538 1.8361999989
 2985.9731445 6.0000000000 12.420100212 12.250000954 111.36483002 0.0489000008 0.2463999987 2.4921998978 5.9711999893 65.936897278  -999.250000  -999.250000 1.8214000463 1.7609000206
 2986.1257324 6.0000000000 12.427000999 12.250000954 92.876968384 0.0491999984 0.2356999964 2.4862999916 6.1663999557 76.097099304  -999.250000  -999.250000 1.8066999912 1.7247999907
 2986.2780762 6.0000000000 12.385699272 12.250000954 80.798553467 0.0408999994 0.2250999957 2.4842000008 5.5826001167 63.677501678  -999.250000  -999.250000 1.7992000580 1.7118999958
 2986.4304199 6.0000000000 12.380800247 12.250000954 86.305450439 0.0410000011 0.2205999941 2.4818000793 5.4735999107 66.477996826  -999.250000  -999.250000 1.8368999958 1.7459000349
 2986.5827637 6.0000000000 12.411199570 12.250000954 97.440612793 0.0351000018 0.2037000060 2.4888000488 5.3330998421 68.550498962  -999.250000  -999.250000 1.9204000235 1.8378000259
 2986.7351074 6.0000000000 12.455899239 12.250000954 95.304138184 0.0298999995 0.2108000070 2.4814000130 5.3000998497 70.295898438  -999.250000  -999.250000 2.0032000542 1.9500000477
 2986.8876953 6.0000000000 12.465299606 12.250000954 83.294288635 0.0318000019 0.2117000073 2.4849998951 5.3333997726 73.619400024  -999.250000  -999.250000 2.0868000984 2.0518000126
 2987.0400391 6.0000000000 12.464400291 12.250000954 82.671920776 0.0317000002 0.2080000043 2.4867000580 5.1033000946 69.300201416  -999.250000  -999.250000 2.1208000183 2.0945000648
 2987.1923828 6.0000000000 12.434498787 12.250000954 91.519691467 0.0255999994 0.2036000043 2.4804999828 4.9484000206 67.679298401  -999.250000  -999.250000 2.1623001099 2.1421999931
 2987.3447266 6.0000000000 12.463600159 12.250000954 95.889762878 0.0212999992 0.2073999941 2.4707000256 4.9363999367 80.905998230  -999.250000  -999.250000 2.1870999336 2.1684000492
 2987.4973145 6.0000000000 12.438299179 12.250000954 94.274604797 0.0318999998 0.2136999965 2.4874000549 5.1753997803 73.580299377  -999.250000  -999.250000 2.2060999870 2.1842000484
 2987.6496582 6.0000000000 12.398699760 12.250000954 92.049873352 0.0335999988 0.2093999982 2.4839999676 5.5785999298 70.758499146  -999.250000  -999.250000 2.2332000732 2.2072999477
