# LAS format log file from PETREL
# Project units are specified as depth units
#==================================================================
~Version information
VERS.   2.0:
WRAP.   NO:
#==================================================================
~Well
STRT .m      2099.3588867 :
STOP .m      3963.2109375 :
STEP .m     0.00000000 :
NULL .        -999.250000 :
COMP.           : COMPANY
WELL.  35/8-3   : WELL
FLD.            : FIELD
LOC.            : LOCATION
SRVC.           : SERVICE COMPANY
DATE.  2018-09-11 14:49:00   : Log Export Date {yyyy-MM-dd HH:mm:ss}
PROV.           : PROVINCE
UWI.   35/8-3   : UNIQUE WELL ID
API.            : API NUMBER
#==================================================================
~Curve
DEPT .m                   : DEPTH
Lithology_geolink ._      : Lithology_geolink
DRHO .g/cm3               : DRHO
NPHI .m3/m3               : NPHI
RHOB .g/cm3               : RHOB
GR .gAPI                  : GR
DTC .us/ft                : DTC
RDEP .ohm.m               : RDEP
RSHA .ohm.m               : RSHA
RMED .ohm.m               : RMED
~Parameter
#==================================================================
~Ascii
# ...
 2959.1994629 13.000000000 -0.001100000 0.2035000026 2.6015999317 69.604896545 81.113403320 2.7825000286  -999.250000 4.7919998169
 2959.3520508 13.000000000 -0.003100000 0.2115000039 2.5750999451 69.221603394 83.507003784 2.7160999775  -999.250000 4.3996000290
 2959.5043945 13.000000000 -0.003700000 0.2311999947 2.5548999310 74.287300110 86.589996338 2.5796999931  -999.250000 4.5384001732
 2959.6567383 13.000000000 -0.003000000 0.2513999939 2.5455999374 79.729896545 89.482200623 2.3910000324  -999.250000 5.4911999702
 2959.8090820 13.000000000 -0.002800000 0.2570999861 2.5397000313 85.226799011 93.426300049 2.1984999180  -999.250000 6.3899002075
 2959.9616699 13.000000000 -0.003200000 0.2535000145 2.5297999382 82.589599609 93.149810791 2.0504999161  -999.250000 6.4807000160
 2960.1140137 13.000000000 -0.002500000 0.2574000061 2.5232999325 86.529197693 93.125007629 1.9493999481  -999.250000 5.5598001480
 2960.2663574 13.000000000 -0.001300000 0.2687000036 2.5243999958 86.809402466 93.006202698 1.8601000309  -999.250000 4.4335999489
 2960.4187012 13.000000000 -0.001800000 0.2761000097 2.5232000351 90.613800049 91.812110901 1.8029999733  -999.250000 3.4930000305
 2960.5712891 13.000000000 -0.003300000 0.2748999894 2.5157001019 85.466903687 93.175506592 1.7741999626  -999.250000 3.1561999321
 2960.7236328 13.000000000 -0.005300000 0.2678000033 2.5051999092 83.702598572 93.131202698 1.7547999620  -999.250000 3.2994000912
 2960.8759766 13.000000000 -0.006400000 0.2621000111 2.5025999546 85.707298279 92.767990112 1.7491999865  -999.250000 3.5494999886
 2961.0283203 13.000000000 -0.006100000 0.2642999887 2.5078001022 85.990699768 92.274803162 1.7547999620  -999.250000 3.4946000576
 2961.1806641 13.000000000 -0.005500000 0.2700999975 2.5120000839 89.741897583 91.656097412 1.7688000202  -999.250000 3.5262999535
 2961.3332520 13.000000000 -0.004900000 0.2718000114 2.5146999359 91.660003662 91.743797302 1.7934999466  -999.250000 3.3645000458
 2961.4855957 13.000000000 -0.003600000 0.2678999901 2.5174999237 91.037300110 91.274803162 1.8427000046  -999.250000 3.1206998825
 2961.6379395 13.000000000 -0.001700000 0.2694999874 2.5243000984 89.633796692 91.131202698 1.9494999647  -999.250000 2.7711999416
 2961.7902832 13.000000000 -0.000200000 0.2714999914 2.5327999592 87.721298218 91.481391907 2.0645000935  -999.250000 2.1617999077
 2961.9428711 13.000000000 0.0016000000 0.2601000071 2.5401000977 89.050498962 87.579902649 2.2067999840  -999.250000 1.7917000055
 2962.0952148 13.000000000 0.0043000001 0.2282000035 2.5518999100 85.685600281 81.682197571 2.4528000355  -999.250000 1.6569000483
 2962.2475586 13.000000000 0.0066999998 0.1888999939 2.5769999027 79.263496399 73.534896851 2.7374000549  -999.250000 1.6114000082
 2962.3999023 13.000000000 0.0077999998 0.1680999994 2.6127998829 70.087600708 67.185501099 2.9151999950  -999.250000 1.6994999647
 2962.5524902 13.000000000 0.0083999997 0.1723999977 2.6433000565 57.913200378 62.486801147 3.1542000771  -999.250000 2.1112000942
 2962.7048340 12.000000000 0.0073000002 0.1888999939 2.6526999474 53.071300507 64.384597778 3.5464000702  -999.250000 3.2200000286
 2962.8571777 12.000000000 0.0044000000 0.1978999972 2.6442000866 52.576499939 65.687896729 3.9277000427  -999.250000 5.2086000443
 2963.0095215 12.000000000 0.0019000000 0.1984000057 2.6277000904 60.699600220 71.570701599 4.2266001701  -999.250000 8.6145000458
 2963.1621094 12.000000000 0.0008000000 0.1990000010 2.6099998951 62.488899231 74.839996338 4.3585000038  -999.250000 13.067799568
 2963.3144531 13.000000000 0.0003000000 0.1990000010 2.5966999531 64.637802124 75.000000000 4.1331000328  -999.250000 24.641799927
 2963.4667969 13.000000000 -0.0000000000 0.1993000060 2.5906000137 65.105796814 77.371803284 3.6666998863  -999.250000 25.562200546
 2963.6191406 13.000000000 0.0006000000 0.2025000006 2.5889000893 69.579597473 80.469703674 3.4298999310  -999.250000 19.100099564
 2963.7714844 13.000000000 0.0005000000 0.2034000009 2.5833001137 70.643997192 81.812896729 3.2990000248  -999.250000 69.505996704
 2963.9240723 13.000000000 -0.001700000 0.2006999999 2.5780000687 70.152900696 77.836097717 3.3477001190  -999.250000 33.212501526
 2964.0764160 13.000000000 -0.003400000 0.1951999962 2.5861999989 67.219299316 71.339202881 3.5278999805  -999.250000 8.4039001465
 2964.2287598 13.000000000 -0.002100000 0.1908999979 2.6124000549 59.638099670 66.842300415 3.5576000214  -999.250000 4.8730998039
 2964.3811035 13.000000000 0.0007000000 0.1878000051 2.6396000385 53.785701752 65.674697876 3.3120000362  -999.250000 7.6795001030
 2964.5336914 12.000000000 0.0027999999 0.1852999926 2.6461999416 51.480598450 69.782699585 3.1059000492  -999.250000 259.79409790
 2964.6860352 12.000000000 0.0031999999 0.1878000051 2.6293001175 61.218799591 75.336997986 3.0350999832  -999.250000 1911.5756836
 2964.8383789 12.000000000 0.0008000000 0.1923999935 2.6033999920 67.095596313 81.089302063 3.1902999878  -999.250000 337.07449341
 2964.9907227 12.000000000 -0.002000000 0.1917999983 2.5857000351 68.800498962 83.394401550 3.2711999416  -999.250000 39.258499146
 2965.1433105 13.000000000 -0.003600000 0.1891999990 2.5815999508 67.865303040 82.193298340 3.1249001026  -999.250000 15.376299858
 2965.2956543 13.000000000 -0.005000000 0.1879000068 2.5845999718 67.871902466 79.511596680 2.9572999477  -999.250000 9.8149995804
 2965.4479980 13.000000000 -0.006000000 0.1876000017 2.5878999233 66.568298340 76.880393982 2.8373000622  -999.250000 7.6641998291
 2965.6003418 13.000000000 -0.005500000 0.1888999939 2.5906000137 63.440898895 76.512397766 2.7202000618  -999.250000 7.9581999779
 2965.7526855 13.000000000 -0.004200000 0.1875000000 2.5929999352 61.944900513 78.519401550 2.6816000938  -999.250000 6.7360000610
 2965.9052734 13.000000000 -0.004500000 0.1827999949 2.5943999290 66.210800171 78.743797302 2.7662999630  -999.250000 4.4461002350
 2966.0576172 13.000000000 -0.005200000 0.1741999984 2.5984001160 73.030296326 76.730598450 3.0155999660  -999.250000 3.0357000828
 2966.2099609 13.000000000 -0.004600000 0.1604000032 2.6075997353 75.156997681 73.536201477 3.2283000946  -999.250000 2.6154999733
 2966.3623047 13.000000000 -0.003300000 0.1406999975 2.6203999519 70.439002991 68.742202759 3.3910999298  -999.250000 2.7592000961
 2966.5148926 13.000000000 -0.002800000 0.1168000028 2.6294000149 60.179401398 66.480598450 3.5636999607  -999.250000 3.1898000240
 2966.6672363 13.000000000 -0.002900000 0.0939000025 2.6301999092 54.280998230 65.305900574 3.8159000874  -999.250000 3.9430000782
 2966.8195801 12.000000000 -0.002300000 0.0802000016 2.6275000572 49.567600250 64.179100037 3.9230000973  -999.250000 4.5131998062
 2966.9719238 12.000000000 0.0010000000 0.0807999969 2.6289000511 49.671001434 63.887001038 4.1887001991  -999.250000 4.3102998734
 2967.1245117 12.000000000 0.0063999998 0.0948000029 2.6340000629 52.419898987 66.132202148 4.4517002106  -999.250000 4.4667000771
 2967.2768555 12.000000000 0.0100999996 0.1120999977 2.6331999302 52.592201233 68.744598389 4.5683999062  -999.250000 5.3592000008
 2967.4291992 12.000000000 0.0115000000 0.1164999977 2.6245000362 50.811901093 70.894401550 4.6156001091  -999.250000 5.0714001656
 2967.5815430 12.000000000 0.0110999998 0.1055999994 2.6173999310 47.238300323 72.189903259 4.7052998543  -999.250000 4.7781000137
 2967.7338867 12.000000000 0.0093999999 0.0900000036 2.6150999069 49.200901031 68.092002869 4.8133997917  -999.250000 4.9755001068
 2967.8864746 12.000000000 0.0057000001 0.0795999989 2.6080999374 50.322200775 64.667701721 4.8187999725  -999.250000 6.4355998039
 2968.0388184 12.000000000 0.0002000000 0.0773999989 2.5926001072 50.523498535 63.312099457 4.9994997978  -999.250000 9.4371004105
 2968.1911621 12.000000000 -0.003700000 0.0830999985 2.5808000565 48.660099030 60.992801666 5.2515997887  -999.250000 8.3746004105
 2968.3435059 12.000000000 -0.004200000 0.0956000015 2.5813000202 51.205600739 62.538097382 5.4064002037  -999.250000 7.9850997925
 2968.4960938 12.000000000 -0.004000000 0.1055999994 2.5859999657 51.611000061 64.525596619 5.7354001999  -999.250000 10.443499565
