# LAS format log file from PETREL
# Project units are specified as depth units
#==================================================================
~Version information
VERS.   2.0:
WRAP.   NO:
#==================================================================
~Well
STRT .m      2099.3588867 :
STOP .m      3963.2109375 :
STEP .m     0.00000000 :
NULL .        -999.250000 :
COMP.           : COMPANY
WELL.  35/8-3   : WELL
FLD.            : FIELD
LOC.            : LOCATION
SRVC.           : SERVICE COMPANY
DATE.  2018-09-11 14:49:00   : Log Export Date {yyyy-MM-dd HH:mm:ss}
PROV.           : PROVINCE
UWI.   35/8-3   : UNIQUE WELL ID
API.            : API NUMBER
#==================================================================
~Curve
DEPT .m                   : DEPTH
Lithology_geolink ._      : Lithology_geolink
DRHO .g/cm3               : DRHO
NPHI .m3/m3               : NPHI
RHOB .g/cm3               : RHOB
GR .gAPI                  : GR
DTC .us/ft                : DTC
RDEP .ohm.m               : RDEP
RSHA .ohm.m               : RSHA
RMED .ohm.m               : RMED
~Parameter
#==================================================================
~Ascii
# ...
 3819.0405273 1.0000000000 -0.017400000 0.1368999928 2.3986001015 29.533191681 77.443267822 2.5852999687 1.7313427925 1.9460999966
 3819.1931152 1.0000000000 -0.017100001 0.1869000047 2.3987998962 32.688724518 78.052246094 2.5241000652 1.5726749897 1.9006999731
 3819.3454590 1.0000000000 -0.012600000 0.2547000051 2.4135000706 47.043083191 78.130325317 2.4978001118 2.0664317608 1.8740999699
 3819.4978027 5.0000000000 -0.006700000 0.2845999897 2.4121000767 58.259017944 81.445838928 2.6963000298 4.0199890137 1.9921000004
 3819.6501465 5.0000000000 0.0004000000 0.2460999936 2.3815000057 66.114852905 83.642662048 3.5431001186 5.5048375130 2.5685000420
 3819.8027344 5.0000000000 0.0120999999 0.1801999956 2.3434998989 62.708988190 84.423599243 6.3965001106 3.2778303623 4.4215002060
 3819.9550781 5.0000000000 0.0333000049 0.1429000050 2.3324999809 58.367290497 83.392425537 10.359000206 0.9509024024 7.4205999374
 3820.1074219 2.0000000000 0.0582000017 0.1383000016 2.3508999348 53.059906006 81.032363892 10.605799675 0.8901400566 8.5158996582
 3820.2597656 2.0000000000 0.0719999969 0.1465999931 2.3770000935 49.952651978 77.209350586 8.0431995392 0.9150847793 7.0644001961
 3820.4121094 2.0000000000 0.0703999996 0.1591999978 2.4142999649 51.916152954 75.865730286 6.4400000572 0.9059187770 5.8611998558
 3820.5646973 2.0000000000 0.0627999976 0.1727000028 2.4725000858 52.146759033 75.197509766 6.2149000168 1.1060286760 5.7197999954
 3820.7170410 2.0000000000 0.0606000014 0.1788000017 2.5334000587 55.501892090 75.012245178 6.7073998451 1.5862909555 6.2157998085
 3820.8693848 2.0000000000 0.0621999986 0.1745000035 2.5604999065 58.183361053 73.671585083 7.9527997971 4.1419677734 7.3706998825
 3821.0217285 2.0000000000 0.0582000017 0.1651999950 2.5487999916 62.339221954 72.726860046 9.4341001511 8.5441665649 8.7765998840
 3821.1743164 5.0000000000 0.0516000018 0.1565999985 2.5409998894 66.416381836 72.513145447 10.862400055 7.9522233009 10.059100151
 3821.3266602 5.0000000000 0.0474000014 0.1500000060 2.5676000118 70.470138550 72.056632996 11.842900276 4.6922230721 10.864100456
 3821.4790039 5.0000000000 0.0339000002 0.1451999992 2.5992000103 75.414535522 70.896446228 12.464400291 6.8952717781 11.336299896
 3821.6313477 5.0000000000 0.0141000003 0.1427000016 2.6029999256 74.565025330 72.296455383 12.410300255 12.112334251 11.169400215
 3821.7839355 5.0000000000 0.0059000002 0.1419000030 2.5731000900 74.704650879 72.832298279 12.680100441 13.001523972 11.268600464
 3821.9362793 5.0000000000 0.0152000003 0.1433999985 2.5309000015 74.255142212 73.207763672 13.164600372 11.668552399 11.724900246
 3822.0886230 5.0000000000 0.0388000049 0.1484999955 2.4993000031 75.391899109 74.243988037 13.874300003 11.070121765 12.458600044
 3822.2409668 5.0000000000 0.0675000027 0.1568000019 2.4807999134 69.147621155 74.487533569 13.222599983 6.3419671059 12.173100471
 3822.3933105 5.0000000000 0.0855000019 0.1657000035 2.4660000801 60.991813660 75.824073792 11.222000122 1.7723655701 10.600799561
 3822.5458984 5.0000000000 0.0762000009 0.1748999953 2.4549002647 55.892292023 75.554779053 9.0040092468 1.0654890537 8.7768001556
 3822.6982422 2.0000000000 0.0527000017 0.1872999966 2.4814000130 55.960563660 74.396270752 7.1049952507 1.0308799744 7.1303000450
 3822.8505859 2.0000000000 0.0351999998 0.2026000023 2.5553998947 61.360809326 75.684799194 6.1676549911 1.0190644264 6.2388000488
 3823.0029297 2.0000000000 0.0200999994 0.2135999948 2.6261999607 63.116626740 75.430404663 6.2651667595 1.4378943443 6.3211998940
 3823.1555176 2.0000000000 0.0038000001 0.2181999981 2.6470999718 66.554580688 73.494972229 6.9347205162 4.5082054138 6.9425997734
 3823.3078613 5.0000000000 -0.006300000 0.2215999961 2.6335999966 64.462623596 72.366104126 8.4711933136 11.090626717 8.4221000671
 3823.4602051 5.0000000000 -0.008400000 0.2247000039 2.6224999428 65.283828735 71.807601929 10.838274956 16.154174805 10.828700066
 3823.6125488 5.0000000000 -0.008400000 0.2201000005 2.6226999760 65.057838440 71.308586121 13.128915787 16.886619568 13.323900223
 3823.7651367 5.0000000000 -0.007900000 0.2133000046 2.6305000782 69.189010620 71.361152649 13.887130737 16.963079453 14.343799591
 3823.9174805 5.0000000000 -0.007100000 0.2157000005 2.6401998997 67.540527344 71.596107483 14.053215027 17.331163406 14.543399811
 3824.0698242 5.0000000000 -0.005500000 0.2349999994 2.6487998962 66.309013367 71.843551636 14.375047684 17.933765411 14.799799919
 3824.2221680 5.0000000000 -0.004900000 0.2766999900 2.6508998871 64.703186035 70.439086914 14.903892517 19.783338547 15.222000122
 3824.3745117 5.0000000000 -0.005800000 0.3260000050 2.6428999901 68.310485840 69.810356140 15.398160934 20.741964340 15.627799988
 3824.5270996 5.0000000000 -0.006900000 0.3689000010 2.5945999622 69.859245300 70.997169495 15.811824799 20.477853775 15.911000252
 3824.6794434 5.0000000000 -0.011300000 0.4020000100 2.4663000107 69.279914856 81.311759949 16.351345062 22.678266525 16.382499695
 3824.8317871 5.0000000000 -0.016300000 0.4223000109 2.3229000568 68.417236328 89.818435669 17.687316895 24.636322021 17.653400421
 3824.9841309 5.0000000000 -0.012300000 0.4156000018 2.2583999634 70.738357544 93.512672424 17.007673264 15.785202026 17.031200409
 3825.1367188 5.0000000000 0.0004000000 0.3601999879 2.2837998867 66.457908630 92.430885315 13.742674828 4.2520089149 14.255599976
 3825.2890625 5.0000000000 0.0133999996 0.2793999910 2.3510999680 61.561489105 90.360572815 10.868708611 1.4839959145 11.782699585
 3825.4414063 5.0000000000 0.0216000006 0.2177000046 2.4103999138 56.638816833 82.484031677 10.685298920 2.4809014797 11.859999657
 3825.5937500 5.0000000000 0.0245999992 0.1985999942 2.4549002647 60.778842926 75.525604248 9.6861867905 4.1055655479 10.798700333
 3825.7463379 5.0000000000 0.0210999995 0.2136999965 2.4855999947 71.306991577 73.545455933 8.5533342361 6.5820956230 9.6372995377
 3825.8986816 7.0000000000 0.0147000002 0.2383999974 2.5053999424 82.351631165 77.239639282 7.5351014137 8.4470138550 8.5278997421
 3826.0510254 7.0000000000 0.0031000001 0.2633000016 2.4574999809 94.015968323 77.642028809 6.9129471779 6.7697548866 7.7753000259
 3826.2033691 7.0000000000 -0.021800000 0.2854999900 2.2788000107 91.990715027 79.284835815 6.8191084862 4.6879577637 7.5384001732
 3826.3557129 7.0000000000 -0.046000000 0.3142000139 2.1212000847 84.682090759 80.061508179 7.5760121346 6.0414619446 8.1568002701
 3826.5083008 18.000000000 -0.047899999 0.3592999876 2.1257998943 69.311515808 85.449447632 10.156016350 11.904808998 10.528200150
 3826.6606445 18.000000000 -0.024300000 0.3925999999 2.2697000504 57.286079407 93.324104309 15.830701828 21.537891388 15.213299751
 3826.8129883 18.000000000 -0.002900000 0.3964000046 2.4128000736 53.550052643 100.56713867 16.137044907 24.690366745 14.444299698
 3826.9653320 18.000000000 0.0018000000 0.3774000108 2.4614999294 62.262619019 109.43926239 12.297712326 12.503692627 10.832799911
 3827.1179199 18.000000000 0.0040000002 0.3655000031 2.4762001038 73.946823120 112.60091400 9.2440948486 1.4066461325 8.2426996231
 3827.2702637 18.000000000 0.0077000000 0.3817000091 2.4851999283 81.272552490 113.72576141 6.5610151291 0.2994730771 5.9549999237
 3827.4226074 7.0000000000 0.0108000003 0.3996999860 2.4921000004 81.122222900 93.624191284 5.0132756233 0.2203155458 4.5883002281
 3827.5749512 7.0000000000 0.0124000004 0.3831000030 2.5106999874 80.892822266 84.141532898 5.1860785484 0.1678070426 4.7670001984
 3827.7275391 7.0000000000 0.0124000004 0.3181999922 2.5438001156 83.052726746 82.471588135 5.8614487648 0.2382459193 5.2740998268
 3827.8798828 7.0000000000 0.0119000003 0.2354000062 2.5785000324 90.823944092 80.709732056 6.9060792923 1.4097931385 6.1150999069
 3828.0322266 7.0000000000 0.0099999998 0.1773999929 2.5973999500 94.460212708 74.748619080 7.8281016350 4.3372192383 6.8699002266
 3828.1845703 7.0000000000 0.0049000001 0.1571999937 2.5973999500 90.648849487 73.888313293 8.0781288147 6.5923347473 7.0682001114
 3828.3369141 7.0000000000 0.0008000000 0.1561000049 2.5896999836 80.015861511 73.212989807 7.9703655243 6.8628740311 6.9331002235
