# LAS format log file from PETREL
# Project units are specified as depth units
#==================================================================
~Version information
VERS.   2.0:
WRAP.   NO:
#==================================================================
~Well
STRT .m      2099.3588867 :
STOP .m      3963.2109375 :
STEP .m     0.00000000 :
NULL .        -999.250000 :
COMP.           : COMPANY
WELL.  35/8-3   : WELL
FLD.            : FIELD
LOC.            : LOCATION
SRVC.           : SERVICE COMPANY
DATE.  2018-09-11 14:49:00   : Log Export Date {yyyy-MM-dd HH:mm:ss}
PROV.           : PROVINCE
UWI.   35/8-3   : UNIQUE WELL ID
API.            : API NUMBER
#==================================================================
~Curve
DEPT .m                   : DEPTH
Lithology_geolink ._      : Lithology_geolink
DRHO .g/cm3               : DRHO
NPHI .m3/m3               : NPHI
RHOB .g/cm3               : RHOB
GR .gAPI                  : GR
DTC .us/ft                : DTC
RDEP .ohm.m               : RDEP
RSHA .ohm.m               : RSHA
RMED .ohm.m               : RMED
~Parameter
#==================================================================
~Ascii
# ...
 3573.3715820 6.0000000000 0.0038000001 0.2718999982 2.7265000343 82.353996277 78.256401062 8.0530004501 9.3016996384 7.2375998497
 3573.5239258 6.0000000000 0.0035000001 0.2723000050 2.7395000458 85.369796753 77.573097229 7.9359002113 9.3627004623 6.9868001938
 3573.6765137 6.0000000000 -0.002400000 0.2752000093 2.7002999783 83.873596191 78.493400574 7.5180997849 8.9159002304 6.8519001007
 3573.8288574 6.0000000000 -0.006600000 0.2777000070 2.6561999321 82.631599426 79.618392944 7.2518000603 7.9277000427 6.2961997986
 3573.9812012 6.0000000000 -0.007800000 0.2847000062 2.6298000813 87.025398254 79.860397339 7.3248000145 8.0272998810 6.3685998917
 3574.1335449 6.0000000000 -0.009200000 0.2912000120 2.6140000820 84.920196533 80.758209229 6.9991002083 8.4898996353 6.2046999931
 3574.2861328 6.0000000000 -0.012000000 0.2946000099 2.5999999046 85.500701904 81.868400574 6.9260997772 8.5656003952 6.3853001595
 3574.4384766 6.0000000000 -0.013300000 0.2928000093 2.5885000229 82.148101807 81.558502197 7.1132001877 8.3126001358 6.5328998566
 3574.5908203 6.0000000000 -0.012800000 0.2854999900 2.5866000652 87.095901489 81.610397339 7.0665001869 8.3025999069 6.5682997704
 3574.7431641 6.0000000000 -0.012100000 0.2797000110 2.5903999805 88.695701599 81.625000000 6.8819999695 8.5628004074 6.0650000572
 3574.8955078 6.0000000000 -0.009700001 0.2851000130 2.5954000950 90.854499817 82.728797913 6.8762998581 8.0004997253 5.9414000511
 3575.0480957 6.0000000000 -0.005900000 0.2984000146 2.5994999409 86.489196777 83.868400574 6.8001999855 7.2781000137 5.6373000145
 3575.2004395 6.0000000000 -0.003700000 0.3107999861 2.6013998985 89.682998657 84.772605896 6.3512001038 8.1782999039 5.4871997833
 3575.3527832 6.0000000000 -0.002800000 0.3181999922 2.6110999584 92.781898499 85.095802307 6.4794998169 8.0771999359 5.6045999527
 3575.5051270 6.0000000000 -0.002000000 0.3258000016 2.6296999454 95.718803406 85.566497803 6.3147997856 6.9282999039 5.5324001312
 3575.6577148 6.0000000000 0.0001000000 0.3366000056 2.6426000595 90.212501526 84.741996765 6.2399001122 6.9932999611 5.4528999329
 3575.8100586 6.0000000000 0.0029000000 0.3384000063 2.6308999062 82.980499268 85.066497803 6.1538000107 7.5233998299 5.3221998215
 3575.9624023 6.0000000000 0.0057000001 0.3271000087 2.5989000797 79.420799255 84.021209717 6.3541998863 8.1992998123 5.4993000031
 3576.1147461 6.0000000000 0.0149999997 0.3050000072 2.5757999420 76.242797852 82.769195557 6.7820000648 8.8804998398 5.9113001823
 3576.2673340 6.0000000000 0.0324000008 0.2831000090 2.5792996883 75.266799927 80.966300964 7.4774999619 8.5375995636 6.5124001503
 3576.4196777 6.0000000000 0.0471000001 0.2712000012 2.5971999168 70.598602295 78.649002075 8.1098003387 8.6618003845 7.0659999847
 3576.5720215 16.000000000 0.0577000007 0.2712000012 2.6143000126 71.379997253 79.147789001 8.0710000992 9.6394996643 7.0342998505
 3576.7243652 16.000000000 0.0684000030 0.2802999914 2.6236999035 73.442298889 79.581703186 7.9355001450 9.5694999695 6.9061999321
 3576.8767090 16.000000000 0.0756999999 0.2890999913 2.6206998825 80.487998962 79.514404297 7.6890001297 8.5419998169 6.7069997787
 3577.0292969 16.000000000 0.0816000029 0.2908000052 2.6166999340 82.038497925 79.610603333 7.4608998299 6.8575000763 6.4801001549
 3577.1816406 6.0000000000 0.0868000016 0.2888000011 2.6222000122 82.401000977 79.845809937 7.2466001511 5.3903999329 6.1992001534
 3577.3339844 6.0000000000 0.0822999999 0.2881000042 2.6254000664 79.009597778 79.653793335 6.8966999054 4.5185999870 5.8319997787
 3577.4863281 6.0000000000 0.0683000013 0.2897999883 2.6089000702 80.663497925 79.846099854 6.6385002136 3.8945000172 5.7284998894
 3577.6389160 6.0000000000 0.0485999994 0.2946000099 2.5671000481 84.365402222 81.091300964 6.3538999557 3.5039000511 5.5219998360
 3577.7912598 6.0000000000 0.0260000005 0.3034000099 2.5167996883 89.780502319 82.464401245 6.0482001305 3.2223999500 5.2248997688
 3577.9436035 6.0000000000 0.0137000000 0.3181000054 2.4990999699 92.093101501 83.618400574 6.0230998993 2.4110000134 5.2107000351
 3578.0959473 6.0000000000 0.0137000000 0.3316000104 2.5248000622 90.100997925 85.519195557 6.0942001343 1.8063000441 5.2651000023
 3578.2485352 6.0000000000 0.0142999999 0.3276999891 2.5636000633 89.260498047 86.633201599 6.3074998856 2.2709999084 5.4570999146
 3578.4008789 6.0000000000 0.0111999996 0.3106999993 2.5945999622 86.041801453 85.425498962 6.6655998230 3.3747999668 5.7677001953
 3578.5532227 6.0000000000 0.0063999998 0.3003999889 2.6112999916 84.024497986 85.139602661 6.8639001846 4.6164999008 5.9535999298
 3578.7055664 6.0000000000 0.0019000000 0.3046999872 2.6094999313 84.475997925 85.567298889 6.9966998100 5.9587998390 6.0868000984
 3578.8579102 6.0000000000 -0.001700000 0.3133000135 2.5896000862 85.834098816 84.298103333 7.0283999443 7.4633998871 6.1189999580
 3579.0104980 6.0000000000 -0.005200000 0.3127999902 2.5673999786 90.912803650 83.683403015 6.6619000435 7.7045998573 5.8227000237
 3579.1628418 6.0000000000 -0.006200000 0.3116999865 2.5657000542 92.666297913 85.170295715 5.9541997910 6.6192002296 5.1673998833
 3579.3151855 6.0000000000 -0.004500000 0.3154999912 2.5803000927 92.591300964 84.490402222 5.2817997932 5.6928000450 4.6036000252
 3579.4675293 6.0000000000 -0.005200000 0.3201000094 2.5866999626 91.677902222 83.600997925 5.0117001534 5.5998001099 4.3720002174
 3579.6201172 6.0000000000 -0.008300000 0.3172999918 2.5769999027 88.581703186 83.279197693 5.1865000725 5.7396001816 4.5116000175
 3579.7724609 6.0000000000 -0.008800000 0.3097000122 2.5599000454 91.498802185 83.691497803 5.6086997986 5.6640000343 4.9340000153
 3579.9248047 6.0000000000 -0.008100000 0.3097999990 2.5425000191 91.606399536 83.860397339 6.0336999893 5.3590002060 5.2423000336
 3580.0771484 6.0000000000 -0.009100000 0.3107999861 2.5288999081 92.944702148 84.427894592 6.3326001167 4.8260002136 5.5637001991
 3580.2297363 6.0000000000 -0.009700001 0.3057000041 2.5251998901 93.125000000 84.389602661 5.5213999748 4.6862998009 4.8256998062
 3580.3820801 6.0000000000 -0.010200000 0.2924999893 2.5299999714 90.034500122 84.264602661 4.8598999977 4.6419000626 4.3274998665
 3580.5344238 6.0000000000 -0.013100000 0.2847000062 2.5376000404 87.693397522 84.691497803 4.9032001495 3.7300000191 4.2463002205
 3580.6867676 6.0000000000 -0.014000000 0.2917999923 2.5552999973 86.057502747 84.970802307 5.1687998772 3.3801999092 4.4358000755
 3580.8393555 6.0000000000 -0.009400000 0.3082000017 2.5840001106 85.875000000 84.227401733 5.4489002228 5.5001001358 4.6732997894
 3580.9916992 6.0000000000 -0.004800000 0.3244000077 2.6085000038 89.020698547 84.125007629 5.9425997734 7.6869997978 5.0296998024
 3581.1440430 6.0000000000 -0.002800000 0.3287000060 2.6177000999 88.168197632 84.014602661 6.6156001091 8.6875000000 5.7048001289
 3581.2963867 6.0000000000 -0.001200000 0.3231999874 2.6154999733 86.120201111 83.889396667 6.8461999893 8.6584997177 5.9361000061
 3581.4487305 6.0000000000 0.0003000000 0.3199000061 2.6089999676 80.962196350 84.206199646 6.5690999031 8.3301000595 5.7810997963
 3581.6013184 6.0000000000 0.0008000000 0.3192000091 2.6047999859 81.361099243 83.808502197 6.9264001846 8.4390001297 6.0648999214
 3581.7536621 6.0000000000 0.0008000000 0.3133000135 2.6087000370 82.990097046 83.639602661 7.4190001488 8.0886001587 6.3440999985
 3581.9060059 6.0000000000 -0.000300000 0.3039000034 2.6145000458 85.394996643 83.845710754 7.7330999374 8.4956998825 6.5254001617
 3582.0583496 6.0000000000 -0.003300000 0.3014999926 2.6138000488 86.460296631 83.764595032 7.8355998993 9.2177000046 6.5392999649
 3582.2109375 6.0000000000 -0.007600000 0.3080999851 2.6098001003 89.487503052 83.639602661 7.4590997696 8.8817996979 6.4537000656
 3582.3632813 6.0000000000 -0.011300000 0.3143000007 2.6112999916 90.206100464 84.066490173 7.2410998344 8.5005998611 6.2347998619
 3582.5156250 6.0000000000 -0.012500000 0.3136999905 2.6145000458 88.539199829 84.897598267 6.9404997826 8.5284996033 5.9689998627
 3582.6679688 6.0000000000 -0.012000000 0.3082000017 2.6110000610 88.643699646 84.889602661 6.6545000076 8.4131002426 5.6659998894
