# LAS format log file from PETREL
# Project units are specified as depth units
#==================================================================
~Version information
VERS.   2.0:
WRAP.   NO:
#==================================================================
~Well
STRT .m      1821.0274658 :
STOP .m      4027.3225098 :
STEP .m     0.00000000 :
NULL .        -999.250000 :
COMP.           : COMPANY
WELL.  35/8-6 S   : WELL
FLD.            : FIELD
LOC.            : LOCATION
SRVC.           : SERVICE COMPANY
DATE.  2018-09-11 14:49:01   : Log Export Date {yyyy-MM-dd HH:mm:ss}
PROV.           : PROVINCE
UWI.   35/8-6 S   : UNIQUE WELL ID
API.            : API NUMBER
#==================================================================
~Curve
DEPT .m                   : DEPTH
Lithology_geolink ._      : Lithology_geolink
CALI .in                  : CALI
BS .in                    : BS
ROP .m/h                  : ROP
DRHO .g/cm3               : DRHO
NPHI .m3/m3               : NPHI
RHOB .g/cm3               : RHOB
PEF .b/e                  : PEF
GR .gAPI                  : GR
DTC .us/ft                : DTC
DTS .us/ft                : DTS
RDEP .ohm.m               : RDEP
RMED .ohm.m               : RMED
~Parameter
#==================================================================
~Ascii
# ...
 3276.1428223 6.0000000000 12.421199799 12.250000954 141.22637939 0.0318999998 0.2087000012 2.5030000210 5.4323000908 79.145698547  -999.250000  -999.250000 2.2242999077 2.1814999580
 3276.2951660 6.0000000000 12.420100212 12.250000954 150.80445862 0.0353000015 0.2148000002 2.5102000237 5.1985001564 85.325302124  -999.250000  -999.250000 2.1761999130 2.1250000000
 3276.4475098 6.0000000000 12.397200584 12.250000954 146.34449768 0.0366999991 0.2113000005 2.5062999725 5.4977002144 76.155296326  -999.250000  -999.250000 2.1449999809 2.0557000637
 3276.6000977 6.0000000000 12.389397621 12.250000954 130.87500000 0.0346999988 0.2135999948 2.4993999004 5.4422001839 81.100303650  -999.250000  -999.250000 2.1967000961 2.0940001011
 3276.7524414 6.0000000000 12.369001389 12.250000954 120.14173126 0.0320999995 0.2083999962 2.4958999157 5.4229001999 73.331001282  -999.250000  -999.250000 2.2992999554 2.1923999786
 3276.9047852 6.0000000000 12.366299629 12.250000954 111.13353729 0.0406000018 0.2039999962 2.5074000359 5.4197001457 74.316001892  -999.250000  -999.250000 2.4033000469 2.3143000603
 3277.0571289 6.0000000000 12.407199860 12.250000954 98.875000000 0.0339000002 0.1963000000 2.5058999062 5.4474000931 70.362998962  -999.250000  -999.250000 2.5443000793 2.4584000111
 3277.2097168 6.0000000000 12.416700363 12.250000954 86.707351685 0.0397999994 0.1905000061 2.5290999413 6.0346999168 72.629501343  -999.250000  -999.250000 2.5415999889 2.4904999733
 3277.3620605 6.0000000000 12.420498848 12.250000954 87.632873535 0.0337000005 0.1890999973 2.5364999771 5.6266999245 75.270103455  -999.250000  -999.250000 2.2929000854 2.2502999306
 3277.5144043 6.0000000000 12.468600273 12.250000954 102.86975098 0.0262000002 0.1894000024 2.5195999146 5.1031999588 77.818901062  -999.250000  -999.250000 2.2111999989 2.1821999550
 3277.6667480 6.0000000000 12.451399803 12.250000954 128.55085754 0.0182000007 0.2034000009 2.4869000912 4.7936000824 69.540397644  -999.250000  -999.250000 2.2021000385 2.1582000256
 3277.8190918 6.0000000000 12.437198639 12.250000954 126.98130035 0.0125000002 0.2081999928 2.4762001038 4.5906000137 81.803596497  -999.250000  -999.250000 2.1730000973 2.0806000233
 3277.9716797 6.0000000000 12.436901093 12.250000954 121.25065613 0.0197999999 0.2075999975 2.4848999977 4.8656001091 86.898300171  -999.250000  -999.250000 2.1349000931 2.0164000988
 3278.1240234 6.0000000000 12.463800430 12.250000954 115.54068756 0.0259000007 0.2163999975 2.4823999405 5.2562999725 76.576499939  -999.250000  -999.250000 2.1082999706 1.9811999798
 3278.2763672 6.0000000000 12.451199532 12.250000954 110.28477478 0.0292000007 0.2131000012 2.4897000790 5.4600000381 73.122901917  -999.250000  -999.250000 2.1435999870 2.0127000809
 3278.4287109 6.0000000000 12.389900208 12.250000954 100.98130035 0.0175000001 0.2190999985 2.4809999466 5.1152000427 77.476303101  -999.250000  -999.250000 2.2892000675 2.1317000389
 3278.5812988 5.0000000000 12.388299942 12.250000954 91.190948486 0.0348999985 0.2239000052 2.5129001141 5.7267999649 84.732498169  -999.250000  -999.250000 2.4277000427 2.2785000801
 3278.7336426 5.0000000000 12.425200462 12.250000954 95.358268738 0.0370999984 0.2182999998 2.5234999657 5.6746997833 80.531700134  -999.250000  -999.250000 2.4907999039 2.4058001041
 3278.8859863 5.0000000000 12.417200089 12.250000954 115.93832397 0.0331000015 0.2008000016 2.5248000622 5.4779000282 69.877502441  -999.250000  -999.250000 2.5290999413 2.4586999416
 3279.0383301 5.0000000000 12.416499138 12.250000954 123.42649841 0.0379000008 0.1947000027 2.5366001129 5.5198001862 69.732200623  -999.250000  -999.250000 2.5594999790 2.5013999939
 3279.1909180 5.0000000000 12.366100311 12.250000954 120.67127228 0.0348000005 0.1949999928 2.5223999023 5.5906000137 72.810501099  -999.250000  -999.250000 2.5599000454 2.5325999260
 3279.3432617 5.0000000000 12.411599159 12.250000954 113.02034760 0.0264999997 0.1981000006 2.5160000324 5.2701001167 64.460502625  -999.250000  -999.250000 2.5652000904 2.5374000072
 3279.4956055 5.0000000000 12.433398247 12.250000954 109.03675079 0.0264999997 0.1909999996 2.5174002647 5.3460001945 72.273399353  -999.250000  -999.250000 2.6175000668 2.5922999382
 3279.6479492 5.0000000000 12.425099373 12.250000954 112.36680603 0.0302000009 0.1929000020 2.5241000652 5.1375999451 72.371398926  -999.250000  -999.250000 2.6380000114 2.5864999294
 3279.8002930 5.0000000000 12.453100204 12.250000954 107.12139130 0.0265999995 0.1888999939 2.5067999363 5.3828001022 65.128898621  -999.250000  -999.250000 2.6642999649 2.5690999031
 3279.9528809 5.0000000000 12.433799744 12.250000954 104.20341492 0.0186999999 0.1975000054 2.4976999760 5.2389998436 70.893997192  -999.250000  -999.250000 2.6303999424 2.5288999081
 3280.1052246 5.0000000000 12.415201187 12.250000954 111.45898438 0.0271000005 0.1909999996 2.5160000324 5.3273000717 75.366699219  -999.250000  -999.250000 2.6017999649 2.4893000126
 3280.2575684 5.0000000000 12.404601097 12.250000954 107.14927673 0.0307000000 0.1905000061 2.5192999840 5.3509001732 70.173896790  -999.250000  -999.250000 2.5827999115 2.4793999195
 3280.4099121 5.0000000000 12.385499954 12.250000954 119.24803925 0.0263999999 0.1937000006 2.5011999607 5.4173998833 63.049999237  -999.250000  -999.250000 2.5708999634 2.4848999977
 3280.5625000 6.0000000000 12.441499710 12.250000954 122.03281403 0.0320999995 0.1869000047 2.5116000175 5.2902002335 69.526496887  -999.250000  -999.250000 2.5248999596 2.4435999393
 3280.7148438 6.0000000000 12.433899879 12.250000954 119.66470337 0.0291000009 0.1928000003 2.5176000595 5.5289998055 69.405700684  -999.250000  -999.250000 2.4502999783 2.3750000000
 3280.8671875 6.0000000000 12.455499649 12.250000954 115.15618134 0.0223999992 0.1940000057 2.5030999184 5.4161000252 79.679000854  -999.250000  -999.250000 2.3982000351 2.3053998947
 3281.0195313 6.0000000000 12.459300041 12.250000954 117.74803925 0.0234999992 0.2016000003 2.5009000301 5.2698998451 85.807800293  -999.250000  -999.250000 2.3963999748 2.2722001076
 3281.1721191 6.0000000000 12.484000206 12.250000954 114.65518188 0.0328000002 0.2060000002 2.5046999454 5.4759001732 72.190002441  -999.250000  -999.250000 2.4454998970 2.2848000526
 3281.3244629 6.0000000000 12.489300728 12.250000954 111.49376678 0.0427000001 0.2011000067 2.5208001137 5.8434000015 76.432197571  -999.250000  -999.250000 2.5662000179 2.3982999325
 3281.4768066 6.0000000000 12.452099800 12.250000954 114.40911865 0.0355999991 0.2096000016 2.5104999542 5.5454001427 75.263702393  -999.250000  -999.250000 2.6442999840 2.5139000416
 3281.6291504 6.0000000000 12.463699341 12.250000954 128.49638367 0.0355000012 0.2114000022 2.5097999573 5.4253997803 71.071296692  -999.250000  -999.250000 2.6607000828 2.5471000671
 3281.7814941 5.0000000000 12.403300285 12.250000954 131.53970337 0.0401999988 0.2045000046 2.5134000778 5.7094998360 66.730102539  -999.250000  -999.250000 2.6519999504 2.5703001022
 3281.9340820 5.0000000000 12.430000305 12.250000954 132.68733215 0.0324000008 0.1988999993 2.5055000782 5.8541002274 66.087600708  -999.250000  -999.250000 2.6412000656 2.5759999752
 3282.0864258 5.0000000000 12.445899963 12.250000954 133.24737549 0.0346000008 0.1880999953 2.5127999783 5.7947001457 68.789901733  -999.250000  -999.250000 2.5736999512 2.5336999893
 3282.2387695 5.0000000000 12.411000252 12.250000954 134.62794495 0.0348000005 0.1831000000 2.5274999142 5.6093997955 71.847000122  -999.250000  -999.250000 2.4368999004 2.4082000256
 3282.3911133 5.0000000000 12.428899765 12.250000954 136.86843872 0.0344999991 0.1873999983 2.5253000259 5.4618000984 73.207801819  -999.250000  -999.250000 2.3278000355 2.2816998959
 3282.5437012 5.0000000000 12.417900085 12.250000954 142.80216980 0.0240000002 0.1863999963 2.5002000332 5.4488000870 72.445701599  -999.250000  -999.250000 2.2639999390 2.1817998886
 3282.6960449 5.0000000000 12.409700394 12.250000954 150.00228882 0.0206000004 0.1931000054 2.5016000271 4.8959999084 67.207099915  -999.250000  -999.250000 2.2583999634 2.1612999439
