# LAS format log file from PETREL
# Project units are specified as depth units
#==================================================================
~Version information
VERS.   2.0:
WRAP.   NO:
#==================================================================
~Well
STRT .m      1821.0274658 :
STOP .m      4027.3225098 :
STEP .m     0.00000000 :
NULL .        -999.250000 :
COMP.           : COMPANY
WELL.  35/8-6 S   : WELL
FLD.            : FIELD
LOC.            : LOCATION
SRVC.           : SERVICE COMPANY
DATE.  2018-09-11 14:49:01   : Log Export Date {yyyy-MM-dd HH:mm:ss}
PROV.           : PROVINCE
UWI.   35/8-6 S   : UNIQUE WELL ID
API.            : API NUMBER
#==================================================================
~Curve
DEPT .m                   : DEPTH
Lithology_geolink ._      : Lithology_geolink
CALI .in                  : CALI
BS .in                    : BS
ROP .m/h                  : ROP
DRHO .g/cm3               : DRHO
NPHI .m3/m3               : NPHI
RHOB .g/cm3               : RHOB
PEF .b/e                  : PEF
GR .gAPI                  : GR
DTC .us/ft                : DTC
DTS .us/ft                : DTS
RDEP .ohm.m               : RDEP
RMED .ohm.m               : RMED
~Parameter
#==================================================================
~Ascii
 1821.0274658 5.0000000000 18.351299286 17.500000000 49.590465546 -0.104099996  -999.250000  -999.250000  -999.250000 93.350090027  -999.250000  -999.250000  -999.250000  -999.250000
 1821.1799316 5.0000000000 17.025499344 17.500000000 45.853713989 -0.072099999  -999.250000  -999.250000  -999.250000 85.941879272  -999.250000  -999.250000  -999.250000  -999.250000
 1821.3322754 5.0000000000 16.177999496 17.500000000 44.574878693 0.0454999991  -999.250000  -999.250000  -999.250000 62.533634186  -999.250000  -999.250000  -999.250000  -999.250000
 1821.4847412 5.0000000000 14.843099594 17.500000000 47.313747406 0.0630000010  -999.250000  -999.250000  -999.250000 61.248397827  -999.250000  -999.250000  -999.250000  -999.250000
 1821.6370850 5.0000000000 12.245100021 17.500000000 49.964584351 -0.011600000  -999.250000  -999.250000  -999.250000 59.084266663  -999.250000  -999.250000  -999.250000  -999.250000
 1821.7895508 5.0000000000 15.813798904 17.500000000 48.897182465 -0.037900001  -999.250000  -999.250000  -999.250000 59.709995270  -999.250000  -999.250000  -999.250000  -999.250000
 1821.9418945 5.0000000000 21.563199997 17.500000000 46.179016113 0.0383000001  -999.250000  -999.250000  -999.250000 61.766151428  -999.250000  -999.250000  -999.250000  -999.250000
 1822.0943604 5.0000000000 21.033100128 17.500000000 42.983531952 0.1217999980  -999.250000  -999.250000  -999.250000 49.725250244  -999.250000  -999.250000  -999.250000  -999.250000
 1822.2467041 5.0000000000 20.068901062 17.500000000 40.834724426 0.0930000022  -999.250000  -999.250000  -999.250000 59.882446289  -999.250000  -999.250000  -999.250000  -999.250000
 1822.3991699 5.0000000000 18.483499527 17.500000000 40.203914642 0.0164000001  -999.250000  -999.250000  -999.250000 62.778385162  -999.250000  -999.250000  -999.250000  -999.250000
 1822.5515137 5.0000000000 18.199800491 17.500000000 41.441265106 0.0665000007  -999.250000  -999.250000  -999.250000 60.701068878  -999.250000  -999.250000  -999.250000  -999.250000
 1822.7039795 5.0000000000 18.017700195 17.500000000 41.218029022 0.0529000014  -999.250000  -999.250000  -999.250000 60.775337219  -999.250000  -999.250000  -999.250000  -999.250000
 1822.8563232 5.0000000000 16.807199478 17.500000000 38.232383728 0.0113000004  -999.250000  -999.250000  -999.250000 61.277397156  -999.250000  -999.250000  -999.250000  -999.250000
 1823.0086670 5.0000000000 16.450199127 17.500000000 35.858135223 -0.004700000  -999.250000  -999.250000  -999.250000 56.219612122  -999.250000  -999.250000  -999.250000  -999.250000
 1823.1611328 5.0000000000 19.417299271 17.500000000 36.459159851 0.0350000001  -999.250000  -999.250000  -999.250000 67.750648499  -999.250000  -999.250000  -999.250000  -999.250000
 1823.3134766 5.0000000000 19.156600952 17.500000000 39.936023712 0.0671999976  -999.250000  -999.250000  -999.250000 67.356948853  -999.250000  -999.250000  -999.250000  -999.250000
 1823.4659424 5.0000000000 16.867900848 17.500000000 41.484001160 0.0438000001  -999.250000  -999.250000  -999.250000 58.089229584  -999.250000  -999.250000  -999.250000  -999.250000
 1823.6182861 5.0000000000 16.473800659 17.500000000 39.480251312 0.0390999988  -999.250000  -999.250000  -999.250000 52.057762146  -999.250000  -999.250000  -999.250000  -999.250000
 1823.7707520 5.0000000000 16.607099533 17.500000000 32.964538574 0.0623999983  -999.250000  -999.250000  -999.250000 56.327968597  -999.250000  -999.250000  -999.250000  -999.250000
 1823.9230957 6.0000000000 16.890899658 17.500000000 21.861263275 0.0720999986  -999.250000  -999.250000  -999.250000 59.323699951  -999.250000  -999.250000  -999.250000  -999.250000
 1824.0755615 6.0000000000 15.151901245 17.500000000 24.693588257 0.0299999993  -999.250000  -999.250000  -999.250000 59.393344879  -999.250000  -999.250000  -999.250000  -999.250000
 1824.2279053 6.0000000000 13.412800789 17.500000000 24.388696671 -0.012100000  -999.250000  -999.250000  -999.250000 57.701358795  -999.250000  -999.250000  -999.250000  -999.250000
 1824.3803711 6.0000000000 13.419599533 17.500000000 16.274545670 -0.002400000  -999.250000  -999.250000  -999.250000 65.753547668  -999.250000  -999.250000  -999.250000  -999.250000
 1824.5327148 6.0000000000 13.189999580 17.500000000 26.922885895 0.0074999998  -999.250000  -999.250000  -999.250000 73.813636780  -999.250000  -999.250000 0.7513814569 0.7813937068
 1824.6851807 6.0000000000 12.793499947 17.500000000 40.261955261 -0.013600000  -999.250000  -999.250000  -999.250000 72.659431458  -999.250000  -999.250000 0.7546973825 0.7821993232
 1824.8375244 6.0000000000 12.671098709 17.500000000 33.690647125 -0.002300000  -999.250000  -999.250000  -999.250000 69.868232727  -999.250000  -999.250000 0.7597959042 0.7617164254
 1824.9899902 6.0000000000 12.231699944 17.500000000 29.764299393 0.0198999997 0.4092000127 2.2558999062 5.9794998169 51.706447601  -999.250000  -999.250000 0.7663946748 0.7681947947
 1825.1423340 6.0000000000 12.304400444 17.500000000 25.926303864 0.0322999991 0.3898000121 2.2767999172 5.6331000328 73.549072266  -999.250000  -999.250000 0.7729946971 0.7629042268
 1825.2946777 5.0000000000 12.269200325 17.500000000 19.921371460 0.0293000005 0.3693999946 2.2578999996 5.6111001968 63.920967102  -999.250000  -999.250000 0.8005558252 0.7667937279
 1825.4471436 5.0000000000 12.492500305 17.500000000 22.843124390 0.0509000011 0.3792000115 2.2548999786 7.1599998474 64.142211914  -999.250000  -999.250000 0.8476622701 0.8049693704
 1825.5994873 5.0000000000 12.346500397 17.500000000 24.311952591 0.0377000012 0.3693000078 2.2604999542 6.2726001740 55.695346832  -999.250000  -999.250000 0.9339616299 0.8977512121
 1825.7519531 5.0000000000 12.318300247 17.500000000 27.889522552 0.0339000002 0.3738999963 2.2541999817 5.6441001892 41.613082886  -999.250000  -999.250000 0.9651750922 0.9662451744
 1825.9042969 5.0000000000 12.272400856 17.500000000 32.606128693 0.0285000000 0.4097999930 2.2516000271 5.5332999229 44.691024780  -999.250000  -999.250000 0.9360234141 0.9468156099
 1826.0567627 5.0000000000 12.243300438 17.500000000 33.456668854 0.0264999997 0.3607000113 2.2667996883 5.7449998856 55.656513214  -999.250000  -999.250000 0.8846411109 0.8885466456
 1826.2091064 5.0000000000 12.229100227 17.500000000 33.119037628 0.0261000004 0.3738000095 2.2871999741 5.7298002243 67.173271179  -999.250000  -999.250000 0.8867982030 0.8677166700
 1826.3615723 5.0000000000 12.397998810 17.500000000 32.902400970 0.0465000011 0.3691000044 2.2985999584 5.7234001160 65.385139465  -999.250000  -999.250000 0.8837025166 0.8593067527
 1826.5139160 5.0000000000 12.313899994 17.500000000 34.062061310 0.0346999988 0.3808000088 2.2699999809 5.8112001419 61.004913330  -999.250000  -999.250000 0.8884961009 0.8580009937
 1826.6663818 5.0000000000 12.316799164 17.500000000 36.630489349 0.0342999995 0.3750999868 2.2671000957 5.3470997810 53.358921051  -999.250000  -999.250000 0.8834041357 0.8510056138
 1826.8187256 5.0000000000 12.417798996 17.500000000 34.840679169 0.0456999987 0.3709999919 2.2718000412 5.9204998016 47.363101959  -999.250000  -999.250000 0.8587197661 0.8320152164
 1826.9711914 5.0000000000 12.309499741 17.500000000 31.757062912 0.0342000015 0.4190999866 2.2578001022 5.9398999214 47.460121155  -999.250000  -999.250000 0.8357183933 0.8204092979
 1827.1235352 5.0000000000 12.242400169 12.254207611 34.393222809 0.0265999995 0.3867000043 2.2660999298 5.2946000099 51.212589264  -999.250000  -999.250000 0.8356000781 0.8065111637
 1827.2758789 5.0000000000 12.324099541 12.250000954 44.314796448 0.0351000018 0.3634999990 2.2662999630 6.0822000504 53.260719299  -999.250000  -999.250000 1.0074243546 0.9469746947
 1827.4283447 5.0000000000 12.238299370 12.250000954 48.161956787 0.0254999995 0.3574999869 2.2551000118 5.6719999313 59.869800568  -999.250000  -999.250000 1.0008054972 0.9549937248
 1827.5806885 5.0000000000 12.237700462 12.250000954 48.172889709 0.0255999994 0.3871000111 2.2590000629 5.7420001030 51.208801270  -999.250000  -999.250000 1.0023975372 0.9434186220
