# LAS format log file from PETREL
# Project units are specified as depth units
#==================================================================
~Version information
VERS.   2.0:
WRAP.   NO:
#==================================================================
~Well
STRT .m      1821.0274658 :
STOP .m      4027.3225098 :
STEP .m     0.00000000 :
NULL .        -999.250000 :
COMP.           : COMPANY
WELL.  35/8-6 S   : WELL
FLD.            : FIELD
LOC.            : LOCATION
SRVC.           : SERVICE COMPANY
DATE.  2018-09-11 14:49:01   : Log Export Date {yyyy-MM-dd HH:mm:ss}
PROV.           : PROVINCE
UWI.   35/8-6 S   : UNIQUE WELL ID
API.            : API NUMBER
#==================================================================
~Curve
DEPT .m                   : DEPTH
Lithology_geolink ._      : Lithology_geolink
CALI .in                  : CALI
BS .in                    : BS
ROP .m/h                  : ROP
DRHO .g/cm3               : DRHO
NPHI .m3/m3               : NPHI
RHOB .g/cm3               : RHOB
PEF .b/e                  : PEF
GR .gAPI                  : GR
DTC .us/ft                : DTC
DTS .us/ft                : DTS
RDEP .ohm.m               : RDEP
RMED .ohm.m               : RMED
~Parameter
#==================================================================
~Ascii
# ...
 2404.4147949 6.0000000000 12.357800484 12.250000954 77.699142456 0.0192000009 0.2951999903 2.3926999569 4.7216000557 87.789497375  -999.250000  -999.250000 1.4180999994 1.3664000034
 2404.5671387 6.0000000000 12.357800484 12.250000954 102.22867584 0.0121999998 0.2888999879 2.4173998833 4.8860001564 69.505599976  -999.250000  -999.250000 1.4953999519 1.4586999416
 2404.7197266 6.0000000000 12.425899506 12.250000954 112.81037140 -0.098900005 0.2985999882 2.5469999313 7.9853000641 76.352203369  -999.250000  -999.250000 1.5621000528 1.5003999472
 2404.8720703 6.0000000000 12.425899506 12.250000954 108.23359680 -0.090200000 0.3003000021 2.8306000233 10.100099564 73.267700195  -999.250000  -999.250000 1.5593999624 1.5023000240
 2405.0244141 6.0000000000 12.425899506 12.250000954 121.29134369 0.1115000024 0.2804999948 2.9893999100 5.2267999649 85.738800049  -999.250000  -999.250000 1.5722999573 1.5569000244
 2405.1767578 6.0000000000 12.450201035 12.250000954 122.26837921 0.0542000011 0.2872999907 2.5834000111 4.9274997711 76.069503784  -999.250000  -999.250000 1.5090999603 1.5432000160
 2405.3293457 6.0000000000 12.450201035 12.250000954 94.481300354 0.0531000011 0.3018999994 2.5165998936 6.1222000122 85.904701233  -999.250000  -999.250000 1.4948999882 1.5396000147
 2405.4816895 6.0000000000 12.430000305 12.250000954 70.998359680 0.0282000005 0.3000999987 2.4410998821 4.8694000244 95.786102295  -999.250000  -999.250000 1.5434999466 1.5204000473
 2405.6340332 6.0000000000 12.409700394 12.250000954 55.167324066 0.0138999997 0.2980000079 2.3980000019 4.5929999352 88.818901062  -999.250000  -999.250000 1.5807000399 1.4989999533
 2405.7863770 6.0000000000 12.409700394 12.250000954 47.384841919 0.0203000009 0.2888000011 2.3894999027 4.9449000359 88.685798645  -999.250000  -999.250000 1.5720000267 1.5077999830
 2405.9389648 6.0000000000 12.416499138 12.250000954 35.976707458 0.0188999996 0.2910000086 2.3984999657 4.9065999985 87.059700012  -999.250000  -999.250000 1.5794999599 1.5321999788
 2406.0913086 6.0000000000 12.423200607 12.250000954 14.358922958 0.0167999994 0.2825999856 2.3893001080 4.5494999886 80.446601868  -999.250000  -999.250000 1.6153999567 1.5605000257
 2406.2436523 6.0000000000 12.417798996 12.250000954 28.462598801 0.0230000000 0.2919999957 2.4042999744 4.9230999947 82.285202026  -999.250000  -999.250000 1.6390999556 1.5939999819
 2406.3959961 6.0000000000 12.381500244 12.250000954 95.161087036 0.0187999997 0.3073999882 2.4077999592 4.6539998055 83.167999268  -999.250000  -999.250000 1.6542999744 1.6098999977
 2406.5483398 6.0000000000 12.381500244 12.250000954 136.91436768 0.0221999995 0.2969000041 2.4175000191 4.9819002151 84.666397095  -999.250000  -999.250000 1.6525000334 1.6102000475
 2406.7009277 6.0000000000 12.407098770 12.250000954 133.23918152 0.0197999999 0.2903999984 2.4156000614 4.9903998375 92.312599182  -999.250000  -999.250000 1.6315000057 1.5879000425
 2406.8532715 6.0000000000 12.407098770 12.250000954 124.68241882 0.0231999997 0.2924999893 2.4168999195 4.6995000839 79.893898010  -999.250000  -999.250000 1.6346000433 1.5721999407
 2407.0056152 6.0000000000 12.417900085 12.250000954 133.28871155 0.0153000001 0.2915000021 2.4010999203 4.6346001625 84.224998474  -999.250000  -999.250000 1.6282999516 1.5667999983
 2407.1579590 6.0000000000 12.417900085 12.250000954 136.14730835 0.0111999996 0.2872000039 2.3914000988 4.7046999931 92.147499084  -999.250000  -999.250000 1.5987000465 1.5470999479
 2407.3105469 6.0000000000 12.393998146 12.250000954 136.56167603 0.0085000005 0.2906000018 2.3824999332 4.9728999138 84.265296936  -999.250000  -999.250000 1.5801999569 1.5298999548
 2407.4628906 6.0000000000 12.353300095 12.250000954 164.74836731 0.0147000002 0.2915999889 2.3980000019 4.9531998634 73.076896667  -999.250000  -999.250000 1.5533000231 1.4917000532
 2407.6152344 6.0000000000 12.350000381 12.250000954 205.76345825 0.0204000007 0.2818999887 2.4063999653 4.8440999985 84.470703125  -999.250000  -999.250000 1.5254000425 1.4591000080
 2407.7675781 6.0000000000 12.340900421 12.250000954 204.03642273 0.0166999996 0.2910999954 2.4084000587 4.6378998756 75.788398743  -999.250000  -999.250000 1.4950000048 1.4218000174
 2407.9201660 6.0000000000 12.332200050 12.250000954 168.18373108 0.0234999992 0.2971000075 2.4052999020 4.8920998573 84.594100952  -999.250000  -999.250000 1.4723000526 1.3941999674
 2408.0725098 6.0000000000 12.332200050 12.250000954 119.29626465 0.0260000005 0.2876000106 2.4059000015 5.0054998398 71.885101318  -999.250000  -999.250000 1.4664000273 1.3844000101
 2408.2248535 6.0000000000 12.411199570 12.250000954 97.248359680 0.0232999995 0.3055999875 2.4148001671 4.9197001457 76.291900635  -999.250000  -999.250000 1.4857000113 1.4082000256
 2408.3771973 6.0000000000 12.394399643 12.250000954 84.425849915 0.0239000004 0.2858000100 2.4170000553 5.1367001534 82.440101624  -999.250000  -999.250000 1.5505000353 1.4788000584
 2408.5295410 6.0000000000 12.324700356 12.250000954 115.87566376 0.0255999994 0.2897000015 2.4126999378 5.0116000175 94.355300903  -999.250000  -999.250000 1.5046999454 1.4361000061
 2408.6821289 6.0000000000 12.324700356 12.250000954 160.38188171 0.0240000002 0.2833000124 2.4049999714 4.9092001915 90.223800659  -999.250000  -999.250000 1.4973000288 1.4359999895
 2408.8344727 6.0000000000 12.402400017 12.250000954 170.98326111 0.0194000024 0.2957000136 2.4010000229 5.1600999832 81.530197144  -999.250000  -999.250000 1.5048999786 1.4500999451
 2408.9868164 6.0000000000 12.364199638 12.250000954 146.81626892 0.0357000008 0.2861999869 2.4221999645 4.9492998123 94.567802429  -999.250000  -999.250000 1.5075999498 1.4631999731
 2409.1391602 6.0000000000 12.343000412 12.250000954 130.57185364 0.0272999983 0.2863999903 2.4163999557 4.7722997665 85.899200439  -999.250000  -999.250000 1.5223000050 1.4721000195
 2409.2917480 6.0000000000 12.431500435 12.250000954 127.95603943 0.0167999994 0.2847999930 2.3991000652 4.6399998665 78.551902771  -999.250000  -999.250000 1.5164999962 1.4658000469
 2409.4440918 6.0000000000 12.431500435 12.250000954 130.72999573 0.0151000004 0.2770999968 2.4026000500 4.8687000275 89.899200439  -999.250000  -999.250000 1.5240000486 1.4725999832
 2409.5964355 6.0000000000 12.431500435 12.250000954 150.27033997 0.0133999996 0.2793999910 2.4086000919 4.9872999191 86.409301758  -999.250000  -999.250000 1.5341000557 1.4889999628
 2409.7487793 6.0000000000 12.432800293 12.250000954 182.04592896 0.0193000007 0.2964999974 2.4175000191 4.9970002174 87.178802490  -999.250000  -999.250000 1.5318000317 1.4962999821
 2409.9013672 6.0000000000 12.432800293 12.250000954 230.32546997 0.0192000009 0.2858000100 2.4072999954 4.8664999008 83.855697632  -999.250000  -999.250000 1.5367000103 1.5003000498
 2410.0537109 6.0000000000 12.431500435 12.250000954 252.76542664 0.0164999999 0.2806000113 2.4005000591 4.6373000145 84.581901550  -999.250000  -999.250000 1.5404000282 1.5022000074
 2410.2060547 6.0000000000 12.431500435 12.250000954 222.27755737 0.0210999995 0.2766000032 2.4014999866 4.6830000877 83.145401001  -999.250000  -999.250000 1.5369999409 1.5005999804
 2410.3583984 6.0000000000 12.371998787 12.250000954 185.17651367 0.0239000004 0.3014000058 2.4065999985 4.7747001648 86.618301392  -999.250000  -999.250000 1.5427000523 1.5002000332
 2410.5107422 6.0000000000 12.363900185 12.250000954 170.35301208 0.0335999988 0.2745000124 2.4177000523 5.2260999680 85.541900635  -999.250000  -999.250000 1.5276999474 1.4852999449
 2410.6633301 6.0000000000 12.378800392 12.250000954 171.55609131 0.0322999991 0.2876999974 2.4244999886 5.1996002197 78.615898132  -999.250000  -999.250000 1.5011999607 1.4422999620
 2410.8156738 6.0000000000 12.376500130 12.250000954 167.18701172 0.0359000005 0.2953000069 2.4293999672 5.2828001976 81.758903503  -999.250000  -999.250000 1.4728000164 1.4064999819
 2410.9680176 6.0000000000 12.383299828 12.250000954 153.09809875 0.0329000019 0.2800000012 2.4354000092 5.3670997620 92.859703064  -999.250000  -999.250000 1.4546999931 1.3852000237
