# LAS format log file from PETREL
# Project units are specified as depth units
#==================================================================
~Version information
VERS.   2.0:
WRAP.   NO:
#==================================================================
~Well
STRT .m      1821.0274658 :
STOP .m      4027.3225098 :
STEP .m     0.00000000 :
NULL .        -999.250000 :
COMP.           : COMPANY
WELL.  35/8-6 S   : WELL
FLD.            : FIELD
LOC.            : LOCATION
SRVC.           : SERVICE COMPANY
DATE.  2018-09-11 14:49:01   : Log Export Date {yyyy-MM-dd HH:mm:ss}
PROV.           : PROVINCE
UWI.   35/8-6 S   : UNIQUE WELL ID
API.            : API NUMBER
#==================================================================
~Curve
DEPT .m                   : DEPTH
Lithology_geolink ._      : Lithology_geolink
CALI .in                  : CALI
BS .in                    : BS
ROP .m/h                  : ROP
DRHO .g/cm3               : DRHO
NPHI .m3/m3               : NPHI
RHOB .g/cm3               : RHOB
PEF .b/e                  : PEF
GR .gAPI                  : GR
DTC .us/ft                : DTC
DTS .us/ft                : DTS
RDEP .ohm.m               : RDEP
RMED .ohm.m               : RMED
~Parameter
#==================================================================
~Ascii
# ...
 3872.9411621 5.0000000000 8.4972000122 8.5000000000 102.30118561 -0.000700000 0.2416000068 2.3770999908 4.5475001335 35.819198608 80.704589844 149.60414124 3.7597000599 3.7381000519
 3873.0935059 5.0000000000 8.5064001083 8.5000000000 116.49638367 -0.016600000 0.2275999933 2.3452000618 4.8733000755 35.101600647 82.695701599 152.16719055 3.9674000740 3.8294000626
 3873.2460938 5.0000000000 8.5311002731 8.5000000000 141.89895630 -0.017400000 0.2295999974 2.4124000072 5.5893001556 43.601600647 83.960998535 153.90280151 4.2733001709 4.0264000893
 3873.3984375 5.0000000000 8.5114002228 8.5000000000 116.95176697 -0.011300000 0.2319999933 2.4858999252 5.8136000633 55.362701416 83.774299622 153.27731323 4.6314997673 4.2946000099
 3873.5507813 5.0000000000 8.4674997330 8.5000000000 97.011810303 -0.001000000 0.2363000065 2.5144000053 5.7252998352 63.837398529 82.427597046 152.15708923 4.8225998878 4.5720000267
 3873.7031250 5.0000000000 8.4687995911 8.5000000000 84.483596802 0.0077000000 0.2302999943 2.5179998875 5.8558001518 57.660900116 79.245498657 147.11477661 4.6977000237 4.5151000023
 3873.8557129 5.0000000000 8.4919996262 8.5000000000 81.217849731 -0.010900000 0.2125999928 2.4809000492 5.6567997932 49.178798676 76.729492188 143.93037415 4.5528998375 4.4471998215
 3874.0080566 5.0000000000 8.5029001236 8.5000000000 88.359909058 -0.001700000 0.2026000023 2.4807999134 5.5611000061 43.676998138 75.617691040 143.57186890 4.4210000038 4.3618001938
 3874.1604004 5.0000000000 8.5241003036 8.5000000000 82.232284546 0.0108000003 0.2085999995 2.4560999870 5.2688999176 41.890201569 76.894798279 143.49082947 4.2055001259 4.1216001511
 3874.3127441 5.0000000000 8.4340000153 8.5000000000 74.184051514 -0.002600000 0.2137999982 2.3905000687 4.7926001549 41.145198822 77.962005615 145.78572083 4.2420997620 4.0899000168
 3874.4650879 5.0000000000 8.4562997818 8.5000000000 75.965881348 -0.025300000 0.2335000038 2.3768000603 5.4798998833 40.629600525 82.235893250 151.65925598 4.2603998184 4.0398001671
 3874.6176758 5.0000000000 8.5134000778 8.5000000000 86.269683838 -0.021500001 0.2265000045 2.4509999752 5.3685002327 57.279899597 83.712898254 153.49887085 4.5300002098 4.2534999847
 3874.7700195 5.0000000000 8.5089998245 8.5000000000 91.829071045 0.0038000001 0.2087000012 2.4860999584 5.7374000549 58.289699554 84.372009277 153.82867432 4.7915000916 4.4941000938
 3874.9223633 5.0000000000 8.4847002029 8.5000000000 86.102363586 0.0052000000 0.2070000023 2.4435000420 5.7817997932 51.952800751 84.556297302 152.60964966 4.7192001343 4.5093002319
 3875.0747070 5.0000000000 8.5032997131 8.5000000000 80.233268738 -0.009600000 0.2084999979 2.4358999729 5.4075999260 54.430698395 83.080291748 149.38105774 5.2126002312 4.9502000809
 3875.2272949 5.0000000000 8.5076999664 8.5000000000 75.329071045 -0.020000000 0.2017000020 2.4711999893 5.8246998787 53.030601501 82.797599792 148.43499756 5.0195999146 4.6810002327
 3875.3796387 5.0000000000 8.5131998062 8.5000000000 71.016738892 0.0068999999 0.2043000013 2.5190999508 6.1744999886 53.456699371 82.208099365 148.78073120 4.9036002159 4.5623998642
 3875.5319824 5.0000000000 8.5057001114 8.5000000000 77.098098755 0.0016000000 0.2081000060 2.5120999813 5.7336001396 53.636100769 81.740997314 149.43620300 4.8875999451 4.5651998520
 3875.6843262 5.0000000000 8.5092000961 8.5000000000 91.977363586 0.0040000002 0.2053000033 2.4858000278 5.5946998596 51.080398560 80.958900452 150.15600586 5.1073999405 4.8527002335
 3875.8369141 5.0000000000 8.4851999283 8.5000000000 92.422241211 -0.009600000 0.2113000005 2.4472000599 5.5820999146 47.975299835 79.967498779 149.52450562 4.9946999550 4.7804999352
 3875.9892578 5.0000000000 8.4646997452 8.5000000000 86.298225403 0.0113000004 0.2246000022 2.4270000458 4.8575000763 47.792499542 75.183296204 145.03399658 4.7912998199 4.5742001534
 3876.1416016 5.0000000000 8.4804000854 8.5000000000 81.614501953 -0.005800000 0.2214999944 2.4093000889 5.1237001419 37.972301483 75.387100220 145.72770691 4.8218998909 4.6024999619
 3876.2939453 5.0000000000 8.4759998322 8.5000000000 88.595474243 -0.011100000 0.2213000059 2.3564000130 5.1066999435 36.530399323 75.662803650 146.59280396 4.5640001297 4.3571000099
 3876.4465332 5.0000000000 8.4828996658 8.5000000000 117.18766022 -0.018400000 0.2211000025 2.3475000858 4.6445999146 38.625701904 76.862098694 147.32600403 4.3945999146 4.1522002220
 3876.5988770 5.0000000000 8.4886999130 8.5000000000 136.56167603 -0.028600000 0.2208999991 2.3636999130 4.7561998367 45.416599274 80.060897827 147.79200745 4.2564001083 3.9835999012
 3876.7512207 5.0000000000 8.4781999588 8.5000000000 122.48983765 -0.023200000 0.2208999991 2.3903000355 4.8477997780 47.211399078 84.302696228 145.88540649 4.3130002022 3.9191999435
 3876.9035645 5.0000000000 8.4778995514 8.5000000000 96.193244934 -0.012400000 0.2071000040 2.4133000374 4.7051000595 46.202301025 83.659210205 147.59599304 4.5278000832 4.1345000267
 3877.0559082 5.0000000000 8.4895000458 8.5000000000 73.351051331 -0.018900000 0.1956000030 2.4156000614 4.9078001976 48.759101868 80.061401367 147.45770264 4.8930997849 4.5584001541
 3877.2084961 5.0000000000 8.4968996048 8.5000000000 65.002952576 -0.012600000 0.1947000027 2.4365999699 5.4176001549 51.513000488 79.731201172 147.49980164 4.5680999756 4.4460000992
 3877.3608398 5.0000000000 8.4960002899 8.5000000000 68.901573181 -0.005900000 0.1999000013 2.4486999512 4.9755997658 54.518199921 80.314498901 145.22790527 4.3439002037 4.2086000443
 3877.5131836 2.0000000000 8.4802999496 8.5000000000 72.451774597 -0.006600000 0.1995999962 2.4058001041 4.7281999588 54.018398285 79.572303772 142.88659668 4.4218997955 4.2147002220
 3877.6655273 2.0000000000 8.4621000290 8.5000000000 77.512794495 -0.011400000 0.1983000040 2.3812003136 4.7319002151 40.682598114 80.738990784 139.39210510 5.0550999641 4.6055002213
 3877.8181152 2.0000000000 8.4584999084 8.5000000000 74.159126282 -0.005600000 0.1974000037 2.3914000988 4.8791999817 34.820400238 77.970802307 137.48880005 5.8776998520 5.1252999306
 3877.9704590 2.0000000000 8.4574003220 8.5000000000 59.806427002 -0.008700000 0.1671999991 2.3973999023 5.1104998589 34.406501770 74.967498779 132.53999329 6.7513999939 5.8845000267
 3878.1228027 2.0000000000 8.4561996460 8.5000000000 46.673229218 -0.025500000 0.1563999951 2.4312996864 5.5297999382 34.648700714 71.118499756 124.40898895 8.7292003632 7.9727997780
 3878.2751465 2.0000000000 8.4635000229 8.5000000000 37.956367493 -0.039999999 0.1173999980 2.5116999149 6.7676000595 28.157400131 65.990898132 112.58049011 11.677300453 11.513400078
 3878.4277344 2.0000000000 8.4722995758 8.5000000000 27.035106659 -0.015900001 0.1010999978 2.6809999943 7.0065999031 29.062000275 62.487499237 104.13220215 14.001299858 15.616000175
 3878.5800781 2.0000000000 8.4821996689 8.5000000000 15.821522713 -0.007500000 0.0520999990 2.7421998978 6.7890000343 30.169000626 61.156398773 98.934394836 15.519399643 19.452999115
 3878.7324219 2.0000000000 8.5018997192 8.5000000000 7.1847109795 -0.001500000 0.0496999994 2.7506000996 6.6536998749 28.564800262 61.391399384 94.579399109 16.616699219 23.223899841
 3878.8847656 2.0000000000 8.5165996552 8.5000000000 2.5360891819 0.0125000002 0.0683000013 2.7279000282 6.7871999741 28.765800476 57.832199097 92.849090576 16.869899750 24.248699188
 3879.0371094 2.0000000000 8.5076999664 8.5000000000 1.6220471859 0.0359999985 0.0813999996 2.6923000813 6.2483000755 28.266199112 57.137104034 96.162300110 15.731900215 21.567399979
 3879.1896973 2.0000000000 8.5055999756 8.5000000000 2.9038715363 0.0173000004 0.1360000074 2.4967000484 5.3481001854 27.775999069 59.619800568 108.35490417 13.323200226 16.141399384
 3879.3420410 2.0000000000 8.4975004196 8.5000000000 2.5669291019 -0.003400000 0.1422999948 2.4591000080 5.4650998116 26.362300873 68.708297729 128.03190613 11.034799576 10.876700401
 3879.4943848 2.0000000000 8.4893999100 8.5000000000 3.2965879440 -0.035399999 0.1300999969 2.5083999634 6.5871000290 30.587600708 70.023902893 124.22389984 11.436300278 10.113499641
