# LAS format log file from PETREL
# Project units are specified as depth units
#==================================================================
~Version information
VERS.   2.0:
WRAP.   NO:
#==================================================================
~Well
STRT .m      1821.0274658 :
STOP .m      4027.3225098 :
STEP .m     0.00000000 :
NULL .        -999.250000 :
COMP.           : COMPANY
WELL.  35/8-6 S   : WELL
FLD.            : FIELD
LOC.            : LOCATION
SRVC.           : SERVICE COMPANY
DATE.  2018-09-11 14:49:01   : Log Export Date {yyyy-MM-dd HH:mm:ss}
PROV.           : PROVINCE
UWI.   35/8-6 S   : UNIQUE WELL ID
API.            : API NUMBER
#==================================================================
~Curve
DEPT .m                   : DEPTH
Lithology_geolink ._      : Lithology_geolink
CALI .in                  : CALI
BS .in                    : BS
ROP .m/h                  : ROP
DRHO .g/cm3               : DRHO
NPHI .m3/m3               : NPHI
RHOB .g/cm3               : RHOB
PEF .b/e                  : PEF
GR .gAPI                  : GR
DTC .us/ft                : DTC
DTS .us/ft                : DTS
RDEP .ohm.m               : RDEP
RMED .ohm.m               : RMED
~Parameter
#==================================================================
~Ascii
# ...
 2256.8916016 6.0000000000 12.367698669 12.250000954 159.60531616 0.0118000004 0.3169000149 2.3763999939 4.1036000252 88.502296448  -999.250000  -999.250000 1.2551000118 1.2060999870
 2257.0439453 6.0000000000 12.368599892 12.250000954 156.66371155 0.0110999998 0.3230000138 2.3898000717 4.1315999031 79.694099426  -999.250000  -999.250000 1.2680000067 1.2203999758
 2257.1965332 6.0000000000 12.379099846 12.250000954 149.04133606 0.0073000002 0.3233000040 2.3678998947 4.0327000618 83.349700928  -999.250000  -999.250000 1.2790000439 1.2315000296
 2257.3488770 6.0000000000 12.418599129 12.250000954 131.49475098 0.0125000002 0.3285999894 2.3808999062 3.8703000546 73.846397400  -999.250000  -999.250000 1.2703000307 1.2275999784
 2257.5012207 6.0000000000 12.434100151 12.250000954 123.77493286 0.0099999998 0.3100000024 2.3764998913 4.2522997856 70.748497009  -999.250000  -999.250000 1.2639000416 1.2204999924
 2257.6535645 6.0000000000 12.419999123 12.250000954 142.34284973 0.0093999999 0.2894000113 2.3784000874 4.1719999313 91.862602234  -999.250000  -999.250000 1.2759000063 1.2181999683
 2257.8061523 6.0000000000 12.417000771 12.250000954 168.84515381 0.0022000000 0.3142000139 2.3717999458 4.0946998596 85.907302856  -999.250000  -999.250000 1.2714999914 1.2142000198
 2257.9584961 6.0000000000 12.403399467 12.250000954 178.52755737 0.0023000001 0.3131000102 2.3719999790 3.9823000431 73.312400818  -999.250000  -999.250000 1.2687000036 1.2099000216
 2258.1108398 6.0000000000 12.350999832 12.250000954 175.72735596 0.0102000004 0.3264000118 2.3735001087 4.4328999519 90.164497375  -999.250000  -999.250000 1.2697000504 1.2049000263
 2258.2631836 6.0000000000 12.463000298 12.250000954 177.36022949 0.0089999996 0.3246999979 2.3721001148 4.5668001175 92.705001831  -999.250000  -999.250000 1.2489000559 1.1936999559
 2258.4157715 6.0000000000 12.455899239 12.250000954 186.96490479 0.0177999996 0.3447999954 2.3810999393 4.9499998093 81.947502136  -999.250000  -999.250000 1.2350000143 1.1782000065
 2258.5681152 6.0000000000 12.423700333 12.250000954 193.15222168 0.0217000004 0.3152999878 2.3852000237 5.0918998718 85.148002625  -999.250000  -999.250000 1.2386000156 1.1746000051
 2258.7204590 6.0000000000 12.350601196 12.250000954 185.68766785 0.0199999996 0.3458999991 2.3808999062 4.9478001595 90.024902344  -999.250000  -999.250000 1.2236000299 1.1646000147
 2258.8728027 6.0000000000 12.350601196 12.250000954 178.34710693 0.0313999988 0.3176999986 2.3931999207 5.1178998947 92.827201843  -999.250000  -999.250000 1.2050000429 1.1506999731
 2259.0251465 6.0000000000 12.405800819 12.250000954 200.42060852 0.0292000007 0.3129000068 2.3898000717 5.3175997734 81.659301758  -999.250000  -999.250000 1.1928000450 1.1447999477
 2259.1777344 6.0000000000 12.372499466 12.250000954 228.91207886 0.0219000001 0.3167000115 2.3870999813 4.9190001488 80.322196960  -999.250000  -999.250000 1.1878000498 1.1430000067
 2259.3300781 6.0000000000 12.391899109 12.250000954 229.89237976 0.0260000005 0.3095000088 2.3847999573 5.1820998192 75.579002380  -999.250000  -999.250000 1.1931999922 1.1419999599
 2259.4824219 6.0000000000 12.415499687 12.250000954 219.08039856 0.0326999985 0.3142000139 2.3905999660 5.4840002060 88.525596619  -999.250000  -999.250000 1.1872999668 1.1384999752
 2259.6347656 6.0000000000 12.377699852 12.250000954 214.91995239 0.0296000000 0.3312000036 2.4096000195 4.8741002083 85.185897827  -999.250000  -999.250000 1.1950000525 1.1440000534
 2259.7873535 6.0000000000 12.355600357 12.250000954 198.82775879 0.0221999995 0.3397000134 2.4012000561 4.4418001175 90.357101440  -999.250000  -999.250000 1.1859999895 1.1398999691
 2259.9396973 6.0000000000 12.355799675 12.250000954 176.62303162 0.0066999998 0.3273000121 2.3796000481 4.2298002243 75.713203430  -999.250000  -999.250000 1.1872999668 1.1380000114
 2260.0920410 5.0000000000 12.359600067 12.250000954 153.96490479 0.0029000000 0.3057000041 2.3785998821 4.1961002350 73.065299988  -999.250000  -999.250000 1.1819000244 1.1324000359
 2260.2443848 5.0000000000 12.373800278 12.250000954 156.80511475 0.0022000000 0.3122999966 2.3750998974 4.1442999840 77.048202515  -999.250000  -999.250000 1.1978000402 1.1456999779
 2260.3969727 5.0000000000 12.386599541 12.250000954 174.98162842 0.0007000000 0.3023000062 2.3673999310 4.1020998955 78.457901001  -999.250000  -999.250000 1.2115999460 1.1564999819
 2260.5493164 5.0000000000 12.387300491 12.250000954 190.91436768 0.0044999998 0.3194000125 2.3743999004 4.2853999138 78.091903687  -999.250000  -999.250000 1.2232999802 1.1707999706
 2260.7016602 5.0000000000 12.383500099 12.250000954 186.57972717 0.0078999996 0.3163999915 2.3731999397 4.3407998085 74.781898499  -999.250000  -999.250000 1.2282999754 1.1806000471
 2260.8540039 5.0000000000 12.375599861 12.250000954 174.62303162 0.0082000000 0.3077000082 2.3670001030 4.0348000526 81.572601318  -999.250000  -999.250000 1.2401000261 1.2041000128
 2261.0063477 5.0000000000 12.377799988 12.250000954 184.98490906 0.0052999998 0.3371999860 2.3763000965 3.9978001118 72.474502563  -999.250000  -999.250000 1.2386000156 1.1958999634
 2261.1589355 5.0000000000 12.372699738 12.250000954 183.06332397 0.0102000004 0.3307999969 2.3835999966 4.4488000870 82.969497681  -999.250000  -999.250000 1.2422000170 1.1904000044
 2261.3112793 5.0000000000 12.369299889 12.250000954 171.78674316 0.0131000001 0.3260999918 2.3808999062 4.3892002106 83.711196899  -999.250000  -999.250000 1.2503000498 1.2002999783
 2261.4636230 5.0000000000 12.392999649 12.250000954 168.59088135 0.0272000004 0.3149000108 2.3905000687 4.7582001686 78.822998047  -999.250000  -999.250000 1.2142000198 1.1690000296
 2261.6159668 5.0000000000 12.394399643 12.250000954 163.31169128 0.0204000007 0.3170999885 2.3880000114 4.8253998756 80.123802185  -999.250000  -999.250000 1.2082999945 1.1657999754
 2261.7685547 5.0000000000 12.418700218 12.250000954 170.10203552 0.0228000004 0.3149000108 2.3796000481 4.8958001137 79.410102844  -999.250000  -999.250000 1.1990000010 1.1572999954
 2261.9208984 5.0000000000 12.418700218 12.250000954 191.63549805 0.0194000024 0.3169000149 2.3740999699 4.9945001602 80.827499390  -999.250000  -999.250000 1.1818000078 1.1424000263
 2262.0732422 5.0000000000 12.368398666 12.250000954 214.10105896 0.0230999999 0.3143000007 2.3796999454 5.0880999565 83.689002991  -999.250000  -999.250000 1.1830999851 1.1240999699
 2262.2255859 5.0000000000 12.370100021 12.250000954 236.48457336 0.0205000006 0.3043999970 2.3747999668 4.6932001114 77.059402466  -999.250000  -999.250000 1.1863000393 1.1180000305
 2262.3781738 5.0000000000 12.377499580 12.250000954 232.44915771 0.0136000002 0.3163999915 2.3875999451 4.5563998222 86.542098999  -999.250000  -999.250000 1.1799000502 1.1191999912
 2262.5305176 5.0000000000 12.397899628 12.250000954 200.61418152 0.0068999999 0.3091999888 2.3663001060 4.0967998505 74.907302856  -999.250000  -999.250000 1.1924999952 1.1322000027
 2262.6828613 5.0000000000 12.398098946 12.250000954 170.56169128 0.0063999998 0.3177999854 2.3659999371 4.0373997688 75.327903748  -999.250000  -999.250000 1.2037999630 1.1564999819
 2262.8352051 5.0000000000 12.390000343 12.250000954 154.77362061 0.0082999999 0.3113000095 2.3747999668 4.0749998093 94.030197144  -999.250000  -999.250000 1.1931999922 1.1419999599
 2262.9875488 5.0000000000 12.385000229 12.250000954 159.92454529 0.0077000000 0.2980000079 2.3742001057 4.0696997643 81.232101440  -999.250000  -999.250000 1.1955000162 1.1503000259
 2263.1401367 5.0000000000 12.388401031 12.250000954 166.63583374 0.0041000000 0.3192000091 2.3777999878 4.1823000908 76.848503113  -999.250000  -999.250000 1.2181999683 1.1663000584
 2263.2924805 5.0000000000 12.388900757 12.250000954 177.13124084 -0.012500000 0.3125000000 2.4289999008 4.4630999565 73.501098633  -999.250000  -999.250000 1.2405999899 1.1804000139
 2263.4448242 5.0000000000 12.395500183 12.250000954 190.30216980 -0.022399999 0.3070999980 2.4960000515 4.3885002136 68.715400696  -999.250000  -999.250000 1.2374999523 1.1770999432
