# LAS format log file from PETREL
# Project units are specified as depth units
#==================================================================
~Version information
VERS.   2.0:
WRAP.   NO:
#==================================================================
~Well
STRT .m      2949.7507324 :
STOP .m      3605.5278320 :
STEP .m     0.00000000 :
NULL .        -999.250000 :
COMP.           : COMPANY
WELL.  35/9-10 S   : WELL
FLD.            : FIELD
LOC.            : LOCATION
SRVC.           : SERVICE COMPANY
DATE.  2018-09-11 14:49:01   : Log Export Date {yyyy-MM-dd HH:mm:ss}
PROV.           : PROVINCE
UWI.   35/9-10 S   : UNIQUE WELL ID
API.            : API NUMBER
#==================================================================
~Curve
DEPT .m                   : DEPTH
Lithology_geolink ._      : Lithology_geolink
CALI .in                  : CALI
BS .in                    : BS
ROP .m/h                  : ROP
DRHO .g/cm3               : DRHO
THOR .ppm                 : THOR
NPHI .m3/m3               : NPHI
RHOB .g/cm3               : RHOB
PEF .b/e                  : PEF
GR .gAPI                  : GR
URAN .ppm                 : URAN
DTC .us/ft                : DTC
DTS .us/ft                : DTS
RDEP .ohm.m               : RDEP
RMED .ohm.m               : RMED
~Parameter
#==================================================================
~Ascii
# ...
 2991.3559570 12.000000000 8.5710000992 8.5000000000 65.392387390 0.0065000001 4.5127000809 0.1507000029 2.5666999817 4.1858000755 45.818500519 1.2424999475 76.102203369 136.93179321 4.7508997917 4.6349000931
 2991.5085449 11.000000000 8.5629997253 8.5000000000 53.885829926 0.0127999997 4.6223998070 0.1439000070 2.5875999928 4.4233999252 35.213901520 1.0655000210 74.647102356 137.37210083 4.0437002182 3.9426999092
 2991.6608887 11.000000000 8.5437002182 8.5000000000 48.132217407 0.0126999998 4.8824000359 0.1439999938 2.6045999527 4.4906997681 29.831199646 0.8830999732 74.032600403 138.06660461 4.2210001945 4.0942001343
 2991.8132324 11.000000000 8.5363998413 8.5000000000 42.489173889 0.0057000001 5.1444997787 0.1484999955 2.6161999702 4.4572000504 29.170999527 0.7185999751 73.700302124 139.48460388 4.8633999825 4.6786999702
 2991.9655762 11.000000000 8.5413999557 8.5000000000 39.667652130 -0.001900000 5.3302001953 0.1483999938 2.6135001183 4.4015002251 30.286199570 0.5724999905 73.554496765 140.13070679 5.3432002068 5.1027002335
 2992.1181641 11.000000000 8.5521001816 8.5000000000 40.125984192 -0.001700000 5.4035000801 0.1431999952 2.6038999557 4.3361001015 31.487800598 0.4440999925 73.635696411 141.48590088 5.4340000153 5.1634001732
 2992.2705078 11.000000000 8.5599002838 8.5000000000 40.029857635 0.0093000000 5.3878002167 0.1380999982 2.6043000221 4.2951002121 32.361000061 0.3192999959 73.524002075 142.26469421 5.4738001823 5.1771001816
 2992.4228516 11.000000000 8.5542001724 8.5000000000 39.379592896 0.0209999997 5.2610001564 0.1323000044 2.6112000942 4.2912998199 32.506999969 0.2126999944 73.467102051 144.02619934 5.6810002327 5.3434000015
 2992.5751953 11.000000000 8.5482997894 8.5000000000 40.830707550 0.0221999995 5.0436000824 0.1277000010 2.6140000820 4.3060002327 31.465999603 0.1533000022 73.631599426 145.82510376 5.8989000320 5.5128998756
 2992.7275391 11.000000000 8.5579004288 8.5000000000 41.556430817 0.0113000004 4.8271999359 0.1298000067 2.6063001156 4.3010997772 30.457399368 0.1349000037 73.764900208 146.62669373 5.9175000191 5.4963998795
 2992.8801270 11.000000000 8.5696001053 8.5000000000 46.108268738 -0.001000000 4.6623001099 0.1359000057 2.6010000706 4.3210000992 29.911199570 0.1550000012 73.825202942 147.64680481 5.7301998138 5.2992000580
 2993.0324707 11.000000000 8.5652999878 8.5000000000 48.383857727 -0.005100000 4.5397000313 0.1368999928 2.6050000191 4.4696998596 29.110099792 0.2151000053 73.895797729 147.91059875 5.4036002159 4.9937000275
 2993.1848145 11.000000000 8.5543003082 8.5000000000 47.908794403 -0.005700000 4.4823999405 0.1328999996 2.5943999290 4.6178002357 28.708799362 0.2563999891 74.117698669 147.89619446 4.9927000999 4.6248998642
 2993.3371582 11.000000000 8.5544996262 8.5000000000 47.671260834 -0.001200000 4.3868999481 0.1314000040 2.5680000782 4.6071000099 29.566099167 0.3443000019 74.341003418 147.82490540 4.5619997978 4.2480998039
 2993.4897461 11.000000000 8.5679998398 8.5000000000 45.881561279 0.0137000000 4.3671998978 0.1333999932 2.5522999763 4.4930000305 31.118600845 0.4075999856 75.471694946 148.08900452 4.3087000847 4.0237998962
 2993.6420898 12.000000000 8.5805997849 8.5000000000 44.986549377 0.0326000005 4.4959001541 0.1353999972 2.5625000000 4.3782000542 33.305801392 0.4366999865 76.275100708 148.45669556 4.3046998978 4.0359997749
 2993.7944336 12.000000000 8.5813999176 8.5000000000 44.360565186 0.0408999994 4.7315001488 0.1377999932 2.5845000744 4.2527999878 36.145500183 0.4638999999 77.948402405 150.17689514 4.3965001106 4.1413998604
 2993.9467773 12.000000000 8.5704002380 8.5000000000 44.047245026 0.0304000005 4.9503002167 0.1457999945 2.5961000919 4.1111998558 38.205898285 0.5162000060 78.788505554 151.32739258 4.3422999382 4.1117000580
 2994.0993652 12.000000000 8.5572996140 8.5000000000 42.424541473 0.0104000000 5.1529998779 0.1605000049 2.5917000771 4.0061001778 39.205699921 0.5514000058 79.873908997 152.53739929 4.0803999901 3.8833999634
 2994.2517090 12.000000000 8.5556001663 8.5000000000 41.613189697 -0.001300000 5.4072999954 0.1761000007 2.5829000473 3.9467000961 39.851200104 0.5217000246 79.882102966 156.39320374 3.7369000912 3.5731999874
 2994.4040527 12.000000000 8.5670995712 8.5000000000 40.935039520 0.0026000000 5.6645998955 0.1835000068 2.5778999329 3.9226999283 40.228599548 0.4379000068 79.673690796 158.56550598 3.4581999779 3.3243000507
 2994.5563965 12.000000000 8.5788002014 8.5000000000 40.596130371 0.0153999999 5.8477997780 0.1846999973 2.5717000961 3.9251000881 39.845600128 0.3316999972 78.504203796 159.43049622 3.3171999454 3.2040998936
 2994.7087402 12.000000000 8.5825996399 8.5000000000 42.547245026 0.0272000004 5.9783000946 0.1846999973 2.5683999062 3.9951999187 38.371299744 0.2157000005 78.285697937 158.62809753 3.3556001186 3.2518000603
 2994.8613281 11.000000000 8.5782003403 8.5000000000 43.522640228 0.0322999991 6.0107002258 0.1798000038 2.5725998878 4.1714000702 35.936798096 0.0891000032 78.581100464 156.85699463 3.6017000675 3.5016000271
 2995.0136719 11.000000000 8.5666999817 8.5000000000 43.536418915 0.0295000002 5.6078000069 0.1661999971 2.5813999176 4.3875999451 33.793098450 0.0978000015 79.005798340 155.83779907 3.9979000092 3.9014999866
 2995.1660156 11.000000000 8.5528001785 8.5000000000 43.542980194 0.0219999999 5.2163000107 0.1550000012 2.5919001102 4.5109000206 32.383701324 0.2018000036 78.498397827 154.87370300 4.3337001801 4.2417998314
 2995.3183594 11.000000000 8.5471000671 8.5000000000 46.540027618 0.0116999997 4.4604001045 0.1532000005 2.6006000042 4.4787998199 30.868900299 0.4776999950 78.212097168 154.52709961 4.4584999084 4.3766999245
 2995.4709473 11.000000000 8.5487003326 8.5000000000 48.038387299 -0.000200000 4.1272997856 0.1544999927 2.6052000523 4.4133000374 29.690799713 0.6467999816 78.239997864 154.21859741 4.4432997704 4.3712000847
 2995.6232910 11.000000000 8.5500001907 8.5000000000 47.141403198 -0.010300000 4.0152001381 0.1516000032 2.6017000675 4.4516000748 30.469999313 0.7513999939 78.655998230 154.87829590 4.3636999130 4.2961001396
 2995.7756348 11.000000000 8.5469999313 8.5000000000 47.654197693 -0.019099999 3.9806001186 0.1500000060 2.5845000744 4.5422000885 33.142700195 0.8256000280 79.079597473 155.93118286 4.2321000099 4.1638998985
 2995.9279785 11.000000000 8.5427999496 8.5000000000 48.615158081 -0.021700000 4.0088000298 0.1585000008 2.5625000000 4.5373997688 35.829399109 0.8187999725 78.731101990 155.94889832 4.1872000694 4.1111998558
 2996.0805664 11.000000000 8.5486001968 8.5000000000 50.618766785 -0.016200000 3.9878001213 0.1727000028 2.5495998859 4.4777998924 36.494701385 0.7906000018 78.654098511 154.59399414 4.3172998428 4.2255001068
 2996.2329102 11.000000000 8.5611000061 8.5000000000 51.661087036 -0.007700000 3.8307998180 0.1779000014 2.5434999466 4.5405001640 34.269199371 0.7616000175 77.842597961 152.46139526 4.5309000015 4.4179000854
 2996.3852539 11.000000000 8.5704002380 8.5000000000 51.572837830 -0.002700000 3.5490999222 0.1677999943 2.5359001160 4.7178001404 30.608299255 0.7739999890 77.487998962 150.18910217 4.7238001823 4.5892000198
 2996.5375977 11.000000000 8.5705995560 8.5000000000 50.442256927 0.0007000000 3.3308000565 0.1580999941 2.5427999496 4.8312997818 27.883300781 0.8526999950 76.628692627 148.22259521 4.8380999565 4.6880998611
 2996.6899414 11.000000000 8.5680999756 8.5000000000 50.762794495 0.0030000000 3.2502999306 0.1576000005 2.5669000149 4.7311000824 27.163799286 0.9622000456 75.866203308 145.73970032 4.8582000732 4.7056999207
 2996.8425293 11.000000000 8.5662002563 8.5000000000 52.213581085 -0.001500000 3.2620999813 0.1596000046 2.5815999508 4.4704999924 28.514699936 1.0839999914 75.584800720 145.65229797 4.8355998993 4.6964001656
 2996.9948730 11.000000000 8.5601997375 8.5000000000 55.343177795 -0.007600000 3.3666999340 0.1565999985 2.5808999538 4.1883001328 31.326200485 1.1355999708 75.627296448 147.16389465 4.7908000946 4.6817002296
 2997.1472168 11.000000000 8.5543003082 8.5000000000 57.021327972 -0.008200000 3.5325999260 0.1525000036 2.5831999779 3.9793000221 33.998798370 1.0673999786 76.017799377 150.66920471 4.7133998871 4.6511001587
