# LAS format log file from PETREL
# Project units are specified as depth units
#==================================================================
~Version information
VERS.   2.0:
WRAP.   NO:
#==================================================================
~Well
STRT .m      2535.9846191 :
STOP .m      3240.0725098 :
STEP .m     0.00000000 :
NULL .        -999.250000 :
COMP.           : COMPANY
WELL.  35/9-8   : WELL
FLD.            : FIELD
LOC.            : LOCATION
SRVC.           : SERVICE COMPANY
DATE.  2018-09-11 14:49:02   : Log Export Date {yyyy-MM-dd HH:mm:ss}
PROV.           : PROVINCE
UWI.   35/9-8   : UNIQUE WELL ID
API.            : API NUMBER
#==================================================================
~Curve
DEPT .m                   : DEPTH
Lithology_geolink ._      : Lithology_geolink
CALI .in                  : CALI
BS .in                    : BS
ROP .m/h                  : ROP
DRHO .g/cm3               : DRHO
THOR .ppm                 : THOR
NPHI .m3/m3               : NPHI
RHOB .g/cm3               : RHOB
PEF .b/e                  : PEF
GR .gAPI                  : GR
URAN .ppm                 : URAN
DTC .us/ft                : DTC
DTS .us/ft                : DTS
RDEP .ohm.m               : RDEP
RMIC .ohm.m               : RMIC
RMED .ohm.m               : RMED
~Parameter
#==================================================================
~Ascii
# ...
 2817.9245605 5.0000000000 8.5262002945 8.5000000000  -999.250000 0.0027999999 6.3562002182 0.2061000019 2.4577999115 3.9828999043 85.384750366 1.9096001387 80.992698669 141.65109253 4.9404001236 8.7875003815 4.6311998367
 2818.0769043 5.0000000000 8.5162000656 8.5000000000  -999.250000 -0.001000000 6.6705999374 0.2067999989 2.4212999344 3.6240000725 85.586090088 1.8438999653 82.841697693 144.35076904 4.3049001694 3.7047998905 4.0657000542
 2818.2292480 5.0000000000 8.5107002258 8.5000000000  -999.250000 -0.003900000 6.6862001419 0.2118999958 2.3933999538 3.5799999237 84.848083496 1.7080999613 84.213790894 146.25584412 4.0159001350 1.8832000494 3.8192999363
 2818.3815918 4.0000000000 8.5113000870 8.5000000000  -999.250000 -0.005300000 6.6293001175 0.2228000015 2.3759000301 3.6733999252 86.069869995 1.4979000092 84.998596191 146.76896667 3.8176000118 1.3310999870 3.6493999958
 2818.5341797 4.0000000000 8.5113000870 8.5000000000  -999.250000 -0.002300000 6.5306000710 0.2237000018 2.3763000965 3.7128999233 87.816802979 1.3112000227 85.400497437 146.27859497 4.7656998634 1.4532999992 4.5219998360
 2818.6865234 4.0000000000 8.5102996826 8.5000000000  -999.250000 0.0044999998 6.2046999931 0.2160000056 2.3868999481 3.6696000099 85.307624817 1.1720000505 85.487701416 145.43576050 5.8811001778 3.0676000118 5.5334000587
 2818.8388672 4.0000000000 8.5131998062 8.5000000000  -999.250000 0.0066999998 5.4590001106 0.2133000046 2.3817000389 3.6119000912 78.259208679 1.1459000111 85.439697266 145.06410217 4.6476998329 4.0223999023 4.3949999809
 2818.9912109 4.0000000000 8.5193004608 8.5000000000  -999.250000 0.0017000000 4.5390000343 0.2085999995 2.3564000130 3.5548000336 70.806686401 1.3231999874 85.319999695 145.88536072 3.6554999352 1.2028000355 3.5086998940
 2819.1437988 2.0000000000 8.5181999207 8.5000000000  -999.250000 -0.002300000 4.0542001724 0.1959999949 2.3389000893 3.4916000366 66.667205811 1.4565000534 85.205596924 147.31851196 3.3236999512 0.8288999796 3.2286000252
 2819.2961426 2.0000000000 8.5082998276 8.5000000000  -999.250000 -0.002000000 4.0844001770 0.1923999935 2.3462998867 3.4581000805 68.627838135 1.4299000502 85.058097839 148.87559509 3.3211998940 0.8321999907 3.2653999329
 2819.4484863 2.0000000000 8.5128002167 8.5000000000  -999.250000 0.0024999999 4.0349998474 0.2065999955 2.3733000755 3.4935998917 76.138252258 1.5393999815 84.823989868 150.12500000 4.2224001884 1.2804000378 4.1841998100
 2819.6008301 2.0000000000 8.5357999802 8.5000000000  -999.250000 0.0066000000 3.7815001011 0.2261999995 2.3956999779 3.5871000290 84.042060852 2.0141999722 84.300598145 150.73474121 4.5921998024 4.4215998650 4.5321002007
 2819.7534180 2.0000000000 8.5445995331 8.5000000000  -999.250000 0.0033000000 3.7730000019 0.2391999960 2.3926000595 3.6935999393 88.165321350 2.4495999813 83.621398926 151.07806396 3.8714001179 5.4882998466 3.7927999496
 2819.9057617 2.0000000000 8.5305995941 8.5000000000  -999.250000 -0.003300000 4.1020998955 0.2442000061 2.3780999184 3.7297999859 89.204940796 2.5388000011 82.816101074 150.93452454 4.1026000977 1.9539999962 3.9820001125
 2820.0581055 5.0000000000 8.5146999359 8.5000000000  -999.250000 -0.006000000 5.0107998848 0.2433000058 2.3789999485 3.6468000412 90.937622070 2.4672000408 82.062705994 150.50958252 5.0012998581 1.3229000568 4.8059000969
 2820.2104492 5.0000000000 8.5066003799 8.5000000000  -999.250000 -0.003100000 6.5840997696 0.2401999980 2.4007000923 3.5127999783 94.969230652 2.2592000961 81.533798218 149.84626770 7.1462998390 2.6630001068 6.7656998634
 2820.3627930 5.0000000000 8.5020999908 8.5000000000  -999.250000 0.0052000000 7.3106999397 0.2400999963 2.4319999218 3.4512000084 99.237419128 2.0676999092 81.210800171 149.24890137 10.803600311 6.3951001167 10.015999794
 2820.5153809 6.0000000000 8.5052003860 8.5000000000  -999.250000 0.0144999996 7.0138001442 0.2433000058 2.4577000141 3.4869000912 102.13916016 1.9840999842 81.155296326 148.94659424 12.679800034 8.2318000793 11.594300270
 2820.6677246 6.0000000000 8.5183000565 8.5000000000  -999.250000 0.0181000009 6.7102999687 0.2489999980 2.4651000500 3.5754001141 102.81831360 1.9543999434 81.263900757 148.87870789 8.1325998306 9.2889995575 7.3685002327
 2820.8200684 6.0000000000 8.5290002823 8.5000000000  -999.250000 0.0142999999 6.2579998970 0.2480999976 2.4533998966 3.6724998951 100.72276306 1.9412000179 81.487998962 148.96646118 5.0538001060 6.7767000198 4.5253000259
 2820.9724121 6.0000000000 8.5321998596 8.5000000000  -999.250000 0.0092000002 5.8481998444 0.2397000045 2.4407999516 3.7437000275 99.072486877 1.9443998337 81.720298767 149.10455322 5.0023999214 3.0130000114 4.4303998947
 2821.1250000 6.0000000000 8.5331001282 8.5000000000  -999.250000 0.0102000004 6.2446999550 0.2399999946 2.4479999542 3.7369000912 101.17541504 2.0978999138 81.874900818 149.27313232 7.4475002289 3.1264998913 6.5292000771
 2821.2773438 6.0000000000 8.5290002823 8.5000000000  -999.250000 0.0157999992 7.1461000443 0.2531000078 2.4723999500 3.6282000542 104.83154297 2.3566000462 81.924301147 149.50093079 12.767900467 7.9071002007 11.204099655
 2821.4296875 6.0000000000 8.5117998123 8.5000000000  -999.250000 0.0181000009 7.6041998863 0.2628000081 2.4920001030 3.5190999508 105.82161713 2.5043001175 81.918510437 149.80970764 14.757100105 10.523400307 13.144300461
 2821.5820313 6.0000000000 8.4940996170 8.5000000000  -999.250000 0.0136000002 7.7361001968 0.2628999949 2.4974000454 3.4902000427 104.84603882 2.5590999126 81.927398682 150.08390808 10.769000053 9.0383996964 9.7051000595
 2821.7346191 6.0000000000 8.4928998947 8.5000000000  -999.250000 0.0066000000 8.0278997421 0.2655999959 2.5000998974 3.5078001022 106.84518433 2.6865000725 81.971199036 149.98805237 9.3959999084 6.2280001640 8.4570999146
 2821.8869629 7.0000000000 8.5153999329 8.5000000000  -999.250000 0.0009000000 9.2988004684 0.2720000148 2.5090999603 3.5315999985 114.14199829 2.6328001022 82.041702271 148.87590027 10.368700027 7.6310000420 9.2799997330
 2822.0393066 7.0000000000 8.5464000702 8.5000000000  -999.250000 -0.002000000 11.303500175 0.2781000137 2.5230000019 3.5671000481 122.38189697 2.2558999062 82.146102905 147.05650330 10.153699875 7.4748997688 9.0714998245
 2822.1916504 7.0000000000 8.5478000641 8.5000000000  -999.250000 -0.003200000 12.231699944 0.2847000062 2.5357000828 3.6015999317 125.53096771 2.0271999836 82.398498535 145.23860168 9.6189002991 7.0493998528 8.6113996506
 2822.3439941 7.0000000000 8.5158996582 8.5000000000  -999.250000 -0.002000000 11.918899536 0.2861999869 2.5429999828 3.6150999069 123.62940216 2.0443000793 82.792602539 144.19149780 9.5761003494 8.4100999832 8.6485004425
 2822.4965820 7.0000000000 8.4937000275 8.5000000000  -999.250000 0.0024999999 10.631999969 0.2727999985 2.5380001068 3.5880999565 119.67440033 2.1105999947 83.361900330 144.92379761 9.8067998886 7.2246999741 9.0095996857
 2822.6489258 6.0000000000 8.5020999908 8.5000000000  -999.250000 0.0065000001 8.7426004410 0.2526000142 2.5041000843 3.4723000526 112.81230164 1.9893000126 83.943099976 146.42810059 8.7166004181 5.3516001701 8.1105003357
 2822.8012695 6.0000000000 8.5205001831 8.5000000000  -999.250000 0.0046000001 7.2982997894 0.2358999997 2.4377000332 3.3010001183 101.77739716 1.6559000015 84.304199219 148.34230042 5.5364999771 2.3210999966 5.1644001007
 2822.9536133 6.0000000000 8.5279998779 8.5000000000  -999.250000 -0.000300000 6.2013001442 0.2276999950 2.3703999519 3.1877000332 90.948600769 1.5741000175 84.424201965 150.07150269 3.9595999718 1.0284999609 3.6633000374
 2823.1062012 4.0000000000 8.5194997787 8.5000000000  -999.250000 -0.003100000 5.7610001564 0.2282000035 2.3387000561 3.1928000450 87.736198425 1.6675000191 84.006805420 151.26190186 3.5978000164 0.8962000012 3.3020000458
 2823.2585449 4.0000000000 8.5134000778 8.5000000000  -999.250000 -0.004500000 6.3819999695 0.2330999970 2.3533000946 3.2892000675 93.686798096 1.9962999821 83.300300598 152.08590698 3.8685998917 0.9172999859 3.5376999378
 2823.4108887 4.0000000000 8.5286998749 8.5000000000  -999.250000 -0.004200000 7.0542001724 0.2430000007 2.4044001102 3.4137001038 104.66699982 2.6303999424 82.426300049 152.38180542 5.9516000748 1.1955000162 5.3983001709
