# LAS format log file from PETREL
# Project units are specified as depth units
#==================================================================
~Version information
VERS.   2.0:
WRAP.   NO:
#==================================================================
~Well
STRT .m      2535.9846191 :
STOP .m      3240.0725098 :
STEP .m     0.00000000 :
NULL .        -999.250000 :
COMP.           : COMPANY
WELL.  35/9-8   : WELL
FLD.            : FIELD
LOC.            : LOCATION
SRVC.           : SERVICE COMPANY
DATE.  2018-09-11 14:49:02   : Log Export Date {yyyy-MM-dd HH:mm:ss}
PROV.           : PROVINCE
UWI.   35/9-8   : UNIQUE WELL ID
API.            : API NUMBER
#==================================================================
~Curve
DEPT .m                   : DEPTH
Lithology_geolink ._      : Lithology_geolink
CALI .in                  : CALI
BS .in                    : BS
ROP .m/h                  : ROP
DRHO .g/cm3               : DRHO
THOR .ppm                 : THOR
NPHI .m3/m3               : NPHI
RHOB .g/cm3               : RHOB
PEF .b/e                  : PEF
GR .gAPI                  : GR
URAN .ppm                 : URAN
DTC .us/ft                : DTC
DTS .us/ft                : DTS
RDEP .ohm.m               : RDEP
RMIC .ohm.m               : RMIC
RMED .ohm.m               : RMED
~Parameter
#==================================================================
~Ascii
# ...
 3190.0854492 7.0000000000 8.5321998596 8.5000000000 69.504165649 -0.013100000 13.777199745 0.3167000115 2.5352001190 3.3678998947 124.64769745 4.4665999413 77.056098938 149.32229614 20.722999573 19.056335449 19.980199814
 3190.2377930 7.0000000000 8.5460996628 8.5000000000 69.438339233 -0.006200000 13.746700287 0.3488999903 2.5322999954 3.5255000591 127.57800293 4.7381000519 77.897499084 150.58990479 18.759799957 16.767902374 18.255300522
 3190.3901367 7.0000000000 8.5500001907 8.5000000000 66.992790222 0.0009000000 13.642999649 0.3776000142 2.5353999138 3.6143000126 130.62010193 4.9056000710 78.680000305 149.89700317 15.119400024 13.088638306 14.827799797
 3190.5427246 7.0000000000 8.5418996811 8.5000000000 65.779876709 0.0077999998 13.409199715 0.3806000054 2.5422000885 3.5934000015 127.04720306 4.3927998543 79.286911011 147.74890137 12.414500237 10.057215691 12.184200287
 3190.6950684 7.0000000000 8.5289001465 8.5000000000 68.649612427 0.0110999998 11.996000290 0.3666999936 2.5429000854 3.5355000496 111.70890045 3.3283998966 79.442008972 143.76210022 11.150600433 9.2178096771 10.919799805
 3190.8474121 7.0000000000 8.5212001801 8.5000000000 70.125892639 0.0097000012 8.6507997513 0.3219999969 2.5262000561 3.5364000797 92.177597046 2.9777998924 79.287803650 139.25140381 8.7225999832 7.2227845192 8.5298004150
 3190.9997559 3.0000000000 8.5094995499 8.5000000000 95.022262573 0.0037000000 5.4172000885 0.2578000128 2.4914000034 3.6614999771 80.787002563 3.4828000069 78.578399658 134.94360352 4.8007998466 2.6015291214 4.7364001274
 3191.1523438 3.0000000000 8.4891004562 8.5000000000 107.41767120 -0.003000000 4.2322998047 0.2178999931 2.4556000233 3.8905999660 78.500602722 3.8471999168 77.599998474 131.19670105 3.8777999878 1.6230421066 3.8782999516
 3191.3046875 3.0000000000 8.4802999496 8.5000000000 94.025657654 -0.007800000 4.1125998497 0.2037999928 2.4384999275 4.1765999794 78.695701599 3.8817996979 76.267097473 128.85749817 4.5728998184 1.6680219173 4.6407999992
 3191.4570313 3.0000000000 8.4820995331 8.5000000000 87.329414368 -0.010000000 3.9526998997 0.2026000023 2.4488000870 4.5573000908 79.889297485 3.9319002628 74.862098694 127.44059753 5.8336000443 2.1186876297 6.0299000740
 3191.6093750 3.0000000000 8.4700002670 8.5000000000 90.611228943 -0.009100000 3.8368997574 0.2050999999 2.4790000916 5.0422000885 81.921997070 3.9746000767 73.620796204 127.34200287 7.0176000595 2.6721205711 7.3677000999
 3191.7619629 3.0000000000 8.4546003342 8.5000000000 92.236640930 -0.007200000 3.9439001083 0.2094999999 2.5088000298 5.4210000038 83.830497742 3.9864997864 72.688598633 127.77940369 8.6241998672 2.9362478256 9.0959997177
 3191.9143066 3.0000000000 8.4638996124 8.5000000000 87.766090393 -0.005100000 4.3418002129 0.2157000005 2.5285000801 5.4818000793 86.374099731 4.0422000885 72.376701355 128.30520630 13.210900307 3.6093637943 13.866700172
 3192.0666504 3.0000000000 8.4906997681 8.5000000000 85.521720886 -0.001700000 5.3614001274 0.2249999940 2.5464999676 5.1634998322 91.262100220 4.0858998299 72.571800232 128.50500488 19.972999573 6.1529293060 20.744800568
 3192.2189941 6.0000000000 8.5065002441 8.5000000000 81.059738159 0.0040000002 6.9826998711 0.2362000048 2.5673000813 4.5412001610 98.471801758 3.9942996502 73.238296509 128.18280029 22.312500000 13.529279709 22.941499710
 3192.3713379 6.0000000000 8.5052995682 8.5000000000 78.831535339 0.0088000000 8.2033996582 0.2442000061 2.5794000626 3.9068999290 106.60579681 3.9920001030 74.047302246 127.50520325 17.486700058 17.750072479 17.761299133
 3192.5239258 6.0000000000 8.5023002625 8.5000000000 79.551719666 0.0113000004 8.5635995865 0.2318000048 2.5745000839 3.5381000042 111.60949707 4.0866999626 74.755897522 126.57619476 9.7262001038 15.974018097 9.7609996796
 3192.6762695 6.0000000000 8.5080003738 8.5000000000 80.129615784 0.0115999999 8.1738004684 0.2004999965 2.5555999279 3.5095999241 108.22979736 3.9147999287 75.172096252 125.47429657 6.3877000809 11.233997345 6.3373999596
 3192.8286133 6.0000000000 8.5148000717 8.5000000000 80.351905823 0.0077999998 6.7792000771 0.1824000031 2.5253999233 3.7462999821 97.370002747 3.6491000652 75.177200317 124.28540039 5.4555001259 4.3769936562 5.3390998840
 3192.9809570 6.0000000000 8.5139999390 8.5000000000 82.114677429 -0.000300000 5.2480912209 0.1831000000 2.4892001152 4.0461001396 87.504699707 3.6100478172 74.654602051 123.22910309 5.2249999046 2.7524847984 5.0121002197
 3193.1335449 4.0000000000 8.5086002350 8.5000000000 83.671569824 -0.006200000 4.6194214821 0.1897999942 2.4628000259 4.2315998077 83.572998047 3.6398906708 73.749702454 122.49140167 5.6237998009 2.2453217506 5.3333997726
 3193.2858887 4.0000000000 8.4955997467 8.5000000000 88.475051880 -0.009100000 4.5952553749 0.1908999979 2.4521000385 4.3095002174 83.906898499 3.6369342804 72.648696899 122.19139862 5.6417999268 2.4411549568 5.3288998604
 3193.4382324 4.0000000000 8.4778003693 8.5000000000 91.739242554 -0.009700001 4.8172130585 0.1882999986 2.4526998997 4.3267998695 88.235900879 3.5958714485 71.625900269 122.09480286 6.2267999649 3.7825484276 5.8404002190
 3193.5905762 4.0000000000 8.4717998505 8.5000000000 91.365234375 -0.009000000 5.1365075111 0.1870999932 2.4605998993 4.2080998421 96.979400635 3.5167522430 70.873497009 122.14289093 8.6842002869 3.0653154850 8.0946998596
 3193.7431641 6.0000000000 8.4855003357 8.5000000000 87.709938049 -0.005600000 4.8903918266 0.1917999983 2.4807000160 3.9158000946 105.71679688 4.1125292778 70.286201477 122.36789703 13.041500092 3.2103979588 12.102299690
 3193.8955078 6.0000000000 8.5038003922 8.5000000000 80.845527649 0.0012000001 4.3580789566 0.1999000013 2.5123999119 3.5954000950 109.45059967 4.9006705284 69.951202393 123.42530060 16.829099655 6.5781922340 15.554400444
 3194.0478516 6.0000000000 8.5158996582 8.5000000000 77.607498169 0.0086000003 4.1577014923 0.2101999968 2.5416998863 3.3991999626 108.89820099 5.1320052147 69.813499451 125.18990326 18.201299667 9.1896514893 16.768499374
 3194.2001953 6.0000000000 8.5179996490 8.5000000000 76.927001953 0.0102000004 3.8466932774 0.2201000005 2.5548999310 3.3473999500 107.23780060 5.4474782944 70.148498535 127.94840240 18.551500320 8.9732093811 17.097499847
 3194.3525391 6.0000000000 8.5117998123 8.5000000000 79.477188110 0.0080000004 3.4688370228 0.2203000039 2.5585000515 3.4037001133 104.81849670 5.7452487946 70.692199707 130.68859863 17.417200089 9.2274780273 16.099399567
 3194.5051270 6.0000000000 8.5081996918 8.5000000000 78.127624512 0.0046999999 3.4931194782 0.2105000019 2.5594000816 3.5230998993 101.44799805 5.5875949860 71.387199402 132.51499939 15.265000343 9.0211544037 14.066599846
 3194.6574707 5.0000000000 8.5181999207 8.5000000000 74.238327026 0.0008000000 3.8735241890 0.2012999952 2.5560998917 3.6119000912 98.488601685 5.2431435585 72.078201294 133.58630371 14.631299973 7.2968120575 13.244299889
 3194.8098145 5.0000000000 8.5371999741 8.5000000000 70.647460938 -0.001200000 4.2004728317 0.2002000064 2.5483999252 3.5943000317 97.438499451 5.0831623077 72.806098938 133.84579468 13.397299767 9.3011798859 11.845600128
 3194.9621582 5.0000000000 8.5516996384 8.5000000000 70.946144104 -0.000800000 4.3707957268 0.2065999955 2.5404999256 3.5281000137 97.665603638 5.0598568916 73.592903137 133.92030334 10.350399971 11.341490746 9.0293998718
 3195.1147461 5.0000000000 8.5518999100 8.5000000000 71.321769714 0.0024000001 4.5557336807 0.2159000039 2.5418999195 3.5873999596 98.109298706 5.0959410667 74.359802246 133.90550232 11.564599991 9.6488647461 10.009499550
 3195.2670898 5.0000000000 8.5350999832 8.5000000000 71.405158997 0.0073000002 4.7534341812 0.2276999950 2.5594999790 3.8789999485 100.15029907 5.3275070190 74.969802856 133.81230164 20.169000626 8.1089143753 17.374399185
 3195.4194336 5.0000000000 8.5128002167 8.5000000000 75.278717041 0.0109000001 4.9621629715 0.2481999993 2.5826001167 4.1751999855 104.27269745 5.7686009407 75.288398743 133.67880249 30.294300079 6.4431657791 26.331100464
 3195.5717773 5.0000000000 8.5100002289 8.5000000000 79.076675415 0.0086000003 5.2509536743 0.2763999999 2.5838999748 4.1507000923 108.15969849 6.1430716515 75.349998474 133.67590332 33.019001007 10.852495193 28.972900391
