# LAS format log file from PETREL
# Project units are specified as depth units
#==================================================================
~Version information
VERS.   2.0:
WRAP.   NO:
#==================================================================
~Well
STRT .m      1350.9222412 :
STOP .m      2973.9824219 :
STEP .m     0.00000000 :
NULL .        -999.250000 :
COMP.           : COMPANY
WELL.  35/9-7   : WELL
FLD.            : FIELD
LOC.            : LOCATION
SRVC.           : SERVICE COMPANY
DATE.  2018-09-11 14:49:02   : Log Export Date {yyyy-MM-dd HH:mm:ss}
PROV.           : PROVINCE
UWI.   35/9-7   : UNIQUE WELL ID
API.            : API NUMBER
#==================================================================
~Curve
DEPT .m                   : DEPTH
Lithology_geolink ._      : Lithology_geolink
CALI .in                  : CALI
BS .in                    : BS
ROP .m/h                  : ROP
DRHO .g/cm3               : DRHO
THOR .ppm                 : THOR
NPHI .m3/m3               : NPHI
RHOB .g/cm3               : RHOB
PEF .b/e                  : PEF
GR .gAPI                  : GR
URAN .ppm                 : URAN
DTC .us/ft                : DTC
DTS .us/ft                : DTS
RDEP .ohm.m               : RDEP
RMIC .ohm.m               : RMIC
RMED .ohm.m               : RMED
~Parameter
#==================================================================
~Ascii
# ...
 2647.8464355 1.0000000000 8.1744003296 8.5000000000  -999.250000 -0.025300000 2.2909998894 0.1720999926 2.3273000717 3.6958000660 55.999900818 0.0016000000 89.672897339 143.26766968 286.86648560 3.3845999241 157.88070679
 2647.9987793 1.0000000000 8.1913995743 8.5000000000  -999.250000 -0.014900000 2.1907999516 0.1699000001 2.2808001041 3.4802000523 56.574798584 0.0016000000 90.435897827 144.75233459 404.24719238 4.2277998924 230.43949890
 2648.1511230 1.0000000000 8.1997003555 8.5000000000  -999.250000 -0.005100000 2.0610001087 0.1674000025 2.2585999966 3.4356000423 56.599300385 0.0016000000 89.546203613 145.92262268 475.11331177 4.6277999878 267.97610474
 2648.3034668 1.0000000000 8.1951999664 8.5000000000  -999.250000 0.0027999999 1.9086998701 0.1679999977 2.2600998878 3.5223999023 56.633300781 0.0016000000 88.104598999 145.02468872 435.57681274 4.5324997902 251.74389648
 2648.4560547 1.0000000000 8.1738004684 8.5000000000  -999.250000 0.0076000001 1.6970000267 0.1631000042 2.2739999294 3.5404000282 54.798500061 0.0016000000 86.368797302 144.43025208 534.55810547 4.4113001823 320.71640015
 2648.6083984 1.0000000000 8.1373996735 8.5000000000  -999.250000 0.0091000004 1.4162000418 0.1475999951 2.2908999920 3.4370000362 50.401298523 0.1758999974 85.490196228 143.11610413 844.12237549 4.3329000473 500.37631226
 2648.7607422 1.0000000000 8.0978002548 8.5000000000  -999.250000 0.0082999999 1.1442999840 0.1295000017 2.3066999912 3.3027999401 46.067001343 0.3689000010 85.193901062 140.43090820 1113.4820557 4.0938000679 610.60498047
 2648.9130859 1.0000000000 8.0671997070 8.5000000000  -999.250000 0.0054000001 0.9556000829 0.1195999980 2.3192000389 3.1875000000 43.563800812 0.5270000100 85.066589355 138.18080139 959.63159180 4.3038001060 476.97009277
 2649.0656738 1.0000000000 8.0494003296 8.5000000000  -999.250000 0.0016000000 0.9049999714 0.1180000007 2.3310999870 3.0796000957 42.989601135 0.6033999920 83.523002625 134.60003662 598.10742188 4.5208001137 282.76031494
 2649.2180176 1.0000000000 8.0474004745 8.5000000000  -999.250000 -0.001400000 1.0132000446 0.1177000031 2.3480000496 2.9895000458 43.760700226 0.5881999731 80.755500793 130.63934326 317.17480469 3.9388000965 151.66690063
 2649.3703613 1.0000000000 8.0600996017 8.5000000000  -999.250000 -0.002200000 1.2265000343 0.1172000021 2.3775999546 3.0239999294 45.097400665 0.5314000249 76.495903015 127.68772888 133.50039673 2.4679000378 67.121002197
 2649.5227051 1.0000000000 8.0977001190 8.5000000000  -999.250000 -0.000400000 1.5011999607 0.1181000024 2.4217998981 3.2634999752 45.963100433 0.4375000000 75.148300171 125.72963715 73.727699280 2.5573000908 40.651100159
 2649.6750488 1.0000000000 8.1731004715 8.5000000000  -999.250000 0.0033000000 1.7568999529 0.1194000021 2.4713997841 3.6112000942 46.790901184 0.3046000004 75.564796448 124.04241943 71.610298157 5.3895001411 42.229900360
 2649.8276367 1.0000000000 8.2736997604 8.5000000000  -999.250000 0.0049000001 1.8997999430 0.1200999990 2.5125000477 3.8887000084 47.777698517 0.2159000039 75.493598938 121.13935089 70.657501221 4.8543000221 42.289901733
 2649.9799805 1.0000000000 8.3643999100 8.5000000000  -999.250000 0.0046000001 1.9464000463 0.1211000010 2.5443999767 4.0764999390 48.605400085 0.1923999935 73.794998169 120.08278656 71.135902405 7.3442997932 43.270401001
 2650.1323242 1.0000000000 8.4219999313 8.5000000000  -999.250000 0.0048000002 1.9730998278 0.1203000024 2.5692000389 4.2142000198 48.801200867 0.1714999974 71.329200745 119.82980347 78.558799744 11.742899895 48.689399719
 2650.2846680 1.0000000000 8.4414997101 8.5000000000  -999.250000 0.0046999999 2.0483000278 0.1163000017 2.5803999901 4.2262997627 48.473598480 0.1435000002 70.493301392 120.60461426 105.49169922 7.2617998123 66.416198730
 2650.4372559 1.0000000000 8.4386997223 8.5000000000  -999.250000 0.0052000000 2.2005000114 0.1111000031 2.5801999569 4.0297999382 48.403598785 0.1321000010 69.612503052 122.25894165 138.02859497 8.5073003769 90.780601501
 2650.5895996 1.0000000000 8.4338998795 8.5000000000  -999.250000 0.0088000000 2.3715000153 0.1059999987 2.5834000111 3.7314000130 49.407901764 0.1791999936 70.539398193 123.73313141 103.02380371 18.067399979 76.626800537
 2650.7419434 1.0000000000 8.4305000305 8.5000000000  -999.250000 0.0129000004 2.4386999607 0.1005000025 2.5889000893 3.5369999409 51.678001404 0.3371999860 69.437103271 125.00167084 69.699996948 7.9513998032 59.373199463
 2650.8942871 1.0000000000 8.4224004745 8.5000000000  -999.250000 0.0109999999 2.3822999001 0.0951000005 2.5759000778 3.4588000774 54.056499481 0.5224000216 72.103897095 122.81701660 81.852600098 3.1152000427 71.425796509
 2651.0468750 1.0000000000 8.4121999741 8.5000000000  -999.250000 0.0037000000 2.3169000149 0.0922999978 2.5397000313 3.3838999271 55.429599762 0.5903000236 68.545501709 121.12899780 114.96389771 14.930299759 89.714401245
 2651.1992188 1.0000000000 8.4166002274 8.5000000000  -999.250000 -0.001000000 2.3183999062 0.0935999975 2.5016000271 3.2808001041 55.923999786 0.5296000242 69.881500244 119.03955078 120.33390045 13.195799828 80.511901855
 2651.3515625 1.0000000000 8.4296998978 8.5000000000  -999.250000 -0.000500000 2.3684999943 0.0983000025 2.4763000011 3.2030000687 56.582099915 0.4086999893 73.372497559 119.14831543 119.46659851 6.0592999458 70.248397827
 2651.5039063 1.0000000000 8.4336996078 8.5000000000  -999.250000 0.0020999999 2.3912999630 0.1083000004 2.4588000774 3.2135000229 57.276699066 0.3106000125 77.914497375 120.32250977 147.84019470 5.3428001404 76.413902283
 2651.6562500 1.0000000000 8.4334001541 8.5000000000  -999.250000 0.0020999999 2.3445999622 0.1254000068 2.4354999065 3.2644000053 57.700000763 0.2773000002 80.676200867 121.53092194 184.51860046 4.5879998207 86.966796875
 2651.8088379 1.0000000000 8.4430999756 8.5000000000  -999.250000 -0.000700000 2.2488000393 0.1432999969 2.4051001072 3.2232000828 57.867298126 0.3077999949 82.391700745 125.38990021 169.38209534 2.6656999588 79.304702759
 2651.9611816 1.0000000000 8.4461002350 8.5000000000  -999.250000 -0.002400000 2.1380999088 0.1520999968 2.3807001114 3.0894999504 57.553501129 0.3684000075 82.675598145 127.69879150 114.44670105 1.4157999754 57.465499878
 2652.1135254 1.0000000000 8.4314002991 8.5000000000  -999.250000 -0.001900000 2.0585999489 0.1526000053 2.3715999126 3.0079998970 57.953098297 0.4126999974 81.876098633 131.17340088 83.486801147 1.1794999838 45.213199615
 2652.2658691 1.0000000000 8.4209995270 8.5000000000  -999.250000 -0.000200000 2.0555000305 0.1493999958 2.3766999245 3.0313000679 59.868400574 0.4142000079 79.097999573 131.89070129 69.244201660 1.2046999931 38.935798645
 2652.4184570 2.0000000000 8.4214000702 8.5000000000  -999.250000 0.0015000000 2.1538999081 0.1420000046 2.3931999207 3.0915000439 61.517200470 0.3781999946 75.307296753 131.47070313 68.385696411 1.3164999485 37.883399963
 2652.5708008 2.0000000000 8.4207000732 8.5000000000  -999.250000 0.0031000001 2.2521998882 0.1290999949 2.4249999523 3.1947000027 60.556900024 0.3736000061 72.237800598 129.08430481 87.305702209 2.2822999954 46.916801453
 2652.7231445 1.0000000000 8.4222002029 8.5000000000  -999.250000 0.0076000001 2.2434000969 0.1171000004 2.4742000103 3.4844999313 57.725799561 0.4417000115 70.039100647 127.43019104 142.29660034 13.225600243 76.010299683
 2652.8754883 1.0000000000 8.4308996201 8.5000000000  -999.250000 0.0124000004 2.1085999012 0.1129999980 2.5157001019 3.8963999748 55.377399445 0.5289999843 71.686401367 125.09269714 206.12440491 35.302501678 115.04730225
 2653.0280762 1.0000000000 8.4351997375 8.5000000000  -999.250000 0.0102000004 1.8804999590 0.1134999990 2.5150001049 3.9969000816 54.563800812 0.5357000232 71.107398987 121.27600098 169.53990173 8.9738998413 100.35350037
 2653.1804199 1.0000000000 8.4316997528 8.5000000000  -999.250000 0.0041999999 1.6470999718 0.1080999970 2.4851000309 3.7083001137 53.967300415 0.3704000115 69.537902832 119.89869690 168.48840332 4.1421999931 100.72419739
 2653.3327637 1.0000000000 8.4320001602 8.5000000000  -999.250000 0.0024999999 1.5054999590 0.0989999995 2.4646000862 3.3631999493 51.530799866 0.1072999984 65.238296509 120.28330231 266.05630493 5.2328000069 156.93490601
