# LAS format log file from PETREL
# Project units are specified as depth units
#==================================================================
~Version information
VERS.   2.0:
WRAP.   NO:
#==================================================================
~Well
STRT .m      2726.1311035 :
STOP .m      3477.3107910 :
STEP .m     0.00000000 :
NULL .        -999.250000 :
COMP.           : COMPANY
WELL.  35/9-5   : WELL
FLD.            : FIELD
LOC.            : LOCATION
SRVC.           : SERVICE COMPANY
DATE.  2018-09-11 14:49:02   : Log Export Date {yyyy-MM-dd HH:mm:ss}
PROV.           : PROVINCE
UWI.   35/9-5   : UNIQUE WELL ID
API.            : API NUMBER
#==================================================================
~Curve
DEPT .m                   : DEPTH
Lithology_geolink ._      : Lithology_geolink
CALI .in                  : CALI
BS .in                    : BS
ROP .m/h                  : ROP
DRHO .g/cm3               : DRHO
THOR .ppm                 : THOR
NPHI .m3/m3               : NPHI
RHOB .g/cm3               : RHOB
PEF .b/e                  : PEF
GR .gAPI                  : GR
URAN .ppm                 : URAN
DTC .us/ft                : DTC
DTS .us/ft                : DTS
RDEP .ohm.m               : RDEP
RMIC .ohm.m               : RMIC
RMED .ohm.m               : RMED
~Parameter
#==================================================================
~Ascii
# ...
 3075.7368164 2.0000000000 8.5557003021 8.5000000000 44.320537567 0.1181000024 13.976985931 0.3579383194 2.5513999462 8.0198001862 98.393699646 1.8435148001 91.331100464 188.63638306 2.3045730591 1.9929584265 2.1956999302
 3075.8891602 2.0000000000 8.5312995911 8.5000000000 49.101379395 0.0913999975 13.687664032 0.3725765944 2.5327000618 8.4490995407 101.02940369 1.7568392754 91.195198059 188.60699463 2.4587528706 1.9943979979 2.2458999157
 3076.0415039 2.0000000000 8.5237998962 8.5000000000 53.783466339 0.0608000010 14.057805061 0.4007548094 2.5032000542 8.6840000153 101.50659943 1.7160651684 91.246803284 188.59509277 2.6966185570 1.9828186035 2.5241000652
 3076.1938477 2.0000000000 8.5312995911 8.5000000000 56.376312256 0.0362999998 14.100032806 0.4062911868 2.4818999767 8.6647996902 97.943397522 1.8599689007 91.220901489 188.60339355 2.6198239326 1.9700205326 2.5023000240
 3076.3461914 2.0000000000 8.5237998962 8.5000000000 55.196849823 0.0170000009 14.905714035 0.4137760103 2.4656000137 8.2601995468 97.863403320 1.8615955114 91.308502197 188.62100220 2.5322806835 1.9338160753 2.5831999779
 3076.4987793 2.0000000000 8.5312995911 8.5000000000 52.523952484 0.0155999996 14.207624435 0.4008208215 2.4809999466 7.3235001564 100.12129974 1.9271947145 91.224700928 188.60858154 2.4389493465 1.7984172106 2.5599000454
 3076.6511230 2.0000000000 8.5312995911 8.5000000000 52.003608704 0.0175000001 13.680944443 0.3928128183 2.5088000298 5.9692001343 99.007499695 1.7695531845 91.215103149 188.61920166 2.0618050098 1.6879769564 2.2197000980
 3076.8034668 2.0000000000 8.4825000763 8.5000000000 51.960956573 0.0193000007 13.134376526 0.3842137754 2.5343000889 4.5904998779 97.878303528 1.8324985504 91.201408386 188.60290527 2.4150321484 1.6307915449 2.5850000381
 3076.9558105 2.0000000000 8.5613002777 8.5000000000 51.403873444 0.0096000005 12.898155212 0.3906792104 2.5336000919 3.6054999828 97.969100952 2.1509778500 91.253906250 188.57429504 2.3329653740 1.6479446888 2.5480999947
 3077.1083984 2.0000000000 8.6063995361 8.5000000000 50.591209412 0.0041000000 12.100479126 0.3897016048 2.5272998810 3.1301999092 96.794700623 2.4505207539 91.256698608 188.58389282 3.1154434681 1.8293089867 2.8977999687
 3077.2607422 2.0000000000 8.5988998413 8.5000000000 49.026905060 0.0035000001 11.771126747 0.3998836577 2.5239999294 3.0211000443 96.677597046 2.3866033554 91.213508606 188.56051636 2.9878070354 2.0356693268 3.2888998985
 3077.4130859 2.0000000000 8.5988998413 8.5000000000 49.086616516 0.0062000002 11.870439529 0.3908145726 2.5260999203 3.0861999989 99.974998474 2.4105613232 91.255203247 188.54069519 2.1950721741 2.1688866615 3.2137999535
 3077.5654297 2.0000000000 8.5838003159 8.5000000000 47.333335876 0.0063000000 12.028094292 0.3810313642 2.5178000927 3.1563999653 102.99359894 2.6229183674 91.190902710 188.53579712 2.0133790970 2.2067790031 2.1846001148
 3077.7180176 2.0000000000 8.5913000107 8.5000000000 47.556430817 0.0124000004 11.715202332 0.3609322309 2.5169999599 2.5495998859 102.42330170 2.7193462849 91.237594604 188.55540466 1.9847450256 2.1451990604 2.0388000011
 3077.8703613 2.0000000000 8.5838003159 8.5000000000 51.009185791 0.0405000001 11.738961220 0.3563073575 2.5264000893 1.6648000479 100.67720032 2.6511096954 91.098297119 188.63059998 2.2251141071 2.0775084496 1.9592000246
 3078.0227051 2.0000000000 8.5913000107 8.5000000000 51.491142273 0.0709000006 11.173208237 0.3694788516 2.5302999020 0.6471999884 99.923599243 2.7216866016 91.096000671 188.63969421 2.4143967628 2.0169970989 2.0429999828
 3078.1750488 2.0000000000 8.5838003159 8.5000000000 53.409778595 0.0939999968 11.842424393 0.3775870204 2.5243000984 0.2621000111 101.99240112 2.6468203068 91.280799866 188.61579895 2.4033184052 1.9716726542 2.2269001007
 3078.3273926 2.0000000000 8.6213998795 8.5000000000 50.090221405 0.0974999964 11.212625504 0.4051116705 2.5076000690 0.1159000024 106.28800201 2.6934499741 91.262397766 188.60330200 2.2604584694 1.9240525961 2.2216000557
 3078.4799805 2.0000000000 8.6288995743 8.5000000000 51.632877350 0.1027000025 12.327306747 0.3948166668 2.5069999695 0.1000000015 106.16699982 2.4497911930 91.318603516 188.58410645 2.4311254025 1.8906533718 2.5313000679
 3078.6323242 2.0000000000 8.6213998795 8.5000000000 53.809711456 0.1124999970 11.684135437 0.4044844508 2.5164000988 0.1000000015 102.12950134 2.4641764164 91.165702820 187.49229431 3.1095116138 1.8893020153 5.4138998985
 3078.7846680 2.0000000000 8.6139001846 8.5000000000 54.732284546 0.1198000014 11.948873520 0.3752469718 2.5216000080 0.1000000015 99.316101074 2.5549542904 91.202606201 187.17591858 3.7785277367 1.9489042759 6.3354997635
 3078.9370117 2.0000000000 8.6288995743 8.5000000000 54.103347778 0.1230999976 12.233487129 0.3609457612 2.5132000446 0.4634999931 100.26499939 2.5503151417 91.333999634 186.94638062 4.2151017189 2.1544406414 5.8531999588
 3079.0895996 2.0000000000 8.6288995743 8.5000000000 53.430774689 0.1177000031 12.834836006 0.3375374973 2.4872999191 1.6640000343 104.17469788 2.5981233120 91.228401184 186.69230652 4.0710334778 1.9557200670 5.5489001274
 3079.2419434 2.0000000000 8.6139001846 8.5000000000 50.516403198 0.1180000007 12.665473938 0.3457867205 2.5027999878 3.2906000614 106.75189972 2.5773334503 91.286598206 185.75469971 4.3125119209 1.7345545292 5.0876998901
 3079.3942871 2.0000000000 8.5988998413 8.5000000000 50.294292450 0.1009000018 12.526223183 0.3407081664 2.5350999832 4.2993001938 105.48699951 2.3080322742 91.085998535 184.96180725 3.8920755386 1.4795087576 4.6247000694
 3079.5466309 2.0000000000 8.6513996124 8.5000000000 52.120407104 0.0700000003 12.411666870 0.3848582208 2.5550999641 4.1781001091 102.86009979 2.2061257362 90.806198120 184.55929565 4.6542510986 1.5266474485 5.9865999222
 3079.6992188 2.0000000000 8.5687999725 8.5000000000 50.691928864 0.0277999993 12.289595604 0.3713219762 2.5343999863 3.4916999340 101.25610352 2.5396640301 90.540000916 184.78489685 5.7075133324 1.5126227140 4.8460001945
 3079.8515625 2.0000000000 8.5669002533 8.5000000000 50.806102753 0.0049999999 12.504454613 0.3716993332 2.5097999573 3.0552999973 100.37699890 2.2901015282 90.637901306 186.78300476 5.6818437576 1.5000201464 8.7463998795
 3080.0039063 2.0000000000 8.5687999725 8.5000000000 52.745079041 0.0011000000 12.897669792 0.3428463042 2.5104999542 2.8880000114 100.34079742 2.4668157101 92.545501709 189.61778259 8.1944665909 1.5008985996 7.7820000648
 3080.1562500 2.0000000000 8.5762996674 8.5000000000 51.469486237 0.0002000000 12.926455498 0.3411027193 2.5048000813 2.8882999420 101.06269836 2.3631668091 93.205101013 193.50570679 5.1203408241 1.5027968884 5.7213997841
 3080.3085938 2.0000000000 8.5726003647 8.5000000000 50.469486237 0.0062000002 13.313557625 0.3449875116 2.4967999458 2.9114000797 101.67040253 2.3771543503 94.484901428 195.07929993 3.7964344025 1.5039961338 5.2681999207
 3080.4611816 2.0000000000 8.5726003647 8.5000000000 51.790355682 0.0044000000 14.031450272 0.3646684289 2.4870998859 2.9639000893 101.63420105 2.2120652199 95.205596924 196.84860229 5.5111408234 1.5026022196 6.1296000481
 3080.6135254 2.0000000000 8.5687999725 8.5000000000 54.421588898 0.0048000002 14.661090851 0.3762814105 2.4930000305 2.9660000801 103.56109619 2.1254384518 95.245697021 197.44520569 5.3308935165 1.5012022257 6.2326998711
 3080.7658691 2.0000000000 8.5726003647 8.5000000000 56.284118652 -0.002700000 14.151919365 0.3713080287 2.4965999126 2.9488000870 106.11849976 2.0637986660 95.065498352 196.82550049 4.8012495041 1.5011999607 5.5359997749
 3080.9182129 2.0000000000 8.5762996674 8.5000000000 57.301185608 -0.003400000 14.979241371 0.3406982422 2.4955999851 2.9307999611 102.89820099 2.2342526913 94.987701416 196.69039917 3.8748712540 1.5022964478 4.4689998627
 3081.0708008 2.0000000000 8.5762996674 8.5000000000 55.333003998 -0.003300000 14.750571251 0.3365065455 2.4943997860 2.9247000217 98.767303467 2.2236177921 94.993698120 196.79739380 3.7095606327 1.5036977530 4.1055002213
 3081.2231445 2.0000000000 8.5762996674 8.5000000000 57.426502228 -0.001900000 15.516570091 0.3211246729 2.4992001057 2.9019999504 100.79989624 1.7009389400 95.065902710 196.11030579 3.7407493591 1.5044987202 3.2790999413
