# LAS format log file from PETREL
# Project units are specified as depth units
#==================================================================
~Version information
VERS.   2.0:
WRAP.   NO:
#==================================================================
~Well
STRT .m      2726.1311035 :
STOP .m      3477.3107910 :
STEP .m     0.00000000 :
NULL .        -999.250000 :
COMP.           : COMPANY
WELL.  35/9-5   : WELL
FLD.            : FIELD
LOC.            : LOCATION
SRVC.           : SERVICE COMPANY
DATE.  2018-09-11 14:49:02   : Log Export Date {yyyy-MM-dd HH:mm:ss}
PROV.           : PROVINCE
UWI.   35/9-5   : UNIQUE WELL ID
API.            : API NUMBER
#==================================================================
~Curve
DEPT .m                   : DEPTH
Lithology_geolink ._      : Lithology_geolink
CALI .in                  : CALI
BS .in                    : BS
ROP .m/h                  : ROP
DRHO .g/cm3               : DRHO
THOR .ppm                 : THOR
NPHI .m3/m3               : NPHI
RHOB .g/cm3               : RHOB
PEF .b/e                  : PEF
GR .gAPI                  : GR
URAN .ppm                 : URAN
DTC .us/ft                : DTC
DTS .us/ft                : DTS
RDEP .ohm.m               : RDEP
RMIC .ohm.m               : RMIC
RMED .ohm.m               : RMED
~Parameter
#==================================================================
~Ascii
# ...
 3024.9873047 2.0000000000 8.6364002228 8.5000000000 57.003570557 0.0030952001 13.039768219 0.3388192058 2.5511775017 3.7008848190 103.56099701 1.6705158949 96.933265686 205.90545654 1.7872780561 1.5016041994 1.8607459068
 3025.1398926 2.0000000000 8.6288995743 8.5000000000 50.239501953 0.0065943911 12.113886833 0.3707486987 2.5614836216 3.6835279465 102.75259399 1.5574802160 97.164627075 206.87554932 1.9040099382 1.5000026226 2.0304250717
 3025.2922363 2.0000000000 8.6063995361 8.5000000000 53.930736542 0.0105935894 12.456647873 0.3682041764 2.5686888695 3.6462597847 101.28855133 1.8290637732 97.230293274 206.94259644 2.0310964584 1.5040934086 2.0837149620
 3025.4445801 2.0000000000 8.6063995361 8.5000000000 44.822372437 0.0132956728 12.275491714 0.3796815872 2.5670025349 3.5323827267 99.831436157 1.9447151423 97.266738892 206.98364258 2.1930403709 1.5044994354 2.1302254200
 3025.5969238 2.0000000000 8.6063995361 8.5000000000 40.408805847 0.0099108797 12.857330322 0.3476030231 2.5514497757 3.2711379528 99.788429260 2.0827574730 97.245666504 206.97303772 2.2092487812 1.5045000315 2.3366377354
 3025.7495117 2.0000000000 8.6063995361 8.5000000000 37.480068207 0.0054072118 12.723318100 0.3489975929 2.5356252193 3.0162079334 100.21241760 2.5349748135 97.166328430 206.96241760 1.8452842236 1.5004065037 2.0471656322
 3025.9018555 2.0000000000 8.5988998413 8.5000000000 40.417850494 0.0008073717 13.576629639 0.3442076743 2.5214226246 2.9450137615 106.43611145 2.7038300037 97.210632324 207.08340454 2.1304411888 1.5000005960 2.1392514706
 3026.0541992 2.0000000000 8.6513996124 8.5000000000 37.217742920 0.0003008013 14.051939011 0.3437007964 2.5193033218 3.0997512341 112.93538666 2.5241887569 97.302352905 207.72048950 2.2303404808 1.5007987022 2.2419354916
 3026.2065430 2.0000000000 8.6364002228 8.5000000000 41.258274078 0.0003998397 13.580059052 0.3459962904 2.5185012817 3.2791125774 109.39309692 2.6130568981 97.610900879 208.00483704 2.1264669895 1.5008000135 2.0411226749
 3026.3588867 2.0000000000 8.6513996124 8.5000000000 39.624359131 0.0013967999 12.836883545 0.3255656064 2.5199952126 3.2997345924 105.37696838 2.9339702129 97.922103882 208.84101868 2.0122659206 1.5008000135 1.9491940737
 3026.5114746 2.0000000000 8.6288995743 8.5000000000 40.740325928 0.0028975962 11.862958908 0.3365822136 2.5221965313 3.1763980389 103.57826996 2.8624165058 97.781028748 208.88264465 1.8391772509 1.5000013113 1.7452268600
 3026.6638184 2.0000000000 8.6364002228 8.5000000000 43.948268890 0.0031995191 11.682586670 0.3266160190 2.5179069042 3.0243437290 98.818733215 3.0360209942 97.528907776 208.27706909 1.7953698635 1.5004991293 1.6240940094
 3026.8161621 2.0000000000 8.6139001846 8.5000000000 36.676048279 0.0039987182 12.551304817 0.3412764668 2.5121092796 2.9834654331 98.795921326 2.6069891453 97.845291138 209.16966248 1.9182027578 1.5298528671 1.7316269875
 3026.9685059 2.0000000000 8.6063995361 8.5000000000 39.857860565 0.0085852807 12.439662933 0.3527632058 2.5213701725 3.0876653194 104.07465363 2.4883785248 98.104171753 210.04618835 1.8356655836 1.5298999548 1.7766560316
 3027.1210938 2.0000000000 8.6139001846 8.5000000000 45.636737823 0.0094985571 11.957673073 0.3646809161 2.5410685539 3.2502396107 107.41606903 2.2744429111 98.594512939 210.39343262 1.8651522398 1.5302994251 1.8930134773
 3027.2734375 2.0000000000 8.6139001846 8.5000000000 46.512714386 0.0085016033 11.932538986 0.3636017442 2.5520823002 3.3870806694 108.49407196 2.1767561436 98.606781006 210.36633301 1.8586106300 1.5008473396 1.9859510660
 3027.4257813 2.0000000000 8.6063995361 8.5000000000 42.198528290 0.0006126603 12.429501534 0.3681926429 2.5377230644 3.4725632668 107.92142487 1.9978868961 98.057487488 209.92381287 1.6009136438 1.5010994673 1.7507777214
 3027.5781250 2.0000000000 8.5988998413 8.5000000000 45.023715973 -0.002789120 12.965382576 0.3699942529 2.5206549168 3.5322089195 105.97614288 1.9327083826 98.309883118 210.10522461 1.8876780272 1.5007013083 1.9589304924
 3027.7307129 2.0000000000 8.6063995361 8.5000000000 46.699100494 -0.003399038 13.005537987 0.3852754831 2.5198011398 3.5462777615 103.48509216 2.0316410065 98.622001648 210.51634216 2.1442897320 1.5006999969 2.0459613800
 3027.8830566 2.0000000000 8.6288995743 8.5000000000 47.365406036 -0.002102083 13.337766647 0.3861985803 2.5219964981 3.4959807396 101.73191071 2.1854534149 99.057205200 211.33218384 1.8090388775 1.5243619680 1.6562258005
 3028.0354004 2.0000000000 8.6063995361 8.5000000000 47.935112000 0.0000964744 13.487660408 0.3975817263 2.5195040703 3.3831808567 101.94744873 2.0950453281 99.086753845 211.72256470 1.6909885406 1.5241004229 1.9601112604
 3028.1877441 2.0000000000 8.6288995743 8.5000000000 50.423500061 0.0011982372 14.290910721 0.3829235435 2.5011296272 3.3287870884 103.10264587 2.0073404312 98.144714355 210.99795532 1.8660187721 1.5930892229 1.9779721498
 3028.3400879 2.0000000000 8.6364002228 8.5000000000 58.616104126 0.0028945599 13.958571434 0.3831990361 2.4816625118 3.3744530678 104.79686737 1.7668715715 97.751960754 208.02095032 2.0621712208 1.5692768097 1.8605769873
 3028.4926758 2.0000000000 8.5913000107 8.5000000000 62.643844604 0.0219693910 13.183443069 0.3779084980 2.5004696846 3.4851226807 104.70935059 2.3069319725 97.287246704 206.08688354 2.2326273918 1.5935609341 2.2216198444
 3028.6450195 2.0000000000 8.5669002533 8.5000000000 59.395320892 0.0222995188 13.106520653 0.3766020834 2.5132794380 3.4583432674 102.58551025 2.2596771717 96.898323059 204.96737671 2.1939625740 1.5989912748 2.3369159698
 3028.7973633 2.0000000000 8.5613002777 8.5000000000 55.332302094 0.0215012822 12.841325760 0.3505418003 2.5321698189 3.2923662663 97.617073059 2.4985165596 96.518211365 203.24426270 2.1229140759 1.6526138783 1.8766391277
 3028.9497070 2.0000000000 8.5613002777 8.5000000000 56.777488708 0.0024611200 13.093987465 0.3469115198 2.5141580105 3.0814762115 93.174339294 2.4613206387 96.573715210 204.86099243 1.9772671461 1.5991717577 1.9902329445
 3029.1022949 2.0000000000 8.5687999725 8.5000000000 57.158191681 0.0024998398 12.655704498 0.3374152184 2.5133011341 2.9915432930 96.606864929 2.4503173828 97.136299133 206.60551453 2.3445096016 1.5402941704 2.2076516151
 3029.2546387 2.0000000000 8.5762996674 8.5000000000 57.158794403 0.0032987180 12.976983070 0.3508783579 2.5120022297 3.0124661922 99.380256653 2.1521785259 97.878211975 208.46850586 2.1262512207 1.5051562786 2.3243134022
 3029.4069824 2.0000000000 8.5913000107 8.5000000000 58.700275421 0.0033998399 13.373764038 0.3580884635 2.5101029873 3.1215250492 97.883514404 2.2183928490 98.563102722 209.48258972 2.0227653980 1.5119888783 2.2279548645
 3029.5593262 2.0000000000 8.6120004654 8.5000000000 59.181865692 0.0017054400 13.575056076 0.3630839884 2.5020260811 3.2526793480 98.016662598 2.0419666767 98.408203125 209.77078247 2.1192896366 1.5120996237 2.2013847828
 3029.7119141 2.0000000000 8.6232995987 8.5000000000 57.298622131 0.0013006410 14.074199677 0.3761790097 2.4950110912 3.3622248173 99.890892029 1.9499467611 98.454727173 210.48535156 2.0297441483 1.5369600058 2.1029577255
 3029.8642578 2.0000000000 8.6344995499 8.5000000000 60.487983704 0.0056929486 14.205091476 0.3647184074 2.4946007729 3.4876987934 103.45188904 1.9231427908 98.965385437 210.54879761 1.9477313757 1.8582843542 1.7022428513
 3030.0166016 2.0000000000 8.5312995911 8.5000000000 60.794788361 0.0182798076 14.796451569 0.3896599412 2.5110735893 3.6042132378 104.95599365 2.0933268070 99.300369263 210.68237305 1.8497569561 2.3913452625 2.1508786678
 3030.1689453 2.0000000000 8.5163002014 8.5000000000 59.113262177 0.0309796464 14.645144463 0.3705307543 2.5259761810 3.7082333565 102.14541626 1.7157065868 99.204948425 210.55291748 2.0393953323 2.9603879452 1.9785777330
 3030.3212891 2.0000000000 8.5087003708 8.5000000000 67.127159119 0.0408683196 13.864106178 0.3669115305 2.5404534340 3.7332203388 99.651588440 1.6026610136 98.890701294 210.48072815 1.8843985796 2.9215278625 1.8543977737
 3030.4738770 2.0000000000 8.5237998962 8.5000000000 68.286888123 0.0453927889 13.802395821 0.3574152291 2.5459911823 3.7133319378 98.131523132 1.6298557520 98.849662781 210.52832031 1.8983767033 2.9045271873 2.0359079838
