# LAS format log file from PETREL
# Project units are specified as depth units
#==================================================================
~Version information
VERS.   2.0:
WRAP.   NO:
#==================================================================
~Well
STRT .m      1350.9222412 :
STOP .m      2973.9824219 :
STEP .m     0.00000000 :
NULL .        -999.250000 :
COMP.           : COMPANY
WELL.  35/9-7   : WELL
FLD.            : FIELD
LOC.            : LOCATION
SRVC.           : SERVICE COMPANY
DATE.  2018-09-11 14:49:02   : Log Export Date {yyyy-MM-dd HH:mm:ss}
PROV.           : PROVINCE
UWI.   35/9-7   : UNIQUE WELL ID
API.            : API NUMBER
#==================================================================
~Curve
DEPT .m                   : DEPTH
Lithology_geolink ._      : Lithology_geolink
CALI .in                  : CALI
BS .in                    : BS
ROP .m/h                  : ROP
DRHO .g/cm3               : DRHO
THOR .ppm                 : THOR
NPHI .m3/m3               : NPHI
RHOB .g/cm3               : RHOB
PEF .b/e                  : PEF
GR .gAPI                  : GR
URAN .ppm                 : URAN
DTC .us/ft                : DTC
DTS .us/ft                : DTS
RDEP .ohm.m               : RDEP
RMIC .ohm.m               : RMIC
RMED .ohm.m               : RMED
~Parameter
#==================================================================
~Ascii
# ...
 2427.9331055 13.000000000 12.210000038 12.250000954 83.891075134 0.1306000054  -999.250000 0.2567927837 2.5597939491 5.2291650772 63.919998169  -999.250000 92.539505005 187.13441467 1.9663096666  -999.250000 2.0029711723
 2428.0854492 13.000000000 12.210000038 12.250000954 89.173233032 0.1298000067  -999.250000 0.2606937289 2.5522122383 5.3085727692 60.775047302  -999.250000 92.696098328 189.80162048 1.9574142694  -999.250000 2.0139822960
 2428.2380371 13.000000000 12.237000465 12.250000954 86.778221130 0.1260000020  -999.250000 0.2606999874 2.5422000885 5.3076000214 61.750000000  -999.250000 92.567497253 191.22659302 1.9436999559  -999.250000 2.0000000000
 2428.3903809 13.000000000 12.210000038 12.250000954 82.020996094 0.1181000024  -999.250000 0.2604004741 2.5215332508 5.2918252945 60.212463379  -999.250000 92.885696411 192.53170776 1.9239317179  -999.250000 1.9480831623
 2428.5427246 13.000000000 12.281999588 12.250000954 79.101051331 0.1190000027  -999.250000 0.2521132827 2.5211007595 5.3020834923 60.259918213  -999.250000 93.137603760 193.64701843 1.9176101685  -999.250000 1.9370176792
 2428.6950684 13.000000000 12.263998985 12.250000954 73.293960571 0.1238999963  -999.250000 0.2436136156 2.5308842659 5.3251628876 60.469665527  -999.250000 93.832496643 195.42137146 1.9110106230  -999.250000 1.9150352478
 2428.8476563 13.000000000 12.263998985 12.250000954 63.648288727 0.1239999980  -999.250000 0.2469999939 2.5325000286 5.2936000824 63.206901550  -999.250000 94.203903198 196.68550110 1.9225000143  -999.250000 1.9390000105
 2429.0000000 13.000000000 12.156000137 12.250000954 44.389762878 0.1203999966  -999.250000 0.2576000094 2.5253999233 5.1206002235 71.731498718  -999.250000 95.138603210 198.27139282 1.9663000107  -999.250000 2.1059999466
 2429.1523438 13.000000000 12.210000038 12.250000954 45.702102661 0.1164000034  -999.250000 0.2632908821 2.5205078125 5.0112748146 74.507949829  -999.250000 95.147201538 199.92884827 1.9330532551  -999.250000 2.0510880947
 2429.3046875 13.000000000 12.210000038 12.250000954 48.326770782 0.1039000005  -999.250000 0.2694900632 2.5195016861 4.8985805511 73.933433533  -999.250000 95.161499023 201.38436890 1.8949609995  -999.250000 1.9451699257
 2429.4572754 13.000000000 12.217000008 12.250000954 55.675849915 0.1022000015  -999.250000 0.2691000104 2.5246000290 4.9514999390 74.256103516  -999.250000 94.736000061 202.45629883 1.8818000555  -999.250000 1.9110000134
 2429.6096191 13.000000000 12.246000290 12.250000954 70.374015808 0.1168999970  -999.250000 0.2653999925 2.5499000549 5.3541002274 77.365402222  -999.250000 94.165298462 202.74710083 1.8415999413  -999.250000 1.8220000267
 2429.7619629 13.000000000 12.263998985 12.250000954 72.506561279 0.1224000007  -999.250000 0.2645014226 2.5590851307 5.5654616356 80.837440491  -999.250000 93.498199463 202.45646667 1.8569753170  -999.250000 1.8629344702
 2429.9143066 13.000000000 12.263998985 12.250000954 76.738845825 0.1208000034  -999.250000 0.2669959962 2.5561046600 5.8403592110 82.077117920  -999.250000 93.741897583 201.47627258 1.8901468515  -999.250000 1.9658348560
 2430.0666504 13.000000000 12.263998985 12.250000954 82.513122559 0.1177999973  -999.250000 0.2681980729 2.5461158752 5.8338112831 82.575004578  -999.250000 93.593399048 201.63743591 1.8958908319  -999.250000 1.9799776077
 2430.2192383 13.000000000 12.210000038 12.250000954 94.094490051 0.1155999973  -999.250000 0.2662999928 2.5292000771 5.5237998962 84.106796265  -999.250000 93.902603149 202.10450745 1.8930000067  -999.250000 1.9720000029
 2430.3715820 13.000000000 12.156000137 12.250000954 96.391075134 0.1142000034  -999.250000 0.2640036643 2.5257055759 5.4228615761 85.603302002  -999.250000 94.208702087 203.11718750 1.8809193373 3.2053999901 1.9370560646
 2430.5239258 13.000000000 12.144000053 12.250000954 101.01706696 0.1102999970  -999.250000 0.2755813897 2.5205082893 5.3079838753 86.060066223  -999.250000 94.788002014 204.40184021 1.8671221733 3.1366000175 1.9060497284
 2430.6762695 13.000000000 12.237000465 12.250000954 78.969818115 0.1212000027  -999.250000 0.2783955038 2.5353760719 5.4134302139 86.180511475  -999.250000 95.143699646 205.40609741 1.8634059429 3.1328999996 1.8970143795
 2430.8288574 13.000000000 12.156000137 12.250000954 67.946189880 0.1248999983  -999.250000 0.2693000138 2.5422000885 5.4647998810 86.555801392  -999.250000 94.908096313 205.65950012 1.8658000231 3.1087999344 1.8940000534
 2430.9812012 13.000000000 12.199999809 12.250000954 64.304466248 0.0126999998  -999.250000 0.2913999856 2.4920001030 3.2318000793 87.085700989  -999.250000 94.013298035 204.96029663 1.8818000555 2.9946000576 1.9119999409
 2431.1335449 13.000000000 12.188400269 12.250000954 62.499996185 0.0035999999  -999.250000 0.2925980985 2.4896037579 3.2514684200 87.058845520  -999.250000 92.676803589 203.35498047 1.8836969137 2.9521000385 1.9070079327
 2431.2858887 13.000000000 12.184699059 12.250000954 57.972442627 -0.000200000  -999.250000 0.2954953611 2.4881024361 3.3061122894 86.621604919  -999.250000 91.658905029 201.32785034 1.8901896477 3.0748000145 1.9050031900
 2431.4384766 13.000000000 12.199600220 12.250000954 55.708660126 -0.000800000  -999.250000 0.2996000051 2.4877998829 3.3199000359 86.798202515  -999.250000 91.174003601 199.24639893 1.8926000595 3.1326000690 1.9029999971
 2431.5908203 13.000000000 12.230199814 12.250000954 51.935695648 -0.001400000  -999.250000 0.3036000133 2.4874000549 3.2404000759 86.637199402  -999.250000 90.745498657 198.06640625 1.9251999855 3.1710999012 1.9309999943
 2431.7431641 13.000000000 12.270700455 12.250000954 50.065616608 -0.003000000  -999.250000 0.3000057638 2.4862020016 3.1163985729 84.918556213  -999.250000 90.566497803 196.92323303 1.9742214680 3.1875998974 2.0268464088
 2431.8955078 13.000000000 12.311699867 12.250000954 51.804462433 -0.004500000  -999.250000 0.2869209945 2.4862000942 3.0200543404 83.652130127  -999.250000 90.285499573 197.29319763 2.0255177021 3.2762000561 2.1238446236
 2432.0478516 13.000000000 12.340299606 12.250000954 52.657478333 -0.003800000  -999.250000 0.2786132991 2.4903934002 2.9912459850 84.755027771  -999.250000 90.201499939 197.70143127 2.0369815826 3.3099999428 2.1259968281
 2432.2004395 13.000000000 12.351900101 12.250000954 110.69554138 -0.001100000  -999.250000 0.2818000019 2.4981000423 3.0446999073 86.071601868  -999.250000 90.778198242 198.24600220 2.0427999496 3.1816999912 2.1370000839
 2432.3527832 13.000000000 12.348999023 12.250000954 139.69816589 0.0015000000  -999.250000 0.2881897390 2.5043900013 3.1772875786 85.709976196  -999.250000 90.682197571 198.13766479 2.0337145329 3.3211998940 2.1130383015
 2432.5051270 13.000000000 12.342599869 12.250000954 84.776901245 0.0012000001  -999.250000 0.2872016132 2.5043003559 3.3362450600 85.616149902  -999.250000 91.295700073 198.05284119 2.0292000771 3.3643000126 2.1110000610
 2432.6574707 13.000000000 12.336599350 12.250000954 57.316272736 -0.000700000  -999.250000 0.2848038375 2.5006060600 3.3755373955 86.432785034  -999.250000 92.076499939 198.86668396 2.0148000717 3.3510000706 2.0629999638
 2432.8100586 13.000000000 12.336999893 12.250000954 49.245407104 -0.001300000  -999.250000 0.2867999971 2.4986000061 3.2516000271 85.883499146  -999.250000 92.836402893 199.75270081 1.9996999502 3.3064999580 2.0529999733
 2432.9624023 13.000000000 12.347200394 12.250000954 45.209972382 -0.000500000  -999.250000 0.2867000103 2.4962999821 3.1591000557 84.085998535  -999.250000 93.999702454 200.99130249 1.9932999611 3.0924999714 2.0450000763
 2433.1147461 13.000000000 12.358400345 12.250000954 43.569553375 0.0011000000  -999.250000 0.2838046551 2.4902098179 3.1689841747 83.926460266  -999.250000 93.872703552 200.72390747 1.9763000011 3.1484999657 1.9980000257
 2433.2670898 13.000000000 12.356200218 12.250000954 42.749343872 0.0041999999  -999.250000 0.2903894186 2.4850082397 3.1124906540 86.501968384  -999.250000 94.226600647 200.97540283 1.9732999802 3.0857999325 1.9839999676
 2433.4196777 13.000000000 12.345001221 12.250000954 48.261154175 0.0085000005  -999.250000 0.3124000132 2.4867999554 2.9825999737 89.560501099  -999.250000 93.723693848 200.57730103 1.9632999897 3.1010999680 1.9600000381
