# LAS format log file from PETREL
# Project units are specified as depth units
#==================================================================
~Version information
VERS.   2.0:
WRAP.   NO:
#==================================================================
~Well
STRT .m      2726.1311035 :
STOP .m      3477.3107910 :
STEP .m     0.00000000 :
NULL .        -999.250000 :
COMP.           : COMPANY
WELL.  35/9-5   : WELL
FLD.            : FIELD
LOC.            : LOCATION
SRVC.           : SERVICE COMPANY
DATE.  2018-09-11 14:49:02   : Log Export Date {yyyy-MM-dd HH:mm:ss}
PROV.           : PROVINCE
UWI.   35/9-5   : UNIQUE WELL ID
API.            : API NUMBER
#==================================================================
~Curve
DEPT .m                   : DEPTH
Lithology_geolink ._      : Lithology_geolink
CALI .in                  : CALI
BS .in                    : BS
ROP .m/h                  : ROP
DRHO .g/cm3               : DRHO
THOR .ppm                 : THOR
NPHI .m3/m3               : NPHI
RHOB .g/cm3               : RHOB
PEF .b/e                  : PEF
GR .gAPI                  : GR
URAN .ppm                 : URAN
DTC .us/ft                : DTC
DTS .us/ft                : DTS
RDEP .ohm.m               : RDEP
RMIC .ohm.m               : RMIC
RMED .ohm.m               : RMED
~Parameter
#==================================================================
~Ascii
# ...
 2974.2382813 13.000000000 8.8016004562 8.5000000000 67.263786316 0.0368999988 11.391099930 0.2685999870 2.5104999542 3.9393000603 112.34570313 2.0515999794 84.464500427 158.85099792 4.9317002296 3.0169000626 4.5314998627
 2974.3908691 13.000000000 8.7940998077 8.5000000000 61.784450531 0.0458999984 10.583499908 0.2743000090 2.4962999821 4.2856998444 102.60880280 2.0715000629 84.305595398 157.33380127 4.7420001030 2.0861001015 4.9931998253
 2974.5432129 13.000000000 8.7565002441 8.5000000000 65.596458435 0.0659999996 10.973500252 0.2680000067 2.5109999180 4.6041002274 100.43289948 1.8183000088 83.707099915 156.60720825 4.5444998741 1.5904999971 4.4373002052
 2974.6955566 13.000000000 8.7340002060 8.5000000000 63.992458344 0.0812999979 10.938699722 0.2637999952 2.5571999550 4.6293001175 100.68250275 1.9585000277 83.536903381 157.91290283 4.4737000465 1.6729999781 4.6483001709
 2974.8479004 13.000000000 8.7264995575 8.5000000000 58.949138641 0.0741999969 11.531499863 0.2452999949 2.5917999744 4.2500000000 98.796096802 1.7403000593 83.666198730 159.10989380 4.0851001740 1.9839999676 4.0567002296
 2975.0004883 13.000000000 8.6890001297 8.5000000000 73.065292358 0.0438000001 11.127599716 0.2370000035 2.5880000591 3.7014999390 97.497001648 1.3794000149 84.277900696 157.16180420 4.3101000786 2.4419000149 4.7051000595
 2975.1528320 13.000000000 8.6364002228 8.5000000000 67.230644226 0.0152000003 10.887999535 0.2257000059 2.5717999935 3.2607998848 99.111198425 1.3177000284 84.286697388 151.79969788 4.5585999489 2.4967999458 4.5409998894
 2975.3051758 13.000000000 8.6513996124 8.5000000000 64.411087036 0.0001000000 9.1056995392 0.2282000035 2.5645999908 3.0532999039 97.597900391 1.0405999422 83.466606140 150.33670044 4.5727000237 2.5020999908 4.6921000481
 2975.4575195 13.000000000 8.6589002609 8.5000000000 59.755252838 -0.006400000 7.0401000977 0.2340999991 2.5627999306 3.0422999859 87.075202942 0.8166000247 82.939498901 152.18139648 4.5076999664 2.5069000721 5.1550998688
 2975.6101074 13.000000000 8.6663999557 8.5000000000 62.324150085 -0.010200000 5.5963997841 0.2483000010 2.5597000122 3.1249001026 71.775497437 0.7792000175 81.125289917 153.29629517 4.6118998528 2.5118000507 10.778200150
 2975.7624512 2.0000000000 8.6738996506 8.5000000000 60.000003815 -0.011200000 5.4026999474 0.2496999949 2.5578999519 3.2541000843 57.221199036 0.6592000127 77.123397827 152.46989441 9.9195003510 2.5292000771 9.1328001022
 2975.9147949 2.0000000000 8.6663999557 8.5000000000 62.404529572 -0.003400000 6.1496000290 0.2092999965 2.5620000362 3.3815000057 47.718601227 0.4982999861 72.579200745 148.74020386 11.727999687 2.6229999065 7.8761000633
 2976.0671387 2.0000000000 8.6738996506 8.5000000000 54.471786499 -0.000400000 6.0641999245 0.1553999931 2.5762000084 3.5113000870 46.983501434 0.5105000138 69.307197571 142.29269409 6.9369001389 3.2506000996 8.2229003906
 2976.2194824 2.0000000000 8.6795997620 8.5000000000 50.731628418 0.0030000000 5.9787998199 0.1313000023 2.5987999439 3.7265000343 49.393600464 0.5227000117 67.941802979 140.73139954 7.4928998947 4.5446000099 8.1700000763
 2976.3720703 2.0000000000 8.6176004410 8.5000000000 48.613517761 -0.000600000 6.5321998596 0.1318999976 2.6203000546 3.9288001060 49.462898254 0.6008999944 67.668502808 140.88009644 8.8304996490 6.1863999367 8.3678998947
 2976.5244141 2.0000000000 8.6626996994 8.5000000000 48.156169891 0.0019000000 6.7497000694 0.1433999985 2.6342999935 4.0799999237 52.941699982 0.4571999907 68.383003235 141.93530273 5.0819001198 5.7664999962 9.5139999390
 2976.6767578 2.0000000000 8.7115001678 8.5000000000 45.724411011 0.0049999999 6.9422998428 0.1352999955 2.6422998905 4.1279001236 60.195701599 0.5131000280 69.669998169 145.36239624 3.8505001068 4.8994998932 4.0430998802
 2976.8291016 2.0000000000 8.7414999008 8.5000000000 43.884185791 0.0044999998 7.2267999649 0.1254000068 2.6357998848 4.1318998337 62.132099152 0.6557999849 71.432197571 148.07859802 6.2210001945 5.2290000916 13.270799637
 2976.9816895 2.0000000000 8.6890001297 8.5000000000 43.776901245 0.0035000001 7.0921998024 0.1247000024 2.6303000450 4.1069998741 59.808799744 0.5709999800 72.918502808 148.65679932 6.0320000648 6.1613001823 5.3141999245
 2977.1340332 2.0000000000 8.6589002609 8.5000000000 44.131889343 0.0005000000 7.6617999077 0.1272000074 2.6126999855 4.0918998718 61.670299530 0.3528999984 74.507003784 148.79280090 3.3248999119 7.4696998596 9.4145002365
 2977.2863770 2.0000000000 8.6815004349 8.5000000000 42.585956573 0.0004000000 7.5181999207 0.1312000006 2.5931000710 4.1287999153 67.017799377 0.2971000075 75.667900085 148.93730164 6.9537000656 5.5531997681 15.646499634
 2977.4387207 2.0000000000 8.6964998245 8.5000000000 42.802494049 0.0001000000 7.1417999268 0.1562000066 2.5617001057 4.2188000679 69.465103149 0.3330000043 76.963798523 150.00791931 4.6006999016 3.9948000908 5.0592999458
 2977.5913086 2.0000000000 8.6626996994 8.5000000000 43.877624512 0.0083999997 6.9872999191 0.1614000052 2.5557000637 4.3260002136 67.032501221 0.3603000045 78.265701294 150.81089783 4.1216998100 3.8006999493 4.6131000519
 2977.7436523 2.0000000000 8.6815004349 8.5000000000 46.109909058 0.0094999997 6.8717999458 0.1721999943 2.5527000427 4.3625998497 60.097599030 0.3282000124 78.285598755 152.71279907 4.8888001442 2.2727000713 5.5454001427
 2977.8959961 2.0000000000 8.6738996506 8.5000000000 44.776573181 0.0099999998 6.3731999397 0.1660999954 2.5620000362 4.3326997757 54.627201080 0.3486000001 77.481903076 152.99259949 4.2733998299 1.2640000582 4.7595000267
 2978.0483398 2.0000000000 8.6851997375 8.5000000000 41.585628510 0.0038000001 6.2547998428 0.1767999977 2.5594999790 4.2550997734 53.162700653 0.2125999928 76.927101135 153.31109619 4.2150001526 1.0667999983 6.7958002090
 2978.2006836 2.0000000000 8.6851997375 8.5000000000 45.478019714 0.0059000002 6.1363000870 0.1879999936 2.5701000690 4.2375001907 50.871700287 0.0766000003 76.700401306 154.02420044 6.0776000023 1.4545999765 5.8404002190
 2978.3532715 2.0000000000 8.6589002609 8.5000000000 43.814632416 0.0198999997 6.2424998283 0.1946000010 2.5969998837 4.3080000877 50.241100311 0.1168000028 76.960800171 154.30690002 3.8852000237 2.2922000885 3.9967999458
 2978.5056152 2.0000000000 8.6438999176 8.5000000000 41.333335876 0.0263999999 6.6465001106 0.1961999983 2.6149001122 4.3804998398 53.522201538 0.1636999995 77.513099670 158.18370056 4.0981001854 2.7543001175 4.1637001038
 2978.6579590 2.0000000000 8.6364002228 8.5000000000 43.692913055 0.0265999995 6.6988000870 0.1958000064 2.6236000061 4.3808999062 58.335601807 0.2630999982 77.995597839 159.94549561 3.4265999794 2.6129999161 4.4217000008
 2978.8103027 2.0000000000 8.6213998795 8.5000000000 41.290027618 0.0140000004 6.8812999725 0.1882999986 2.6119000912 4.2824997902 60.644401550 0.4388000071 78.671600342 159.95910645 3.6981999874 2.4379999638 3.9581000805
 2978.9628906 2.0000000000 8.6288995743 8.5000000000 40.929790497 0.0083999997 6.7351999283 0.1856999993 2.6094999313 4.1616001129 57.419601440 0.7835999727 78.656303406 159.15788269 3.7184000015 2.3057999611 4.0802998543
 2979.1152344 2.0000000000 8.6213998795 8.5000000000 39.853347778 0.0057999999 6.9535999298 0.1825000048 2.6096999645 4.0581002235 55.205398560 0.6582000256 78.502204895 156.67529297 3.6991000175 2.3129000664 4.4555001259
 2979.2675781 2.0000000000 8.6213998795 8.5000000000 41.651576996 0.0041999999 6.6683001518 0.1750999987 2.6110000610 4.0261998177 57.166000366 0.5418000221 77.577011108 154.49259949 4.0373001099 2.3132998943 5.0113000870
 2979.4199219 2.0000000000 8.6139001846 8.5000000000 47.607936859 0.0018000000 6.4730000496 0.1747000068 2.6059999466 4.0623002052 57.309200287 0.7268999815 77.265701294 154.47630310 3.9444999695 2.3162999153 3.7153999805
 2979.5725098 2.0000000000 8.6288995743 8.5000000000 38.185367584 0.0026000000 5.7593002319 0.1688999981 2.6064999104 4.1459999084 53.050598145 0.8991000056 75.524795532 154.98358154 4.0690999031 2.5513000488 3.4463999271
 2979.7248535 2.0000000000 8.6139001846 8.5000000000 36.268699646 0.0031999999 6.0040998459 0.1709000021 2.6047999859 4.1827998161 48.940601349 0.7613000274 75.158699036 154.58030701 7.3701000214 3.0276000500 10.976400375
