# LAS format log file from PETREL
# Project units are specified as depth units
#==================================================================
~Version information
VERS.   2.0:
WRAP.   NO:
#==================================================================
~Well
STRT .m      1350.9222412 :
STOP .m      2973.9824219 :
STEP .m     0.00000000 :
NULL .        -999.250000 :
COMP.           : COMPANY
WELL.  35/9-7   : WELL
FLD.            : FIELD
LOC.            : LOCATION
SRVC.           : SERVICE COMPANY
DATE.  2018-09-11 14:49:02   : Log Export Date {yyyy-MM-dd HH:mm:ss}
PROV.           : PROVINCE
UWI.   35/9-7   : UNIQUE WELL ID
API.            : API NUMBER
#==================================================================
~Curve
DEPT .m                   : DEPTH
Lithology_geolink ._      : Lithology_geolink
CALI .in                  : CALI
BS .in                    : BS
ROP .m/h                  : ROP
DRHO .g/cm3               : DRHO
THOR .ppm                 : THOR
NPHI .m3/m3               : NPHI
RHOB .g/cm3               : RHOB
PEF .b/e                  : PEF
GR .gAPI                  : GR
URAN .ppm                 : URAN
DTC .us/ft                : DTC
DTS .us/ft                : DTS
RDEP .ohm.m               : RDEP
RMIC .ohm.m               : RMIC
RMED .ohm.m               : RMED
~Parameter
#==================================================================
~Ascii
# ...
 1785.1099854 13.000000000 12.064999580 12.250000954 128.74015808 0.0794000030  -999.250000 0.3337000012 2.4249000549 5.2930998802 77.029998779  -999.250000 111.88459015 243.43769836 1.6272000074  -999.250000 1.6250000000
 1785.2624512 11.000000000 12.064999580 12.250000954 119.52098846 0.0769999996  -999.250000 0.3165000081 2.4231998920 5.2094998360 77.190002441  -999.250000 111.72200012 243.19218445 1.6571999788  -999.250000 1.5559999943
 1785.4147949 11.000000000 12.119999886 12.250000954 104.33070374 0.0732000023  -999.250000 0.2293999940 2.4128000736 5.1849999428 65.819999695  -999.250000 110.87229919 244.59359741 1.7142000198  -999.250000 1.5989999771
 1785.5672607 11.000000000 12.119999886 12.250000954 98.425201416 0.0776000097  -999.250000 0.1928000003 2.4142000675 5.2947998047 58.669998169  -999.250000 107.14150238 245.74110413 1.7645000219  -999.250000 1.6759999990
 1785.7196045 11.000000000 12.156000137 12.250000954 100.09842682 0.1014000028  -999.250000 0.1655000001 2.4769999981 5.7624001503 42.659999847  -999.250000 102.95050049 243.22799683 1.8968000412  -999.250000 1.9570000172
 1785.8720703 11.000000000 11.975000381 12.250000954 107.70998383 0.1097000018  -999.250000 0.1862999946 2.5204000473 6.0982999802 37.189998627  -999.250000 102.27300262 238.08740234 2.2923998833  -999.250000 3.0899999142
 1786.0244141 11.000000000 12.029000282 12.250000954 110.69554138 0.1133000031  -999.250000 0.2754000127 2.5855998993 6.8653998375 29.690000534  -999.250000 100.75070190 225.17329407 2.4981000423  -999.250000 3.7019999027
 1786.1767578 11.000000000 12.210000038 12.250000954 101.41075897 0.0914999992  -999.250000 0.3228000104 2.5724999905 7.1978998184 33.729999542  -999.250000 99.312805176 215.14340210 2.2934000492  -999.250000 3.0339999199
 1786.3292236 11.000000000 12.263998985 12.250000954 90.321525574 0.0758000016  -999.250000 0.3280999959 2.5262999535 7.0570001602 42.029998779  -999.250000 98.312095642 214.22380066 2.1545000076  -999.250000 2.6889998913
 1786.4815674 13.000000000 12.210000038 12.250000954 68.110237122 0.0729999989  -999.250000 0.2976999879 2.4453999996 6.4512000084 68.279998779  -999.250000 97.388999939 217.33489990 1.6229000092  -999.250000 1.4720000029
 1786.6340332 13.000000000 12.210000038 12.250000954 69.389762878 0.0803000033  -999.250000 0.2800000012 2.4300999641 6.1245999336 68.260002136  -999.250000 98.063003540 221.33819580 1.6232000589  -999.250000 1.5369999409
 1786.7863770 13.000000000 12.210000038 12.250000954 71.916007996 0.0975999981  -999.250000 0.2921999991 2.4481999874 5.7210001945 71.769996643  -999.250000 101.40219879 225.89340210 1.6885000467  -999.250000 1.7799999714
 1786.9388428 13.000000000 12.210000038 12.250000954 84.251968384 0.1052000001  -999.250000 0.3163999915 2.4735999107 5.7041001320 70.599998474  -999.250000 104.09429169 230.01330566 1.6972999573  -999.250000 1.8020000458
 1787.0911865 13.000000000 12.029000282 12.250000954 108.98950958 0.0984999985  -999.250000 0.3386000097 2.4900000095 5.9049000740 69.029998779  -999.250000 109.06150055 237.61158752 1.5872000456  -999.250000 1.5210000277
 1787.2436523 13.000000000 11.975000381 12.250000954 110.99082184 0.0883999988  -999.250000 0.3323999941 2.4681999683 5.8959999084 77.540000916  -999.250000 109.50759888 239.68801880 1.5341999531  -999.250000 1.4110000134
 1787.3959961 13.000000000 12.119999886 12.250000954 112.99211884 0.0848999992  -999.250000 0.3226999938 2.4435000420 5.7406001091 85.230003357  -999.250000 110.11409760 242.16381836 1.5355999470  -999.250000 1.4240000248
 1787.5484619 13.000000000 11.975000381 12.250000954 115.02625275 0.0903000012  -999.250000 0.3176000118 2.4321999550 5.5289998055 80.510002136  -999.250000 110.58719635 240.29859924 1.5692000389  -999.250000 1.5329999924
 1787.7008057 13.000000000 11.885001183 12.250000954 119.81627655 0.0992999971  -999.250000 0.3253999949 2.4428000450 5.3424000740 85.099998474  -999.250000 111.38580322 238.32980347 1.6082999706  -999.250000 1.6250000000
 1787.8532715 13.000000000 11.795000076 12.250000954 122.17848206 0.0954999998  -999.250000 0.3242000043 2.4465000629 5.3372001648 86.940002441  -999.250000 111.54059601 239.51019287 1.6323000193  -999.250000 1.6729999781
 1788.0056152 13.000000000 11.920999527 12.250000954 124.14698029 0.0916000009  -999.250000 0.3138999939 2.4460999966 5.4324998856 80.639999390  -999.250000 111.28510284 243.03120422 1.6595000029  -999.250000 1.7000000477
 1788.1580811 13.000000000 12.064999580 12.250000954 125.13123322 0.0948999971  -999.250000 0.3115999997 2.4451999664 5.5911002159 77.099998474  -999.250000 111.01450348 244.95460510 1.6633000374  -999.250000 1.6909999847
 1788.3104248 13.000000000 12.156000137 12.250000954 108.20210266 0.0980999991  -999.250000 0.3084999919 2.4405999184 5.8179998398 80.300003052  -999.250000 111.05560303 246.58009338 1.6677999496  -999.250000 1.6729999781
 1788.4627686 11.000000000 12.156000137 12.250000954 99.737533569 0.0979999974  -999.250000 0.3057000041 2.4370000362 5.8347001076 80.089996338  -999.250000 111.13079834 245.41328430 1.6719000340  -999.250000 1.6569999456
 1788.6152344 11.000000000 12.156000137 12.250000954 75.820213318 0.0983000025  -999.250000 0.2962000072 2.4289000034 5.6937999725 72.980003357  -999.250000 110.69290161 242.22839355 1.6440999508  -999.250000 1.6330000162
 1788.7675781 11.000000000 12.119999886 12.250000954 63.845142365 0.1017000005  -999.250000 0.2863000035 2.4312000275 5.6149001122 72.089996338  -999.250000 110.20159912 241.75219727 1.6606999636  -999.250000 1.6610000134
 1788.9200439 11.000000000 12.137998581 12.250000954 52.362205505 0.1146000028  -999.250000 0.2739000022 2.4642999172 5.7718000412 65.680000305  -999.250000 108.73139954 240.83169556 1.7044999599  -999.250000 1.7209999561
 1789.0723877 11.000000000 12.119999886 12.250000954 46.620735168 0.1168999970  -999.250000 0.2775000036 2.4842000008 5.9457998276 62.830001831  -999.250000 108.43070221 238.65090942 1.7261999846  -999.250000 1.7690000534
 1789.2248535 11.000000000 12.156000137 12.250000954 45.898948669 0.1067999974  -999.250000 0.2658999860 2.4916999340 6.1645998955 59.360000610  -999.250000 107.35079956 225.08389282 1.7905000448  -999.250000 1.8750000000
 1789.3771973 11.000000000 12.156000137 12.250000954 46.784778595 0.0951000005  -999.250000 0.2004999965 2.4737999439 6.1827998161 52.180000305  -999.250000 104.00949860 225.13150024 1.8479000330  -999.250000 1.7699999809
 1789.5296631 11.000000000 12.156000137 12.250000954 48.031497955 0.0939999968  -999.250000 0.1907999963 2.4695000648 6.0460000038 57.830001831  -999.250000 102.17440033 221.30769348 1.9155999422  -999.250000 1.9290000200
 1789.6820068 11.000000000 12.210000038 12.250000954 46.522312164 0.1080000028  -999.250000 0.2497999966 2.5034999847 5.7111001015 48.619998932  -999.250000 98.662399292 214.62010193 2.0527999401  -999.250000 2.4189999104
 1789.8344727 11.000000000 12.210000038 12.250000954 43.766403198 0.1145000011  -999.250000 0.3115999997 2.5343000889 5.9014000893 42.119998932  -999.250000 98.289810181 211.96780396 2.1224000454  -999.250000 2.7509999275
 1789.9868164 11.000000000 12.119999886 12.250000954 40.748031616 0.1018999964  -999.250000 0.3544999957 2.5318999290 6.6068000793 54.610000610  -999.250000 98.658897400 207.59559631 1.7613999844  -999.250000 2.0580000877
 1790.1392822 11.000000000 12.191999435 12.250000954 40.452754974 0.0922000036  -999.250000 0.3352999985 2.4976000786 6.5847001076 60.729999542  -999.250000 100.55539703 208.01029968 1.6750999689  -999.250000 1.8120000362
 1790.2916260 11.000000000 12.210000038 12.250000954 40.944881439 0.0854000002  -999.250000 0.3283999860 2.4431002140 6.0121002197 79.610000610  -999.250000 104.09400177 212.90820313 1.5671000481  -999.250000 1.5360000134
 1790.4439697 11.000000000 12.210000038 12.250000954 41.732284546 0.0843999982  -999.250000 0.3415000141 2.4265999794 5.7434000969 86.339996338  -999.250000 106.89219666 218.58920288 1.5453000069  -999.250000 1.5060000420
 1790.5964355 11.000000000 12.156000137 12.250000954 42.421260834 0.0866999999  -999.250000 0.3416000009 2.4107000828 5.5187997818 78.129997253  -999.250000 111.17320251 233.05900574 1.5197000504  -999.250000 1.5579999685
