# LAS format log file from PETREL
# Project units are specified as depth units
#==================================================================
~Version information
VERS.   2.0:
WRAP.   NO:
#==================================================================
~Well
STRT .m      2535.9846191 :
STOP .m      3240.0725098 :
STEP .m     0.00000000 :
NULL .        -999.250000 :
COMP.           : COMPANY
WELL.  35/9-8   : WELL
FLD.            : FIELD
LOC.            : LOCATION
SRVC.           : SERVICE COMPANY
DATE.  2018-09-11 14:49:02   : Log Export Date {yyyy-MM-dd HH:mm:ss}
PROV.           : PROVINCE
UWI.   35/9-8   : UNIQUE WELL ID
API.            : API NUMBER
#==================================================================
~Curve
DEPT .m                   : DEPTH
Lithology_geolink ._      : Lithology_geolink
CALI .in                  : CALI
BS .in                    : BS
ROP .m/h                  : ROP
DRHO .g/cm3               : DRHO
THOR .ppm                 : THOR
NPHI .m3/m3               : NPHI
RHOB .g/cm3               : RHOB
PEF .b/e                  : PEF
GR .gAPI                  : GR
URAN .ppm                 : URAN
DTC .us/ft                : DTC
DTS .us/ft                : DTS
RDEP .ohm.m               : RDEP
RMIC .ohm.m               : RMIC
RMED .ohm.m               : RMED
~Parameter
#==================================================================
~Ascii
# ...
 2722.0649414 7.0000000000 8.7706003189 8.5000000000 11.098752975 -0.001700000 11.513699532 0.3682000041 2.4716999531 3.6431000233 135.36959839 7.9307003021 98.886108398 205.58760071 3.4716999531 3.8159999847 3.7337000370
 2722.2172852 7.0000000000 8.7829999924 8.5000000000 11.078412056 0.0027000001 11.177200317 0.3635999858 2.4697000980 3.4054999352 137.25920105 8.1893997192 99.277000427 206.90530396 3.3942999840 3.9853999615 3.6452999115
 2722.3698730 7.0000000000 8.7934999466 8.5000000000 11.058071136 0.0051000002 11.362799644 0.3702000082 2.4763000011 3.3036999702 139.24110413 8.3562002182 99.578407288 207.95660400 3.3138999939 4.2158999443 3.5390000343
 2722.5222168 7.0000000000 8.7961997986 8.5000000000 10.654199600 0.0027999999 11.919599533 0.3838000000 2.4828999043 3.3178999424 139.44779968 8.3252000809 99.854194641 208.63020325 3.2679998875 4.1743001938 3.4837999344
 2722.6745605 7.0000000000 8.7945995331 8.5000000000 9.8874673843 -0.002500000 12.670100212 0.3808000088 2.4835999012 3.4142000675 139.58110046 8.1610002518 100.12950134 209.14959717 3.2474999428 3.9400000572 3.4602000713
 2722.8269043 7.0000000000 8.7854003906 8.5000000000 16.757219315 -0.007700000 13.767000198 0.3664000034 2.4769001007 3.5000000000 140.97929382 7.7845997810 100.38990021 209.85189819 3.2265000343 3.8461999893 3.4351000786
 2722.9794922 7.0000000000 8.7699003220 8.5000000000 23.626968384 -0.011200000 14.757499695 0.3693000078 2.4656000137 3.5041999817 142.80090332 7.2772002220 100.60330963 210.88179016 3.1926000118 3.9077999592 3.4005000591
 2723.1318359 7.0000000000 8.7608995438 8.5000000000 30.496715546 -0.011200000 15.033100128 0.3966999948 2.4560999870 3.4934000969 143.93629456 6.9077000618 100.74369812 211.93989563 3.1960999966 3.8968999386 3.3917000294
 2723.2841797 7.0000000000 8.7657003403 8.5000000000 18.182743073 -0.008200000 14.678700447 0.4260999858 2.4514000416 3.5250000954 143.10729980 6.6525001526 100.76429749 212.45150757 3.3501999378 3.8557999134 3.5360999107
 2723.4365234 7.0000000000 8.7726001740 8.5000000000 12.025590897 -0.004600000 14.114899635 0.4363000095 2.4514999390 3.5304000378 141.91400146 6.3924999237 100.67960358 212.26460266 3.5617001057 3.8575000763 3.7402999401
 2723.5891113 7.0000000000 8.7707004547 8.5000000000 12.357939720 -0.001900000 13.645700455 0.4361999929 2.4567000866 3.4305999279 141.48100281 6.2283000946 100.41728973 211.36221313 3.6486001015 3.8677000999 3.8283998966
 2723.7414551 7.0000000000 8.7674999237 8.5000000000 12.468832016 -0.001200000 13.177800179 0.4368000031 2.4642999172 3.3022999763 140.31030273 6.2088999748 100.01170349 210.33619690 3.7300999165 3.8571000099 3.9096999168
 2723.8937988 7.0000000000 8.7693996429 8.5000000000 14.170933723 -0.003000000 12.836299896 0.4329000115 2.4672000408 3.2973001003 139.79710388 6.2328000069 99.447395325 209.49369812 3.7609000206 4.0181999207 3.9128000736
 2724.0461426 7.0000000000 8.7763004303 8.5000000000 15.651575089 -0.005800000 12.948599815 0.4181999862 2.4616999626 3.4093999863 142.88650513 6.1497001648 98.884803772 208.68170166 3.6947000027 4.2651000023 3.8180000782
 2724.1987305 7.0000000000 8.7917003632 8.5000000000 16.409120560 -0.006100000 13.194999695 0.4065000117 2.4528000355 3.4677000046 145.86950684 6.0451002121 98.539001465 207.37550354 3.8104000092 4.3832998276 3.9209001064
 2724.3510742 7.0000000000 8.8064002991 8.5000000000 16.047573090 -0.003300000 13.276300430 0.4081999958 2.4481000900 3.3817000389 144.92770386 6.0514001846 98.354698181 205.59899902 4.0022997856 4.1163997650 4.1085000038
 2724.5034180 7.0000000000 8.8030996323 8.5000000000 14.962927818 -0.000500000 13.250300407 0.4137000144 2.4481999874 3.2641999722 142.18170166 6.1911997795 98.337097168 203.16969299 4.0802998543 3.9279000759 4.1865000725
 2724.6557617 7.0000000000 8.7918996811 8.5000000000 14.211287498 -0.001000000 13.220600128 0.4189999998 2.4493999481 3.2627999783 139.79319763 6.5395002365 98.324798584 200.70840454 3.9814000130 3.8657000065 4.0782999992
 2724.8081055 7.0000000000 8.7979001999 8.5000000000 12.708333969 -0.004200000 13.022000313 0.4185999930 2.4514999390 3.3778998852 137.01849365 7.0215001106 98.269599915 198.55230713 3.5806000233 3.5941998959 3.6605000496
 2724.9606934 7.0000000000 8.8685998917 8.5000000000 12.899278641 -0.005900000 12.719499588 0.3970000148 2.4567999840 3.4946999550 135.03770447 7.3446002007 98.170997620 196.51620483 3.6108000278 3.0058000088 3.6640999317
 2725.1130371 7.0000000000 9.0509004593 8.5000000000 13.089895248 -0.003800000 12.585599899 0.3734000027 2.4601998329 3.5632998943 134.85130310 7.4713997841 97.967498779 194.23161316 3.7881999016 3.4516000748 3.8369998932
 2725.2653809 7.0000000000 9.3084001541 8.5000000000 13.280512810 0.0016000000 12.496700287 0.3723999858 2.4574999809 3.6085000038 134.61270142 7.5201997757 97.653800964 191.62109375 3.8415999413 3.8104999065 3.8900001049
 2725.4177246 7.0000000000 9.4774999619 8.5000000000 14.055117607 0.0120999999 12.364500046 0.3813000023 2.4600999355 3.6043000221 132.98699951 7.3814997673 97.208198547 189.00338745 3.8789999485 3.9398000240 3.9256000519
 2725.5703125 7.0000000000 9.3861999512 8.5000000000 14.442585945 0.0247000009 12.075300217 0.3849000037 2.4753999710 3.5761001110 131.30990601 7.0840997696 96.717300415 187.03088379 3.9105999470 3.9574000835 3.9663000107
 2725.7226563 7.0000000000 9.1033000946 8.5000000000 15.458990097 0.0331000015 11.565299988 0.3975999951 2.4862000942 3.7781999111 130.14140320 6.8155999184 96.261100769 186.46409607 3.9418001175 3.5409998894 3.9974000454
 2725.8750000 7.0000000000 8.9137001038 8.5000000000 16.475393295 0.0281000007 11.070199966 0.4214999974 2.4507999420 4.4801998138 129.74769592 6.6757001877 95.884399414 187.69990540 3.8122000694 1.8991999626 3.8626000881
 2726.0273438 7.0000000000 9.0440998077 8.5000000000 16.774604797 0.0093999999 10.709199905 0.4350999892 2.3519001007 5.5525999069 129.38209534 6.6744999886 95.600997925 190.88229370 3.5420999527 0.7044000030 3.5889000893
 2726.1799316 7.0000000000 9.4238996506 8.5000000000 17.373359680 -0.006100000 10.463700294 0.4260999858 2.2428998947 6.5787000656 127.89330292 6.7670998573 95.435508728 195.77297974 3.4400999546 0.3750999868 3.4848999977
 2726.3322754 7.0000000000 9.7912998199 8.5000000000 17.490814209 -0.011500000 10.386699677 0.4014999866 2.1768000126 7.2368001938 126.40940094 6.8702001572 95.365196228 201.29159546 3.3264999390 0.3152000010 3.3782999516
 2726.4846191 7.0000000000 9.9993991852 8.5000000000 17.607938766 -0.012500000 10.584400177 0.3901999891 2.1612999439 7.4078001976 127.90370178 6.9236998558 95.199302673 206.19209290 3.2170999050 0.3138999939 3.2683999538
 2726.6369629 7.0000000000 10.117300987 8.5000000000 17.725393295 -0.012000000 10.848500252 0.3946000040 2.1870999336 7.0297999382 131.21330261 6.9468998909 94.728797913 209.95620728 3.1865000725 0.4300999939 3.2365000248
 2726.7893066 7.0000000000 10.102899551 8.5000000000 17.046916962 -0.006900000 10.823900223 0.3912000060 2.2546000481 6.0005002022 133.47160339 6.8755002022 93.905601501 212.01570129 3.3996000290 1.1413943768 3.4500000477
 2726.9418945 7.0000000000 9.7822999954 8.5000000000 16.707677841 0.0059000002 10.578100204 0.3840000033 2.3566000462 4.6887998581 134.66740417 6.6803998947 93.226898193 212.95950317 3.7848000526 1.8858183622 3.8385999203
 2727.0942383 7.0000000000 9.2847003937 8.5000000000 15.382545471 0.0161000006 10.295000076 0.3869000077 2.4465000629 3.8924000263 135.18820190 6.4306998253 93.570701599 212.15989685 3.6665000916 1.9850032330 3.7281000614
 2727.2465820 7.0000000000 8.9430999756 8.5000000000 14.720144272 0.0099999998 10.232199669 0.3892999887 2.4790000916 3.6559000015 133.60539246 6.0076999664 94.679100037 210.52789307 3.5764999390 1.9877545834 3.6373999119
 2727.3989258 7.0000000000 8.8339996338 8.5000000000 16.532808304 -0.001400000 10.522199631 0.3795999885 2.4773001671 3.5446999073 130.46659851 5.4984002113 96.527893066 209.04100037 3.5948998928 2.4593417645 3.6559000015
 2727.5515137 7.0000000000 8.8072004318 8.5000000000 17.439304352 -0.006700000 10.914999962 0.3729999959 2.4758000374 3.3766999245 129.37120056 5.1668000221 98.365196228 208.70509338 3.6507999897 3.3580873013 3.7179999352
