# LAS format log file from PETREL
# Project units are specified as depth units
#==================================================================
~Version information
VERS.   2.0:
WRAP.   NO:
#==================================================================
~Well
STRT .m      2535.9846191 :
STOP .m      3240.0725098 :
STEP .m     0.00000000 :
NULL .        -999.250000 :
COMP.           : COMPANY
WELL.  35/9-8   : WELL
FLD.            : FIELD
LOC.            : LOCATION
SRVC.           : SERVICE COMPANY
DATE.  2018-09-11 14:49:02   : Log Export Date {yyyy-MM-dd HH:mm:ss}
PROV.           : PROVINCE
UWI.   35/9-8   : UNIQUE WELL ID
API.            : API NUMBER
#==================================================================
~Curve
DEPT .m                   : DEPTH
Lithology_geolink ._      : Lithology_geolink
CALI .in                  : CALI
BS .in                    : BS
ROP .m/h                  : ROP
DRHO .g/cm3               : DRHO
THOR .ppm                 : THOR
NPHI .m3/m3               : NPHI
RHOB .g/cm3               : RHOB
PEF .b/e                  : PEF
GR .gAPI                  : GR
URAN .ppm                 : URAN
DTC .us/ft                : DTC
DTS .us/ft                : DTS
RDEP .ohm.m               : RDEP
RMIC .ohm.m               : RMIC
RMED .ohm.m               : RMED
~Parameter
#==================================================================
~Ascii
# ...
 2676.9545898 13.000000000 8.8704996109 8.5000000000 30.201444626 -0.006800000 6.9370999336 0.2536000013 2.5545001030 3.7207999229 82.732955933 2.2948000431 92.421897888 198.61763000 2.5083999634 2.6868999004 2.5473001003
 2677.1069336 13.000000000 8.8569002151 8.5000000000 31.895011902 -0.008600000 7.2357001305 0.2354000062 2.5497999191 3.8403000832 81.516754150 2.1788001060 91.564201355 195.96984863 2.4835999012 2.5369999409 2.5255999565
 2677.2592773 13.000000000 8.8533000946 8.5000000000 32.741798401 -0.013300000 7.9010996819 0.2241999954 2.5376000404 3.9972000122 77.214302063 1.6931999922 90.210601807 192.48889160 2.4951000214 2.6145999432 2.5439999104
 2677.4116211 13.000000000 8.8676004410 8.5000000000 29.157808304 -0.017700000 8.0011997223 0.2241999954 2.5290000439 4.1961002350 70.588844299 1.1059999466 88.404701233 188.84527588 2.8117001057 2.9405999184 2.8715999126
 2677.5642090 13.000000000 8.8816003799 8.5000000000 27.365812302 -0.020400001 7.0833997726 0.2263000011 2.5311999321 4.4223999977 64.801055908 0.9660000205 86.673202515 185.90219116 3.1180999279 3.0497999191 3.1868000031
 2677.7165527 13.000000000 8.8780002594 8.5000000000 28.724409103 -0.021500001 6.3899998665 0.2202000022 2.5431001186 4.6423997879 62.841430664 1.0722999573 85.539802551 184.28160095 3.4066998959 3.1078000069 3.4702999592
 2677.8688965 13.000000000 8.8689002991 8.5000000000 29.403873444 -0.021800000 6.1494002342 0.2111999989 2.5545001030 4.7490000725 63.973800659 1.1720999479 85.097297668 183.57263184 3.7056000233 3.3596000671 3.7553999424
 2678.0212402 13.000000000 8.8697996140 8.5000000000 30.811353683 -0.021000000 5.8691000938 0.2066999972 2.5578999519 4.6546998024 65.182403564 1.3156000376 85.298202515 183.54020691 3.5752999783 3.6073000431 3.6087999344
 2678.1738281 13.000000000 8.8776998520 8.5000000000 31.064962387 -0.017600000 5.7114000320 0.2029000074 2.5587000847 4.4409999847 65.803802490 1.4244999886 85.682403564 183.79000854 3.4247999191 3.3815000057 3.4493000507
 2678.3261719 13.000000000 8.8772001266 8.5000000000 30.614830017 -0.012400000 5.7083001137 0.1995999962 2.5622000694 4.2817997932 66.257598877 1.4651000500 85.902900696 184.03840637 3.2235999107 3.8622999191 3.2474999428
 2678.4785156 13.000000000 8.8648996353 8.5000000000 30.368440628 -0.008500000 5.7533001900 0.2035000026 2.5638999939 4.2529001236 65.752502441 1.4685000181 85.789299011 183.88334656 3.1013000011 3.9066998959 3.1245000362
 2678.6308594 13.000000000 8.8590002060 8.5000000000 30.572179794 -0.006500000 5.8045001030 0.2132000029 2.5617001057 4.3018999100 64.851303101 1.4369000196 85.405700684 183.12353516 3.0460999012 3.5578999519 3.0720000267
 2678.7832031 13.000000000 8.8809003830 8.5000000000 30.457677841 -0.004300000 5.8924999237 0.2167000026 2.5618000031 4.3204998970 64.949996948 1.3732999563 84.818901062 181.61160278 3.0288999081 3.0632998943 3.0552000999
 2678.9357910 13.000000000 8.9090995789 8.5000000000 30.139106750 -0.001300000 5.9994997978 0.2106000036 2.5671999454 4.2455000877 65.005996704 1.3071999550 84.125000000 179.64918518 3.0164999962 2.9783999920 3.0406999588
 2679.0881348 13.000000000 8.9134998322 8.5000000000 38.854988098 0.0000000000 6.1662998199 0.2010000050 2.5725998878 4.1037001610 65.089500427 1.2350000143 83.376708984 177.54370117 3.0374999046 3.0420000553 3.0650999546
 2679.2404785 13.000000000 8.8945999146 8.5000000000 47.889106750 -0.001800000 6.5654997826 0.1934999973 2.5745000839 3.9574000835 66.599403381 1.1208000183 82.687103271 175.71539307 3.2014999390 3.3940999508 3.2449998856
 2679.3928223 13.000000000 8.8773002625 8.5000000000 48.584648132 -0.005800000 6.9966998100 0.1938000023 2.5755000114 3.8785998821 68.039596558 1.0324000120 82.338699341 175.10919189 2.9697000980 3.8601000309 3.0288000107
 2679.5454102 13.000000000 8.8750000000 8.5000000000 40.246391296 -0.010100000 7.1582999229 0.1995999962 2.5739998817 3.8933000565 68.069198608 1.0292999744 82.321701050 175.59629822 2.8638999462 4.3189997673 2.9277999401
 2679.6977539 13.000000000 8.8800001144 8.5000000000 32.527889252 -0.013200000 7.1290998459 0.2004999965 2.5660998821 3.9124000072 67.993797302 1.0693999529 82.847801208 177.58479309 2.8306000233 4.3987002373 2.8898999691
 2679.8500977 13.000000000 8.8800001144 8.5000000000 32.837924957 -0.012400000 7.0155000687 0.1943999976 2.5578999519 3.8956999779 68.852798462 1.1308000088 83.507591248 179.62600708 2.7916998863 4.1655998230 2.8531000614
 2680.0024414 13.000000000 8.8738002777 8.5000000000 33.768043518 -0.008000000 6.8474001884 0.1904000044 2.5559999943 3.8989999294 69.673400879 1.1969000101 83.845100403 179.83180237 2.7441999912 3.6526000500 2.8045001030
 2680.1550293 13.000000000 8.8674001694 8.5000000000 33.945213318 -0.004700000 6.3400998116 0.1902000010 2.5567998886 3.9372999668 68.314201355 1.2851999998 83.749198914 178.47869873 2.7483000755 3.2776000500 2.8029999733
 2680.3073730 13.000000000 8.8610000610 8.5000000000 34.298885345 -0.005400000 5.2579002380 0.1884000003 2.5578999519 4.0041999817 63.979301453 1.3689999580 82.967391968 175.30889893 3.2709999084 3.6849999428 3.3271000385
 2680.4597168 13.000000000 8.8627996445 8.5000000000 32.779853821 -0.007700000 4.3654999733 0.1809999943 2.5648000240 4.1417999268 59.939701080 1.4111000299 82.035491943 172.14160156 3.7760999203 4.4493999481 3.8306000233
 2680.6120605 13.000000000 8.8857002258 8.5000000000 29.741142273 -0.007800000 4.0984997749 0.1738999933 2.5787000656 4.3470997810 59.200401306 1.4364000559 81.452697754 170.41020203 3.9744999409 4.5823998451 4.0317001343
 2680.7644043 13.000000000 8.9077997208 8.5000000000 29.604003906 -0.005400000 3.9918000698 0.1774999946 2.5899000168 4.4888000488 60.024799347 1.4697999954 81.416397095 170.19720459 4.2870001793 4.5894999504 4.3530001640
 2680.9169922 13.000000000 8.8994998932 8.5000000000 29.329395294 -0.003700000 3.8728003502 0.1960999966 2.5875999928 4.4573001862 60.291698456 1.5207999945 82.052497864 171.73440552 4.3236999512 4.7055001259 4.4025001526
 2681.0693359 13.000000000 8.8723001480 8.5000000000 28.854658127 -0.004700000 3.8903999329 0.2170999944 2.5739998817 4.3207998276 61.216598511 1.5947999954 82.958198547 174.16990662 3.5627999306 4.9510998726 3.6470000744
 2681.2216797 13.000000000 8.8583002090 8.5000000000 27.905183792 -0.007000000 4.6163001060 0.2236000001 2.5622999668 4.1845002174 64.306198120 1.6339000463 83.837303162 176.95770264 3.1154000759 3.9263000488 3.1926000118
 2681.3740234 13.000000000 8.8703002930 8.5000000000 27.260828018 -0.008500000 5.9443001747 0.2171999961 2.5608000755 4.0595002174 67.937400818 1.5304000378 84.542297363 179.45199585 2.8324999809 3.6047999859 2.9096999168
 2681.5266113 13.000000000 8.8837995529 8.5000000000 26.938650131 -0.009000000 6.7747001648 0.2136999965 2.5655999184 3.9955000877 69.745002747 1.3953000307 85.097900391 181.29962158 2.8631999493 3.5882000923 2.9484999180
 2681.6789551 13.000000000 8.8761997223 8.5000000000 28.655185699 -0.009500000 7.0163002014 0.2184000015 2.5657000542 4.0777997971 69.516197205 1.3266999722 85.566497803 182.39959717 2.9686000347 3.6247000694 3.0597000122
 2681.8312988 13.000000000 8.8626003265 8.5000000000 29.513124466 -0.009200000 7.2733001709 0.2243999988 2.5596001148 4.2603001595 69.031600952 1.2367000580 85.970298767 182.97200012 3.1006999016 3.7353999615 3.2088999748
 2681.9836426 13.000000000 8.8652000427 8.5000000000 28.677824020 -0.006500000 7.6331000328 0.2206999958 2.5546998978 4.4193000793 69.209999084 1.0989999771 86.250602722 183.20399475 2.8482000828 3.7897999287 2.9539000988
 2682.1362305 13.000000000 8.8718996048 8.5000000000 28.260169983 -0.003200000 8.2371997833 0.2060000002 2.5504000187 4.4316000938 70.580596924 0.8604000211 86.391403198 183.30941772 2.4709000587 3.5947999954 2.5669999123
 2682.2885742 13.000000000 8.8739004135 8.5000000000 29.786745071 -0.002900000 8.8880996704 0.1888000071 2.5438001156 4.2666997910 72.852203369 0.6137999892 86.309989929 183.30659485 2.3756000996 3.4621000290 2.4679999352
 2682.4409180 13.000000000 8.8797998428 8.5000000000 30.550195694 -0.005200000 9.1564998627 0.1796000004 2.5392999649 4.0774002075 73.249801636 0.4947000444 86.072601318 183.25032043 2.3986999989 3.2051999569 2.4886000156
