# LAS format log file from PETREL
# Project units are specified as depth units
#==================================================================
~Version information
VERS.   2.0:
WRAP.   NO:
#==================================================================
~Well
STRT .m      2949.7507324 :
STOP .m      3605.5278320 :
STEP .m     0.00000000 :
NULL .        -999.250000 :
COMP.           : COMPANY
WELL.  35/9-10 S   : WELL
FLD.            : FIELD
LOC.            : LOCATION
SRVC.           : SERVICE COMPANY
DATE.  2018-09-11 14:49:01   : Log Export Date {yyyy-MM-dd HH:mm:ss}
PROV.           : PROVINCE
UWI.   35/9-10 S   : UNIQUE WELL ID
API.            : API NUMBER
#==================================================================
~Curve
DEPT .m                   : DEPTH
Lithology_geolink ._      : Lithology_geolink
CALI .in                  : CALI
BS .in                    : BS
ROP .m/h                  : ROP
DRHO .g/cm3               : DRHO
THOR .ppm                 : THOR
NPHI .m3/m3               : NPHI
RHOB .g/cm3               : RHOB
PEF .b/e                  : PEF
GR .gAPI                  : GR
URAN .ppm                 : URAN
DTC .us/ft                : DTC
DTS .us/ft                : DTS
RDEP .ohm.m               : RDEP
RMED .ohm.m               : RMED
~Parameter
#==================================================================
~Ascii
# ...
 3252.8742676 5.0000000000 8.5886001587 8.5000000000 87.783134460 0.0115999999 11.090499878 0.3605000079 2.5239000320 3.6630001068 83.935699463 0.0016000000 84.349800110 157.66760254 10.915599823 10.492899895
 3253.0268555 5.0000000000 8.5894002914 8.5000000000 88.433067322 -0.000700000 11.010100365 0.3594000041 2.5129001141 3.7014000416 84.531799316 0.0016000000 84.340301514 158.02639771 10.911499977 10.483799934
 3253.1791992 5.0000000000 8.5984001160 8.5000000000 90.353675842 0.0037000000 10.933199883 0.3619999886 2.5037000179 3.6029999256 83.876403809 0.0016000000 84.544403076 157.93659973 10.830499649 10.401700020
 3253.3315430 5.0000000000 8.6125001907 8.5000000000 91.624671936 0.0252999999 10.959199905 0.3828000128 2.5067000389 3.4932999611 83.483398438 0.0016000000 85.031303406 157.23440552 10.714099884 10.287599564
 3253.4838867 5.0000000000 8.6267995834 8.5000000000 92.166343689 0.0456999987 11.177499771 0.3932999969 2.5125000477 3.5164000988 83.794898987 0.0016000000 85.262802124 156.41839600 10.604200363 10.181599617
 3253.6364746 5.0000000000 8.6413002014 8.5000000000 91.437011719 0.0478000008 11.506999969 0.3783999979 2.5153000355 3.5869998932 83.138298035 0.0016000000 85.361793518 155.51809692 10.554100037 10.134799957
 3253.7888184 5.0000000000 8.6414003372 8.5000000000 96.679458618 0.0302000009 11.776300430 0.3637000024 2.5262999535 3.5213999748 81.426696777 0.0016000000 85.070907593 154.56410217 10.602700233 10.184200287
 3253.9411621 5.0000000000 8.6217002869 8.5000000000 102.65124512 0.0031999999 11.890899658 0.3573000133 2.5483999252 3.3536999226 80.852600098 0.0016000000 85.351791382 153.87399292 10.717100143 10.298199654
 3254.0935059 5.0000000000 8.6037998199 8.5000000000 101.00721741 -0.016100001 11.835800171 0.3461999893 2.5606999397 3.3861000538 81.911903381 0.0016000000 85.478500366 154.08340454 10.807299614 10.389300346
 3254.2460938 5.0000000000 8.6063003540 8.5000000000 93.391403198 -0.023300000 11.600999832 0.3348000050 2.5371999741 3.6665999889 83.022598267 0.0016000000 85.170097351 154.40750122 10.805700302 10.392100334
 3254.3984375 5.0000000000 8.6211996078 8.5000000000 81.234252930 -0.009800000 11.215299606 0.3328000009 2.5037999153 3.9365999699 83.608901978 0.1279000044 84.874603271 154.20391846 10.719400406 10.313099861
 3254.5507813 5.0000000000 8.6372003555 8.5000000000 76.692909241 0.0243999995 10.724900246 0.3384999931 2.4944999218 4.0306000710 84.027198792 0.3122999966 84.875701904 153.65530396 10.597800255 10.200499535
 3254.7031250 5.0000000000 8.6471004486 8.5000000000 79.332351685 0.0593999997 10.267000198 0.3424000144 2.5113000870 3.9872999191 83.893798828 0.4677999914 84.627189636 153.20489502 10.494099617 10.107999802
 3254.8554688 5.0000000000 8.6431999207 8.5000000000 86.513122559 0.0724999979 10.061100006 0.3447000086 2.5329000950 3.9302999973 83.810798645 0.5705999732 84.754402161 153.26179504 10.448900223 10.072799683
 3255.0080566 5.0000000000 8.6298999786 8.5000000000 91.881233215 0.0584999993 10.108599663 0.3549000025 2.5398001671 3.9230000973 84.442802429 0.6517999768 84.466606140 153.40899658 10.445300102 10.078700066
 3255.1604004 6.0000000000 8.6232995987 8.5000000000 90.068244934 0.0307999998 10.290599823 0.3652000129 2.5327999592 3.9175000191 85.253700256 0.7473999858 84.029502869 153.57780457 10.420599937 10.065699577
 3255.3127441 6.0000000000 8.6178998947 8.5000000000 85.204071045 0.0081000002 10.610799789 0.3617999852 2.5248999596 3.8162999153 86.068901062 0.7871000171 83.721496582 153.73431396 10.346899986 10.006500244
 3255.4650879 6.0000000000 8.6019001007 8.5000000000 82.152236938 0.0013000000 11.171600342 0.3555999994 2.5253999233 3.6633000374 86.878501892 0.6542999744 83.532104492 153.47279358 10.245400429 9.9215002060
 3255.6176758 6.0000000000 8.5974998474 8.5000000000 79.915031433 0.0054000001 11.391500473 0.3562999964 2.5257000923 3.5408999920 86.702102661 0.5097000003 83.476005554 153.07350159 10.129799843 9.8239002228
 3255.7700195 6.0000000000 8.6148996353 8.5000000000 80.729660034 0.0142999999 11.483099937 0.3517999947 2.5278000832 3.4595000744 86.111900330 0.2969999909 83.377906799 153.04170227 10.059800148 9.7715997696
 3255.9223633 6.0000000000 8.6210002899 8.5000000000 81.778221130 0.0229000002 11.482000351 0.3433000147 2.5371000767 3.3977999687 85.881202698 0.0177999996 83.287002563 153.97639465 10.135600090 9.8585996628
 3256.0747070 6.0000000000 8.6056995392 8.5000000000 82.246719360 0.0264999997 11.373100281 0.3438999951 2.5499999523 3.3647999763 85.142898560 0.0016000000 83.156700134 154.48840332 10.326499939 10.054200172
 3256.2272949 5.0000000000 8.6029996872 8.5000000000 84.416343689 0.0226000007 11.177300453 0.3503000140 2.5552999973 3.3879001141 82.993896484 0.0016000000 83.149597168 154.18989563 10.482399940 10.216500282
 3256.3796387 5.0000000000 8.6312999725 8.5000000000 88.755256653 0.0161000006 10.915599823 0.3508000076 2.5550000668 3.4312000275 80.774101257 0.0016000000 83.265609741 153.44320679 10.529800415 10.272000313
 3256.5319824 5.0000000000 8.6631002426 8.5000000000 89.997375488 0.0119000003 10.618700027 0.3492999971 2.5545001030 3.3919000626 80.179801941 0.1300999969 83.084396362 152.32409668 10.498399734 10.248800278
 3256.6843262 5.0000000000 8.6760997772 8.5000000000 92.481300354 0.0104999999 10.390800476 0.3528999984 2.5524001122 3.3357000351 81.090202332 0.3113999963 82.661903381 151.46650696 10.436100006 10.193300247
 3256.8366699 5.0000000000 8.6753997803 8.5000000000 94.269355774 0.0085000005 10.140800476 0.3544000089 2.5394999981 3.3717999458 82.283798218 0.4776999950 82.063896179 150.10760498 10.388299942 10.149999619
 3256.9892578 5.0000000000 8.6683998108 8.5000000000 97.845146179 0.0088999998 9.8360996246 0.3481000066 2.5258998871 3.4454998970 82.684898376 0.6327000260 81.752792358 149.69729614 10.389900208 10.153100014
 3257.1416016 5.0000000000 8.6510000229 8.5000000000 95.854660034 0.0127999997 9.5766000748 0.3314000070 2.5244998932 3.4876000881 82.779800415 0.7379999757 81.920997620 147.54179382 10.448699951 10.210200310
 3257.2939453 5.0000000000 8.6279001236 8.5000000000 91.873687744 0.0153999999 9.3936996460 0.3113999963 2.5320000648 3.5490999222 83.622299194 0.7724999785 82.557899475 148.07809448 10.535200119 10.292900085
 3257.4462891 5.0000000000 8.6188001633 8.5000000000 91.108924866 0.0091000004 9.3208999634 0.3025999963 2.5350000858 3.6096000671 84.304603577 0.7261000276 83.506500244 147.10600281 10.597599983 10.351099968
 3257.5988770 5.0000000000 8.6283998489 8.5000000000 89.579071045 -0.001900000 9.4397001266 0.3125000000 2.5374000072 3.6015999317 83.971702576 0.6075000167 83.362205505 147.66310120 10.590900421 10.341300011
 3257.7512207 6.0000000000 8.6344003677 8.5000000000 94.168304443 -0.008000000 9.6645002365 0.3319000006 2.5392000675 3.5160000324 83.725402832 0.4898000062 82.030403137 148.84320068 10.516599655 10.265600204
 3257.9035645 6.0000000000 8.6190004349 8.5000000000 103.34645844 -0.004500000 9.8038997650 0.3483999968 2.5322000980 3.4707999229 84.460403442 0.4255000055 81.114097595 149.95578003 10.429900169 10.178700447
 3258.0559082 6.0000000000 8.5938997269 8.5000000000 103.30348206 0.0149999997 9.8709001541 0.3528999984 2.5213000774 3.5673999786 86.284896851 0.3637999892 80.762199402 150.82119751 10.378800392 10.128899574
 3258.2084961 6.0000000000 8.5841999054 8.5000000000 103.21784973 0.0443999991 9.8983001709 0.3501000106 2.5183999538 3.7339000702 88.339897156 0.2854000032 80.365509033 151.41439819 10.368000031 10.118800163
 3258.3608398 6.0000000000 8.5970001221 8.5000000000 100.38484192 0.0661000013 9.8269996643 0.3519999981 2.5257000923 3.8143000603 87.658996582 0.2126999944 80.333511353 152.06030273 10.378800392 10.130700111
 3258.5131836 6.0000000000 8.6094999313 8.5000000000 94.718833923 0.0656000003 9.7320995331 0.3535000086 2.5327000618 3.7460999489 84.704498291 0.1146999970 80.601799011 152.40440369 10.389499664 10.143099785
 3258.6655273 6.0000000000 8.6048002243 8.5000000000 94.682411194 0.0452999994 9.7311000824 0.3486999869 2.5362000465 3.5920999050 83.759696960 0.0016000000 81.073898315 151.92799377 10.390000343 10.145299911
