# LAS format log file from PETREL
# Project units are specified as depth units
#==================================================================
~Version information
VERS.   2.0:
WRAP.   NO:
#==================================================================
~Well
STRT .m      2949.7507324 :
STOP .m      3605.5278320 :
STEP .m     0.00000000 :
NULL .        -999.250000 :
COMP.           : COMPANY
WELL.  35/9-10 S   : WELL
FLD.            : FIELD
LOC.            : LOCATION
SRVC.           : SERVICE COMPANY
DATE.  2018-09-11 14:49:01   : Log Export Date {yyyy-MM-dd HH:mm:ss}
PROV.           : PROVINCE
UWI.   35/9-10 S   : UNIQUE WELL ID
API.            : API NUMBER
#==================================================================
~Curve
DEPT .m                   : DEPTH
Lithology_geolink ._      : Lithology_geolink
CALI .in                  : CALI
BS .in                    : BS
ROP .m/h                  : ROP
DRHO .g/cm3               : DRHO
THOR .ppm                 : THOR
NPHI .m3/m3               : NPHI
RHOB .g/cm3               : RHOB
PEF .b/e                  : PEF
GR .gAPI                  : GR
URAN .ppm                 : URAN
DTC .us/ft                : DTC
DTS .us/ft                : DTS
RDEP .ohm.m               : RDEP
RMED .ohm.m               : RMED
~Parameter
#==================================================================
~Ascii
# ...
 3163.7202148 2.0000000000 8.4996004105 8.5000000000  -999.250000 -0.005600000 4.8639998436 0.2381999940 2.2310333252 2.6694808006 54.421615601 0.0016000000 89.936012268 149.91358948 63.213005066 57.219112396
 3163.8725586 2.0000000000 8.5101003647 8.5000000000  -999.250000 0.0241999999 4.9993000031 0.2310999930 2.2298018932 2.6797835827 55.978897095 0.0016000000 90.842842102 152.34521484 63.573310852 58.135025024
 3164.0249023 2.0000000000 8.5263996124 8.5000000000  -999.250000 0.0595000014 4.9507999420 0.2214999944 2.2472438812 2.6961474419 57.419685364 0.0016000000 91.700355530 153.57247925 67.280799866 61.826053619
 3164.1774902 2.0000000000 8.5333003998 8.5000000000  -999.250000 0.0758000016 4.6599998474 0.2175000012 2.2627751827 2.7662875652 57.136161804 0.0016000000 92.546943665 154.14938354 69.145027161 63.896495819
 3164.3298340 2.0000000000 8.5268001556 8.5000000000  -999.250000 0.0645999983 4.3144998550 0.2240999937 2.2563104630 2.8156211376 55.677543640 0.0016000000 92.813278198 154.95191956 61.864593506 57.596015930
 3164.4821777 2.0000000000 8.5121002197 8.5000000000  -999.250000 0.0405000001 4.1163001060 0.2374999970 2.2372305393 2.7577929497 54.548809052 0.0016000000 92.002395630 154.65278625 47.808544159 44.326683044
 3164.6345215 2.0000000000 8.4970998764 8.5000000000  -999.250000 0.0222999994 4.0376000404 0.2422000021 2.2258365154 2.6406757832 54.515201569 0.0016000000 90.795478821 153.04884338 35.569217682 32.618415833
 3164.7871094 2.0000000000 8.4891996384 8.5000000000  -999.250000 0.0148000000 4.0364999771 0.2329999954 2.2258000374 2.5709114075 56.113037109 0.0016000000 89.434585571 150.51034546 28.612503052 26.178976059
 3164.9394531 2.0000000000 8.4920997620 8.5000000000  -999.250000 0.0103000002 4.1047000885 0.2257000059 2.2294940948 2.5973572731 58.601909637 0.0016000000 88.339553833 148.94270325 26.127471924 23.877878189
 3165.0917969 2.0000000000 8.4961996078 8.5000000000  -999.250000 0.0030000000 4.2012000084 0.2287999988 2.2374870777 2.7112174034 60.754550934 0.0016000000 87.748443604 147.21795654 25.655450821 23.458868027
 3165.2441406 2.0000000000 8.4942998886 8.5000000000  -999.250000 -0.004800000 4.3414001465 0.2344000041 2.2552714348 2.8771338463 61.736728668 0.0016000000 86.783050537 145.42279053 23.919187546 21.932649612
 3165.3964844 2.0000000000 8.4925003052 8.5000000000  -999.250000 -0.009100000 4.5836000443 0.2370000035 2.2872972488 3.0887217522 63.223731995 0.0016000000 85.588134766 143.08270264 19.847063065 18.275831223
 3165.5490723 2.0000000000 8.5023002625 8.5000000000  -999.250000 -0.005000000 5.0714001656 0.2456000000 2.3418128490 3.4012992382 68.057449341 0.0016000000 84.513519287 140.97975159 15.721301079 14.549662590
 3165.7014160 5.0000000000 8.5249004364 8.5000000000  -999.250000 0.0109000001 5.8605999947 0.2612000108 2.4169795513 3.7898769379 75.706634521 0.0016000000 84.057640076 138.83692932 13.182364464 12.270548820
 3165.8537598 5.0000000000 8.5503997803 8.5000000000  -999.250000 0.0293000005 6.5163002014 0.2718000114 2.4807977676 4.0345087051 80.813919067 0.0016000000 83.534942627 138.63421631 11.866805077 11.121539116
 3166.0061035 5.0000000000 8.5725002289 8.5000000000  -999.250000 0.0372000001 6.6742000580 0.2746999860 2.5058197975 4.0071892738 81.473609924 0.0016000000 83.945190430 138.61726379 11.048619270 10.395524979
 3166.1586914 5.0000000000 8.5874004364 8.5000000000  -999.250000 0.0394000001 6.5626001358 0.2795999944 2.5124895573 3.8262901306 81.261543274 0.0159000009 84.049331665 138.84072876 10.493785858 9.9067811966
 3166.3110352 5.0000000000 8.5881996155 8.5000000000  -999.250000 0.0390000008 6.3456997871 0.2860000134 2.5175919533 3.7137801647 81.223159790 0.2468000054 83.962638855 138.80186462 10.345736504 9.7956771851
 3166.4633789 5.0000000000 8.5820999146 8.5000000000  -999.250000 0.0326000005 6.0728998184 0.2843999863 2.5178995132 3.7777969837 79.853096008 0.4830999970 82.860969543 137.82815552 10.567144394 10.031022072
 3166.6157227 5.0000000000 8.5860996246 8.5000000000  -999.250000 0.0186000001 5.9078998566 0.2755999863 2.5103242397 3.8877472878 78.010505676 0.6060000062 82.075027466 137.33078003 10.897141457 10.352568626
 3166.7683105 5.0000000000 8.5866003036 8.5000000000  -999.250000 0.0009000000 5.9426999092 0.2680999935 2.5011148453 3.8598453999 76.404174805 0.5956000090 81.298744202 137.89907837 11.156385422 10.608591080
 3166.9206543 5.0000000000 8.5694999695 8.5000000000  -999.250000 -0.007800000 6.1255002022 0.2667999864 2.5096862316 3.7881152630 74.440750122 0.5453000069 81.006378174 138.79855347 11.304063797 10.764350891
 3167.0729980 5.0000000000 8.5516004562 8.5000000000  -999.250000 -0.004800000 6.3965997696 0.2657000124 2.5407502651 3.9186902046 72.847946167 0.5098000169 80.554321289 141.76603699 11.244795799 10.720770836
 3167.2253418 5.0000000000 8.5503997803 8.5000000000  -999.250000 0.0122999996 6.6603999138 0.2588000000 2.5802366734 4.2513666153 72.975296021 0.4911000133 80.667816162 141.32411194 11.031841278 10.527509689
 3167.3776855 5.0000000000 8.5579996109 8.5000000000  -999.250000 0.0339000002 6.8565998077 0.2545999885 2.5959496498 4.4754824638 74.579452515 0.5137000084 80.878028870 143.13000488 11.023226738 10.531386375
 3167.5302734 5.0000000000 8.5683002472 8.5000000000  -999.250000 0.0496999994 7.0138001442 0.2630000114 2.5832204819 4.4109048843 76.507408142 0.5970000029 81.082069397 140.58699036 11.402590752 10.907995224
 3167.6826172 5.0000000000 8.5799999237 8.5000000000  -999.250000 0.0557000004 7.1020002365 0.2752000093 2.5693221092 4.1145753860 78.345954895 0.6640999913 81.023590088 139.57292175 11.916275978 11.414388657
 3167.8349609 5.0000000000 8.5881996155 8.5000000000  -999.250000 0.0465999991 7.1269001961 0.2804999948 2.5717959404 3.7680554390 80.190345764 0.6653000116 80.363662720 137.81031799 12.262445450 11.750462532
 3167.9873047 5.0000000000 8.5857000351 8.5000000000  -999.250000 0.0198999997 7.0757999420 0.2860000134 2.5818674564 3.6203722954 80.591621399 0.6406999826 78.992507935 136.52232361 12.571110725 12.048943520
 3168.1398926 5.0000000000 8.5745000839 8.5000000000  -999.250000 -0.007800000 6.9446001053 0.2870000005 2.5886890888 3.7775471210 78.835525513 0.6008999944 76.653656006 135.19932556 13.129006386 12.587837219
 3168.2922363 5.0000000000 8.5668001175 8.5000000000  -999.250000 -0.015300000 6.6967000961 0.2653999925 2.5858044624 4.0335893631 77.063438416 0.5450000167 74.793083191 133.90586853 14.220849037 13.642008781
 3168.4445801 5.0000000000 8.5645999908 8.5000000000  -999.250000 -0.001400000 6.3643999100 0.2337000072 2.5711236000 4.1566028595 76.349845886 0.4510999918 72.776832581 132.71751404 16.105876923 15.463479042
 3168.5969238 5.0000000000 8.5592002869 8.5000000000  -999.250000 0.0329999998 6.0590000153 0.2160000056 2.5748877525 4.2171063423 73.138107300 0.2570999861 72.815666199 129.27813721 17.848913193 17.154581070
 3168.7495117 5.0000000000 8.5598001480 8.5000000000  -999.250000 0.0619000010 5.8467001915 0.2152000070 2.6035540104 4.3249273300 65.738563538 0.0256999992 73.960861206 128.64648438 17.836427689 17.153011322
 3168.9018555 5.0000000000 8.5785999298 8.5000000000  -999.250000 0.0685999990 5.7197999954 0.2224999964 2.6454327106 4.3436698914 60.081760406 0.0016000000 76.309730530 130.23902893 16.601682663 15.972993851
 3169.0541992 5.0000000000 8.6078996658 8.5000000000  -999.250000 0.0472999997 5.6789999008 0.2333000004 2.6687626839 4.1741724014 60.528968811 0.0016000000 78.647254944 134.16210938 15.046692848 14.482688904
 3169.2065430 5.0000000000 8.6352996826 8.5000000000  -999.250000 0.0040000002 5.7248001099 0.2518000007 2.6398465633 4.0740604401 64.105865479 0.0098999999 81.012313843 136.53329468 13.250478745 12.763555527
 3169.3588867 5.0000000000 8.6515998840 8.5000000000  -999.250000 -0.027600000 5.9642000198 0.2705000043 2.5782973766 4.1212477684 68.025131226 0.1994999945 82.496650696 138.12918091 11.495125771 11.084182739
 3169.5114746 5.0000000000 8.6534996033 8.5000000000  -999.250000 -0.034600001 6.3378000259 0.2754999995 2.5217902660 4.1576418877 73.394699097 0.3522000015 83.236717224 138.61991882 10.048512459 9.7121934891
