# LAS format log file from PETREL
# Project units are specified as depth units
#==================================================================
~Version information
VERS.   2.0:
WRAP.   NO:
#==================================================================
~Well
STRT .m      2726.1311035 :
STOP .m      3477.3107910 :
STEP .m     0.00000000 :
NULL .        -999.250000 :
COMP.           : COMPANY
WELL.  35/9-5   : WELL
FLD.            : FIELD
LOC.            : LOCATION
SRVC.           : SERVICE COMPANY
DATE.  2018-09-11 14:49:02   : Log Export Date {yyyy-MM-dd HH:mm:ss}
PROV.           : PROVINCE
UWI.   35/9-5   : UNIQUE WELL ID
API.            : API NUMBER
#==================================================================
~Curve
DEPT .m                   : DEPTH
Lithology_geolink ._      : Lithology_geolink
CALI .in                  : CALI
BS .in                    : BS
ROP .m/h                  : ROP
DRHO .g/cm3               : DRHO
THOR .ppm                 : THOR
NPHI .m3/m3               : NPHI
RHOB .g/cm3               : RHOB
PEF .b/e                  : PEF
GR .gAPI                  : GR
URAN .ppm                 : URAN
DTC .us/ft                : DTC
DTS .us/ft                : DTS
RDEP .ohm.m               : RDEP
RMIC .ohm.m               : RMIC
RMED .ohm.m               : RMED
~Parameter
#==================================================================
~Ascii
 2726.1311035 13.000000000 8.5087003708 12.250000954 115.41601563  -999.250000 4.0733904839 0.1853740364  -999.250000  -999.250000 52.147579193 0.5652657151 76.769340515 147.06312561  -999.250000  -999.250000  -999.250000
 2726.2834473 13.000000000 8.5163002014 12.250000954 114.19882965  -999.250000 3.9097633362 0.1742179543  -999.250000  -999.250000 53.033977509 0.7204505205 74.983963013 144.81669617  -999.250000  -999.250000  -999.250000
 2726.4357910 13.000000000 8.5838003159 12.250000954 112.36219788  -999.250000 3.8199436665 0.1731017530  -999.250000  -999.250000 56.893508911 0.8523886204 73.541908264 141.34086609  -999.250000  -999.250000  -999.250000
 2726.5881348 13.000000000 8.5388002396 12.250000954 113.53584290  -999.250000 3.5506320000 0.1630161852  -999.250000  -999.250000 60.154472351 0.9070127010 73.068054199 138.47369385  -999.250000  -999.250000  -999.250000
 2726.7404785 13.000000000 8.5011997223 12.250000954 111.38126373  -999.250000 3.1806862354 0.1603086442  -999.250000  -999.250000 62.811386108 0.9314219356 73.850585938 136.99185181  -999.250000  -999.250000  -999.250000
 2726.8930664 13.000000000 8.6890001297 12.250000954 122.26171875  -999.250000 2.7158443928 0.1384350955  -999.250000  -999.250000 63.171337128 1.0997300148 75.870765686 136.75318909  -999.250000  -999.250000  -999.250000
 2727.0454102 13.000000000 8.8390998840 12.250000954 18.684656143  -999.250000 2.8762412071 0.1309120208  -999.250000  -999.250000 64.838821411 1.2740206718 76.585952759 137.44699097  -999.250000  -999.250000  -999.250000
 2727.1977539 13.000000000 10.378499985 12.250000954 23.931272507  -999.250000 3.6382770538 0.1329966336  -999.250000  -999.250000 67.120147705 1.3874183893 76.475379944 134.12672424  -999.250000  -999.250000  -999.250000
 2727.3500977 13.000000000 11.166999817 12.250000954 31.952293396  -999.250000 3.9601705074 0.1404759884  -999.250000  -999.250000 73.792190552 1.4726270437 75.217033386 133.68869019  -999.250000  -999.250000  -999.250000
 2727.5026855 13.000000000 11.444800377 12.250000954 35.003017426  -999.250000 4.2135949135 0.1489863843  -999.250000  -999.250000 74.008186340 1.1933486462 73.178161621 133.43669128  -999.250000  -999.250000  -999.250000
 2727.6550293 13.000000000 11.677599907 12.250000954 35.778945923  -999.250000 3.9481267929 0.1465040147  -999.250000  -999.250000 77.516166687 1.0385477543 69.241416931 133.25459290  -999.250000  -999.250000  -999.250000
 2727.8073730 13.000000000 11.760199547 12.250000954 32.756820679  -999.250000 4.3888916969 0.1434049606  -999.250000  -999.250000 75.769012451 0.8888399005 64.420425415 138.38656616  -999.250000  -999.250000  -999.250000
 2727.9597168 13.000000000 11.737701416 12.250000954 42.091407776  -999.250000 4.7194409370 0.1433999985  -999.250000  -999.250000 74.408760071 0.6829601526 64.107086182 142.73216248  -999.250000 8.2322664261  -999.250000
 2728.1123047 13.000000000 11.692599297 12.250000954 42.014934540 0.0010070513 4.6473174095 0.1566786915 2.5538315773 4.0642385483 73.168182373 0.6583384275 67.576927185 146.21682739  -999.250000 7.9587435722  -999.250000
 2728.2646484 13.000000000 11.662599564 12.250000954 44.666675568 0.0018985578 5.0050253868 0.1340363771 2.5031812191 4.3530359268 71.929885864 0.5751335025 72.129898071 148.46269226  -999.250000 3.9667069912  -999.250000
 2728.4169922 13.000000000 11.670100212 12.250000954 46.048641205 0.0306538455 5.1722326279 0.1205216348 2.5258634090 4.7849078178 70.755783081 0.3905960023 76.461456299 149.18385315  -999.250000 2.0794191360  -999.250000
 2728.5693359 13.000000000 11.099399567 12.250000954 49.251422882 0.0502685867 5.3153705597 0.1070216373 2.5636394024 4.9769930840 69.690612793 0.3690341115 81.650382996 152.64225769  -999.250000 2.0666158199  -999.250000
 2728.7219238 13.000000000 8.3886003494 12.250000954 39.607978821 0.0580875203 5.3798971176 0.1276668757 2.6316909790 4.6191740036 68.696197510 0.7513871789 88.474273682 158.90608215  -999.250000 2.8677160740  -999.250000
 2728.8742676 13.000000000 8.3961000443 12.250000954 34.790187836 0.0302447118 5.6009449959 0.1523604244 2.6249110699 4.0365343094 67.773376465 0.8013208508 92.379852295 160.53070068  -999.250000 5.4649333954  -999.250000
 2729.0266113 13.000000000 8.3886003494 12.250000954 31.699174881 0.0102320518 5.7549533844 0.1586899012 2.6079270840 3.6542122364 60.057582855 0.9917944074 89.413566589 154.17800903  -999.250000 5.6787633896  -999.250000
 2729.1789551 13.000000000 8.4035997391 8.5060100555 30.974256516 0.0015139424 6.7652788162 0.1536081731 2.5959193707 3.5745267868 59.017848969 0.9353910089 82.886466980 142.61215210  -999.250000 5.7760443687  -999.250000
 2729.3312988 13.000000000 8.4186000824 8.5000000000 28.991596222 0.0018987200 6.1706142426 0.1529022306 2.5894207954 3.6347064972 58.149482727 1.0572086573 77.545310974 135.77290344 8.6910066605 4.4253368378 9.2263269424
 2729.4838867 13.000000000 8.4148998260 8.5000000000 29.506381989 0.0118839750 5.9387688637 0.1504040062 2.6018800735 3.7060856819 56.436744690 1.0423245430 74.733589172 134.46365356 7.8042225838 3.7156322002 8.3872404099
 2729.6362305 13.000000000 8.4260997772 8.5000000000 27.507802963 0.0226826929 5.8101058006 0.1674726009 2.6194717884 3.7372500896 53.750507355 0.7575570345 74.676582336 135.01681519 8.0749635696 3.4768815041 8.8237972260
 2729.7885742 13.000000000 8.4148998260 8.5000000000 27.522937775 0.0252958331 5.4273142815 0.1600120217 2.6311814785 3.7624597549 54.268661499 0.8186013103 75.879867554 140.54273987 8.3421716690 3.6946496964 9.3313865662
 2729.9409180 13.000000000 8.4186000824 8.5000000000 25.143791199 0.0164284799 5.4819226265 0.1558134407 2.6235246658 3.7947962284 57.250232697 0.7317790985 76.136680603 142.26040649 5.8380403519 4.0708932877 5.3417105675
 2730.0935059 13.000000000 8.4111003876 8.5000000000 22.738430023 0.0061165062 5.7248106003 0.1423216313 2.6136159897 3.8367328644 58.824390411 0.7957968116 76.005523682 142.53576660 5.0848960876 4.0258746147 6.7504181862
 2730.2458496 13.000000000 8.4373998642 8.5000000000 24.116876602 0.0036040063 5.8327274323 0.1631665081 2.6119027138 3.8635571003 59.378513336 0.4037294984 75.851242065 141.06854248 4.5979795456 4.3378987312 5.4779462814
 2730.3981934 13.000000000 8.4260997772 8.5000000000 23.768280029 0.0021024037 6.1795434952 0.1625011116 2.6081061363 3.8493227959 56.922042847 0.4139825404 75.423088074 140.48713684 10.170553207 4.9549107552 12.377322197
 2730.5505371 13.000000000 8.4336996078 8.5000000000 22.629123688 0.0013012821 6.1831951141 0.1633985490 2.6047055721 3.8295316696 51.356925964 0.4113043249 75.209434509 139.68618774 7.4539752007 6.7735824585 8.6737623215
 2730.7031250 13.000000000 8.4336996078 8.5000000000 20.793294907 0.0006011200 6.3065028191 0.1586076766 2.6026034355 3.7866687775 48.421688080 0.2532532811 74.797164917 138.31898499 8.7837619781 8.7470426559 8.3345336914
 2730.8554688 13.000000000 8.4412002563 8.5000000000 21.738964081 0.0000009615 6.2900266647 0.1592988819 2.5965096951 3.7619395256 49.091716766 0.3118056059 74.313476563 137.63189697 8.3797521591 7.8705120087 9.1484928131
 2731.0078125 13.000000000 8.4412002563 8.5000000000 20.531467438 0.0003993590 6.3362255096 0.1583016068 2.5941038132 3.7218644619 51.780384064 0.3098033667 74.250999451 136.61433411 7.6061406136 9.5873422623 7.8586721420
 2731.1601563 13.000000000 8.4412002563 8.5000000000 22.890895844 0.0010988782 5.8400964737 0.1617943943 2.5919036865 3.7039287090 57.080898285 0.5187646151 73.762687683 133.99549866 5.2266173363 12.811328888 9.8068695068
 2731.3125000 13.000000000 8.4412002563 8.5000000000 25.023349762 0.0015983999 5.9763598442 0.1736619174 2.5896074772 3.7044980526 59.891906738 0.5776121616 73.047698975 133.56855774 8.8091859818 25.312982559 11.582808495
 2731.4650879 13.000000000 8.4486999512 8.5000000000 29.573087692 0.0025983974 6.3953280449 0.1927693933 2.5915968418 3.7064969540 56.261341095 0.5752041936 73.627761841 135.61221313 9.0625114441 12.227468491 10.239665031
 2731.6174316 13.000000000 8.4336996078 8.5000000000 35.348026276 0.0093891025 6.4585995674 0.1983910352 2.6037805080 3.7188801765 54.096069336 0.6802314520 74.271369934 138.95903015 8.8505401611 5.3271422386 10.031929970
