# LAS format log file from PETREL
# Project units are specified as depth units
#==================================================================
~Version information
VERS.   2.0:
WRAP.   NO:
#==================================================================
~Well
STRT .m      1725.0000000 :
STOP .m      3754.9504395 :
STEP .m     0.00000000 :
NULL .        -999.250000 :
COMP.           : COMPANY
WELL.  35/9-6 S   : WELL
FLD.            : FIELD
LOC.            : LOCATION
SRVC.           : SERVICE COMPANY
DATE.  2018-09-11 14:49:02   : Log Export Date {yyyy-MM-dd HH:mm:ss}
PROV.           : PROVINCE
UWI.   35/9-6 S   : UNIQUE WELL ID
API.            : API NUMBER
#==================================================================
~Curve
DEPT .m                   : DEPTH
Lithology_geolink ._      : Lithology_geolink
CALI .in                  : CALI
DRHO .g/cm3               : DRHO
NPHI .m3/m3               : NPHI
RHOB .g/cm3               : RHOB
PEF .b/e                  : PEF
GR .gAPI                  : GR
DTC .us/ft                : DTC
RDEP .ohm.m               : RDEP
RMIC .ohm.m               : RMIC
RMED .ohm.m               : RMED
~Parameter
#==================================================================
~Ascii
# ...
 3476.8500977 3.0000000000 8.3269996643 0.0658999979 0.1796000004 2.5220999718 2.3650000095 59.439098358 78.636497498 20.000799179 2.7332999706 8.6935997009
 3477.0002441 5.0000000000 8.3938999176 0.0627999976 0.1580242217 2.3915889263 2.3076999187 59.026500702 78.751602173 22.825948715 4.0135912895 10.237029076
 3477.1501465 5.0000000000 8.4236001968 0.0491000041 0.1347833872 2.5719923973 2.3754999638 57.414798737 79.287597656 23.259922028 4.0095076561 11.959327698
 3477.3002930 5.0000000000 8.1933002472 0.0399000011 0.1246065050 2.5064117908 2.3018999100 55.686100006 80.402198792 16.829641342 3.0932526588 9.9516181946
 3477.4501953 5.0000000000 8.1263999939 0.0412999988 0.1266027689 2.6022250652 2.1138000488 55.604000092 81.193000793 14.540009499 2.6807472706 9.4324645996
 3477.6003418 5.0000000000 8.1189002991 0.0496000014 0.1282873154 2.7410442829 1.9025216103 57.669101715 81.341003418 12.162054062 2.9601244926 7.3259711266
 3477.7502441 5.0000000000 8.3418998718 0.0496999994 0.1243820786 2.9994266033 1.8173530102 60.874698639 80.089103699 14.210564613 4.5686006546 7.0465989113
 3477.9003906 5.0000000000 8.3158998489 0.0364000015 0.1133723557 2.7698256969 1.9122475386 61.657600403 78.784202576 19.806526184 8.9756612778 10.318245888
 3478.0502930 5.0000000000 8.2749996185 0.0137000000 0.1048993543 2.5324389935 2.2340555191 56.715000153 77.461807251 31.859630585 6.8750724792 17.524551392
 3478.2001953 5.0000000000 8.2601003647 -0.004400000 0.1045260206 2.4948880672 2.6975965500 48.934398651 75.503273010 50.290859222 4.0362291336 29.852739334
 3478.3500977 3.0000000000 8.1486997604 -0.017878048 0.1204999983 2.4261999130 2.9409999847 44.430698395 73.277801514 26.626600266 2.7646999359 14.771900177
 3478.5000000 3.0000000000 8.1041002274 -0.033973780 0.1349000037 2.5111999512 2.9730999470 44.321601868 69.930900574 18.368700027 2.4911999702 10.243200302
 3478.6501465 3.0000000000 8.0892000198 -0.029307643 0.1363999993 2.5236001015 2.8833999634 46.972698212 67.786903381 15.756099701 2.5768001080 8.9568996429
 3478.8000488 3.0000000000 8.0743999481 -0.022600001 0.1315000057 2.4711000919 2.7348999977 49.970699310 68.659698486 16.882600784 2.9049000740 9.5689001083
 3478.9501953 3.0000000000 8.0929002762 -0.003500000 0.1263999939 2.5655999184 2.5810000896 52.662700653 71.047500610 21.159400940 3.4235000610 11.447699547
 3479.1000977 3.0000000000 8.1189002991 0.0041000000 0.1278000027 2.5510001183 2.5171000957 54.304199219 73.888000488 28.501399994 3.8522000313 14.613400459
 3479.2502441 3.0000000000 8.2453002930 0.0114000002 0.1309999973 2.4549002647 2.6101000309 52.100898743 74.776496887 29.617300034 3.5374000072 15.119500160
 3479.4001465 3.0000000000 8.1933002472 0.0121999998 0.1349928379 2.4652369022 2.9156999588 48.644298553 73.991096497 27.096458435 3.0721759796 13.456898689
 3479.5502930 3.0000000000 8.1709995270 0.0076000001 0.1305837482 2.4265868664 3.2388999462 46.871398926 73.206901550 22.724601746 2.8743162155 10.883052826
 3479.7001953 3.0000000000 8.1709995270 -0.000200000 0.1255986989 2.4532072544 3.5023000240 45.858699799 72.763298035 24.352220535 3.0940608978 11.237317085
 3479.8500977 3.0000000000 8.1857995987 -0.009700001 0.1248078048 2.4577312469 3.6371650696 42.671501160 72.805297852 25.890562057 3.2534823418 11.797061920
 3480.0002441 3.0000000000 8.1263999939 -0.012900000 0.1296022832 2.5380187035 3.7383859158 41.944198608 73.051696777 22.427509308 2.9354467392 10.299016953
 3480.1501465 3.0000000000 8.1263999939 -0.012600000 0.1309982091 2.4270403385 3.7297096252 46.398799896 73.235000610 21.334043503 2.8419659138 9.9446411133
 3480.3002930 3.0000000000 8.2304000854 -0.007300000 0.1298846900 2.4517817497 3.7357497215 51.646499634 73.151901245 24.125057220 3.1906659603 11.813190460
 3480.4501953 3.0000000000 8.2824001312 -0.007100000 0.1204874814 2.4405627251 3.8278870583 53.720798492 73.275985718 25.016607285 3.9055087566 12.480389595
 3480.6003418 3.0000000000 8.2601003647 -0.004000000 0.1127988622 2.4789359570 4.0043506622 54.441501617 73.142097473 23.796272278 4.0342273712 11.799475670
 3480.7500000 3.0000000000 8.2936000824 0.0051850164 0.1120999977 2.4395999908 4.1581001282 59.776500702 72.771499634 25.679300308 4.2961001396 12.336099625
 3480.9001465 5.0000000000 8.3938999176 0.0176796746 0.1130999997 2.5425000191 4.3949999809 64.006896973 72.715400696 31.774799347 5.0144000053 15.516500473
 3481.0500488 5.0000000000 8.5053997040 0.0213939752 0.1137999967 2.5913999081 4.6191000938 64.099700928 72.809097290 37.196998596 5.7065000534 19.942199707
 3481.2001953 5.0000000000 8.5499000549 0.0126999998 0.1123000011 2.5286002159 4.6937999725 61.720100403 72.596397400 27.252799988 5.1117000580 15.272299767
 3481.3500977 5.0000000000 8.5499000549 -0.005100000 0.1098000035 2.6029000282 4.8310999870 58.494998932 71.179496765 23.994699478 4.8123002052 13.678000450
 3481.5002441 5.0000000000 8.4458999634 -0.010500000 0.1054999977 2.4019000530 4.5668001175 59.515499115 69.753097534 25.573799133 5.0317997932 14.991299629
 3481.6501465 5.0000000000 8.4496002197 0.0175000001 0.1151257306 2.5002374649 4.0889000893 63.787998199 69.081298828 23.559215546 5.9001889229 14.169868469
 3481.8000488 5.0000000000 8.3604001999 0.0244999994 0.1309016198 2.6457798481 4.0321998596 72.712501526 68.941596985 35.210418701 6.6314840317 22.607748032
 3481.9501953 5.0000000000 8.5128002167 0.0281000007 0.1318885982 2.6333706379 3.7611999512 77.497497559 69.973899841 31.336309433 8.1569347382 21.521009445
 3482.1000977 5.0000000000 8.5797004700 0.0078999996 0.1249029264 2.6153378487 3.8608999252 74.855201721 70.958099365 20.736679077 8.3610486984 14.844796181
 3482.2502441 5.0000000000 8.5425996780 0.0073000002 0.1267029345 2.5770375729 3.9682745934 70.627098083 71.147399902 20.232477188 7.7759470940 14.535295486
 3482.4001465 5.0000000000 8.5053997040 0.0068000001 0.1285133362 2.5383563042 4.0756683350 66.398902893 71.336799622 19.727537155 7.1897273064 14.225376129
 3482.5502930 5.0000000000 8.4458999634 0.0010000000 0.1367000043 2.3273947239 4.3022079468 60.549301147 70.918197632 18.759466171 5.9146590233 13.651647568
 3482.7001953 5.0000000000 8.3604001999 -0.005100000 0.1366904080 2.4468967915 4.5521707535 64.893898010 70.522392273 13.040377617 4.5415973663 9.8214206696
 3482.8503418 5.0000000000 8.2601003647 -0.000300000 0.1307921708 2.5065038204 4.4723639488 76.410003662 71.687713623 15.126129150 5.0945982933 11.193850517
 3483.0000000 5.0000000000 8.3493003845 0.0047916942 0.1260000020 2.6314001083 4.1438999176 84.791427612 73.657997131 22.377799988 6.3196001053 16.435199738
 3483.1501465 5.0000000000 8.4533004761 0.0070962603 0.1254000068 2.5803999901 3.7102999687 82.287696838 74.917098999 34.492198944 7.7713999748 24.678899765
 3483.3000488 3.0000000000 8.5053997040 0.0051032575 0.1291999966 2.5418000221 3.4781999588 72.312599182 75.229896545 29.254899979 5.9772000313 18.829900742
 3483.4501953 3.0000000000 8.3604001999 0.0115000000 0.1419000030 2.4623999596 3.3053998947 60.935699463 75.082603455 29.746599197 4.8681998253 16.850999832
 3483.6000977 3.0000000000 8.2824001312 0.0271000005 0.1439000070 2.4713997841 3.1616001129 50.721500397 75.233398438 21.579099655 5.5570001602 10.537500381
 3483.7500000 3.0000000000 8.3269996643 0.0359000005 0.1415999979 2.4521000385 3.2058000565 41.378200531 75.278503418 19.962999344 4.5812001228 10.415800095
 3483.9001465 3.0000000000 8.1857995987 0.0366000012 0.1398999989 2.4331998825 3.3118999004 36.193000793 75.927398682 19.472200394 3.7434000969 10.670900345
 3484.0500488 3.0000000000 8.1784000397 0.0219000001 0.1418006569 2.4652569294 3.4546999931 33.646701813 76.356903076 20.137710571 3.1491355896 11.642581940
 3484.2001953 3.0000000000 8.1597995758 0.0041000000 0.1422058493 2.4387934208 3.4988999367 33.415199280 76.522003174 16.398036957 2.8023068905 9.7893943787
 3484.3500977 3.0000000000 8.1561002731 -0.005100000 0.1458040625 2.4959867001 3.4925999641 35.390800476 76.660301208 15.863092422 2.6217334270 9.7209930420
