# LAS format log file from PETREL
# Project units are specified as depth units
#==================================================================
~Version information
VERS.   2.0:
WRAP.   NO:
#==================================================================
~Well
STRT .m      2726.1311035 :
STOP .m      3477.3107910 :
STEP .m     0.00000000 :
NULL .        -999.250000 :
COMP.           : COMPANY
WELL.  35/9-5   : WELL
FLD.            : FIELD
LOC.            : LOCATION
SRVC.           : SERVICE COMPANY
DATE.  2018-09-11 14:49:02   : Log Export Date {yyyy-MM-dd HH:mm:ss}
PROV.           : PROVINCE
UWI.   35/9-5   : UNIQUE WELL ID
API.            : API NUMBER
#==================================================================
~Curve
DEPT .m                   : DEPTH
Lithology_geolink ._      : Lithology_geolink
CALI .in                  : CALI
BS .in                    : BS
ROP .m/h                  : ROP
DRHO .g/cm3               : DRHO
THOR .ppm                 : THOR
NPHI .m3/m3               : NPHI
RHOB .g/cm3               : RHOB
PEF .b/e                  : PEF
GR .gAPI                  : GR
URAN .ppm                 : URAN
DTC .us/ft                : DTC
DTS .us/ft                : DTS
RDEP .ohm.m               : RDEP
RMIC .ohm.m               : RMIC
RMED .ohm.m               : RMED
~Parameter
#==================================================================
~Ascii
# ...
 2776.8803711 13.000000000 8.4260997772 8.5000000000 75.871719360 0.0109999999 8.4542999268 0.1939969659 2.5922999382 3.3812999725 65.823997498 0.2773999870 80.534400940 161.30322266 3.9346449375 2.0866000652 4.6765999794
 2777.0327148 13.000000000 8.4486999512 8.5000000000 74.778877258 0.0051000002 8.5971002579 0.1842157096 2.5875000954 3.4607000351 63.576301575 0.2599000037 79.145896912 157.03269958 5.1753106117 2.3812999725 4.9237999916
 2777.1850586 13.000000000 8.4260997772 8.5000000000 72.637466431 0.0023000001 8.0925998688 0.1834012866 2.5896000862 3.6117000580 62.493900299 0.5005000234 78.334899902 153.98519897 3.9907047749 2.8980998993 4.5504999161
 2777.3374023 13.000000000 8.4336996078 8.5000000000 70.571853638 0.0076000001 7.4498000145 0.1731329560 2.6119000912 3.7936999798 60.259498596 0.6140000224 77.092102051 152.62429810 3.9965748787 3.2853000164 4.2041001320
 2777.4899902 13.000000000 8.4186000824 8.5000000000 66.824470520 0.0216000006 6.9881000519 0.1722014397 2.6429998875 3.9274001122 58.698001862 0.6761999726 76.770301819 153.09979248 4.2110557556 3.5964000225 4.9751000404
 2777.6423340 13.000000000 8.4336996078 8.5000000000 71.224082947 0.0375000015 6.4758000374 0.1681065708 2.6740999222 3.9862999916 57.713500977 0.9796000123 77.018501282 154.27420044 5.5794043541 3.4616000652 5.8709998131
 2777.7946777 13.000000000 8.4412002563 8.5000000000 63.413383484 0.0436000004 6.4548001289 0.1873690635 2.6893000603 3.9804000854 56.327999115 1.0199999809 77.642303467 154.87040710 4.8898105621 3.2190999985 4.6652002335
 2777.9470215 13.000000000 8.4260997772 8.5000000000 65.524932861 0.0379000008 5.8432002068 0.1839112043 2.6953001022 3.9472000599 56.860698700 1.1392999887 79.035102844 157.09339905 4.2427735329 3.1565999985 4.5409998894
 2778.0996094 13.000000000 8.4336996078 8.5000000000 67.308067322 0.0236000009 5.8573999405 0.1797067374 2.6768000126 3.8742001057 60.078800201 1.1503000259 79.361000061 157.82839966 4.2622652054 3.3287999630 4.8807997704
 2778.2519531 13.000000000 8.4186000824 8.5000000000 62.454071045 0.0108000003 6.0032000542 0.1683182716 2.6412999630 3.7788999081 62.355800629 1.1402000189 79.680198669 158.71710205 3.6955099106 3.1784999371 4.1500000954
 2778.4042969 13.000000000 8.4486999512 8.5000000000 60.912075043 0.0043000001 6.1956000328 0.1709956825 2.6117999554 3.6975998878 65.756599426 1.4923000336 79.373001099 158.17430115 2.6672492027 3.3889999390 3.5116999149
 2778.5566406 13.000000000 8.4486999512 8.5000000000 64.406173706 0.0038999999 6.9520998001 0.1764911711 2.5999000072 3.6373000145 67.997398376 1.3695000410 77.542610168 157.77461243 4.6811647415 2.8124001026 5.1350002289
 2778.7089844 13.000000000 8.4260997772 8.5000000000 66.355644226 0.0031999999 6.7497000694 0.1860692799 2.5911002159 3.6196000576 63.229999542 1.5368000269 75.951698303 155.12480164 5.2560648918 2.8429000378 5.5615000725
 2778.8615723 13.000000000 8.4260997772 8.5000000000 63.486545563 0.0003000000 6.9569001198 0.1746184379 2.5750000477 3.5859000683 57.584598541 1.3416999578 76.747802734 154.02699280 5.6256098747 2.6094999313 8.0193004608
 2779.0139160 13.000000000 8.4260997772 8.5000000000 59.716861725 0.0004000000 6.9264998436 0.1700073779 2.5720000267 3.5711998940 56.174800873 1.0111999512 78.964103699 157.10499573 3.5454399586 3.0290000439 5.0764999390
 2779.1662598 13.000000000 8.4186000824 8.5000000000 62.758197784 0.0019000000 7.1380000114 0.1759903878 2.5799999237 3.5576999187 55.760601044 1.1650999784 80.290702820 159.94290161 3.6590123177 2.9019000530 4.3618001938
 2779.3186035 13.000000000 8.4412002563 8.5000000000 67.619422913 0.0027999999 7.3347001076 0.1926465631 2.5926001072 3.5934998989 56.539798737 0.9435999990 77.677398682 155.20480347 4.2577781677 2.8076999187 5.6377000809
 2779.4711914 13.000000000 8.4260997772 8.5000000000 70.799865723 0.0003000000 7.3772001266 0.1825163513 2.5922000408 3.6619999409 60.545600891 0.7786999941 75.946601868 153.09419250 5.1954979897 2.4804000854 4.0324001312
 2779.6235352 13.000000000 8.4186000824 8.5000000000 63.610237122 0.0016000000 7.4334001541 0.1812020838 2.6019001007 3.7799000740 61.023700714 0.7376000285 74.883697510 148.61720276 5.1292085648 2.7618000507 6.2460999489
 2779.7758789 13.000000000 8.4260997772 8.5000000000 69.562004089 0.0065000001 6.9418997765 0.1822982430 2.6150999069 3.8822999001 53.954200745 0.8865000010 74.779800415 147.04679871 5.7314329147 3.2467999458 5.6954002380
 2779.9282227 13.000000000 8.4260997772 8.5000000000 75.543968201 0.0074999998 6.4127001762 0.1774156690 2.6180999279 3.9130001068 49.241500854 0.9848999977 75.406600952 148.08299255 6.1565384865 3.5696001053 6.6121001244
 2780.0808105 13.000000000 8.4186000824 8.5000000000 67.251640320 0.0057999999 5.9675998688 0.1670166552 2.6112999916 3.8652000427 52.918899536 0.8830000162 76.736099243 149.58630371 6.4476351738 3.2980000973 5.4965000153
 2780.2331543 13.000000000 8.4336996078 8.5000000000 65.349739075 0.0006000000 5.6770000458 0.1536214799 2.5982999802 3.7776999474 56.923801422 1.0354000330 77.085800171 150.77490234 4.4051790237 3.2658998966 4.8108000755
 2780.3854980 13.000000000 8.4260997772 8.5000000000 73.995735168 -0.001200000 6.4818000793 0.1601894200 2.5920000076 3.7418000698 56.509601593 0.9591000080 76.913200378 151.31399536 4.5733246803 3.5058000088 5.3626999855
 2780.5378418 13.000000000 8.4336996078 8.5000000000 79.017387390 -0.003500000 6.5022997856 0.1747765988 2.5813000202 3.7462999821 54.246898651 0.9563999772 76.709899902 150.75970459 4.4442076683 3.6094999313 4.5427999496
 2780.6901855 13.000000000 8.4373998642 8.5000000000 77.633857727 -0.005700000 6.6469998360 0.1835718304 2.5692000389 3.7850999832 54.988601685 1.0312999487 76.474205017 150.58279419 4.5977063179 3.3543999195 4.6609997749
 2780.8427734 13.000000000 8.4412002563 8.5000000000 74.249015808 -0.005400000 6.6510000229 0.1715193838 2.5687003136 3.7834000587 58.817501068 1.0345000029 76.478500366 149.99870300 5.6296443939 3.2625999451 5.1743998528
 2780.9951172 13.000000000 8.4336996078 8.5000000000 66.815940857 -0.002800000 6.8839001656 0.1652100980 2.5787999630 3.7483000755 57.119598389 1.2372000217 76.685699463 149.94738770 5.0115947723 3.1435999870 5.4615001678
 2781.1474609 13.000000000 8.4260997772 8.5000000000 74.679130554 0.0035999999 6.3972001076 0.1630035341 2.5999999046 3.6886000633 51.907100677 1.3863999844 77.156188965 152.34309387 5.2839612961 3.0323998928 5.1079001427
 2781.2998047 13.000000000 8.4336996078 8.5000000000 70.401245117 0.0051000002 6.5157999992 0.1654919982 2.6027998924 3.6287000179 53.076099396 1.3073999882 78.426208496 154.73269653 5.4414954185 2.7111001015 5.8271999359
 2781.4523926 13.000000000 8.4260997772 8.5000000000 72.297241211 0.0059000002 6.6286997795 0.1688945442 2.6003000736 3.5776998997 57.719200134 1.3228000402 79.332901001 159.33549500 5.2897448540 2.5787999630 5.5185999870
 2781.6047363 13.000000000 8.4336996078 8.5000000000 81.458007813 0.0031999999 6.4893999100 0.1729934216 2.5836999416 3.5592000484 58.753799438 1.3803999424 80.470596313 162.81709290 4.9266819954 2.5257999897 5.8765997887
 2781.7570801 13.000000000 8.4260997772 8.5000000000 71.992782593 0.0020000001 6.9291000366 0.1845813990 2.5704998970 3.6048998833 57.103698730 1.1482000351 81.343597412 165.56900024 4.9421744347 2.5562000275 4.5399999619
 2781.9094238 13.000000000 8.4336996078 8.5000000000 72.095802307 0.0013000000 7.5274000168 0.1955648065 2.5669999123 3.6415998936 56.289398193 1.3366999626 81.505798340 165.73440552 4.1686835289 2.6387999058 4.6961002350
 2782.0620117 13.000000000 8.4260997772 8.5000000000 76.539695740 0.0009000000 7.1517000198 0.2038866878 2.5703001022 3.6498000622 58.212898254 1.5034999847 82.377197266 166.14559937 3.7300002575 2.7263998985 4.0487999916
 2782.2143555 13.000000000 8.4186000824 8.5000000000 72.419616699 0.0031000001 7.2362999916 0.2009048164 2.5831999779 3.6250998974 62.965698242 1.4675999880 81.594398499 165.56629944 3.5458943844 2.6131999493 3.7304000854
 2782.3666992 13.000000000 8.4111003876 8.5000000000 79.241142273 0.0049999999 7.4517998695 0.1957083344 2.5915000439 3.6136999130 65.486602783 1.4349999428 81.266502380 163.97691345 3.9932813644 2.5652000904 4.4713997841
