# LAS format log file from PETREL
# Project units are specified as depth units
#==================================================================
~Version information
VERS.   2.0:
WRAP.   NO:
#==================================================================
~Well
STRT .m      2535.9846191 :
STOP .m      3240.0725098 :
STEP .m     0.00000000 :
NULL .        -999.250000 :
COMP.           : COMPANY
WELL.  35/9-8   : WELL
FLD.            : FIELD
LOC.            : LOCATION
SRVC.           : SERVICE COMPANY
DATE.  2018-09-11 14:49:02   : Log Export Date {yyyy-MM-dd HH:mm:ss}
PROV.           : PROVINCE
UWI.   35/9-8   : UNIQUE WELL ID
API.            : API NUMBER
#==================================================================
~Curve
DEPT .m                   : DEPTH
Lithology_geolink ._      : Lithology_geolink
CALI .in                  : CALI
BS .in                    : BS
ROP .m/h                  : ROP
DRHO .g/cm3               : DRHO
THOR .ppm                 : THOR
NPHI .m3/m3               : NPHI
RHOB .g/cm3               : RHOB
PEF .b/e                  : PEF
GR .gAPI                  : GR
URAN .ppm                 : URAN
DTC .us/ft                : DTC
DTS .us/ft                : DTS
RDEP .ohm.m               : RDEP
RMIC .ohm.m               : RMIC
RMED .ohm.m               : RMED
~Parameter
#==================================================================
~Ascii
# ...
 2908.1455078 7.0000000000 8.5366001129 8.5000000000 76.479530334 -0.000300000 8.8738946915 0.2511000037 2.5966000557 3.1939001083 108.26580048 2.2590663433 78.158302307 138.76119995 9.8169002533 9.0035858154 10.706100464
 2908.2978516 7.0000000000 8.5335998535 8.5000000000 77.638031006 -0.004900000 9.6192016602 0.2535000145 2.5871999264 3.2855000496 110.10030365 2.4879047871 78.120208740 139.43159485 9.1255998611 8.5574493408 9.9973001480
 2908.4501953 7.0000000000 8.5452995300 8.5000000000 85.573585510 -0.008300000 10.243247032 0.2624999881 2.5803999901 3.3942000866 112.33879852 2.8028008938 78.089599609 140.26150513 9.1217002869 7.7789788246 9.9834003448
 2908.6027832 7.0000000000 8.5584001541 8.5000000000 98.939987183 -0.007600000 10.459273338 0.2723000050 2.5806000233 3.4800000191 113.03990173 3.1154782772 78.046203613 141.37260437 9.6965999603 8.2042093277 10.535099983
 2908.7551270 7.0000000000 8.5609998703 8.5000000000 104.36509705 -0.002900000 10.450670242 0.2781000137 2.5848000050 3.5090000629 111.91369629 3.3268890381 77.987503052 142.56109619 10.336299896 8.8931884766 11.126799583
 2908.9074707 7.0000000000 8.5529003143 8.5000000000 103.70480347 0.0043000001 10.307241440 0.2802999914 2.5929000378 3.4969000816 111.54470062 3.3820736408 77.896003723 143.63859558 10.627799988 9.3852081299 11.324299812
 2909.0598145 7.0000000000 8.5466995239 8.5000000000 97.629684448 0.0082999999 10.083978653 0.2804000080 2.6006000042 3.4988999367 112.85549927 3.2405889034 77.770706177 144.37579346 10.614899635 9.8268489838 11.199299812
 2909.2124023 7.0000000000 8.5497999191 8.5000000000 103.85988617 0.0027000001 10.071761131 0.2836000025 2.5992999077 3.5234000683 113.63639832 2.9204945564 77.577903748 144.07640076 10.570500374 10.044597626 11.072500229
 2909.3647461 7.0000000000 8.5544996262 8.5000000000 116.10601044 -0.007100000 10.403169632 0.2903999984 2.5931000710 3.4798998833 113.21939850 2.4194545746 77.340599060 142.85830688 10.505800247 10.074821472 10.943099976
 2909.5170898 7.0000000000 8.5549001694 8.5000000000 109.76412201 -0.013800000 10.883553505 0.2992999852 2.5924999714 3.3605999947 112.79239655 1.8298047781 77.080703735 140.84689331 10.421999931 10.088595390 10.823599815
 2909.6694336 7.0000000000 8.5565004349 8.5000000000 91.149452209 -0.013600000 11.290884018 0.3007999957 2.6010000706 3.3190000057 112.92310333 1.3963496685 76.830703735 138.90859985 10.305600166 10.023291588 10.679100037
 2909.8217773 7.0000000000 8.5550003052 8.5000000000 74.711273193 -0.010200000 11.592758179 0.2931999862 2.6082003117 3.4365000725 112.99909973 1.1779909134 76.583198547 137.62879944 10.253800392 9.8927793503 10.583100319
 2909.9743652 7.0000000000 8.5474004745 8.5000000000 78.986236572 -0.009600000 11.689928055 0.2878000140 2.6048998833 3.6064000130 112.11630249 1.1109520197 76.306800842 136.95779419 10.717800140 9.6325263977 10.996700287
 2910.1267090 7.0000000000 8.5469999313 8.5000000000 75.403541565 -0.012500000 11.230574608 0.2908999920 2.5968999863 3.7441000938 109.72000122 1.4084149599 75.972602844 136.55830383 11.623100281 10.171625137 11.833299637
 2910.2790527 7.0000000000 8.5657997131 8.5000000000 68.247802734 -0.015600000 10.591381073 0.2901999950 2.5962998867 3.8596000671 106.60880280 1.9789553881 75.557502747 136.10789490 12.180199623 11.122304916 12.343500137
 2910.4313965 6.0000000000 8.5837001801 8.5000000000 66.670143127 -0.015900001 10.330578804 0.2782000005 2.6089999676 3.9045999050 105.07800293 2.3251757622 75.066902161 135.59170532 12.327400208 11.437272072 12.472499847
 2910.5839844 6.0000000000 8.5797004700 8.5000000000 63.532806396 -0.012700000 10.254474640 0.2673999965 2.6336998940 3.8194000721 104.95680237 2.4346730709 74.569290161 135.20899963 12.529100418 11.667380333 12.654399872
 2910.7363281 6.0000000000 8.5663003922 8.5000000000 65.889442444 -0.007800000 10.090267181 0.2675000131 2.6612000465 3.6796998978 103.42729950 2.4259650707 74.219596863 135.12190247 13.947999954 11.190805435 14.076800346
 2910.8886719 6.0000000000 8.5543003082 8.5000000000 70.602249146 -0.004200000 9.6952457428 0.2739999890 2.6781001091 3.6059999466 99.685699463 2.2170059681 74.349998474 135.48539734 16.584899902 9.1377086639 16.726900101
 2911.0410156 6.0000000000 8.5431003571 8.5000000000 75.248794556 -0.004800000 9.3500766754 0.2754000127 2.6703999043 3.5794000626 96.971199036 2.0337479115 74.902603149 136.03489685 15.003000259 8.7722129822 15.152099609
 2911.1936035 6.0000000000 8.5459003448 8.5000000000 84.513832092 -0.009000000 9.2099428177 0.2748000026 2.6387000084 3.5434999466 97.622901917 2.0014734268 75.872901917 136.57090759 13.243599892 10.587251663 13.387000084
 2911.3459473 6.0000000000 8.5651998520 8.5000000000 84.941001892 -0.011300000 8.9423494339 0.2813999951 2.6043000221 3.5109999180 100.14910126 2.0558819771 76.855003357 137.02400208 12.689900398 10.821577072 12.807399750
 2911.4982910 6.0000000000 8.5697002411 8.5000000000 85.792739868 -0.007700000 8.5368881226 0.2888000011 2.5871000290 3.4985001087 102.53410339 2.2943894863 77.509597778 137.65150452 12.431099892 10.993899345 12.533699989
 2911.6506348 6.0000000000 8.5569000244 8.5000000000 85.031364441 -0.000500000 8.2802686691 0.2897000015 2.5864000320 3.5299999714 104.77359772 2.6619899273 77.944702148 138.54179382 11.979200363 10.494335175 12.067000389
 2911.8029785 6.0000000000 8.5558004379 8.5000000000 83.513168335 0.0066000000 8.4494237900 0.2879999876 2.5919001102 3.6057000160 107.44779968 2.9674625397 78.141098022 139.60809326 11.380599976 10.329293251 11.445199966
 2911.9555664 7.0000000000 8.5635995865 8.5000000000 83.331855774 0.0068000001 9.2772350311 0.2885000110 2.5934998989 3.6226999760 109.66919708 3.0686140060 78.292503357 140.38589478 10.646800041 10.321889877 10.714900017
 2912.1079102 7.0000000000 8.5629997253 8.5000000000 82.969367981 0.0023000001 10.348502159 0.2913999856 2.5933001041 3.4783000946 111.74160004 3.0105412006 78.375297546 140.30070496 10.223999977 9.2587413788 10.295200348
 2912.2602539 7.0000000000 8.5636997223 8.5000000000 81.251724243 -0.000800000 11.035908699 0.2885000110 2.6005001068 3.2539000511 113.27519989 2.9114029408 78.376098633 139.81950378 10.093899727 8.7237176895 10.170399666
 2912.4125977 7.0000000000 8.5698995590 8.5000000000 77.822257996 -0.000400000 11.290884972 0.2761000097 2.6150999069 3.1473000050 112.60800171 2.7881870270 78.226097107 139.46870422 9.9618997574 8.3600931168 10.060000420
 2912.5651855 7.0000000000 8.5665998459 8.5000000000 74.395431519 0.0004000000 11.281247139 0.2648000121 2.6247999668 3.2200000286 110.39649963 2.5924549103 78.002700806 139.60360718 9.7440996170 8.1058082581 9.8718996048
 2912.7175293 7.0000000000 8.5490999222 8.5000000000 74.836135864 -0.002300000 11.171360970 0.2640999854 2.6175999641 3.3010001183 109.23069763 2.3912703991 77.781097412 140.17219543 9.7971000671 7.9521737099 9.9946002960
 2912.8698730 7.0000000000 8.5348997116 8.5000000000 76.988250732 -0.008100000 11.209471703 0.2698999941 2.5959000587 3.3032999039 109.07550049 2.2481443882 77.639297485 140.80439758 9.7508001328 7.6861624718 10.015899658
 2913.0222168 7.0000000000 8.5431003571 8.5000000000 77.222541809 -0.014100000 11.441607475 0.2804999948 2.5722000599 3.3710000515 109.65630341 2.1510748863 77.629798889 141.54069519 9.6893997192 7.3518176079 9.9825000763
 2913.1748047 7.0000000000 8.5692996979 8.5000000000 73.397621155 -0.017400000 11.883670807 0.2933000028 2.5592000484 3.5699999332 111.01899719 2.1359729767 77.758003235 142.65840149 9.7054996490 7.5510425568 10.023799896
 2913.3271484 7.0000000000 8.5853004456 8.5000000000 72.983581543 -0.018100001 12.279695511 0.3048999906 2.5601999760 3.7578999996 112.31700134 2.2837870121 78.017196655 144.24729919 9.5790004730 7.9381756783 9.9078998566
 2913.4794922 7.0000000000 8.5780000687 8.5000000000 72.161949158 -0.017899999 12.276251793 0.3109999895 2.5692000389 3.8157000542 113.65059662 2.5877466202 78.382797241 145.93870544 9.3823995590 7.9866890907 9.7186002731
 2913.6318359 7.0000000000 8.5670995712 8.5000000000 75.571937561 -0.016600000 11.996433258 0.3084000051 2.5817000866 3.7762000561 115.00340271 2.8661708832 78.776702881 147.23460388 9.9437999725 8.8527517319 10.313899994
