# LAS format log file from PETREL
# Project units are specified as depth units
#==================================================================
~Version information
VERS.   2.0:
WRAP.   NO:
#==================================================================
~Well
STRT .m      1350.9222412 :
STOP .m      2973.9824219 :
STEP .m     0.00000000 :
NULL .        -999.250000 :
COMP.           : COMPANY
WELL.  35/9-7   : WELL
FLD.            : FIELD
LOC.            : LOCATION
SRVC.           : SERVICE COMPANY
DATE.  2018-09-11 14:49:02   : Log Export Date {yyyy-MM-dd HH:mm:ss}
PROV.           : PROVINCE
UWI.   35/9-7   : UNIQUE WELL ID
API.            : API NUMBER
#==================================================================
~Curve
DEPT .m                   : DEPTH
Lithology_geolink ._      : Lithology_geolink
CALI .in                  : CALI
BS .in                    : BS
ROP .m/h                  : ROP
DRHO .g/cm3               : DRHO
THOR .ppm                 : THOR
NPHI .m3/m3               : NPHI
RHOB .g/cm3               : RHOB
PEF .b/e                  : PEF
GR .gAPI                  : GR
URAN .ppm                 : URAN
DTC .us/ft                : DTC
DTS .us/ft                : DTS
RDEP .ohm.m               : RDEP
RMIC .ohm.m               : RMIC
RMED .ohm.m               : RMED
~Parameter
#==================================================================
~Ascii
# ...
 1892.2470703 12.000000000 12.263998985 12.250000954 73.326774597 0.1024999991  -999.250000 0.2693923116 2.5219950676 6.4353041649 33.172321320  -999.250000 103.32250214 252.86450195 1.5961742401  -999.250000 1.6909519434
 1892.3995361 12.000000000 12.263998985 12.250000954 77.099739075 0.0940999985  -999.250000 0.2795918286 2.5118081570 6.2671351433 34.558887482  -999.250000 104.62010193 249.26957703 1.5910041332  -999.250000 1.6290496588
 1892.5518799 12.000000000 12.263998985 12.250000954 78.379264832 0.0908000022  -999.250000 0.2878867090 2.5074071884 6.1668605804 36.926204681  -999.250000 105.26540375 249.23075867 1.5848098993  -999.250000 1.5910607576
 1892.7043457 12.000000000 12.326999664 12.250000954 80.052490234 0.0908999965  -999.250000 0.2876002491 2.5057015419 6.0449976921 42.275711060  -999.250000 105.92620850 251.67214966 1.5953915119  -999.250000 1.5870032310
 1892.8566895 12.000000000 12.354000092 12.250000954 80.479003906 0.0935000032  -999.250000 0.2788141072 2.5074970722 6.0597763062 42.409790039  -999.250000 105.88480377 252.34512329 1.6071810722  -999.250000 1.5929903984
 1893.0091553 12.000000000 12.390000343 12.250000954 78.083984375 0.0983000025  -999.250000 0.2651109695 2.5149941444 6.2012863159 43.708957672  -999.250000 105.17079926 252.02165222 1.6501655579  -999.250000 1.6569486856
 1893.1614990 12.000000000 12.354000092 12.250000954 75.262466431 0.1000000015  -999.250000 0.2523102462 2.5195963383 6.2342739105 45.108879089  -999.250000 104.77159882 250.95045471 1.6640889645  -999.250000 1.6869759560
 1893.3139648 12.000000000 12.300000191 12.250000954 69.488189697 0.0987000018  -999.250000 0.2318164110 2.5254952908 6.1624574661 45.299846649  -999.250000 103.95520020 246.04730225 1.6673973799  -999.250000 1.6570239067
 1893.4663086 12.000000000 12.281999588 12.250000954 66.502624512 0.0935000032  -999.250000 0.2302012742 2.5237014294 6.0834631920 42.891929626  -999.250000 103.64089966 243.88912964 1.6641026735  -999.250000 1.6350176334
 1893.6187744 12.000000000 12.300000191 12.250000954 62.270339966 0.0793000013  -999.250000 0.2440888733 2.5173048973 6.0062618256 35.555877686  -999.250000 102.99060059 242.01840210 1.7117618322  -999.250000 1.7778855562
 1893.7711182 12.000000000 12.263998985 12.250000954 61.023620605 0.0768000036  -999.250000 0.2534924746 2.5202975273 6.0384740829 33.511634827  -999.250000 102.75439453 241.34715271 1.7495697737  -999.250000 1.8949062824
 1893.9235840 12.000000000 12.263998985 12.250000954 60.465881348 0.0754999965  -999.250000 0.2706862390 2.5273942947 6.1131405830 35.238616943  -999.250000 102.76090240 239.65626526 1.7689845562  -999.250000 1.9279735088
 1894.0759277 12.000000000 12.156000137 12.250000954 61.909446716 0.0706000030  -999.250000 0.2911835909 2.5199060440 6.0666370392 36.728805542  -999.250000 103.44400024 239.93756104 1.7191399336  -999.250000 1.8580561876
 1894.2283936 12.000000000 12.182999611 12.250000954 61.581367493 0.0719000027  -999.250000 0.3101848066 2.5197999477 6.0528111458 42.685226440  -999.250000 104.34860229 240.18890381 1.6917219162  -999.250000 1.8310215473
 1894.3807373 12.000000000 12.156000137 12.250000954 60.892387390 0.0719000027  -999.250000 0.3474701047 2.5120062828 6.0529999733 42.170413971  -999.250000 105.73680115 245.06019592 1.6564282179  -999.250000 1.8000247478
 1894.5330811 12.000000000 12.119999886 12.250000954 61.417324066 0.0680000037  -999.250000 0.3567850888 2.4941287041 5.9513630867 44.646030426  -999.250000 106.76599884 251.47460938 1.6334367990  -999.250000 1.7860224247
 1894.6855469 12.000000000 11.795000076 12.250000954 62.532806396 0.0658999979  -999.250000 0.3645937443 2.4468379021 5.2967247963 53.333038330  -999.250000 109.01280212 267.96139526 1.4646352530  -999.250000 1.5481907129
 1894.8378906 12.000000000 11.975000381 12.250000954 66.076110840 0.0738999993  -999.250000 0.3659977615 2.4403104782 4.9643321037 63.713363647  -999.250000 110.70729828 273.91946411 1.3581706285  -999.250000 1.3732802868
 1894.9903564 12.000000000 11.649999619 12.250000954 73.228347778 0.0864999965  -999.250000 0.3656003177 2.4491927624 4.9412178993 78.767936707  -999.250000 114.30300140 286.73123169 1.2164134979  -999.250000 1.1751586199
 1895.1427002 12.000000000 11.685999870 12.250000954 76.640419006 0.0874999985  -999.250000 0.3675968051 2.4505977631 5.0424375534 79.738464355  -999.250000 115.68460083 290.59921265 1.1761643887  -999.250000 1.1140975952
 1895.2951660 12.000000000 11.649999619 12.250000954 83.464569092 0.0857999995  -999.250000 0.3678997755 2.4475023746 5.1613044739 80.988998413  -999.250000 117.68460083 294.71081543 1.1559162140  -999.250000 1.0900192261
 1895.4475098 12.000000000 11.685999870 12.250000954 83.530181885 0.0855000019  -999.250000 0.3654019833 2.4473001957 5.1972713470 80.830131531  -999.250000 118.38249969 293.46691895 1.1602964401  -999.250000 1.1299679279
 1895.5999756 12.000000000 11.739999771 12.250000954 83.661415100 0.0812999979  -999.250000 0.3538092971 2.4474997520 5.2686429024 79.221290588  -999.250000 119.60700226 287.06503296 1.1605997086  -999.250000 1.1679695845
 1895.7523193 12.000000000 12.064999580 12.250000954 83.759841919 0.0768999979  -999.250000 0.3467057049 2.4460012913 5.2297315598 77.341499329  -999.250000 119.76970673 283.09768677 1.1515072584  -999.250000 1.1550103426
 1895.9047852 12.000000000 12.159999847 12.250000954 84.022315979 0.0741999969  -999.250000 0.3494977653 2.4469993114 5.0849156380 79.768051147  -999.250000 119.67759705 277.57681274 1.1231228113  -999.250000 1.1020424366
 1896.0571289 12.000000000 11.975000381 12.250000954 83.038055420 0.0772000030  -999.250000 0.3634887934 2.4525954723 5.0690126419 80.879104614  -999.250000 118.70580292 275.98019409 1.1154061556  -999.250000 1.0820159912
 1896.2095947 12.000000000 12.088000298 12.250000954 81.561683655 0.0838000029  -999.250000 0.3867813349 2.4659893513 5.2061896324 82.079040527  -999.250000 117.04699707 275.11090088 1.1110035181  -999.250000 1.0715084076
 1896.3619385 12.000000000 12.020000458 12.250000954 81.069549561 0.0856000036  -999.250000 0.3920957744 2.4704964161 5.2802410126 81.970092773  -999.250000 116.60769653 275.30474854 1.1095012426  -999.250000 1.0680028200
 1896.5142822 12.000000000 11.975000381 12.250000954 85.203407288 0.0798999965  -999.250000 0.3740290105 2.4626126289 5.4803791046 75.111000061  -999.250000 116.16870117 273.48211670 1.1251748800  -999.250000 1.1129280329
 1896.6667480 12.000000000 11.975000381 12.250000954 87.270339966 0.0785999969  -999.250000 0.3631087244 2.4520084858 5.4200487137 73.111595154  -999.250000 116.27199554 271.17764282 1.1453838348  -999.250000 1.1729519367
 1896.8190918 12.000000000 11.975000381 12.250000954 88.746719360 0.0864999965  -999.250000 0.3576088250 2.4456102848 5.3537063599 77.862380981  -999.250000 116.74640656 263.94338989 1.1808431149  -999.250000 1.2349007130
 1896.9715576 12.000000000 11.906999588 12.250000954 89.501312256 0.0900999978  -999.250000 0.3588989675 2.4458997250 5.3745832443 79.998291016  -999.250000 116.79029846 259.05441284 1.1626147032  -999.250000 1.1660553217
 1897.1239014 12.000000000 12.161999702 12.250000954 92.847770691 0.0878999978  -999.250000 0.3737761378 2.4417066574 5.3411536217 79.830276489  -999.250000 116.64160156 250.34606934 1.1547126770  -999.250000 1.1520223618
 1897.2763672 12.000000000 12.156000137 12.250000954 97.637794495 0.0790000036  -999.250000 0.3905865252 2.4355049133 5.0476355553 80.289634705  -999.250000 115.93620300 250.69540405 1.1585968733  -999.250000 1.1819759607
 1897.4287109 12.000000000 12.182999611 12.250000954 100.75459290 0.0785000026  -999.250000 0.3882019520 2.4368987083 4.9497780800 81.459060669  -999.250000 115.57789612 252.34217834 1.1622970104  -999.250000 1.1959887743
 1897.5811768 12.000000000 12.119999886 12.250000954 104.19947815 0.0825000033  -999.250000 0.3663175106 2.4389982224 5.0216422081 78.412445068  -999.250000 115.70050049 257.73190308 1.1686948538  -999.250000 1.2129864693
 1897.7335205 12.000000000 11.902999878 12.250000954 104.49475098 0.0860999972  -999.250000 0.3574071229 2.4397993088 5.1523952484 77.630622864  -999.250000 115.80889893 260.11907959 1.1650029421  -999.250000 1.2010096312
