# LAS format log file from PETREL
# Project units are specified as depth units
#==================================================================
~Version information
VERS.   2.0:
WRAP.   NO:
#==================================================================
~Well
STRT .m      1350.9222412 :
STOP .m      2973.9824219 :
STEP .m     0.00000000 :
NULL .        -999.250000 :
COMP.           : COMPANY
WELL.  35/9-7   : WELL
FLD.            : FIELD
LOC.            : LOCATION
SRVC.           : SERVICE COMPANY
DATE.  2018-09-11 14:49:02   : Log Export Date {yyyy-MM-dd HH:mm:ss}
PROV.           : PROVINCE
UWI.   35/9-7   : UNIQUE WELL ID
API.            : API NUMBER
#==================================================================
~Curve
DEPT .m                   : DEPTH
Lithology_geolink ._      : Lithology_geolink
CALI .in                  : CALI
BS .in                    : BS
ROP .m/h                  : ROP
DRHO .g/cm3               : DRHO
THOR .ppm                 : THOR
NPHI .m3/m3               : NPHI
RHOB .g/cm3               : RHOB
PEF .b/e                  : PEF
GR .gAPI                  : GR
URAN .ppm                 : URAN
DTC .us/ft                : DTC
DTS .us/ft                : DTS
RDEP .ohm.m               : RDEP
RMIC .ohm.m               : RMIC
RMED .ohm.m               : RMED
~Parameter
#==================================================================
~Ascii
# ...
 2754.9833984 7.0000000000 8.7292995453 8.5000000000 33.792652130 -0.002200000 10.202605247 0.2898355126 2.5283663273 3.4114234447 108.48896027 1.9001811743 82.940399170 154.34010315 13.770957947 15.609140396 14.766472816
 2755.1359863 7.0000000000 8.7185001373 8.5000000000 34.186351776 0.0005000000 9.7894601822 0.2902992070 2.5393824577 3.5230209827 109.61539459 1.8742417097 82.677597046 153.58819580 13.946419716 16.380268097 15.029080391
 2755.2883301 6.0000000000 8.7156000137 8.5000000000 34.744094849 0.0026000000 9.7898979187 0.3001841307 2.5458896160 3.5820055008 110.28602600 1.6908942461 82.122802734 154.39419556 14.174035072 16.109436035 15.173469543
 2755.4406738 6.0000000000 8.7199001312 8.5000000000 35.170604706 0.0015000000 10.093312263 0.3064898849 2.5441029072 3.4893488884 109.17498779 1.4453936815 81.191810608 153.61285400 14.233405113 15.666310310 15.284322739
 2755.5930176 6.0000000000 8.7329998016 8.5000000000 37.270339966 -0.000500000 10.440443993 0.3033051193 2.5420033932 3.3034980297 107.35701752 1.3089183569 80.553100586 154.36228943 14.356602669 16.888536453 15.427969933
 2755.7453613 6.0000000000 8.7482995987 8.5000000000 38.976379395 -0.000200000 10.620622635 0.2990137637 2.5486786366 3.1312520504 106.08597565 1.3406972885 79.651199341 154.95431519 14.569417000 16.951704025 15.579015732
 2755.8979492 6.0000000000 8.7525997162 8.5000000000 42.060367584 0.0035000001 10.491807938 0.3052898943 2.5635762215 3.0832760334 105.12623596 1.5450721979 79.026298523 155.08290100 14.654764175 17.014499664 15.764403343
 2756.0502930 6.0000000000 8.7426996231 8.5000000000 43.405509949 0.0063999998 10.034533501 0.3173806071 2.5736837387 3.2243735790 103.59915161 1.8878502846 78.429206848 154.18772888 14.905897141 17.615634918 15.966775894
 2756.2026367 6.0000000000 8.7179002762 8.5000000000 43.274276733 0.0049999999 9.3994188309 0.3288815916 2.5682089329 3.4776937962 101.54109955 2.3001391888 77.986808777 152.67652893 15.315443039 18.285926819 16.420373917
 2756.3549805 6.0000000000 8.6782999039 8.5000000000 41.765090942 0.0010000000 8.7732076645 0.3363760114 2.5508558750 3.6581220627 100.41450500 2.6993205547 77.743797302 150.15548706 15.707742691 19.231468201 16.923088074
 2756.5075684 6.0000000000 8.6321001053 8.5000000000 38.418636322 0.0008000000 8.4010944366 0.3371987045 2.5379207134 3.6553053856 101.76053619 2.9952268600 77.791900635 149.24034119 16.090587616 20.196655273 17.228610992
 2756.6599121 7.0000000000 8.5947999954 8.5000000000 36.581363678 0.0070000002 8.4766778946 0.3274157047 2.5408952236 3.5197176933 104.19878387 3.1430635452 78.137496948 149.02883911 16.239162445 20.121622086 17.464622498
 2756.8122559 7.0000000000 8.5768995285 8.5000000000 33.497375488 0.0147000002 8.9556312561 0.3209104240 2.5543782711 3.3619530201 105.41934967 3.1480922699 78.519203186 149.05883789 16.099325180 15.483644485 17.323726654
 2756.9645996 7.0000000000 8.5808000565 8.5000000000 32.250656128 0.0164999999 9.6169786453 0.3214980960 2.5656638145 3.2792646885 105.78742218 3.0389504433 79.123001099 150.14660645 15.968818665 8.1508169174 17.128026962
 2757.1171875 7.0000000000 8.5944995880 8.5000000000 32.053806305 0.0107000005 10.166321754 0.3217995167 2.5668981075 3.3195350170 106.79618073 2.8154580593 79.853103638 151.44502258 15.819938660 9.2281332016 17.098646164
 2757.2695313 7.0000000000 8.5985002518 8.5000000000 33.136486053 0.0024000001 10.386447906 0.3197033703 2.5585134029 3.4410052299 107.31955719 2.4926176071 80.546096802 153.91923523 15.594261169 14.150002480 16.801277161
 2757.4218750 7.0000000000 8.5958003998 8.5000000000 35.498687744 -0.000700000 10.338677406 0.3175035119 2.5496141911 3.5355486870 105.63990021 2.1153049469 80.739898682 154.05928040 15.399911880 15.706514359 16.577857971
 2757.5742188 7.0000000000 8.6037998199 8.5000000000 38.123359680 0.0030000000 10.082811356 0.3131070733 2.5469043255 3.5493781567 103.24504089 1.7445939779 80.780197144 154.14546204 15.113359451 16.048454285 16.321311951
 2757.7265625 7.0000000000 8.6168003082 8.5000000000 37.696849823 0.0091000004 9.6750078201 0.3148942590 2.5465011597 3.5268721581 103.31795502 1.4546289444 80.476600647 154.23651123 15.341466904 15.655064583 16.477298737
 2757.8791504 7.0000000000 8.6201000214 8.5000000000 36.811023712 0.0121999998 9.2946081161 0.3338695467 2.5408091545 3.4689927101 105.61601257 1.2813766003 80.308998108 155.16221619 15.928858757 17.705108643 17.242374420
 2758.0314941 7.0000000000 8.6127004623 8.5000000000 35.728347778 0.0137999998 9.0585775375 0.3533687294 2.5360076427 3.3430020809 107.26645660 1.2368710041 80.227996826 155.42547607 16.467535019 19.964378357 17.872591019
 2758.1838379 7.0000000000 8.6071996689 8.5000000000 33.595798492 0.0164000001 8.9007530212 0.3373258114 2.5402929783 3.2171018124 106.54026794 1.3430294991 80.035499573 155.28143311 16.512128830 20.472200394 17.890472412
 2758.3361816 7.0000000000 8.6106004715 8.5000000000 33.366142273 0.0170000009 8.7315425873 0.3011161685 2.5485734940 3.2336463928 104.23818207 1.5602033138 80.115501404 156.00227356 15.986986160 18.557699203 17.437753677
 2758.4887695 6.0000000000 8.6195001602 8.5000000000 32.349079132 0.0103000002 8.6683006287 0.2858243585 2.5461039543 3.4064226151 101.89754486 1.7292298079 79.903503418 155.96856689 15.440873146 15.810799599 16.791734695
 2758.6411133 6.0000000000 8.6205997467 8.5000000000 31.824144363 -0.001400000 8.8649845123 0.2981801331 2.5312237740 3.5883083344 100.87733459 1.7492682934 79.852897644 155.96969604 14.732036591 14.701100349 16.126667023
 2758.7934570 6.0000000000 8.6117000580 8.5000000000 29.822834015 -0.007400000 9.2907171249 0.3146735728 2.5207169056 3.6254408360 101.21286011 1.6693283319 79.802200317 155.97090149 14.092225075 14.258500099 15.468055725
 2758.9458008 6.0000000000 8.6056003571 8.5000000000 28.379262924 -0.005700000 9.8111314774 0.3166936040 2.5236904621 3.5009996891 101.46838379 1.5020366907 80.121696472 155.13786316 13.880177498 14.127900124 15.198960304
 2759.0983887 6.0000000000 8.6098003387 8.5000000000 27.985563278 0.0014000000 10.339255333 0.3116081655 2.5384764671 3.3184924126 100.87824249 1.2231467962 80.885498047 155.48194885 13.677124977 14.083800316 15.074798584
 2759.2507324 6.0000000000 8.6198997498 8.5000000000 29.068243027 0.0087000001 10.714099884 0.3127980530 2.5595662594 3.1606528759 100.37580872 0.9545304179 81.409202576 155.21711731 13.472927094 13.668000221 14.804134369
 2759.4030762 6.0000000000 8.6260004044 8.5000000000 31.266403198 0.0082999999 10.722088814 0.3198886216 2.5816645622 3.0719420910 100.39855957 0.8206142783 81.444396973 156.71559143 13.150516510 13.481800079 14.494595528
 2759.5554199 6.0000000000 8.6248998642 8.5000000000 32.349079132 -0.000600000 10.370164871 0.3166052699 2.5948786736 3.1225187778 99.536079407 0.7943418622 81.284301758 156.29447937 12.955612183 13.602399826 14.342843056
 2759.7077637 6.0000000000 8.6138000488 8.5000000000 32.349079132 -0.010500000 9.9105730057 0.3019470274 2.5815429688 3.3280405998 97.848709106 0.8767353296 81.184799194 155.55915833 13.016503334 14.314700127 14.331037521
 2759.8603516 6.0000000000 8.5986003876 8.5000000000 31.266403198 -0.012700000 9.4288702011 0.2931140959 2.5433611870 3.5862865448 97.347595215 1.1221065521 81.033996582 155.82186890 13.188524246 16.143699646 14.612447739
 2760.0126953 6.0000000000 8.5900001526 8.5000000000 27.919948578 0.0007000000 8.8318576813 0.2917022407 2.5098536015 3.7744987011 98.927070618 1.5127735138 81.228698730 156.84455872 13.725937843 15.486599922 15.227313995
 2760.1650391 6.0000000000 8.5866003036 8.5000000000 25.688976288 0.0308999997 8.2089986801 0.2930977643 2.5034103394 3.8218243122 101.27552795 1.9606821537 81.065299988 156.81784058 14.038699150 14.523300171 15.492376328
 2760.3173828 6.0000000000 8.5826997757 8.5000000000 23.458005905 0.0540000014 7.7327265739 0.2987817526 2.5107762814 3.7672755718 102.27041626 2.3949084282 81.238296509 155.69271851 14.011389732 13.858400345 15.536560059
 2760.4699707 6.0000000000 8.5838003159 8.5000000000 23.458005905 0.0586999990 7.3712778091 0.3084844351 2.5230801105 3.7038016319 101.80934906 2.7631111145 81.390403748 154.52516174 14.060919762 13.626700401 15.514935493
