# LAS format log file from PETREL
# Project units are specified as depth units
#==================================================================
~Version information
VERS.   2.0:
WRAP.   NO:
#==================================================================
~Well
STRT .m      2535.9846191 :
STOP .m      3240.0725098 :
STEP .m     0.00000000 :
NULL .        -999.250000 :
COMP.           : COMPANY
WELL.  35/9-8   : WELL
FLD.            : FIELD
LOC.            : LOCATION
SRVC.           : SERVICE COMPANY
DATE.  2018-09-11 14:49:02   : Log Export Date {yyyy-MM-dd HH:mm:ss}
PROV.           : PROVINCE
UWI.   35/9-8   : UNIQUE WELL ID
API.            : API NUMBER
#==================================================================
~Curve
DEPT .m                   : DEPTH
Lithology_geolink ._      : Lithology_geolink
CALI .in                  : CALI
BS .in                    : BS
ROP .m/h                  : ROP
DRHO .g/cm3               : DRHO
THOR .ppm                 : THOR
NPHI .m3/m3               : NPHI
RHOB .g/cm3               : RHOB
PEF .b/e                  : PEF
GR .gAPI                  : GR
URAN .ppm                 : URAN
DTC .us/ft                : DTC
DTS .us/ft                : DTS
RDEP .ohm.m               : RDEP
RMIC .ohm.m               : RMIC
RMED .ohm.m               : RMED
~Parameter
#==================================================================
~Ascii
# ...
 2767.1755371 7.0000000000 8.5094995499 8.5000000000  -999.250000 -0.005300000 10.919535637 0.3558999896 2.5201001167 3.6902999878 107.98229980 4.1128396988 82.763702393 150.71769714 13.469099998 13.469738007 13.570599556
 2767.3278809 7.0000000000 8.5069999695 8.5000000000  -999.250000 -0.002700000 10.754104614 0.3560000062 2.5216000080 3.5102000237 109.20809937 4.1375317574 82.998703003 151.65159607 13.341699600 13.301918983 13.513500214
 2767.4802246 7.0000000000 8.5045003891 8.5000000000  -999.250000 0.0006000000 10.382991791 0.3555000126 2.5227999687 3.2448999882 111.02269745 4.2197027206 83.302803040 153.03950500 13.167799950 10.633990288 13.394499779
 2767.6328125 7.0000000000 8.5045995712 8.5000000000  -999.250000 0.0018000000 10.065836906 0.3540999889 2.5206999779 3.0151000023 111.78379822 4.2836503983 83.692100525 154.69529724 12.989600182 10.132763863 13.257200241
 2767.7851563 7.0000000000 8.5101003647 8.5000000000  -999.250000 -0.000600000 9.9215040207 0.3560000062 2.5176000595 2.9495000839 111.43900299 4.2993984222 84.134811401 156.38589478 12.474599838 11.119615555 12.798299789
 2767.9375000 7.0000000000 8.5166997910 8.5000000000  -999.250000 -0.003700000 9.8618040085 0.3621999919 2.5162999630 3.0966999531 110.85919952 4.2982501984 84.534797668 157.86860657 11.741800308 11.875885010 12.098299980
 2768.0898438 7.0000000000 8.5214004517 8.5000000000  -999.250000 -0.007100000 10.176781654 0.3632999957 2.5120999813 3.3096001148 111.52480316 4.2045712471 84.772300720 158.81329346 11.077500343 11.053440094 11.483200073
 2768.2421875 7.0000000000 8.5284004211 8.5000000000  -999.250000 -0.009600000 11.038761139 0.3641000092 2.5020999908 3.4021000862 113.61100006 3.9370613098 84.902503967 159.36650085 10.717399597 9.2702713013 11.201399803
 2768.3947754 7.0000000000 8.5341997147 8.5000000000  -999.250000 -0.010200000 11.825445175 0.3711999953 2.4895000458 3.3926000595 115.88529968 3.6632368565 84.986701965 159.43170166 11.062399864 8.4483165741 11.606200218
 2768.5471191 7.0000000000 8.5295000076 8.5000000000  -999.250000 -0.009200000 12.151182175 0.3808999956 2.4795999527 3.3856999874 116.85600281 3.5187108517 85.115501404 159.31170654 11.658599854 10.137417793 12.237500191
 2768.6994629 7.0000000000 8.5185003281 8.5000000000  -999.250000 -0.007300000 12.264671326 0.3783000112 2.4760999680 3.3659999371 115.84809875 3.4006586075 85.349296570 158.92770386 11.885600090 11.269715309 12.439100266
 2768.8518066 7.0000000000 8.5136995316 8.5000000000  -999.250000 -0.005200000 12.372089386 0.3605999947 2.4791998863 3.2708001137 113.83300018 3.2500817776 85.607398987 158.42379761 10.967900276 11.034457207 11.439599991
 2769.0043945 7.0000000000 8.5160999298 8.5000000000  -999.250000 -0.003800000 12.552582741 0.3531000018 2.4851000309 3.1338999271 112.99030304 3.1138257980 85.800903320 157.65991211 10.543499947 13.564509392 10.955800056
 2769.1567383 7.0000000000 8.5173997879 8.5000000000  -999.250000 -0.004200000 12.734585762 0.3569000065 2.4888000488 3.0431001186 113.87460327 2.9969623089 85.914497375 156.48010254 11.916600227 14.345326424 12.320500374
 2769.3090820 7.0000000000 8.5146999359 8.5000000000  -999.250000 -0.006100000 12.975487709 0.3544000089 2.4918000698 3.0359001160 113.40049744 2.8486218452 85.944702148 153.93170166 12.342300415 13.860757828 12.725000381
 2769.4614258 6.0000000000 8.5079002380 8.5000000000  -999.250000 -0.007400000 13.090511322 0.3445999920 2.4981000423 3.1303999424 110.59600067 2.6752834320 85.994796753 150.28019714 11.307000160 12.093044281 11.624799728
 2769.6140137 6.0000000000 8.4935998917 8.5000000000  -999.250000 -0.007000000 11.843784332 0.3337999880 2.5032000542 3.3464999199 105.07460022 2.6643247604 86.184997559 145.86050415 11.080300331 13.868971825 11.369700432
 2769.7663574 6.0000000000 8.4713001251 8.5000000000  -999.250000 -0.007400000 9.4367389679 0.3046999872 2.4881000519 3.5910000801 95.174102783 2.4219219685 86.562400818 142.02130127 11.754199982 15.161414146 12.049900055
 2769.9187012 6.0000000000 8.4503002167 8.5000000000  -999.250000 -0.010500000 7.1528997421 0.2578000128 2.4432001114 3.7276999950 80.296096802 1.8745787144 87.280502319 140.17019653 11.994799614 10.800963402 12.286100388
 2770.0710449 5.0000000000 8.4451999664 8.5000000000  -999.250000 -0.012700000 5.2189321518 0.2113000005 2.3873999119 3.7019999027 66.091903687 1.6745345592 88.380996704 140.52940369 13.353799820 5.7304787636 13.668199539
 2770.2233887 5.0000000000 8.4479999542 8.5000000000  -999.250000 -0.011700000 3.6801548004 0.1758999974 2.3417000771 3.5193998814 56.786701202 1.7584729195 89.908096313 143.12800598 28.515699387 4.9073991776 28.942100525
 2770.3759766 5.0000000000 8.4464998245 8.5000000000  -999.250000 -0.009700001 2.7790639400 0.1554999948 2.3071999550 3.2953000069 51.686401367 1.8039022684 91.632003784 147.25289917 99.297897339 5.0312037468 99.197097778
 2770.5283203 1.0000000000 8.4455003738 8.5000000000  -999.250000 -0.009600000 2.5818457603 0.1504999995 2.2753999233 3.1868000031 49.860000610 1.8047405481 93.134498596 151.99029541 167.20790100 4.9070487022 164.34339905
 2770.6806641 1.0000000000 8.4470996857 8.5000000000  -999.250000 -0.011500000 3.1742322445 0.1591999978 2.2444999218 3.2077999115 53.613399506 1.8924418688 93.903297424 156.19360352 153.79899597 4.5013442039 149.26780701
 2770.8330078 1.0000000000 8.4416999817 8.5000000000  -999.250000 -0.013500000 5.1304230690 0.1782999933 2.2216000557 3.2497000694 62.976699829 1.9803192616 93.871101379 159.04550171 110.26190186 4.5287299156 105.67960358
 2770.9855957 1.0000000000 8.4333000183 8.5000000000  -999.250000 -0.013900000 8.0814294815 0.2011000067 2.2179999352 3.2658998966 74.101997375 1.6789946556 93.020301819 159.45750427 58.340698242 4.3599653244 55.236801147
 2771.1379395 1.0000000000 8.4313001633 8.5000000000  -999.250000 -0.012400000 10.740491867 0.2226999998 2.2423999310 3.3108999729 83.958396912 1.1473898888 91.770599365 157.79260254 27.726699829 4.1314754486 26.206499100
 2771.2902832 5.0000000000 8.4384002686 8.5000000000  -999.250000 -0.008100000 12.043160439 0.2444999963 2.2960000038 3.4130001068 89.503799438 0.8919765949 90.028198242 153.37530518 19.170999527 4.3663830757 18.226900101
 2771.4426270 5.0000000000 8.4448995590 8.5000000000  -999.250000 -0.001600000 11.891539574 0.2596000135 2.3647999763 3.5195999146 89.163597107 0.9400832057 87.823402405 147.51899719 15.747400284 5.0395631790 15.041600227
 2771.5952148 5.0000000000 8.4457998276 8.5000000000  -999.250000 0.0049999999 10.352133751 0.2425000072 2.4237000942 3.5940999985 84.762702942 1.1789295673 84.517898560 140.40699768 14.419699669 4.2067122459 13.824000359
 2771.7475586 5.0000000000 8.4476995468 8.5000000000  -999.250000 0.0077000000 8.2420129776 0.2020000070 2.4593000412 3.6805000305 79.069297791 1.2187770605 80.520698547 133.17509460 14.012200356 4.2090268135 13.454600334
 2771.8999023 5.0000000000 8.4500999451 8.5000000000  -999.250000 0.0097000012 6.7531857491 0.1689999998 2.4890999794 3.8736000061 72.457000732 0.8927105665 75.767097473 126.51789856 13.183300018 3.2283966541 12.671500206
 2772.0522461 2.0000000000 8.4477996826 8.5000000000  -999.250000 0.0137000000 5.6209568977 0.1479000002 2.5278999805 4.2551999092 65.224899292 0.7123971581 71.035598755 120.49960327 13.194899559 2.9175362587 12.672200203
 2772.2045898 2.0000000000 8.4587001801 8.5000000000  -999.250000 0.0176999997 4.4716653824 0.1292999983 2.5683999062 4.7175002098 58.696201324 0.7105442286 67.222801208 116.48539734 15.886199951 4.5600829124 15.198100090
 2772.3571777 2.0000000000 8.4856004715 8.5000000000  -999.250000 0.0182000007 3.8265612125 0.1133000031 2.5947999954 4.9649000168 55.110500336 0.6757603288 64.424697876 114.26180267 25.185899734 4.7307152748 24.015699387
 2772.5095215 16.000000000 8.5011997223 8.5000000000  -999.250000 0.0137999998 3.7208423615 0.1134999990 2.5982000828 4.9288997650 55.536598206 0.6633841395 63.689804077 115.34300232 54.656200409 22.481908798 51.354499817
 2772.6618652 16.000000000 8.5004997253 8.5000000000  -999.250000 0.0055000000 3.6229026318 0.1384000033 2.5776000023 4.7691998482 58.300701141 0.6537944078 64.402702332 118.29830170 89.959999084 94.465347290 82.820503235
