# LAS format log file from PETREL
# Project units are specified as depth units
#==================================================================
~Version information
VERS.   2.0:
WRAP.   NO:
#==================================================================
~Well
STRT .m      1725.0000000 :
STOP .m      3754.9504395 :
STEP .m     0.00000000 :
NULL .        -999.250000 :
COMP.           : COMPANY
WELL.  35/9-6 S   : WELL
FLD.            : FIELD
LOC.            : LOCATION
SRVC.           : SERVICE COMPANY
DATE.  2018-09-11 14:49:02   : Log Export Date {yyyy-MM-dd HH:mm:ss}
PROV.           : PROVINCE
UWI.   35/9-6 S   : UNIQUE WELL ID
API.            : API NUMBER
#==================================================================
~Curve
DEPT .m                   : DEPTH
Lithology_geolink ._      : Lithology_geolink
CALI .in                  : CALI
DRHO .g/cm3               : DRHO
NPHI .m3/m3               : NPHI
RHOB .g/cm3               : RHOB
PEF .b/e                  : PEF
GR .gAPI                  : GR
DTC .us/ft                : DTC
RDEP .ohm.m               : RDEP
RMIC .ohm.m               : RMIC
RMED .ohm.m               : RMED
~Parameter
#==================================================================
~Ascii
# ...
 3209.1000977 7.0000000000 8.9511995316 -0.002300000 0.2854999900 2.5488998890 3.7026998997 107.13120270 89.098609924 6.6842999458 7.0601000786 6.8186001778
 3209.2500000 7.0000000000 8.9511995316 -0.002300000 0.2755999863 2.5606999397 3.6380000114 107.41139984 89.255096436 7.4331998825 7.2451000214 7.4618000984
 3209.4001465 7.0000000000 8.9624004364 -0.003300000 0.2660000026 2.5492999554 3.6689999104 106.90460205 89.262001038 7.6022000313 7.1799001694 7.5866999626
 3209.5500488 7.0000000000 8.9177999496 -0.005200000 0.2605000138 2.5573999882 3.9014999866 108.14179993 89.072898865 7.4899001122 7.1852998734 7.4942998886
 3209.7001953 7.0000000000 8.8955001831 -0.006000000 0.2601000071 2.5485999584 3.6019001007 107.94139862 88.779899597 8.1469001770 7.1954998970 8.0162000656
 3209.8500977 7.0000000000 8.8843002319 -0.004400000 0.2597053647 2.5530204773 3.6580998898 106.39990234 88.463607788 8.2527189255 7.3417911530 8.1317062378
 3210.0002441 7.0000000000 8.8955001831 -0.002500000 0.2630079985 2.5655841827 3.6256000996 105.29460144 87.664802551 8.5713615417 7.2136249542 8.3812828064
 3210.1501465 7.0000000000 8.8843002319 -0.001000000 0.2679139972 2.5558960438 3.6010999680 105.57939911 87.161598206 8.6096477509 7.2906184196 8.4325590134
 3210.3002930 7.0000000000 8.8843002319 -0.000200000 0.2765253484 2.5534574986 3.5508999825 105.73880005 86.992095947 8.6386604309 7.6094827652 8.5305576324
 3210.4501953 7.0000000000 8.8732004166 0.0000000000 0.2842916846 2.5710818768 3.6296851635 104.21070099 86.893707275 8.6267299652 7.9720230103 8.5788269043
 3210.6003418 7.0000000000 8.8843002319 -0.000700000 0.2791840434 2.5600178242 3.6838173866 104.04560089 86.825599670 8.7056808472 7.9864292145 8.6561164856
 3210.7502441 7.0000000000 8.8620004654 -0.001200000 0.2742912173 2.5655047894 4.3013596535 105.86750031 86.732742310 8.4854288101 8.0868263245 8.4772396088
 3210.8999023 7.0000000000 8.8620004654 -0.001798049 0.2689000070 2.5685000420 3.7862000465 106.83614349 86.514396667 8.5031003952 7.7961997986 8.4404001236
 3211.0500488 7.0000000000 8.8508996964 -0.001700163 0.2632000148 2.5548000336 3.5964000225 106.14499664 85.833999634 8.2105998993 7.6062002182 8.1332998276
 3211.1999512 7.0000000000 8.8397998810 -0.003294797 0.2502999902 2.5673999786 3.5032999516 104.48079681 85.406494141 8.1059999466 7.2740001678 7.9962000847
 3211.3500977 7.0000000000 8.8285999298 -0.004797557 0.2472999990 2.5506999493 3.6496999264 104.34480286 85.278099060 8.2955999374 7.3784999847 8.1976003647
 3211.5000000 7.0000000000 8.8397998810 -0.004500000 0.2569000125 2.5464999676 3.6370999813 104.53469849 85.415199280 8.5488996506 7.5188999176 8.4232997894
 3211.6501465 7.0000000000 8.8323001862 -0.001900000 0.2698999941 2.5497999191 3.6268999577 105.39980316 86.278099060 8.4027004242 7.5486998558 8.3208999634
 3211.8000488 7.0000000000 8.8323001862 0.0020999999 0.2838999927 2.5750000477 3.5755000114 105.95629883 86.989707947 8.0208997726 7.3095002174 7.9647998810
 3211.9501953 7.0000000000 8.8175001144 0.0046000001 0.2865999937 2.5871999264 3.6391999722 106.76090240 87.955902100 7.8663001060 7.2333998680 7.8466000557
 3212.1000977 7.0000000000 8.8175001144 0.0059000002 0.2854999900 2.5957999229 3.6375999451 105.79889679 88.415397644 8.1293144226 7.1906170845 8.0643653870
 3212.2502441 7.0000000000 8.8175001144 0.0049000001 0.2776739895 2.6023840904 3.6401000023 105.89739990 88.408203125 8.1344985962 6.9545288086 8.0399303436
 3212.4001465 7.0000000000 8.8175001144 0.0040000002 0.2696985304 2.5974948406 3.6730999947 104.98539734 87.818702698 7.0606932640 6.5337848663 7.0371146202
 3212.5502930 7.0000000000 8.8175001144 0.0017000000 0.2687899172 2.5942616463 3.5287001133 104.28610229 87.491302490 6.6282486916 6.2790808678 6.6176204681
 3212.7001953 7.0000000000 8.8175001144 -0.000600000 0.2656933367 2.5825047493 3.5260999203 103.58529663 87.515502930 6.8578662872 6.2121667862 6.7774128914
 3212.8503418 7.0000000000 8.8248996735 -0.002400000 0.2616012990 2.5853569508 3.5822160244 103.75460052 88.044601440 6.9600424767 6.4372658730 6.9079723358
 3213.0002441 7.0000000000 8.8248996735 -0.000800000 0.2620100975 2.5721590519 3.5872690678 105.21890259 88.390899658 7.0043458939 6.5190315247 6.9611902237
 3213.1503906 7.0000000000 8.8175001144 0.0010000000 0.2682270110 2.6084432602 3.6907913685 106.90219879 88.476020813 7.3422284126 6.6622428894 7.2646088600
 3213.3000488 7.0000000000 8.8100004196 0.0033960913 0.2764999866 2.6217000484 3.6575000286 105.74538422 88.483505249 8.3317003250 7.0432000160 8.1868000031
 3213.4499512 7.0000000000 8.8025999069 0.0027022765 0.2709000111 2.6026999950 3.5071001053 104.02610016 88.424003601 8.4510002136 7.5269999504 8.4172000885
 3213.6000977 7.0000000000 8.8025999069 0.0022008144 0.2667999864 2.5699999332 3.4261999130 105.32920074 87.979103088 9.3346996307 7.9345002174 9.2603998184
 3213.7500000 7.0000000000 8.8100004196 0.0004029316 0.2621999979 2.5748999119 3.4086999893 110.83889771 87.455902100 9.2917003632 8.1132001877 9.2534999847
 3213.9001465 7.0000000000 8.8175001144 0.0014000000 0.2540999949 2.5596001148 3.4245998859 112.40299988 86.900199890 7.9998998642 7.6788997650 8.0355997086
 3214.0500488 7.0000000000 8.8175001144 0.0033000000 0.2407000065 2.5627999306 3.4867000580 109.48899841 85.960098267 7.4489002228 7.3646001816 7.5125999451
 3214.2001953 7.0000000000 8.8175001144 0.0041999999 0.2314999998 2.5975999832 3.4130001068 104.29470062 86.183097839 8.0621995926 7.2992000580 8.0179996490
 3214.3500977 7.0000000000 8.8025999069 0.0015000000 0.2358999997 2.5660998821 3.3361999989 103.84770203 86.676994324 8.0733995438 7.3698000908 8.0305995941
 3214.5002441 7.0000000000 8.8100004196 -0.002200000 0.2436198294 2.5938570499 3.5322999954 104.15019989 86.881004333 7.5403132439 6.7788653374 7.4755964279
 3214.6501465 7.0000000000 8.8025999069 -0.002500000 0.2497024387 2.5806775093 3.4756999016 104.90809631 86.705703735 7.4222779274 6.5539898872 7.3216814995
 3214.8002930 7.0000000000 8.8025999069 -0.001600000 0.2511847019 2.5670115948 3.4235999584 104.62480164 85.887298584 7.7193441391 6.7328562737 7.5592508316
 3214.9501953 7.0000000000 8.8100004196 0.0001000000 0.2464835495 2.5706348419 3.3675000668 105.33219910 85.257301331 8.9590291977 7.0890583992 8.7091760635
 3215.1003418 7.0000000000 8.8175001144 0.0041999999 0.2363281250 2.5919740200 3.3446211815 102.31600189 84.989898682 9.0375137329 8.1728868484 8.9393224716
 3215.2502441 7.0000000000 8.8063001633 0.0044000000 0.2142723203 2.5841150284 3.2902240753 94.385902405 84.851097107 8.8282842636 9.9750423431 8.8551578522
 3215.4003906 7.0000000000 8.7952003479 0.0015000000 0.1972674876 2.6545040607 3.5500304699 84.999603271 84.626403809 9.5603446960 8.5889081955 9.3864307404
 3215.5502930 6.0000000000 8.8137998581 -0.001800000 0.1872835457 2.6250517368 3.4980151653 82.263298035 84.190589905 11.385277748 7.8852524757 10.900069237
 3215.6999512 6.0000000000 8.8323001862 -0.005094626 0.1772000045 2.5954999924 3.4460000992 79.531356812 83.756103516 13.210200310 7.1816000938 12.413700104
 3215.8500977 6.0000000000 8.8695001602 -0.007396260 0.1633999944 2.5606000423 3.3975999355 79.932899475 82.718002319 24.395999908 6.3843002319 20.175899506
 3216.0000000 6.0000000000 8.8695001602 -0.005003909 0.1685999930 2.5813999176 3.3480999470 83.479896545 81.134201050 28.220399857 7.0440998077 22.370700836
 3216.1501465 6.0000000000 8.8695001602 -0.003200000 0.1898999959 2.6031999588 3.3633999825 87.685501099 78.397903442 13.899299622 7.1648001671 12.754799843
 3216.3000488 6.0000000000 8.8732004166 -0.000300000 0.2055999935 2.6005001068 3.3692998886 90.676200867 75.361793518 12.894300461 7.2920999527 12.339900017
 3216.4501953 6.0000000000 8.8695001602 0.0024999999 0.2032999992 2.6119000912 3.3979001045 90.000900269 72.536903381 13.876399994 7.4661002159 13.129599571
 3216.6000977 6.0000000000 8.8732004166 0.0038999999 0.1984000057 2.6177000999 3.2997000217 87.749702454 71.229797363 13.545100212 7.5988998413 12.779000282
