# LAS format log file from PETREL
# Project units are specified as depth units
#==================================================================
~Version information
VERS.   2.0:
WRAP.   NO:
#==================================================================
~Well
STRT .m      2535.9846191 :
STOP .m      3240.0725098 :
STEP .m     0.00000000 :
NULL .        -999.250000 :
COMP.           : COMPANY
WELL.  35/9-8   : WELL
FLD.            : FIELD
LOC.            : LOCATION
SRVC.           : SERVICE COMPANY
DATE.  2018-09-11 14:49:02   : Log Export Date {yyyy-MM-dd HH:mm:ss}
PROV.           : PROVINCE
UWI.   35/9-8   : UNIQUE WELL ID
API.            : API NUMBER
#==================================================================
~Curve
DEPT .m                   : DEPTH
Lithology_geolink ._      : Lithology_geolink
CALI .in                  : CALI
BS .in                    : BS
ROP .m/h                  : ROP
DRHO .g/cm3               : DRHO
THOR .ppm                 : THOR
NPHI .m3/m3               : NPHI
RHOB .g/cm3               : RHOB
PEF .b/e                  : PEF
GR .gAPI                  : GR
URAN .ppm                 : URAN
DTC .us/ft                : DTC
DTS .us/ft                : DTS
RDEP .ohm.m               : RDEP
RMIC .ohm.m               : RMIC
RMED .ohm.m               : RMED
~Parameter
#==================================================================
~Ascii
# ...
 3094.2255859 7.0000000000 8.5366001129 8.5000000000 57.847770691 -0.006700000 13.518300056 0.3334999979 2.6057999134 3.2781999111 121.77364349 3.0478999615 80.877998352 153.00509644 5.7930998802 5.0999999046 5.5840997696
 3094.3781738 7.0000000000 8.5319004059 8.5000000000 71.312011719 -0.006300000 13.347399712 0.3301999867 2.6059000492 3.3531999588 122.06903839 3.3392999172 81.034103394 152.81808472 6.2223000526 6.4583997726 6.0391998291
 3094.5305176 7.0000000000 8.5193996429 8.5000000000 87.689956665 -0.006500000 13.028300285 0.3332999945 2.6047999859 3.4746999741 122.49012756 3.7302000523 81.339996338 152.99830627 5.6360001564 6.7669000626 5.5542998314
 3094.6828613 7.0000000000 8.5062999725 8.5000000000 89.376640320 -0.006800000 12.687600136 0.3413000107 2.6013998985 3.5987999439 122.55370331 4.1442999840 81.754203796 153.42271423 5.1322999001 5.8688998222 5.0970997810
 3094.8352051 7.0000000000 8.5024995804 8.5000000000 82.030838013 -0.007100000 12.295499802 0.3400999904 2.5952999592 3.6821000576 122.36320496 4.5854997635 82.144401550 153.84033203 5.0714998245 5.6321001053 5.0432000160
 3094.9875488 7.0000000000 8.5085000992 8.5000000000 59.993766785 -0.006700000 11.597100258 0.3318000138 2.5901999474 3.6484000683 123.60571289 5.2397999763 82.365097046 154.08201599 5.1026000977 6.3712000847 5.0819997787
 3095.1401367 7.0000000000 8.5200004578 8.5000000000 61.714572906 -0.005100000 10.835100174 0.3233000040 2.5929999352 3.4983999729 125.65781403 5.9924001694 82.442497253 154.20082092 5.1407999992 5.2181000710 5.1203999519
 3095.2924805 7.0000000000 8.5250997543 8.5000000000 65.155509949 -0.003200000 10.449899673 0.3109000027 2.6033999920 3.4135000706 126.54887390 6.5195999146 82.391098022 154.24533081 5.2277002335 4.8007998466 5.2003002167
 3095.4448242 7.0000000000 8.5300998688 8.5000000000 66.308723450 -0.003300000 10.412099838 0.3009999990 2.6105999947 3.5446999073 126.58535004 6.7958998680 82.319793701 154.30918884 5.4166002274 5.3305001259 5.3877000809
 3095.5971680 7.0000000000 8.5418996811 8.5000000000 68.615486145 -0.005900000 10.739100456 0.2976999879 2.6061000824 3.7690000534 126.99109650 6.8914999962 82.248100281 154.51025391 5.7532000542 5.9302000999 5.7098999023
 3095.7497559 7.0000000000 8.5481996536 8.5000000000 70.081039429 -0.008600000 11.458600044 0.2962000072 2.5968000889 3.8775999546 127.68738556 6.7737998962 82.163002014 154.82649231 5.8931999207 5.6181001663 5.8313999176
 3095.9020996 7.0000000000 8.5430002213 8.5000000000 73.012145996 -0.009400000 12.186599731 0.2998000085 2.5929000378 3.8138999939 128.38179016 6.5180001259 82.040802002 155.35826111 5.7498002052 5.4939999580 5.6788997650
 3096.0544434 7.0000000000 8.5399999619 8.5000000000 70.818572998 -0.009000000 12.733799934 0.3095000088 2.5957000256 3.6807000637 128.23394775 6.1986999512 81.943702698 155.98658752 5.3846001625 5.4742999077 5.3031001091
 3096.2067871 7.0000000000 8.5394001007 8.5000000000 66.431434631 -0.008500000 13.213199615 0.3194999993 2.6013998985 3.6256999969 126.79073334 5.7646999359 82.060203552 156.68116760 5.2554001808 5.3434000015 5.1693000793
 3096.3593750 7.0000000000 8.5354995728 8.5000000000 69.342193604 -0.008300000 13.353199959 0.3307000101 2.6050999165 3.6772000790 125.19285583 5.4014000893 82.384803772 157.34234619 5.2753000259 5.3379998207 5.1863999367
 3096.5117188 7.0000000000 8.5359001160 8.5000000000 75.163063049 -0.008500000 13.088500023 0.3384000063 2.6033000946 3.7295000553 124.04624176 5.2188000679 82.923301697 157.87164307 5.2962999344 5.2751998901 5.2108998299
 3096.6640625 7.0000000000 8.5399999619 8.5000000000 76.227363586 -0.008500000 12.775400162 0.3332999945 2.5982999802 3.7251000404 123.30098724 5.0673999786 83.437004089 158.28213501 5.3218002319 4.8776001930 5.2364997864
 3096.8164063 7.0000000000 8.5417003632 8.5000000000 78.355644226 -0.007500000 12.564499855 0.3307000101 2.5950000286 3.7126998901 122.94367218 4.9457001686 83.714797974 158.58570862 5.5879001617 4.3772997856 5.4955000877
 3096.9687500 7.0000000000 8.5378999710 8.5000000000 76.805122375 -0.006300000 12.433500290 0.3402000070 2.5927999020 3.7227001190 122.34751129 4.8404998779 83.764808655 158.88952637 6.5194997787 5.0590000153 6.4107999802
 3097.1213379 7.0000000000 8.5314998627 8.5000000000 73.703735352 -0.006700000 12.467900276 0.3461999893 2.5887999535 3.7448999882 120.88255310 4.7024002075 83.684997559 159.27737427 7.4319000244 6.4517998695 7.3049001694
 3097.2736816 7.0000000000 8.5290002823 8.5000000000 71.151245117 -0.008300000 12.653800011 0.3452999890 2.5838999748 3.7697000504 117.67295074 4.7895998955 83.657600403 159.79357910 7.8926000595 7.1206002235 7.7550997734
 3097.4260254 7.0000000000 8.5299997330 8.5000000000 69.874671936 -0.009700001 12.773099899 0.3429999948 2.5813000202 3.7341001034 114.41701508 5.0176000595 83.801803589 160.53289795 7.5260000229 7.0521001816 7.3990998268
 3097.5783691 7.0000000000 8.5279998779 8.5000000000 68.507217407 -0.009500000 12.703800201 0.3373999894 2.5841000080 3.5750999451 114.51347351 5.2270998955 84.176994324 161.65370178 7.3621997833 6.3495001793 7.2432999611
 3097.7309570 7.0000000000 8.5275001526 8.5000000000 67.823493958 -0.008600000 12.425999641 0.3337000012 2.5903000832 3.4156000614 117.68660736 5.6248998642 84.736396790 163.14579773 7.3937997818 6.3530001640 7.2715001106
 3097.8833008 7.0000000000 8.5288000107 8.5000000000 69.127296448 -0.009400000 12.307200432 0.3418999910 2.5927999020 3.4242000580 120.20786285 5.8439998627 85.375106812 164.83039856 7.4456000328 6.6030001640 7.3274998665
 3098.0356445 7.0000000000 8.5254001617 8.5000000000 69.779197693 -0.012100000 12.520600319 0.3551999927 2.5919001102 3.5841000080 120.10966492 5.6870999336 85.934303284 166.36872864 7.3436999321 6.2653999329 7.2378001213
 3098.1879883 7.0000000000 8.5247001648 8.5000000000 65.958992004 -0.013900000 12.754099846 0.3573000133 2.5957000256 3.7655999660 118.92430878 5.4883999825 86.234596252 167.43458557 6.5665998459 6.4651999474 6.4745001793
 3098.3405762 7.0000000000 8.5298004150 8.5000000000 64.049209595 -0.013600000 12.901700020 0.3533000052 2.6026000977 3.8592998981 119.12238312 5.3382000923 86.334999084 168.14685059 4.8266000748 6.7340998650 4.7683000565
 3098.4929199 7.0000000000 8.5348997116 8.5000000000 65.127624512 -0.012200000 12.954600334 0.3555999994 2.6038000584 3.8640000820 120.70485687 5.2228999138 86.261703491 168.38014221 4.3350000381 7.1367001534 4.2874999046
 3098.6452637 7.0000000000 8.5325002670 8.5000000000 65.666664124 -0.010900000 12.792300224 0.3619000018 2.5957999229 3.8603000641 120.90068817 5.1652002335 86.168998718 168.33537292 5.1600999832 7.1090998650 5.1020998955
 3098.7976074 7.0000000000 8.5193004608 8.5000000000 64.960304260 -0.010600000 12.343600273 0.3562000096 2.5831999779 3.8940000534 119.32133484 5.2459998131 86.090499878 167.75283813 6.2638998032 6.6413002014 6.2156000137
 3098.9499512 7.0000000000 8.5023002625 8.5000000000 64.606956482 -0.011500000 11.896800041 0.3441999853 2.5738999844 3.9219999313 118.60807800 5.3756999969 85.988502502 166.86027527 6.4225001335 5.8482999802 6.4025001526
 3099.1025391 7.0000000000 8.5003995895 8.5000000000 64.918960571 -0.012500000 11.699199677 0.3436000049 2.5741999149 3.8928000927 119.66580200 5.3670001030 85.712097168 165.41900635 6.3520002365 6.4637999535 6.3422999382
 3099.2548828 7.0000000000 8.5125999451 8.5000000000 65.022964478 -0.012300000 11.730899811 0.3479000032 2.5826001167 3.8027999401 120.66609955 5.2452998161 85.290496826 163.76763916 6.2951998711 7.2765002251 6.2859001160
 3099.4072266 7.0000000000 8.5297002792 8.5000000000 62.251316071 -0.011400000 11.996999741 0.3402000070 2.5908000469 3.6779000759 120.92208862 5.0665001869 84.705001831 162.06979370 6.1571002007 7.4075999260 6.1563000679
 3099.5595703 7.0000000000 8.5412998199 8.5000000000 59.271648407 -0.010100000 12.552499771 0.3208000064 2.5945000648 3.5776998997 122.19580841 4.7775001526 84.128799438 160.57189941 5.9895000458 6.6470999718 5.9984002113
 3099.7121582 7.0000000000 8.5396003723 8.5000000000 57.604335785 -0.008200000 13.148400307 0.3055999875 2.5941998959 3.5641999245 124.27437592 4.5120000839 83.692001343 159.43402100 5.9128999710 5.8619999886 5.9303002357
