# LAS format log file from PETREL
# Project units are specified as depth units
#==================================================================
~Version information
VERS.   2.0:
WRAP.   NO:
#==================================================================
~Well
STRT .m      1350.9222412 :
STOP .m      2973.9824219 :
STEP .m     0.00000000 :
NULL .        -999.250000 :
COMP.           : COMPANY
WELL.  35/9-7   : WELL
FLD.            : FIELD
LOC.            : LOCATION
SRVC.           : SERVICE COMPANY
DATE.  2018-09-11 14:49:02   : Log Export Date {yyyy-MM-dd HH:mm:ss}
PROV.           : PROVINCE
UWI.   35/9-7   : UNIQUE WELL ID
API.            : API NUMBER
#==================================================================
~Curve
DEPT .m                   : DEPTH
Lithology_geolink ._      : Lithology_geolink
CALI .in                  : CALI
BS .in                    : BS
ROP .m/h                  : ROP
DRHO .g/cm3               : DRHO
THOR .ppm                 : THOR
NPHI .m3/m3               : NPHI
RHOB .g/cm3               : RHOB
PEF .b/e                  : PEF
GR .gAPI                  : GR
URAN .ppm                 : URAN
DTC .us/ft                : DTC
DTS .us/ft                : DTS
RDEP .ohm.m               : RDEP
RMIC .ohm.m               : RMIC
RMED .ohm.m               : RMED
~Parameter
#==================================================================
~Ascii
 1350.9222412 5.0000000000 14.184000015 17.500000000 42.772682190 0.0716999993  -999.250000  -999.250000  -999.250000  -999.250000 56.937789917  -999.250000 138.76109314  -999.250000 0.7666354179  -999.250000 0.7229363322
 1351.0747070 5.0000000000 14.204999924 17.500000000 44.492382050 0.0905999988  -999.250000  -999.250000  -999.250000  -999.250000 55.800910950  -999.250000 141.99960327  -999.250000 0.7595056891  -999.250000 0.7185035348
 1351.2270508 5.0000000000 15.262000084 17.500000000 45.357540131 0.0822999999  -999.250000  -999.250000  -999.250000  -999.250000 55.121086121  -999.250000 145.98272705  -999.250000 0.7575032115  -999.250000 0.7140071988
 1351.3795166 5.0000000000 14.612000465 17.500000000 42.844867706 0.0758000016  -999.250000  -999.250000  -999.250000  -999.250000 57.088420868  -999.250000 147.91035461  -999.250000 0.7554016709  -999.250000 0.7114020586
 1351.5318604 5.0000000000 14.845999718 17.500000000 41.585655212 0.0724999979  -999.250000  -999.250000  -999.250000  -999.250000 57.429729462  -999.250000 148.02400208  -999.250000 0.7553000450  -999.250000 0.7130986452
 1351.6843262 5.0000000000 15.244000435 17.500000000 48.749835968 0.0639000013  -999.250000  -999.250000  -999.250000  -999.250000 59.128639221  -999.250000 147.17568970  -999.250000 0.7686892748  -999.250000 0.7280880213
 1351.8366699 5.0000000000 15.405999184 17.500000000 52.338336945 0.0645999983  -999.250000  -999.250000  -999.250000  -999.250000 56.242317200  -999.250000 146.63423157  -999.250000 0.7733962536  -999.250000 0.7387914062
 1351.9891357 5.0000000000 15.496000290 17.500000000 51.887828827 0.0962999985  -999.250000  -999.250000  -999.250000  -999.250000 51.913467407  -999.250000 145.82484436  -999.250000 0.7800946236  -999.250000 0.7618815303
 1352.1414795 5.0000000000 16.055999756 17.500000000 51.660617828 0.1039000005  -999.250000  -999.250000  -999.250000  -999.250000 50.371231079  -999.250000 145.61996460  -999.250000 0.7891927361  -999.250000 0.7706929445
 1352.2939453 5.0000000000 15.496000290 17.500000000 52.215431213 0.0966000035  -999.250000  -999.250000  -999.250000  -999.250000 57.154563904  -999.250000 146.08413696  -999.250000 0.7908986211  -999.250000 0.7656041384
 1352.4462891 5.0000000000 15.383999825 17.500000000 52.493217468 0.0974000022  -999.250000  -999.250000  -999.250000  -999.250000 58.848644257  -999.250000 146.50247192  -999.250000 0.7815074921  -999.250000 0.7451164722
 1352.5986328 5.0000000000 15.159999847 17.500000000 53.708683014 0.0922999978  -999.250000  -999.250000  -999.250000  -999.250000 55.215827942  -999.250000 147.58656311  -999.250000 0.7842955589  -999.250000 0.7592772841
 1352.7510986 5.0000000000 15.048999786 17.500000000 54.318737030 0.0855000019  -999.250000  -999.250000  -999.250000  -999.250000 55.409839630  -999.250000 148.19461060  -999.250000 0.7834007144  -999.250000 0.7613983154
 1352.9034424 5.0000000000 15.405999184 17.500000000 59.337100983 0.0864000022  -999.250000  -999.250000  -999.250000  -999.250000 54.511440277  -999.250000 149.36624146  -999.250000 0.7751132846  -999.250000 0.7410326600
 1353.0559082 5.0000000000 14.701999664 17.500000000 61.855922699 0.0961000025  -999.250000  -999.250000  -999.250000  -999.250000 54.529983521  -999.250000 150.30674744  -999.250000 0.7765988111  -999.250000 0.7431982160
 1353.2082520 5.0000000000 14.430999756 17.500000000 69.003959656 0.1221999973  -999.250000  -999.250000  -999.250000  -999.250000 56.047565460  -999.250000 151.09664917  -999.250000 0.8035567999  -999.250000 0.7749490738
 1353.3607178 5.0000000000 14.684000015 17.500000000 72.591293335 0.1206000000  -999.250000  -999.250000  -999.250000  -999.250000 54.441287994  -999.250000 151.10189819  -999.250000 0.8039997220  -999.250000 0.7730016112
 1353.5130615 5.0000000000 14.819000244 17.500000000 60.944381714 0.0896999985  -999.250000  -999.250000  -999.250000  -999.250000 55.659023285  -999.250000 151.54644775  -999.250000 0.8078969121  -999.250000 0.7680040002
 1353.6655273 5.0000000000 14.701999664 17.500000000 55.109985352 0.0821999982  -999.250000  -999.250000  -999.250000  -999.250000 58.118030548  -999.250000 152.49734497  -999.250000 0.8061014414  -999.250000 0.7680000067
 1353.8178711 5.0000000000 14.701999664 17.500000000 56.483474731 0.0811000019  -999.250000  -999.250000  -999.250000  -999.250000 59.688739777  -999.250000 154.62429810  -999.250000 0.8047011495  -999.250000 0.7719967961
 1353.9703369 5.0000000000 14.791999817 17.500000000 57.173664093 0.0719999969  -999.250000  -999.250000  -999.250000  -999.250000 60.409423828  -999.250000 155.42256165  -999.250000 0.8082971573  -999.250000 0.7720000148
 1354.1226807 5.0000000000 14.881999969 17.500000000 55.626239777 0.0584000014  -999.250000  -999.250000  -999.250000  -999.250000 62.798084259  -999.250000 153.87713623  -999.250000 0.8126964569  -999.250000 0.7710008025
 1354.2751465 5.0000000000 14.413000107 17.500000000 52.145832062 0.0518000014  -999.250000  -999.250000  -999.250000  -999.250000 62.130538940  -999.250000 152.46452332  -999.250000 0.8677558899  -999.250000 0.8449407816
 1354.4274902 5.0000000000 14.178000450 17.500000000 49.437210083 0.0564000010  -999.250000  -999.250000  -999.250000  -999.250000 59.881805420  -999.250000 151.99926758  -999.250000 0.8916808963  -999.250000 0.8749759793
 1354.5799561 5.0000000000 14.178000450 17.500000000 46.150596619 0.0742999986  -999.250000  -999.250000  -999.250000  -999.250000 59.710136414  -999.250000 151.97480774  -999.250000 0.8984946012  -999.250000 0.8919864297
 1354.7322998 5.0000000000 14.178000450 17.500000000 45.569362640 0.0785999969  -999.250000  -999.250000  -999.250000  -999.250000 66.054908752  -999.250000 152.05644226  -999.250000 0.9138876796  -999.250000 0.9089863300
 1354.8846436 5.0000000000 14.159999847 17.500000000 42.120689392 0.0797000006  -999.250000  -999.250000  -999.250000  -999.250000 70.403038025  -999.250000 151.42910767  -999.250000 0.9035166502  -999.250000 0.8970192075
 1355.0371094 5.0000000000 14.142000198 17.500000000 39.243118286 0.0778999999  -999.250000  -999.250000  -999.250000  -999.250000 63.235752106  -999.250000 151.01023865  -999.250000 0.8878125548  -999.250000 0.8460409045
 1355.1894531 5.0000000000 14.105999947 17.500000000 43.044097900 0.0829000026  -999.250000  -999.250000  -999.250000  -999.250000 58.567478180  -999.250000 150.73814392  -999.250000 0.8879997134  -999.250000 0.8559839725
 1355.3419189 5.0000000000 14.088000298 17.500000000 49.728569031 0.0860999972  -999.250000  -999.250000  -999.250000  -999.250000 58.899730682  -999.250000 150.71282959  -999.250000 0.8820048571  -999.250000 0.8579983711
 1355.4942627 5.0000000000 14.105999947 17.500000000 53.769119263 0.0892999917  -999.250000  -999.250000  -999.250000  -999.250000 61.146400452  -999.250000 150.56944275  -999.250000 0.8612332940  -999.250000 0.8280480504
 1355.6467285 5.0000000000 14.114999771 17.500000000 51.133529663 0.0935000032  -999.250000  -999.250000  -999.250000  -999.250000 60.520503998  -999.250000 150.35636902  -999.250000 0.8511081338  -999.250000 0.7850344777
 1355.7990723 5.0000000000 14.662999153 17.500000000 49.637470245 0.1011999995  -999.250000  -999.250000  -999.250000  -999.250000 59.530792236  -999.250000 149.96072388  -999.250000 0.7909482121  -999.250000 0.6491089463
 1355.9515381 4.0000000000 14.845999718 17.500000000 50.783462524 0.0953999981  -999.250000  -999.250000  -999.250000  -999.250000 52.425689697  -999.250000 150.08180237  -999.250000 0.8676384687  -999.250000 0.8838118315
 1356.1038818 4.0000000000 13.989000320 17.500000000 52.333007813 0.0734999999  -999.250000  -999.250000  -999.250000  -999.250000 50.421600342  -999.250000 150.11637878  -999.250000 0.8454178572  -999.250000 0.8580208421
 1356.2563477 4.0000000000 14.034000397 17.500000000 52.736549377 0.0626000017  -999.250000  -999.250000  -999.250000  -999.250000 55.745731354  -999.250000 149.96142578 377.35482788 0.8350083232  -999.250000 0.8170328140
 1356.4086914 4.0000000000 14.159999847 17.500000000 31.430446625 0.0502999984  -999.250000  -999.250000  -999.250000  -999.250000 67.220802307  -999.250000 149.52624512 379.24078369 0.8141167760  -999.250000 0.7360649109
