# LAS format log file from PETREL
# Project units are specified as depth units
#==================================================================
~Version information
VERS.   2.0:
WRAP.   NO:
#==================================================================
~Well
STRT .m      1350.9222412 :
STOP .m      2973.9824219 :
STEP .m     0.00000000 :
NULL .        -999.250000 :
COMP.           : COMPANY
WELL.  35/9-7   : WELL
FLD.            : FIELD
LOC.            : LOCATION
SRVC.           : SERVICE COMPANY
DATE.  2018-09-11 14:49:02   : Log Export Date {yyyy-MM-dd HH:mm:ss}
PROV.           : PROVINCE
UWI.   35/9-7   : UNIQUE WELL ID
API.            : API NUMBER
#==================================================================
~Curve
DEPT .m                   : DEPTH
Lithology_geolink ._      : Lithology_geolink
CALI .in                  : CALI
BS .in                    : BS
ROP .m/h                  : ROP
DRHO .g/cm3               : DRHO
THOR .ppm                 : THOR
NPHI .m3/m3               : NPHI
RHOB .g/cm3               : RHOB
PEF .b/e                  : PEF
GR .gAPI                  : GR
URAN .ppm                 : URAN
DTC .us/ft                : DTC
DTS .us/ft                : DTS
RDEP .ohm.m               : RDEP
RMIC .ohm.m               : RMIC
RMED .ohm.m               : RMED
~Parameter
#==================================================================
~Ascii
# ...
 2969.2580566 3.0000000000 8.3158998489 8.5000000000 76.837272644 0.0007000000 1.4757000208 0.1294000000 2.3982000351 3.4793999195 54.650001526 0.0016000000 72.634300232 136.27819824 1.6229000092 0.8713999987 1.3839999437
 2969.4104004 3.0000000000 8.3191003799 8.5000000000 80.118110657 -0.003200000 1.6095000505 0.1407999992 2.3708999157 3.4746999741 55.639999390 0.0016000000 74.447601318 137.14230347 1.4486000538 0.6965000033 1.2279000282
 2969.5627441 3.0000000000 8.3208999634 8.5000000000 81.758529663 -0.003800000 1.7696000338 0.1518000066 2.3545000553 3.5348000526 56.020000458 0.0016000000 76.017196655 136.51910400 1.4611999989 0.5852000117 1.2625000477
 2969.7150879 3.0000000000 8.3268995285 8.5000000000 78.215225220 -0.003500000 1.9384999275 0.1606000066 2.3508000374 3.6033999920 57.259998322 0.0016000000 77.585700989 135.89039612 1.5336999893 0.5411999822 1.3071000576
 2969.8676758 3.0000000000 8.3337001801 8.5000000000 76.443565369 -0.003400000 2.1217000484 0.1652999967 2.3543999195 3.6740999222 60.799999237 0.0016000000 78.762100220 134.73249817 1.5279999971 0.6190999746 1.3310999870
 2970.0200195 3.0000000000 8.3303003311 8.5000000000 75.131233215 -0.003900000 2.3383998871 0.1660999954 2.3585999012 3.7509999275 68.400001526 0.0016000000 79.447395325 132.96969604 1.6434999704 0.6219999790 1.4328999519
 2970.1723633 4.0000000000 8.3155002594 8.5000000000 74.475067139 -0.004400000 2.5655000210 0.1648000032 2.3619000912 3.7929999828 72.480003357 0.0016000000 79.199996948 132.26080322 1.7036999464 0.7250000238 1.5011999607
 2970.3247070 4.0000000000 8.3086004257 8.5000000000 87.204727173 -0.003800000 2.7318000793 0.1630000025 2.3640000820 3.7737998962 73.089996338 0.0016000000 78.592208862 130.16349792 1.6493999958 0.8984000087 1.4716999531
 2970.4772949 4.0000000000 8.3240995407 8.5000000000 94.488189697 -0.001800000 2.8129999638 0.1624000072 2.3640000820 3.7297999859 73.699996948 0.0016000000 77.351097107 130.91819763 1.6663000584 0.7164000273 1.4759999514
 2970.6296387 4.0000000000 8.3418998718 8.5000000000 95.374015808 0.0015000000 2.8805000782 0.1632999927 2.3631999493 3.7005999088 73.099998474 0.0280000009 76.189201355 131.34399414 1.6762000322 0.6858999729 1.5118999481
 2970.7819824 4.0000000000 8.3507003784 8.5000000000 98.917320251 0.0049000001 2.9663999081 0.1622000039 2.3636999130 3.7077000141 68.559997559 0.0856000036 75.400100708 132.02270508 1.6951999664 0.6995000243 1.5168999434
 2970.9343262 4.0000000000 8.3500995636 8.5000000000 101.57479858 0.0052999998 3.0455999374 0.1582999974 2.3643999100 3.7674000263 65.769996643 0.1155000031 76.805099487 132.39520264 1.6380000114 0.6392999887 1.4897999763
 2971.0869141 4.0000000000 8.3380002975 8.5000000000 100.55773926 0.0012000001 3.1489999294 0.1557999998 2.3668999672 3.8331000805 69.260002136 0.1466999948 77.213203430 132.24299622 1.6175999641 0.6168000102 1.4559999704
 2971.2392578 5.0000000000 8.3235998154 8.5000000000 96.948814392 -0.006400000 3.2781999111  -999.250000 2.3791999817 3.7857000828 73.279998779 0.1944999993 77.225097656 132.65429688 1.6503000259 0.7026000023 1.4838999510
 2971.3916016 5.0000000000 8.3115997314 8.5000000000 89.009185791 -0.023399999 3.3936998844  -999.250000  -999.250000  -999.250000 82.269996643 0.2560000122 76.984901428 133.78219604 1.8595999479 0.8295000196 1.6640000343
 2971.5439453 5.0000000000 8.3014001846 8.5000000000 84.711288452 -0.068300001 3.5146999359  -999.250000  -999.250000  -999.250000 84.720001221 0.3528000116 76.757797241 134.34019470 2.0185000896 1.0175000429 1.7819999456
 2971.6962891 4.0000000000 8.3003997803 8.5000000000 75.000000000 -0.145999998 3.6120998859  -999.250000  -999.250000  -999.250000 77.150001526 0.4514999986 76.666702271 134.26130676 1.8500000238 0.8773000240 1.6464999914
 2971.8488770 4.0000000000 8.3079996109 8.5000000000 69.652229309 -0.085699998 3.6278998852  -999.250000  -999.250000  -999.250000 73.199996948 0.5127999783 76.485000610 133.06159973 1.7027000189 0.7092000246 1.4923000336
 2972.0012207 4.0000000000 8.3142995834 8.5000000000 58.825462341 0.2241999954 3.6048998833  -999.250000  -999.250000  -999.250000 75.849998474 0.5555999875 76.159301758 132.70080566 1.7568000555 0.8404999971 1.5520000458
 2972.1535645 4.0000000000 8.3219995499 8.5000000000 53.346458435 -0.244900003 3.6219999790  -999.250000  -999.250000  -999.250000 76.959999084 0.5803999901 76.523803711 132.45520020 1.9648000002 0.8686000109 1.7109999657
 2972.3059082 4.0000000000 8.3273000717 8.5000000000 44.980316162 0.2748000026 3.6956000328  -999.250000  -999.250000  -999.250000 81.940002441 0.6037999988 77.129600525 132.84210205 2.0069000721 0.7969999909 1.7487000227
 2972.4584961 4.0000000000 8.3198995590 8.5000000000 42.093177795 0.5088000298 3.9140999317  -999.250000  -999.250000  -999.250000 90.029998779 0.6711999774 77.639602661 133.72039795 1.9694000483 0.8011999726 1.7216000557
 2972.6108398 5.0000000000 8.3064002991 8.5000000000 39.632545471 0.6126999855 4.4384999275  -999.250000  -999.250000  -999.250000 96.120002747 0.8490999937 77.821601868 134.85049438 2.2181999683 0.9261999726 1.9175000191
 2972.7631836 5.0000000000 8.2922000885 8.5000000000 40.124671936 0.6733000278 4.9794001579  -999.250000  -999.250000  -999.250000 94.550003052 1.1389000416 77.540802002 135.69929504 2.6487998962 1.1577999592 2.3201000690
 2972.9155273 5.0000000000 8.2726001740 8.5000000000 42.847770691 0.6769000292 5.1345000267  -999.250000  -999.250000  -999.250000 92.900001526 1.3991999626 76.938499451 136.50259399 2.8029000759 1.2890000343 2.4433000088
 2973.0681152 5.0000000000 8.2643003464 8.5000000000 45.144359589 0.6276999712 4.9966001511  -999.250000  -999.250000  -999.250000 90.629997253 1.5929000378 76.223396301 136.66020203 2.7186999321 1.5640000105 2.4166998863
 2973.2204590 5.0000000000 8.2755002975 8.5000000000 48.622047424 0.5472999811 4.7210001945  -999.250000  -999.250000  -999.250000 93.779998779 1.7458000183 75.504096985 137.05130005 2.8959999084 2.4391000271 2.5643999577
 2973.3728027 5.0000000000 8.2770004272 8.5000000000 51.017063141 0.4600999951 4.4387998581  -999.250000  -999.250000  -999.250000 87.830001831 1.7785999775 75.030700684 136.77960205 3.4065999985 2.1902000904 3.0622999668
 2973.5251465 5.0000000000 8.2580003738 8.5000000000 52.427822113 0.2933999896 4.3101000786  -999.250000  -999.250000  -999.250000 86.330001831 1.7268999815 74.713500977 138.35060120 3.2627999783 1.5324000120 2.9811999798
 2973.6774902 5.0000000000 8.2425003052 8.5000000000 55.249343872 0.1326999962 4.3506999016  -999.250000  -999.250000  -999.250000 85.910003662 1.6657999754 74.977600098 138.27270508 2.8338999748 1.1274000406 2.6173000336
 2973.8300781 6.0000000000 8.2342996597 8.5000000000 56.528869629 0.1627999991 4.5125999451  -999.250000  -999.250000  -999.250000 92.989997864 1.6129000187 74.950805664 136.93080139 2.8610999584 1.3897999525 2.6989998817
 2973.9824219 6.0000000000 8.2246999741 8.5000000000 59.055122375 0.1854999959 4.9123001099  -999.250000  -999.250000  -999.250000 107.73999786 1.7358000278 75.269699097 135.34019470 3.0822999477 1.1440999508 2.9049000740
