# LAS format log file from PETREL
# Project units are specified as depth units
#==================================================================
~Version information
VERS.   2.0:
WRAP.   NO:
#==================================================================
~Well
STRT .m      2949.7507324 :
STOP .m      3605.5278320 :
STEP .m     0.00000000 :
NULL .        -999.250000 :
COMP.           : COMPANY
WELL.  35/9-10 S   : WELL
FLD.            : FIELD
LOC.            : LOCATION
SRVC.           : SERVICE COMPANY
DATE.  2018-09-11 14:49:01   : Log Export Date {yyyy-MM-dd HH:mm:ss}
PROV.           : PROVINCE
UWI.   35/9-10 S   : UNIQUE WELL ID
API.            : API NUMBER
#==================================================================
~Curve
DEPT .m                   : DEPTH
Lithology_geolink ._      : Lithology_geolink
CALI .in                  : CALI
BS .in                    : BS
ROP .m/h                  : ROP
DRHO .g/cm3               : DRHO
THOR .ppm                 : THOR
NPHI .m3/m3               : NPHI
RHOB .g/cm3               : RHOB
PEF .b/e                  : PEF
GR .gAPI                  : GR
URAN .ppm                 : URAN
DTC .us/ft                : DTC
DTS .us/ft                : DTS
RDEP .ohm.m               : RDEP
RMED .ohm.m               : RMED
~Parameter
#==================================================================
~Ascii
# ...
 3122.1152344 6.0000000000 8.5755996704 8.5000000000 55.988193512 0.0241999999 10.474200249 0.3063000143 2.5734000206 3.8331000805 92.636901855 2.1663000584 78.959693909 139.18350220 11.313300133 11.137900352
 3122.2675781 6.0000000000 8.5736999512 8.5000000000 56.169288635 0.0115000000 10.616900444 0.3125000000 2.5697999001 3.7207999229 92.324401855 2.0880000591 78.161300659 137.61779785 12.067500114 11.847200394
 3122.4199219 6.0000000000 8.5548000336 8.5000000000 75.200462341 0.0014000000 10.595199585 0.3237000108 2.5673999786 3.6250998974 93.541397095 2.0243000984 77.469200134 136.60639954 12.440400124 12.189200401
 3122.5725098 6.0000000000 8.5403003693 8.5000000000 94.050857544 -0.002700000 10.338500023 0.3192999959 2.5610001087 3.6071000099 94.542297363 1.9788999557 77.472801208 135.58290100 12.075400352 11.819199562
 3122.7248535 6.0000000000 8.5474004745 8.5000000000 105.43373108 -0.004000000 9.4427995682 0.2861999869 2.5460999012 3.6844999790 92.633300781 1.9556000233 77.332000732 135.29460144 10.628600121 10.400699615
 3122.8771973 5.0000000000 8.5654001236 8.5000000000 90.499343872 -0.001800000 8.4757995605 0.2619000077 2.5348999500 3.8715000153 88.341300964 2.0422999859 77.052200317 134.67730713 9.1326999664 8.9411001205
 3123.0295410 5.0000000000 8.5698995590 8.5000000000 84.632545471 0.0071000000 7.6795997620 0.2671000063 2.5399000645 4.1201000214 84.913299561 2.1661000252 76.669700623 134.05490112 8.4777002335 8.3063001633
 3123.1821289 5.0000000000 8.5564002991 8.5000000000 72.899612427 0.0245999992 7.3463997841 0.2824999988 2.5666000843 4.3983998299 84.420799255 2.2606000900 76.660003662 133.26010132 8.6230001450 8.4582004547
 3123.3344727 5.0000000000 8.5403995514 8.5000000000 61.632549286 0.0445999987 7.4664998055 0.2851999998 2.6001999378 4.6788997650 85.435897827 2.3461999893 76.917503357 133.06419373 9.1375999451 8.9806995392
 3123.4868164 5.0000000000 8.5361995697 8.5000000000 39.098754883 0.0551999994 8.0657997131 0.2840000093 2.6166000366 4.7109999657 86.771301270 2.3710000515 77.177299500 132.84280396 9.5867004395 9.4257001877
 3123.6391602 5.0000000000 8.5451002121 8.5000000000 39.728672028 0.0502000004 8.8454999924 0.2829000056 2.6129000187 4.3282999992 89.321899414 2.2497999668 77.361495972 132.52999878 9.9337997437 9.7656002045
 3123.7915039 5.0000000000 8.5487003326 8.5000000000 40.988845825 0.0337999985 9.5747003555 0.2781000137 2.6050999165 3.8387999535 92.993797302 2.0376999378 77.412002563 132.73039246 10.182299614 10.003499985
 3123.9440918 5.0000000000 8.5397996902 8.5000000000 41.429790497 0.0156999994 10.110699654 0.2736000121 2.5985999107 3.6572999954 94.890502930 1.8459000587 77.088096619 133.19990540 10.233799934 10.050299644
 3124.0964355 6.0000000000 8.5431003571 8.5000000000 42.312007904 0.0014000000 10.626099586 0.2739999890 2.5785999298 3.7695999146 94.624603271 1.6288000345 76.608596802 134.03829956 10.114399910 9.9280004501
 3124.2487793 6.0000000000 8.5700998306 8.5000000000 42.326774597 -0.001200000 11.130599976 0.2711000144 2.5559999943 3.8873000145 94.364501953 1.3192000389 76.314498901 134.18220520 9.9196996689 9.7306995392
 3124.4011230 6.0000000000 8.5909004211 8.5000000000 42.355972290 0.0071999999 11.246299744 0.2626999915 2.5508000851 3.8440999985 94.214500427 1.0932999849 76.335601807 134.32029724 9.7481002808 9.5577001572
 3124.5537109 6.0000000000 8.5864000320 8.5000000000 43.417980194 0.0179999992 10.994000435 0.2590000033 2.5566999912 3.7479999065 92.643402100 0.9981999993 76.385200500 134.58790588 9.7128000259 9.5215997696
 3124.7060547 6.0000000000 8.5726995468 8.5000000000 45.541996002 0.0208999999 10.450900078 0.2599999905 2.5513999462 3.7458999157 90.277603149 0.9942000508 76.701499939 135.08700562 9.9034004211 9.7111997604
 3124.8583984 6.0000000000 8.5614995956 8.5000000000 44.861549377 0.0233999994 9.9420003891 0.2581000030 2.5520000458 3.8183000088 88.531196594 1.0058000088 77.030693054 135.25650024 10.378399849 10.181200027
 3125.0107422 6.0000000000 8.5545997620 8.5000000000 43.500328064 0.0298999995 9.8099002838 0.2538000047 2.5660998821 3.8684999943 88.071998596 1.0076999664 77.675102234 135.09030151 11.057999611 10.850899696
 3125.1633301 6.0000000000 8.5513000488 8.5000000000 43.536090851 0.0328000002 10.022199631 0.2570999861 2.5694000721 3.8280000687 88.729598999 1.0226000547 77.949699402 134.79620361 11.526599884 11.319600105
 3125.3156738 6.0000000000 8.5481004715 8.5000000000 43.607612610 0.0296000000 10.533300400 0.2727000117 2.5560998917 3.6839001179 89.956901550 1.0267000198 77.764198303 134.95210266 11.534899712 11.344200134
 3125.4680176 6.0000000000 8.5514001846 8.5000000000 44.785758972 0.0275999997 10.844799995 0.2953999937 2.5497000217 3.5288999081 91.355201721 1.0191999674 77.582000732 135.16090393 11.378499985 11.207200050
 3125.6203613 6.0000000000 8.5578002930 8.5000000000 47.141735077 0.0272000004 11.410900116 0.3129999936 2.5539999008 3.4992001057 92.854499817 0.9768999815 77.607597351 135.59640503 11.330400467 11.171600342
 3125.7727051 6.0000000000 8.5587997437 8.5000000000 53.817256927 0.0238000005 11.750499725 0.3176000118 2.5574998856 3.5738999844 93.606498718 0.9391999841 77.686805725 135.65660095 11.375200272 11.221099854
 3125.9252930 6.0000000000 8.5629997253 8.5000000000 57.154857635 0.0181000009 11.771499634 0.3127000034 2.5583000183 3.6182999611 93.002098083 0.9255999923 77.374496460 135.61219788 11.463899612 11.305999756
 3126.0776367 6.0000000000 8.5715999603 8.5000000000 61.509189606 0.0076000001 11.578900337 0.3102999926 2.5467000008 3.6333000660 91.656196594 0.9499999881 77.200294495 135.09320068 11.597800255 11.426400185
 3126.2299805 6.0000000000 8.5663003922 8.5000000000 63.686351776 0.0118000004 11.325599670 0.3210999966 2.5474998951 3.7502000332 90.296997070 1.0269999504 77.071197510 134.83549500 11.746199608 11.551899910
 3126.3823242 6.0000000000 8.5461997986 8.5000000000 68.677169800 0.0166999996 11.067700386 0.3097999990 2.5476999283 3.8663001060 88.634696960 1.1282000542 76.922798157 135.16979980 11.835200310 11.611300468
 3126.5349121 6.0000000000 8.5312995911 8.5000000000 71.172904968 0.0215000007 10.863800049 0.2878000140 2.5434000492 3.9402000904 87.811698914 1.2425999641 76.959899902 135.91850281 11.783100128 11.527899742
 3126.6872559 6.0000000000 8.5329999924 8.5000000000 69.538383484 0.0266999993 10.740599632 0.2741000056 2.5392000675 3.9346001148 87.424400330 1.3745000362 77.040496826 137.27040100 11.495599747 11.215600014
 3126.8395996 6.0000000000 8.5427999496 8.5000000000 68.721130371 0.0322000012 10.706999779 0.2682999969 2.5425999165 3.7904000282 86.554603577 1.4606000185 77.303298950 137.93449402 10.953000069 10.661899567
 3126.9919434 6.0000000000 8.5662002563 8.5000000000 66.602035522 0.0326999985 10.704500198 0.2630000114 2.5453999043 3.5629000664 86.803596497 1.5111999512 77.535202026 138.50489807 10.409000397 10.118499756
 3127.1445313 6.0000000000 8.5694999695 8.5000000000 65.542648315 0.0258000009 10.628399849 0.2619999945 2.5380001068 3.4144999981 88.756896973 1.5290999413 78.023902893 137.66439819 10.189299583 9.9024000168
 3127.2968750 6.0000000000 8.5693998337 8.5000000000 63.311023712 0.0160000008 10.270299911 0.2703999877 2.5280001163 3.3900001049 90.153900146 1.5650000572 78.281600952 137.46679688 10.286299706 10.009400368
 3127.4492188 6.0000000000 8.5509004593 8.5000000000 62.195209503 0.0098999999 9.7391996384 0.2808000147 2.5306999683 3.4402000904 89.126502991 1.5950000286 78.052902222 137.20440674 10.401499748 10.148699760
 3127.6015625 6.0000000000 8.5419998169 8.5000000000 62.838584900 0.0052999998 9.3550996780 0.2831000090 2.5387001038 3.4897999763 86.752700806 1.5484000444 77.915611267 137.24710083 10.340499878 10.127699852
 3127.7539063 6.0000000000 8.5489997864 8.5000000000 63.160102844 -0.000600000 9.2018003464 0.2843999863 2.5380001068 3.5107998848 85.280899048 1.4555000067 78.016998291 137.02349854 10.182499886 10.015800476
 3127.9064941 6.0000000000 8.5537996292 8.5000000000 67.285102844 -0.003300000 9.2997999191 0.2881999910 2.5320999622 3.5659999847 85.544601440 1.3625999689 78.316802979 136.70419312 10.010999680 9.8842000961
