# LAS format log file from PETREL
# Project units are specified as depth units
#==================================================================
~Version information
VERS.   2.0:
WRAP.   NO:
#==================================================================
~Well
STRT .m      2949.7507324 :
STOP .m      3605.5278320 :
STEP .m     0.00000000 :
NULL .        -999.250000 :
COMP.           : COMPANY
WELL.  35/9-10 S   : WELL
FLD.            : FIELD
LOC.            : LOCATION
SRVC.           : SERVICE COMPANY
DATE.  2018-09-11 14:49:01   : Log Export Date {yyyy-MM-dd HH:mm:ss}
PROV.           : PROVINCE
UWI.   35/9-10 S   : UNIQUE WELL ID
API.            : API NUMBER
#==================================================================
~Curve
DEPT .m                   : DEPTH
Lithology_geolink ._      : Lithology_geolink
CALI .in                  : CALI
BS .in                    : BS
ROP .m/h                  : ROP
DRHO .g/cm3               : DRHO
THOR .ppm                 : THOR
NPHI .m3/m3               : NPHI
RHOB .g/cm3               : RHOB
PEF .b/e                  : PEF
GR .gAPI                  : GR
URAN .ppm                 : URAN
DTC .us/ft                : DTC
DTS .us/ft                : DTS
RDEP .ohm.m               : RDEP
RMED .ohm.m               : RMED
~Parameter
#==================================================================
~Ascii
# ...
 3038.9045410 12.000000000 8.6021995544 8.5000000000 96.970161438 0.0248000007 5.0953998566 0.1651999950 2.5952000618 4.5512580872 43.742893219 0.5044000149 81.166305542 154.01255798 4.0766000748 3.9523000717
 3039.0571289 12.000000000 8.6054000854 8.5000000000 96.033332825 0.0097000012 5.5360999107 0.1673000008 2.5870130062 4.2800345421 48.473731995 0.5486999750 81.728698730 158.16284180 3.5787000656 3.4783000946
 3039.2094727 12.000000000 8.6169996262 8.5000000000 93.981964111 -0.002400000 6.0746998787 0.1844999939 2.5796120167 4.2991685867 51.539588928 0.5590000153 83.450340271 160.59301758 3.2541999817 3.1689999104
 3039.3618164 12.000000000 8.6565999985 8.5000000000 92.872512817 -0.008800000 6.7494001389 0.2225999981 2.5280828476 5.3315429688 52.815559387 0.5461999774 86.015579224 165.87393188 3.1173999310 3.0399999619
 3039.5141602 12.000000000 8.5207996368 8.5000000000 92.537155151 0.0692000017 7.5026998520 0.2606999874 2.5871102810 7.6421875954 54.309810638 0.5357000232 90.617240906 177.68920898 2.9137001038 2.8494999409
 3039.6667480 12.000000000 8.5207996368 8.5000000000 93.308151245 0.0720999986 8.3781995773 0.3073999882 2.5830068588 7.7450470924 58.091239929 0.5600000024 93.473236084 186.43029785 2.5617001057 2.5178999901
 3039.8190918 6.0000000000 8.5643997192 8.5000000000 93.936004639 0.0619000010 9.3937997818 0.3488999903 2.5613348484 7.8843770027 64.757614136 0.6653000116 94.386940002 193.29539490 2.2578999996 2.2309000492
 3039.9714355 6.0000000000 8.5643997192 8.5000000000 93.791900635 0.0581000000 10.401200294 0.3375999928 2.5607008934 7.8900914192 72.823066711 0.7685999870 97.954078674 194.90982056 2.1008000374 2.0869998932
 3040.1237793 6.0000000000 8.5643997192 8.5000000000 99.583877563 0.0600999966 11.158200264 0.3366000056 2.5704841614 7.9467091560 78.542137146 0.7802000046 99.357650757 196.37339783 2.0329000950 2.0315999985
 3040.2763672 6.0000000000 8.5643997192 8.5000000000 111.46817780 0.0674000010 11.381600380 0.3673999906 2.5746934414 7.8169083595 79.431785583 0.7677000165 101.51054382 196.38398743 1.9629000425 1.9732999802
 3040.4287109 6.0000000000 8.5643997192 8.5000000000 111.05777740 0.0666000098 11.424300194 0.3684999943 2.5676114559 7.6914010048 78.495704651 0.7802000046 101.70299530 195.91671753 1.8746000528 1.8954000473
 3040.5810547 6.0000000000 8.5643997192 8.5000000000 110.19823456 0.0586999990 11.529199600 0.3370000124 2.5522248745 7.6517634392 79.964843750 0.7860000134 101.10346222 194.38000488 1.8272999525 1.8576999903
 3040.7333984 6.0000000000 8.5643997192 8.5000000000 111.62795258 0.0579999983 11.666899681 0.3190999925 2.5540969372 7.7009210587 83.818023682 0.8184999824 100.29430389 193.49800110 1.8507000208 1.8925000429
 3040.8857422 6.0000000000 8.5535001755 8.5000000000 114.48788452 0.0656000003 11.682499886 0.3224000037 2.5665600300 7.5871653557 86.074974060 0.9132999778 99.549995422 191.97149658 1.9082000256 1.9622999430
 3041.0383301 6.0000000000 8.5207996368 8.5000000000 113.97360992 0.0693000033 11.773500443 0.3411999941 2.5604100227 7.3075480461 83.713401794 1.0607000589 99.683479309 191.49060059 1.9197000265 1.9823000431
 3041.1906738 6.0000000000 8.5643997192 8.5000000000 112.92621613 0.0725999996 11.673399925 0.3779999912 2.5372371674 6.7296271324 80.221397400 1.2075999975 100.89425659 191.33740234 1.8221999407 1.8832999468
 3041.3430176 6.0000000000 8.5643997192 8.5000000000 113.93571472 0.0706999972 11.448699951 0.3896000087 2.5210258961 6.5312170982 80.323127747 1.3387999535 101.69371796 192.44111633 1.6425000429 1.6943999529
 3041.4953613 6.0000000000 8.5643997192 8.5000000000 115.95645142 0.0702000037 11.533200264 0.4050999880 2.4964787960 6.4402909279 84.197463989 1.5342999697 103.49942017 196.85108948 1.4989999533 1.5420999527
 3041.6479492 6.0000000000 8.5643997192 8.5000000000 118.85657501 0.0715999976 12.280200005 0.4187000096 2.4859168530 6.5289573669 90.545631409 1.8552999496 104.75818634 199.86541748 1.4601999521 1.5002000332
 3041.8002930 6.0000000000 8.5425996780 8.5000000000 124.64851379 0.0728999972 13.383700371 0.4456999898 2.4559481144 6.8067541122 99.401199341 2.3415000439 108.17742157 205.23049927 1.5108000040 1.5516999960
 3041.9526367 6.0000000000 8.5296001434 8.5000000000 126.95531464 0.0703999996 14.043499947 0.4526000023 2.4358322620 6.9047436714 110.02926636 3.1772999763 110.18788147 207.20610046 1.5932999849 1.6361000538
 3042.1049805 6.0000000000 8.5643997192 8.5000000000 131.54695129 0.0627999976 13.754400253 0.4535000026 2.4121758938 7.0005927086 121.09273529 4.4878997803 113.38983154 210.36210632 1.6407999992 1.6830999851
 3042.2575684 6.0000000000 8.5643997192 8.5000000000 132.55319214 0.0599000007 13.458499908 0.4487000108 2.4100034237 7.0338468552 131.88583374 5.9211997986 114.25842285 211.64482117 1.6281000376 1.6670999527
 3042.4099121 6.0000000000 8.5643997192 8.5000000000 133.54598999 0.0570000000 13.691399574 0.4334000051 2.4103991985 7.0205216408 140.92811584 6.8688998222 115.17193604 213.46380615 1.5882999897 1.6233999729
 3042.5622559 6.0000000000 8.5643997192 8.5000000000 134.53909302 0.0557000004 13.950900078 0.4300000072 2.4099006653 6.9880518913 145.88276672 7.1904001236 115.52503204 213.74761963 1.5563999414 1.5887999535
 3042.7145996 6.0000000000 9.1219997406 8.5000000000 132.22451782 0.0970999971 14.234399796 0.4323999882 2.4093010426 6.1563353539 145.62643433 7.3134999275 115.78138733 213.78883362 1.5321999788 1.5627000332
 3042.8669434 6.0000000000 9.1100997925 8.5000000000 131.06440735 0.1014000028 14.382800102 0.4300999939 2.4009268284 6.7953443527 142.61148071 7.3600997925 115.56579590 214.04211426 1.5233999491 1.5532000065
 3043.0195313 7.0000000000 9.1121997833 8.5000000000 129.65710449 0.1134999990 14.352800369 0.4122999907 2.3974056244 7.3456201553 140.06886292 7.3057999611 115.13369751 214.25559998 1.5575000048 1.5884000063
 3043.1718750 7.0000000000 9.1049995422 8.5000000000 128.95323181 0.1298000067 14.168600082 0.4117000103 2.4005947113 7.4361557961 139.23973083 7.1250000000 115.10475159 213.86669922 1.6301000118 1.6638000011
 3043.3242188 7.0000000000 9.0777997971 8.5000000000 120.25248718 0.1414999962 13.845100403 0.4266999960 2.3983035088 7.3396549225 138.21124268 6.8713002205 115.91920471 213.44529724 1.6980999708 1.7339999676
 3043.4765625 7.0000000000 9.0685997009 8.5000000000 120.01481628 0.1415999979 13.517100334 0.4472999871 2.3773672581 7.4291124344 137.03517151 6.6944999695 117.38679504 215.29969788 1.7381999493 1.7749999762
 3043.6291504 7.0000000000 9.0211000443 8.5000000000 124.14003754 0.1365000010 13.319800377 0.4629999995 2.3518407345 7.5608887672 137.90849304 6.6339998245 117.99214172 217.18139648 1.7611999512 1.7977000475
 3043.7814941 7.0000000000 8.8942003250 8.5000000000 132.35232544 0.1325999945 13.208900452 0.4562999904 2.3386211395 7.2935295105 141.74903870 6.6599001884 117.90543365 221.28819275 1.7871999741 1.8233000040
 3043.9338379 7.0000000000 8.7569999695 8.5000000000 136.44555664 0.1330000013 13.253399849 0.4435000122 2.3527772427 6.6427435875 146.36450195 6.9109997749 117.65399933 222.41520691 1.8422000408 1.8787000179
 3044.0861816 7.0000000000 8.6844997406 8.5000000000 144.42616272 0.1269000024 13.500100136 0.4517000020 2.3793148994 6.1857638359 149.79980469 7.3618001938 116.69757080 219.04800415 1.9293999672 1.9672000408
 3044.2387695 7.0000000000 8.6475000381 8.5000000000 148.35888672 0.1017000005 13.879899979 0.4706000090 2.3859894276 6.1896915436 151.12699890 7.7800993919 116.20368958 215.20880127 2.0425000191 2.0820999146
 3044.3911133 7.0000000000 8.6232995987 8.5000000000 154.85998535 0.0643000007 14.350700378 0.4896000028 2.3686277866 6.2106661797 150.64497375 8.0827999115 115.50452423 206.40440369 2.2046999931 2.2469000816
 3044.5434570 7.0000000000 8.6049995422 8.5000000000 157.45845032 0.0423999988 14.888999939 0.5174000263 2.3577175140 5.9385366440 149.78198242 8.3367996216 114.97853851 203.01731873 2.3984000683 2.4428000450
 3044.6958008 7.0000000000 8.5994997025 8.5000000000 155.23159790 0.0500999987 15.401900291 0.5446000099 2.3552041054 5.5662970543 150.66688538 8.6093997955 113.62407684 200.95939636 2.5037000179 2.5446999073
