# LAS format log file from PETREL
# Project units are specified as depth units
#==================================================================
~Version information
VERS.   2.0:
WRAP.   NO:
#==================================================================
~Well
STRT .m      2949.7507324 :
STOP .m      3605.5278320 :
STEP .m     0.00000000 :
NULL .        -999.250000 :
COMP.           : COMPANY
WELL.  35/9-10 S   : WELL
FLD.            : FIELD
LOC.            : LOCATION
SRVC.           : SERVICE COMPANY
DATE.  2018-09-11 14:49:01   : Log Export Date {yyyy-MM-dd HH:mm:ss}
PROV.           : PROVINCE
UWI.   35/9-10 S   : UNIQUE WELL ID
API.            : API NUMBER
#==================================================================
~Curve
DEPT .m                   : DEPTH
Lithology_geolink ._      : Lithology_geolink
CALI .in                  : CALI
BS .in                    : BS
ROP .m/h                  : ROP
DRHO .g/cm3               : DRHO
THOR .ppm                 : THOR
NPHI .m3/m3               : NPHI
RHOB .g/cm3               : RHOB
PEF .b/e                  : PEF
GR .gAPI                  : GR
URAN .ppm                 : URAN
DTC .us/ft                : DTC
DTS .us/ft                : DTS
RDEP .ohm.m               : RDEP
RMED .ohm.m               : RMED
~Parameter
#==================================================================
~Ascii
# ...
 3336.0847168 5.0000000000 8.5791997910 8.5000000000 75.077430725 0.0276999995 12.449600220 0.3490000069 2.5260188580 3.7487800121 84.119186401 0.3887000084 86.513137817 162.28681946 8.3809003830 8.2257995605
 3336.2370605 5.0000000000 8.5910997391 8.5000000000 72.263694763 0.0383000001 12.498200417 0.3427999914 2.5060319901 3.7872385979 85.161727905 0.3885999918 86.524085999 160.48060608 8.2861003876 8.1318998337
 3336.3894043 5.0000000000 8.5869998932 8.5000000000 71.025924683 0.0502999984 12.314499855 0.3429999948 2.4926214218 3.7404751778 86.014633179 0.4611000121 86.380325317 159.53631592 8.2220001221 8.0665998459
 3336.5417480 5.0000000000 8.5699996948 8.5000000000 72.597969055 0.0615000017 12.003499985 0.3441999853 2.5041627884 3.6293563843 87.097724915 0.5792000294 86.617233276 159.37292480 8.2020998001 8.0427999496
 3336.6943359 5.0000000000 8.5580997467 8.5000000000 73.826126099 0.0603000000 11.752499580 0.3391000032 2.5301582813 3.4995079041 89.875846863 0.7039999962 86.868484497 159.10520935 8.1838998795 8.0190000534
 3336.8466797 5.0000000000 8.5538997650 8.5000000000 73.474647522 0.0384000018 11.585599899 0.3283999860 2.5424802303 3.3611216545 93.200370789 0.7894999981 86.268959045 158.61509705 8.1765003204 8.0045003891
 3336.9990234 5.0000000000 8.5516004562 8.5000000000 70.793670654 0.0062000002 11.562899590 0.3176999986 2.5370087624 3.2120389938 94.368927002 0.7621999979 85.259712219 157.98390198 8.2166004181 8.0360002518
 3337.1513672 6.0000000000 8.5537004471 8.5000000000 68.466445923 -0.010300000 11.612799644 0.3176999986 2.5434792042 3.1162068844 93.615028381 0.6567999721 84.325393677 157.49096680 8.3246002197 8.1344995499
 3337.3039551 6.0000000000 8.5618000031 8.5000000000 68.417388916 -0.012000000 11.524900436 0.3264000118 2.5556805134 3.1111075878 92.661125183 0.6033999920 84.205787659 157.60351563 8.5053997040 8.3058004379
 3337.4562988 6.0000000000 8.5629997253 8.5000000000 70.702369690 -0.008100000 11.209500313 0.3341000080 2.5544021130 3.1411519051 91.647628784 0.6901000142 84.967468262 158.47921753 8.6936998367 8.4865999222
 3337.6086426 6.0000000000 8.5518999100 8.5000000000 73.494865417 -0.003800000 10.698800087 0.3343000114 2.5446157455 3.1306169033 90.727874756 0.9168999791 85.836807251 159.78021240 8.7770996094 8.5677995682
 3337.7609863 6.0000000000 8.5493001938 8.5000000000 73.751235962 0.0001000000 10.046099663 0.3282000124 2.5409059525 3.1022455692 90.325637817 1.2849999666 86.806343079 161.22668457 8.7362003326 8.5300998688
 3337.9133301 6.0000000000 8.5607004166 8.5000000000 74.506111145 0.0012000001 9.5368003845 0.3258999884 2.5360157490 3.1572232246 90.563140869 1.7236000299 87.530578613 163.06300354 8.6420001984 8.4425001144
 3338.0659180 6.0000000000 8.5677003860 8.5000000000 75.361816406 -0.001200000 9.4554004669 0.3341999948 2.5183284283 3.3201386929 91.424217224 2.0313000679 87.753051758 164.40126038 8.5375995636 8.3465995789
 3338.2182617 6.0000000000 8.5699996948 8.5000000000 77.070098877 0.0041000000 9.6789999008 0.3495000005 2.5028247833 3.5297639370 92.135459900 2.1480998993 87.663742065 164.33860779 8.3936004639 8.2130002975
 3338.3706055 6.0000000000 8.5836000443 8.5000000000 78.773513794 0.0238000005 10.022199631 0.3632999957 2.5002040863 3.7011256218 92.376319885 2.1098999977 87.321052551 159.00138855 8.2327003479 8.0642995834
 3338.5229492 6.0000000000 8.5981998444 8.5000000000 82.172172546 0.0509000011 10.427700043 0.3704000115 2.5107660294 3.7761600018 93.286079407 1.9178999662 86.833564758 153.28343201 8.1857995987 8.0285997391
 3338.6755371 6.0000000000 8.6006002426 8.5000000000 81.166656494 0.0723000020 10.732099533 0.3736999929 2.5299692154 3.7302742004 94.424873352 1.6779999733 86.025100708 143.98899841 8.2946996689 8.1422004700
 3338.8278809 5.0000000000 8.6041002274 8.5000000000 80.656982422 0.0759000033 10.772500038 0.3675000072 2.5477714539 3.5728523731 93.291320801 1.4960000515 85.262702942 148.74774170 8.4509000778 8.3038997650
 3338.9802246 5.0000000000 8.6150999069 8.5000000000 80.341712952 0.0601999983 10.638600349 0.3409000039 2.5560865402 3.3206045628 89.667610168 1.3279999495 84.272697449 150.94717407 8.5591001511 8.4256000519
 3339.1325684 5.0000000000 8.6162004471 8.5000000000 80.184234619 0.0346999988 10.428700447 0.3048999906 2.5580935478 3.0535559654 87.278656006 1.1728999615 83.280082703 152.92996216 8.5462999344 8.4282999039
 3339.2851563 5.0000000000 8.6083002090 8.5000000000 75.692573547 0.0129000004 10.190999985 0.2806000113 2.5595977306 2.9514625072 87.105369568 1.0994000435 82.073127747 152.59983826 8.3463001251 8.2558002472
 3339.4375000 5.0000000000 8.6028003693 8.5000000000 73.439956665 -0.001300000 10.044400215 0.2721000016 2.5540089607 3.0674135685 87.357597351 1.0925999880 82.015190125 152.80996704 8.0549001694 7.9773998260
 3339.5898438 5.0000000000 8.6021995544 8.5000000000 75.805908203 -0.005400000 10.036100388 0.2766000032 2.5443155766 3.2269442081 87.560768127 1.1073000431 82.577201843 153.28463745 7.7519998550 7.6835999489
 3339.7421875 5.0000000000 8.5949001312 8.5000000000 76.994491577 -0.003500000 10.079000473 0.3012999892 2.5288248062 3.2400791645 88.788528442 1.1937999725 83.802932739 153.72059631 7.3231000900 7.2621998787
 3339.8945313 6.0000000000 8.5769996643 8.5000000000 77.120010376 0.0063999998 10.197999954 0.3427000046 2.5183336735 3.1788964272 91.378089905 1.3815000057 85.438560486 154.86749268 6.7220997810 6.6673002243
 3340.0471191 6.0000000000 8.5551996231 8.5000000000 77.182312012 0.0216000006 10.401700020 0.3657000065 2.5176012516 3.1584324837 94.254096985 1.6198999882 88.022750854 158.26170349 6.1131000519 6.0668001175
 3340.1994629 6.0000000000 8.5481004715 8.5000000000 77.813293457 0.0348000005 10.582300186 0.3481999934 2.5238900185 3.1371340752 97.017372131 1.8845000267 90.149986267 165.69378662 5.7386999130 5.6982998848
 3340.3518066 6.0000000000 8.5607004166 8.5000000000 78.129745483 0.0399999991 10.777400017 0.3255999982 2.5310885906 3.0809900761 100.41365051 2.1410000324 92.169464111 173.46189880 5.6805000305 5.6406998634
 3340.5041504 6.0000000000 8.5763998032 8.5000000000 75.628440857 0.0340999998 11.083100319 0.3176000118 2.5291063786 3.1025307178 103.87371063 2.3215999603 93.609893799 180.48379517 5.8344998360 5.7947001457
 3340.6567383 6.0000000000 8.5783004761 8.5000000000 74.367828369 0.0208000001 11.481599808 0.3239000142 2.5070354939 3.2180147171 104.97564697 2.4217000008 95.173500061 183.57157898 6.0054998398 5.9663000107
 3340.8090820 6.0000000000 8.5706996918 8.5000000000 83.531219482 0.0093000000 11.920700073 0.3481000066 2.4686615467 3.2539424896 104.41949463 2.4567999840 96.897239685 184.88510132 6.0499000549 6.0146999359
 3340.9614258 6.0000000000 8.5658998489 8.5000000000 88.128471375 0.0115000000 12.446399689 0.3745000064 2.4439396858 3.1744277477 103.89473724 2.4114000797 98.456802368 184.96908569 5.9583997726 5.9314999580
 3341.1137695 6.0000000000 8.5635004044 8.5000000000 91.447052002 0.0243999995 12.948300362 0.3815000057 2.4450962543 3.1219680309 103.27478790 2.3534998894 99.922897339 183.76953125 5.7814002037 5.7637000084
 3341.2663574 6.0000000000 8.5593996048 8.5000000000 93.115776062 0.0339000002 13.210900307 0.3882000148 2.4568810463 3.1842997074 102.96199799 2.3773000240 99.681297302 181.28950500 5.6199002266 5.6135001183
 3341.4187012 6.0000000000 8.5490999222 8.5000000000 95.849945068 0.0306000002 13.316599846 0.4065000117 2.4619917870 3.2854378223 104.90587616 2.4749999046 98.724235535 178.74020386 5.6069002151 5.6048002243
 3341.5710449 6.0000000000 8.5357999802 8.5000000000 97.219924927 0.0194000024 13.394200325 0.3995000124 2.4634976387 3.2940864563 108.24044800 2.6266999245 97.608291626 173.98190308 5.8011999130 5.8022999763
 3341.7233887 6.0000000000 8.5315999985 8.5000000000 97.366897583 0.0104000000 13.428600311 0.3698000014 2.4712874889 3.2132296562 110.46094513 2.8264999390 97.299392700 182.24600220 6.0904002190 6.0917000771
 3341.8757324 6.0000000000 8.5542001724 8.5000000000 98.271049500 0.0054000001 13.424300194 0.3508999944 2.4748885632 3.1937620640 109.93499756 2.9574000835 97.970443726 187.35420227 6.2508001328 6.2486000061
