# LAS format log file from PETREL
# Project units are specified as depth units
#==================================================================
~Version information
VERS.   2.0:
WRAP.   NO:
#==================================================================
~Well
STRT .m      2949.7507324 :
STOP .m      3605.5278320 :
STEP .m     0.00000000 :
NULL .        -999.250000 :
COMP.           : COMPANY
WELL.  35/9-10 S   : WELL
FLD.            : FIELD
LOC.            : LOCATION
SRVC.           : SERVICE COMPANY
DATE.  2018-09-11 14:49:01   : Log Export Date {yyyy-MM-dd HH:mm:ss}
PROV.           : PROVINCE
UWI.   35/9-10 S   : UNIQUE WELL ID
API.            : API NUMBER
#==================================================================
~Curve
DEPT .m                   : DEPTH
Lithology_geolink ._      : Lithology_geolink
CALI .in                  : CALI
BS .in                    : BS
ROP .m/h                  : ROP
DRHO .g/cm3               : DRHO
THOR .ppm                 : THOR
NPHI .m3/m3               : NPHI
RHOB .g/cm3               : RHOB
PEF .b/e                  : PEF
GR .gAPI                  : GR
URAN .ppm                 : URAN
DTC .us/ft                : DTC
DTS .us/ft                : DTS
RDEP .ohm.m               : RDEP
RMED .ohm.m               : RMED
~Parameter
#==================================================================
~Ascii
# ...
 3211.2690430 5.0000000000 8.5406999588 8.5000000000  -999.250000 0.0250000004 8.6969003677 0.3134999871 2.5477256775 3.8953418732 74.363700867 0.0126999998 77.013206482 138.01069641 11.735500336 11.476799965
 3211.4213867 5.0000000000 8.5518999100 8.5000000000  -999.250000 0.0252999999 8.6796998978 0.3054000139 2.5280630589 3.8873262405 75.924201965 0.0016000000 77.939094543 138.94630432 10.926500320 10.685799599
 3211.5739746 5.0000000000 8.5677995682 8.5000000000 15.029472351 0.0216000006 8.6803998947 0.2991000116 2.5189144611 3.8170127869 75.210601807 0.0016000000 78.815200806 139.25889587 10.478500366 10.239899635
 3211.7263184 5.0000000000 8.5752000809 8.5000000000 17.301811218 0.0136000002 8.7214002609 0.3037000000 2.5147066116 3.7078750134 73.626098633 0.0016000000 79.189498901 139.80839539 10.324899673 10.075799942
 3211.8786621 5.0000000000 8.5607004166 8.5000000000 25.894678116 0.0033000000 8.7244997025 0.3115999997 2.5112056732 3.5825009346 72.634399414 0.0016000000 79.235610962 140.43699646 10.231800079 9.9660997391
 3212.0310059 5.0000000000 8.5336999893 8.5000000000 30.195882797 -0.002700000 8.5784997940 0.3088000119 2.5130937099 3.5341544151 73.304000854 0.0016000000 78.909004211 140.90190125 10.250100136 9.9621000290
 3212.1835938 5.0000000000 8.5211000443 8.5000000000 44.487907410 -0.001300000 8.2658996582 0.2957000136 2.5189905167 3.6315433979 74.273002625 0.0016000000 78.631111145 140.82679749 10.491399765 10.172200203
 3212.3359375 5.0000000000 8.5293998718 8.5000000000 51.649959564 0.0098999999 7.8458995819 0.2847000062 2.5227937698 3.7918429375 73.636001587 0.0016000000 78.564300537 140.51119995 10.907699585 10.550200462
 3212.4882813 5.0000000000 8.5387001038 8.5000000000 49.475948334 0.0285000000 7.4240999222 0.2851999998 2.5227999687 3.9049189091 73.253303528 0.1226999983 78.721488953 140.73179626 11.263400078 10.869799614
 3212.6406250 5.0000000000 8.5390996933 8.5000000000 48.379707336 0.0467999987 7.0668997765 0.2928999960 2.5238983631 3.9477314949 75.875602722 0.3185000122 79.003890991 140.67489624 11.351200104 10.931099892
 3212.7932129 5.0000000000 8.5415000916 8.5000000000 49.353752136 0.0566000007 6.8510999680 0.2987000048 2.5303895473 3.9486985207 79.265800476 0.4307999909 78.965599060 141.08380127 11.250900269 10.812800407
 3212.9455566 5.0000000000 8.5544004440 8.5000000000 49.843379974 0.0529000014 6.8059000969 0.3039000034 2.5382874012 3.9059686661 79.311897278 0.3984999955 79.251998901 141.26480103 11.168399811 10.713500023
 3213.0979004 5.0000000000 8.5682001114 8.5000000000 57.354091644 0.0377000012 6.9001002312 0.3089999855 2.5421938896 3.7530453205 76.921798706 0.2673999965 79.809097290 141.90800476 11.167099953 10.693200111
 3213.2502441 5.0000000000 8.5679998398 8.5000000000 61.121269226 0.0209999997 7.0742001534 0.3068000078 2.5472919941 3.5481286049 76.245597839 0.0930999964 80.873397827 141.90550232 11.182000160 10.688199997
 3213.4025879 5.0000000000 8.5569000244 8.5000000000 56.962184906 0.0055000000 7.2362999916 0.3018000126 2.5427148342 3.4494159222 77.253196716 0.0016000000 81.488197327 140.39329529 11.151800156 10.635000229
 3213.5551758 5.0000000000 8.5522003174 8.5000000000 54.862934113 -0.004800000 7.2578001022 0.3034999967 2.5253279209 3.4971230030 77.122100830 0.0016000000 81.799400330 140.02319336 11.086899757 10.542900085
 3213.7075195 5.0000000000 8.5534000397 8.5000000000 56.803150177 -0.006300000 7.1185002327 0.3055999875 2.5070292950 3.6384732723 76.360099792 0.0214000009 81.563697815 141.24630737 11.026200294 10.454700470
 3213.8598633 5.0000000000 8.5520000458 8.5000000000 56.054462433 0.0034000000 6.9162001610 0.3059999943 2.4954185486 3.7679924965 77.059898376 0.2037999928 81.317596436 139.71420288 10.997699738 10.404899597
 3214.0122070 5.0000000000 8.5537996292 8.5000000000 54.557418823 0.0240000002 6.7333998680 0.3107999861 2.4945027828 3.7345082760 78.589996338 0.3792000115 81.224891663 139.78649902 11.015600204 10.399999619
 3214.1647949 5.0000000000 8.5585002899 8.5000000000 56.620735168 0.0432000011 6.5998001099 0.3186999857 2.5033857822 3.5431070328 78.992202759 0.5192000270 81.338211060 140.44990540 11.076299667 10.435600281
 3214.3171387 5.0000000000 8.5585002899 8.5000000000 60.747375488 0.0489999987 6.6051998138 0.3152999878 2.5142827034 3.3960356712 77.908798218 0.5284000039 81.554603577 140.35369873 11.118700027 10.454299927
 3214.4694824 5.0000000000 8.5509004593 8.5000000000 62.188644409 0.0366999991 6.7638001442 0.2985999882 2.5167956352 3.4031879902 77.209800720 0.3517000079 81.455001831 138.67680359 11.053700447 10.372699738
 3214.6218262 5.0000000000 8.5360002518 8.5000000000 65.071197510 0.0137000000 6.9920997620 0.2840000093 2.5102212429 3.4216408730 77.452598572 0.0724000037 81.135902405 137.54289246 10.897199631 10.210900307
 3214.7744141 5.0000000000 8.5274000168 8.5000000000 63.412723541 -0.002400000 7.2193999290 0.2881000042 2.5106992722 3.3178665638 78.037498474 0.0016000000 80.922698975 137.00000000 10.785699844 10.091199875
 3214.9267578 5.0000000000 8.5376996994 8.5000000000 62.583660126 -0.005000000 7.4270000458 0.3059000075 2.5197854042 3.1806199551 78.628097534 0.0016000000 81.308509827 137.00000000 10.800399780 10.089900017
 3215.0791016 5.0000000000 8.5445995331 8.5000000000 63.294300079 -0.001500000 7.6132001877 0.3156000078 2.5225954056 3.1148054600 79.465499878 0.0016000000 81.510101318 137.00000000 10.875100136 10.146699905
 3215.2314453 5.0000000000 8.5399999619 8.5000000000 63.649276733 0.0057000001 7.7585000992 0.3073000014 2.5179076195 3.1428546906 79.824897766 0.0016000000 82.349197388 137.00000000 10.903200150 10.162599564
 3215.3837891 5.0000000000 8.5444002151 8.5000000000 73.581039429 0.0135000004 7.8516998291 0.2992999852 2.5116202831 3.2178595066 79.736503601 0.0016000000 82.307899475 137.89999390 10.834699631 10.090399742
 3215.5363770 5.0000000000 8.5520000458 8.5000000000 78.546585083 0.0208000001 7.9126000404 0.3052000105 2.5134968758 3.2988703251 79.544296265 0.0016000000 82.353996277 138.80000305 10.724900246 9.9799003601
 3215.6887207 5.0000000000 8.5495004654 8.5000000000 67.941276550 0.0258000009 7.8853001595 0.3197000027 2.5224857330 3.4318866730 79.183197021 0.0016000000 82.218391418 142.16580200 10.684599876 9.9334001541
 3215.8410645 5.0000000000 8.5518999100 8.5000000000 62.638450623 0.0250000004 7.8008999825 0.3221000135 2.5209026337 3.6774060726 79.277397156 0.0254999995 82.043609619 143.14460754 10.752599716 9.9870004654
 3215.9934082 5.0000000000 8.5607004166 8.5000000000 65.295280457 0.0194000024 7.7576994896 0.3100999892 2.5037550926 3.9100544453 79.460403442 0.0471000001 81.837501526 147.83020020 10.879099846 10.102999687
 3216.1459961 5.0000000000 8.5678997040 8.5000000000 66.624015808 0.0189999994 7.7856001854 0.3018000126 2.4962120056 3.9167904854 79.013801575 0.0564000010 81.537597656 148.72920227 10.991900444 10.211799622
 3216.2983398 6.0000000000 8.5680999756 8.5000000000 83.341537476 0.0240000002 7.8949995041 0.3018000126 2.5058844090 3.7095324993 78.434196472 0.0505999997 81.103004456 149.73030090 11.035699844 10.259300232
 3216.4506836 6.0000000000 8.5592002869 8.5000000000 91.700462341 0.0281000007 8.0656003952 0.3046999872 2.5218741894 3.5433661938 78.840301514 0.0445999987 80.868499756 149.39540100 10.985799789 10.222399712
 3216.6030273 6.0000000000 8.5461997986 8.5000000000 85.375984192 0.0263000000 8.2771997452 0.3039000034 2.5315690041 3.5228648186 80.121597290 0.0401000008 80.822998047 149.56149292 10.868499756 10.125200272
 3216.7556152 6.0000000000 8.5511999130 8.5000000000 82.213584900 0.0208000001 8.4899997711 0.3021999896 2.5332973003 3.5323843956 81.659896851 0.0417000018 81.272003174 148.88360596 10.748999596 10.027899742
 3216.9079590 6.0000000000 8.5732002258 8.5000000000 74.437011719 0.0154999997 8.6335000992 0.3073000014 2.5301053524 3.5174241066 82.230796814 0.0348999985 81.747497559 147.59320068 10.687299728 9.9862003326
 3217.0603027 6.0000000000 8.5887002945 8.5000000000 70.548561096 0.0109999999 8.7572002411 0.3170999885 2.5254075527 3.5372681618 81.331802368 0.0016000000 81.911697388 143.22419739 10.722399712 10.036899567
