# LAS format log file from PETREL
# Project units are specified as depth units
#==================================================================
~Version information
VERS.   2.0:
WRAP.   NO:
#==================================================================
~Well
STRT .m      1350.9222412 :
STOP .m      2973.9824219 :
STEP .m     0.00000000 :
NULL .        -999.250000 :
COMP.           : COMPANY
WELL.  35/9-7   : WELL
FLD.            : FIELD
LOC.            : LOCATION
SRVC.           : SERVICE COMPANY
DATE.  2018-09-11 14:49:02   : Log Export Date {yyyy-MM-dd HH:mm:ss}
PROV.           : PROVINCE
UWI.   35/9-7   : UNIQUE WELL ID
API.            : API NUMBER
#==================================================================
~Curve
DEPT .m                   : DEPTH
Lithology_geolink ._      : Lithology_geolink
CALI .in                  : CALI
BS .in                    : BS
ROP .m/h                  : ROP
DRHO .g/cm3               : DRHO
THOR .ppm                 : THOR
NPHI .m3/m3               : NPHI
RHOB .g/cm3               : RHOB
PEF .b/e                  : PEF
GR .gAPI                  : GR
URAN .ppm                 : URAN
DTC .us/ft                : DTC
DTS .us/ft                : DTS
RDEP .ohm.m               : RDEP
RMIC .ohm.m               : RMIC
RMED .ohm.m               : RMED
~Parameter
#==================================================================
~Ascii
# ...
 2213.6586914 13.000000000 12.390000343 12.250000954 32.545932770 0.1321000010  -999.250000 0.3142097890 2.4556999207 4.9510998726 67.792404175  -999.250000 107.04959869 225.66441345 1.4019000530  -999.250000 1.3990000486
 2213.8112793 13.000000000 12.354000092 12.250000954 26.213911057 0.1392000020  -999.250000 0.3352999985 2.4618000984 5.1985998154 71.510002136  -999.250000 106.52110291 229.20391846 1.3927999735  -999.250000 1.3819999695
 2213.9636230 13.000000000 12.281999588 12.250000954 23.064306259 0.1435000002  -999.250000 0.3222999871 2.4651000500 5.3165001869 70.830001831  -999.250000 106.36409760 230.57789612 1.3942999840  -999.250000 1.3799999952
 2214.1159668 13.000000000 12.354000092 12.250000954 31.036745071 0.1400000006  -999.250000 0.3310859203 2.4667999744 5.2056999207 71.688629150  -999.250000 105.90440369 231.16375732 1.4220000505  -999.250000 1.4420000315
 2214.2683105 13.000000000 12.390000343 12.250000954 35.039371490 0.1342000067  -999.250000 0.3279051185 2.4663999081 5.0672001839 69.563407898  -999.250000 105.83219910 229.66300964 1.4278000593  -999.250000 1.4650000334
 2214.4208984 13.000000000 12.317999840 12.250000954 27.821521759 0.1221999973  -999.250000 0.3339999914 2.4577000141 5.0222997665 65.169998169  -999.250000 106.40519714 225.98199463 1.4517999887  -999.250000 1.4750000238
 2214.5732422 13.000000000 12.300000191 12.250000954 26.443571091 0.1181000024  -999.250000 0.3371999860 2.4460000992 5.1227998734 66.620002747  -999.250000 106.80439758 221.49450684 1.4577000141  -999.250000 1.4750000238
 2214.7255859 13.000000000 12.281999588 12.250000954 28.674541473 0.1212000027  -999.250000 0.3395961523 2.4447999001 5.1476001740 67.308891296  -999.250000 106.79229736 218.51518250 1.4613000154  -999.250000 1.4859999418
 2214.8779297 13.000000000 12.338000298 12.250000954 29.757217407 0.1330000013  -999.250000 0.3411974311 2.4465000629 5.2536997795 69.626281738  -999.250000 106.74739838 214.73936462 1.4637999535  -999.250000 1.4739999771
 2215.0302734 13.000000000 12.317999840 12.250000954 28.641731262 0.1376000047  -999.250000 0.3371065557 2.4488000870 5.3298997879 68.981048584  -999.250000 106.80770111 212.71903992 1.4622999430  -999.250000 1.4680000544
 2215.1828613 13.000000000 12.336000443 12.250000954 27.821521759 0.1448000073  -999.250000 0.3319999874 2.4535000324 5.4228000641 65.800003052  -999.250000 107.01969910 210.05790710 1.4589999914  -999.250000 1.4609999657
 2215.3352051 13.000000000 12.390000343 12.250000954 28.149606705 0.1476999968  -999.250000 0.3345958292 2.4542000294 5.4920001030 66.409027100  -999.250000 107.14640045 213.10400391 1.4673999548  -999.250000 1.4800000191
 2215.4875488 13.000000000 12.180999756 12.250000954 27.395013809 0.1412000060  -999.250000 0.3306064010 2.4514999390 5.6661000252 66.849296570  -999.250000 107.32479858 218.03140259 1.4637999535  -999.250000 1.5089999437
 2215.6398926 13.000000000 12.288000107 12.250000954 26.345144272 0.1358000040  -999.250000 0.3243100941 2.4491999149 5.7360000610 64.613594055  -999.250000 107.43409729 221.60876465 1.4478000402  -999.250000 1.4989999533
 2215.7924805 13.000000000 12.371999741 12.250000954 25.590551376 0.1247000024  -999.250000 0.3267000020 2.4405999184 5.4812002182 63.990001678  -999.250000 107.56250000 227.09840393 1.4191000462  -999.250000 1.4379999638
 2215.9448242 13.000000000 12.312000275 12.250000954 25.885826111 0.1186000034  -999.250000 0.3362999856 2.4367001057 5.2165999413 68.360000610  -999.250000 107.63899994 229.18870544 1.4091999531  -999.250000 1.4160000086
 2216.0971680 13.000000000 12.390000343 12.250000954 24.146982193 0.1228000000  -999.250000 0.3170308769 2.4421999454 5.2046999931 65.334846497  -999.250000 107.71170044 230.56729126 1.3889000416  -999.250000 1.3899999857
 2216.2495117 13.000000000 12.390000343 12.250000954 22.080053329 0.1298000067  -999.250000 0.3069161773 2.4514000416 5.3140001297 66.348365784  -999.250000 107.70489502 232.16513062 1.3927999735  -999.250000 1.4029999971
 2216.4020996 13.000000000 12.263998985 12.250000954 19.258529663 0.1310999990  -999.250000 0.3255999982 2.4683001041 5.3840999603 64.559997559  -999.250000 107.38349915 236.87730408 1.3957999945  -999.250000 1.4240000248
 2216.5544434 13.000000000 12.263998985 12.250000954 18.503936768 0.1222999990  -999.250000 0.3357000053 2.4679999352 5.3387999535 67.470001221  -999.250000 107.31210327 239.45619202 1.3946000338  -999.250000 1.4220000505
 2216.7067871 13.000000000 12.119999886 12.250000954 17.650918961 0.1055999994  -999.250000 0.3483796716 2.4577999115 5.2856998444 63.716014862  -999.250000 107.33820343 241.49174500 1.3803000450  -999.250000 1.3839999437
 2216.8591309 13.000000000 12.119999886 12.250000954 17.519685745 0.1008000001  -999.250000 0.3505964875 2.4525001049 5.2811999321 65.676841736  -999.250000 107.41259766 241.25927734 1.3638000488  -999.250000 1.3769999743
 2217.0114746 13.000000000 12.354000092 12.250000954 26.706037521 0.1031000018  -999.250000 0.3475049734 2.4491999149 5.2308001518 65.779838562  -999.250000 107.46980286 238.77638245 1.3388999701  -999.250000 1.3259999752
 2217.1640625 13.000000000 12.272999763 12.250000954 35.990814209 0.1158000007  -999.250000 0.3400000036 2.4567999840 5.1821999550 69.779998779  -999.250000 107.39040375 237.30070496 1.3504999876  -999.250000 1.3580000401
 2217.3164063 13.000000000 12.263998985 12.250000954 47.178478241 0.1272000074  -999.250000 0.3421964943 2.4656000137 5.1876001358 73.064735413  -999.250000 107.21660614 235.73191833 1.3495999575  -999.250000 1.3539999723
 2217.4687500 13.000000000 12.191999435 12.250000954 49.081363678 0.1284999996  -999.250000 0.3419004679 2.4667000771 5.1915998459 70.404281616  -999.250000 107.14109039 235.01783752 1.3651000261  -999.250000 1.3799999952
 2217.6210938 13.000000000 12.232000351 12.250000954 54.429134369 0.1299999952  -999.250000 0.3358097672 2.4679000378 5.1918997765 69.341697693  -999.250000 107.02339935 236.34326172 1.3752000332  -999.250000 1.3830000162
 2217.7736816 13.000000000 12.300000191 12.250000954 61.384513855 0.1251000017  -999.250000 0.3244000077 2.4583001137 5.1385002136 65.819999695  -999.250000 106.88120270 234.58409119 1.3819999695  -999.250000 1.3890000582
 2217.9260254 13.000000000 12.300000191 12.250000954 58.530185699 0.1211000010  -999.250000 0.3161000013 2.4519999027 5.0517997742 64.860000610  -999.250000 106.89250946 233.76649475 1.3846999407  -999.250000 1.3930000067
 2218.0783691 13.000000000 12.300000191 12.250000954 52.788715363 0.1160999984  -999.250000 0.3032206595 2.4449000359 4.8467001915 67.096412659  -999.250000 107.03981018 229.10676575 1.3884999752  -999.250000 1.3980000019
 2218.2307129 13.000000000 12.300000191 12.250000954 50.426509857 0.1180000007  -999.250000 0.3034995198 2.4468998909 4.8396000862 73.180244446  -999.250000 107.23549652 226.56535339 1.3895000219  -999.250000 1.3999999762
 2218.3833008 13.000000000 12.300000191 12.250000954 45.702102661 0.1322000027  -999.250000 0.3278000057 2.4605998993 5.1458997726 68.860000610  -999.250000 107.48169708 226.73878479 1.3957999945  -999.250000 1.4069999456
 2218.5356445 13.000000000 12.300000191 12.250000954 43.503936768 0.1358000040  -999.250000 0.3393999934 2.4642999172 5.2213997841 64.739997864  -999.250000 107.49569702 225.15759277 1.4098000526  -999.250000 1.4340000153
 2218.6879883 13.000000000 12.326999664 12.250000954 39.041992188 0.1341000050  -999.250000 0.3207299113 2.4632999897 5.1539998055 65.239196777  -999.250000 107.42389679 220.49099731 1.4154000282  -999.250000 1.4379999638
 2218.8403320 13.000000000 12.326999664 12.250000954 37.303150177 0.1326999962  -999.250000 0.3116145730 2.4623999596 5.0851001740 70.132148743  -999.250000 107.30930328 216.51776123 1.4160000086  -999.250000 1.4370000362
 2218.9926758 13.000000000 12.300000191 12.250000954 33.792652130 0.1404000074  -999.250000 0.3104019463 2.4686999321 5.1236000061 70.449501038  -999.250000 107.01670074 211.00444031 1.4206000566  -999.250000 1.4390000105
 2219.1452637 13.000000000 12.300000191 12.250000954 37.270339966 0.1462000012  -999.250000 0.3176999986 2.4725000858 5.2520999908 68.540000916  -999.250000 106.73519897 209.21369934 1.4247000217  -999.250000 1.4440000057
