# LAS format log file from PETREL
# Project units are specified as depth units
#==================================================================
~Version information
VERS.   2.0:
WRAP.   NO:
#==================================================================
~Well
STRT .m      1350.9222412 :
STOP .m      2973.9824219 :
STEP .m     0.00000000 :
NULL .        -999.250000 :
COMP.           : COMPANY
WELL.  35/9-7   : WELL
FLD.            : FIELD
LOC.            : LOCATION
SRVC.           : SERVICE COMPANY
DATE.  2018-09-11 14:49:02   : Log Export Date {yyyy-MM-dd HH:mm:ss}
PROV.           : PROVINCE
UWI.   35/9-7   : UNIQUE WELL ID
API.            : API NUMBER
#==================================================================
~Curve
DEPT .m                   : DEPTH
Lithology_geolink ._      : Lithology_geolink
CALI .in                  : CALI
BS .in                    : BS
ROP .m/h                  : ROP
DRHO .g/cm3               : DRHO
THOR .ppm                 : THOR
NPHI .m3/m3               : NPHI
RHOB .g/cm3               : RHOB
PEF .b/e                  : PEF
GR .gAPI                  : GR
URAN .ppm                 : URAN
DTC .us/ft                : DTC
DTS .us/ft                : DTS
RDEP .ohm.m               : RDEP
RMIC .ohm.m               : RMIC
RMED .ohm.m               : RMED
~Parameter
#==================================================================
~Ascii
# ...
 1565.1967773 6.0000000000 12.210000038 12.250000954 118.93045044 0.0662999973  -999.250000 0.4903999865 2.1789999008 5.7666997910 79.480003357  -999.250000 139.18339539 377.55630493 0.8672000170  -999.250000 0.8510000110
 1565.3492432 6.0000000000 12.210000038 12.250000954 114.46849823 0.0671000034  -999.250000 0.4864000082 2.1695001125 5.7434000969 77.220001221  -999.250000 139.83779907 379.05398560 0.8669000268  -999.250000 0.8450000286
 1565.5015869 6.0000000000 12.263998985 12.250000954 105.51181030 0.0719999969  -999.250000 0.4790000021 2.1617000103 5.7252001762 74.050003052  -999.250000 140.71839905 381.05911255 0.8779000044  -999.250000 0.8510000110
 1565.6540527 6.0000000000 12.263998985 12.250000954 109.61286163 0.0747999996  -999.250000 0.4876999855 2.1638998985 5.6732001305 74.709999084  -999.250000 140.89970398 381.09979248 0.8831999898  -999.250000 0.8600000143
 1565.8063965 6.0000000000 12.263998985 12.250000954 117.81495667 0.0772000030  -999.250000 0.4968000054 2.1763000488 5.5611000061 71.339996338  -999.250000 140.71699524 378.70050049 0.9088000059  -999.250000 0.8939999938
 1565.9588623 6.0000000000 12.300000191 12.250000954 123.78609467 0.0785999969  -999.250000 0.4932000041 2.1816999912 5.5857000351 74.150001526  -999.250000 140.55160522 377.98544312 0.9190000296  -999.250000 0.9129999876
 1566.1112061 6.0000000000 12.300000191 12.250000954 135.72834778 0.0830999985  -999.250000 0.4790000021 2.1951999664 5.7813000679 75.809997559  -999.250000 140.19749451 383.74954224 0.9136000276  -999.250000 0.9060000181
 1566.2636719 6.0000000000 12.276000023 12.250000954 136.25328064 0.0834000036  -999.250000 0.4690000117 2.2018001080 5.8675999641 73.790000916  -999.250000 140.02169800 388.18280029 0.9035000205  -999.250000 0.8659999967
 1566.4160156 6.0000000000 12.263998985 12.250000954 137.23753357 0.0762000009  -999.250000 0.4546000063 2.1947999001 5.5040998459 77.699996948  -999.250000 139.57069397 385.59240723 0.8967999816  -999.250000 0.8759999871
 1566.5684814 6.0000000000 12.281999588 12.250000954 133.30053711 0.0747999996  -999.250000 0.4577000141 2.1914000511 5.3053002357 78.000000000  -999.250000 139.36380005 385.99337769 0.8999999762  -999.250000 0.8840000033
 1566.7208252 6.0000000000 12.156000137 12.250000954 119.12731171 0.0741000026  -999.250000 0.5191000104 2.1921000481 5.2590999603 75.669998169  -999.250000 139.29139709 379.93328857 0.8999999762  -999.250000 0.8880000114
 1566.8731689 6.0000000000 12.300000191 12.250000954 106.59449768 0.0729999989  -999.250000 0.4792999923 2.1909999847 5.4500999451 77.849998474  -999.250000 140.03410339 379.60720825 0.8927000165  -999.250000 0.8799999952
 1567.0256348 6.0000000000 12.281999588 12.250000954 107.67716217 0.0709000006  -999.250000 0.4765999913 2.1882998943 5.4506001472 75.309997559  -999.250000 140.52949524 380.74380493 0.8898000121  -999.250000 0.8600000143
 1567.1779785 6.0000000000 12.142000198 12.250000954 109.80971527 0.0674000010  -999.250000 0.4875999987 2.1818997860 5.3392000198 81.269996643  -999.250000 141.46870422 388.20639038 0.8944000006  -999.250000 0.8679999709
 1567.3304443 6.0000000000 12.020000458 12.250000954 106.75853729 0.0732999966  -999.250000 0.4900000095 2.1905999184 5.3531999588 78.769996643  -999.250000 141.78729248 392.16290283 0.8999999762  -999.250000 0.8629999757
 1567.4827881 5.0000000000 12.119999886 12.250000954 100.65616608 0.0816000029  -999.250000 0.4812999964 2.2227001190 6.1673998833 68.370002747  -999.250000 141.78649902 398.87179565 0.9473000169  -999.250000 0.9660000205
 1567.6352539 5.0000000000 12.237000465 12.250000954 103.64173126 0.0734999999  -999.250000 0.4686999917 2.2204999924 6.5892000198 69.849998474  -999.250000 141.63850403 399.98910522 0.9710999727  -999.250000 1.0160000324
 1567.7875977 5.0000000000 12.263998985 12.250000954 109.64566040 0.0535000004  -999.250000 0.4489000142 2.1970999241 7.0847997665 71.209999084  -999.250000 141.00860596 399.83639526 0.9067000151  -999.250000 0.8809999824
 1567.9400635 5.0000000000 12.326999664 12.250000954 117.78215790 0.0498000011  -999.250000 0.4465999901 2.1830999851 7.0025000572 70.629997253  -999.250000 140.67109680 397.14654541 0.8932999969  -999.250000 0.8450000286
 1568.0924072 5.0000000000 12.263998985 12.250000954 134.05511475 0.0825000033  -999.250000 0.4632000029 2.1856999397 6.0097999573 80.489997864  -999.250000 140.16110229 395.69219971 0.8769999743  -999.250000 0.8610000014
 1568.2448730 5.0000000000 12.237000465 12.250000954 133.39895630 0.0979999974  -999.250000 0.4781999886 2.1967000961 5.8214001656 78.660003662  -999.250000 140.09219360 391.65509033 0.8709999919  -999.250000 0.8439999819
 1568.3972168 6.0000000000 12.263998985 12.250000954 132.08660889 0.0961000025  -999.250000 0.5008000135 2.1898000240 5.8597998619 78.129997253  -999.250000 140.57170105 412.50009155 0.8590000272  -999.250000 0.8100000024
 1568.5496826 6.0000000000 12.206000328 12.250000954 135.43307495 0.0923999995  -999.250000 0.5022000074 2.1842999458 5.8298001289 77.889999390  -999.250000 140.88099670 414.10681152 0.8812000155  -999.250000 0.8320000172
 1568.7020264 6.0000000000 12.064999580 12.250000954 142.12599182 0.0879999995  -999.250000 0.5101000071 2.1900999546 5.7593998909 79.190002441  -999.250000 141.27119446 402.28448486 0.9225999713  -999.250000 0.9089999795
 1568.8543701 6.0000000000 12.064999580 12.250000954 138.38583374 0.0839999989  -999.250000 0.5256999731 2.1963000298 5.6957998276 82.449996948  -999.250000 141.28919983 387.55908203 0.9344999790  -999.250000 0.9219999909
 1569.0068359 6.0000000000 12.029000282 12.250000954 130.87269592 0.0755999982  -999.250000 0.5602999926 2.1965000629 5.7701001167 70.930000305  -999.250000 141.03840637 377.67230225 0.9531999826  -999.250000 0.9530000091
 1569.1591797 6.0000000000 12.210000038 12.250000954 125.88583374 0.0746000037  -999.250000 0.5597000122 2.1958000660 5.9468998909 72.000000000  -999.250000 140.82189941 376.86331177 0.9513999820  -999.250000 0.9459999800
 1569.3116455 6.0000000000 12.371999741 12.250000954 115.87926483 0.0759999976  -999.250000 0.5669000149 2.1944999695 6.2856001854 78.129997253  -999.250000 140.19509888 364.16555786 0.9656000137  -999.250000 0.9639999866
 1569.4639893 6.0000000000 12.380999565 12.250000954 111.81102753 0.0794000030  -999.250000 0.5690000057 2.1970999241 6.2599000931 83.839996338  -999.250000 139.80259705 359.16665649 0.9757000208  -999.250000 0.9900000095
 1569.6164551 6.0000000000 12.463000298 12.250000954 103.67454529 0.0943000019  -999.250000 0.5379999876 2.2128000259 5.9874000549 89.290000916  -999.250000 139.15559387 357.06420898 0.9886000156  -999.250000 0.9969999790
 1569.7687988 6.0000000000 12.534999847 12.250000954 105.74147034 0.1027999967  -999.250000 0.5152000189 2.2209000587 5.9526000023 80.980003357  -999.250000 139.10090637 361.13629150 0.9923999906  -999.250000 1.0089999437
 1569.9212646 6.0000000000 12.444999695 12.250000954 109.84252167 0.1107999980  -999.250000 0.5038999915 2.2318999767 5.9812002182 86.330001831  -999.250000 139.33250427 373.26940918 0.9936000109  -999.250000 1.0019999743
 1570.0736084 6.0000000000 12.300000191 12.250000954 140.91207886 0.1070000008  -999.250000 0.5173000097 2.2358999252 6.0437998772 82.930000305  -999.250000 138.75509644 378.83258057 0.9879999757  -999.250000 0.9890000224
 1570.2260742 6.0000000000 12.354000092 12.250000954 156.43045044 0.1072999984  -999.250000 0.5084000230 2.2330000401 6.0701999664 87.250000000  -999.250000 138.15080261 377.99661255 0.9840000272  -999.250000 0.9879999757
 1570.3784180 6.0000000000 12.029000282 12.250000954 141.60104370 0.1045999974  -999.250000 0.4862000048 2.2095999718 5.9584999084 85.040000916  -999.250000 136.86219788 373.08108521 0.9710999727  -999.250000 0.9779999852
 1570.5308838 6.0000000000 11.920999527 12.250000954 134.18635559 0.0992000028  -999.250000 0.4885999858 2.1981000900 5.8278999329 86.540000916  -999.250000 136.36900330 369.34368896 0.9577999711  -999.250000 0.9470000267
 1570.6832275 6.0000000000 12.263998985 12.250000954 116.30577087 0.0881000012  -999.250000 0.4905999899 2.1893999577 5.6718997955 84.419998169  -999.250000 137.27859497 376.40231323 0.9225999713  -999.250000 0.8920000196
